%time,field.header.seq,field.header.stamp,field.header.frame_id,field.magnetic_field.x,field.magnetic_field.y,field.magnetic_field.z,field.magnetic_field_covariance0,field.magnetic_field_covariance1,field.magnetic_field_covariance2,field.magnetic_field_covariance3,field.magnetic_field_covariance4,field.magnetic_field_covariance5,field.magnetic_field_covariance6,field.magnetic_field_covariance7,field.magnetic_field_covariance8
1446034222007548774,1,1446034221688972949,robocape_mag,19.35,-3.9,-12.9,10.0,0.0,0.0,0.0,10.0,0.0,0.0,0.0,10.0
1446034222008567941,2,1446034221737447023,robocape_mag,19.35,-3.9,-12.9,10.0,0.0,0.0,0.0,10.0,0.0,0.0,0.0,10.0
1446034222014477358,3,1446034221788816928,robocape_mag,19.35,-3.9,-12.9,10.0,0.0,0.0,0.0,10.0,0.0,0.0,0.0,10.0
1446034222014735649,4,1446034221838179111,robocape_mag,19.95,-2.7,-12.9,10.0,0.0,0.0,0.0,10.0,0.0,0.0,0.0,10.0
1446034222015534066,5,1446034221888041019,robocape_mag,19.95,-2.7,-12.9,10.0,0.0,0.0,0.0,10.0,0.0,0.0,0.0,10.0
1446034222023510899,6,1446034221941320896,robocape_mag,19.95,-2.7,-12.9,10.0,0.0,0.0,0.0,10.0,0.0,0.0,0.0,10.0
1446034222023619608,7,1446034221992713928,robocape_mag,18.15,-5.1,-13.5,10.0,0.0,0.0,0.0,10.0,0.0,0.0,0.0,10.0
1446034222039638774,8,1446034222037713050,robocape_mag,18.15,-5.1,-13.5,10.0,0.0,0.0,0.0,10.0,0.0,0.0,0.0,10.0
1446034222092285358,9,1446034222090971946,robocape_mag,18.15,-5.1,-13.5,10.0,0.0,0.0,0.0,10.0,0.0,0.0,0.0,10.0
1446034222141164524,10,1446034222137025117,robocape_mag,21.15,-3.9,-14.1,10.0,0.0,0.0,0.0,10.0,0.0,0.0,0.0,10.0
1446034222192169441,11,1446034222189625978,robocape_mag,21.15,-3.9,-14.1,10.0,0.0,0.0,0.0,10.0,0.0,0.0,0.0,10.0
1446034222242046066,12,1446034222238493919,robocape_mag,21.15,-3.9,-14.1,10.0,0.0,0.0,0.0,10.0,0.0,0.0,0.0,10.0
1446034222290699774,13,1446034222286886930,robocape_mag,20.55,-3.9,-12.3,10.0,0.0,0.0,0.0,10.0,0.0,0.0,0.0,10.0
1446034222340119733,14,1446034222337050914,robocape_mag,20.55,-3.9,-12.3,10.0,0.0,0.0,0.0,10.0,0.0,0.0,0.0,10.0
1446034222390452524,15,1446034222386965990,robocape_mag,20.55,-3.9,-12.3,10.0,0.0,0.0,0.0,10.0,0.0,0.0,0.0,10.0
1446034222445041983,16,1446034222440967082,robocape_mag,20.85,-3.0,-14.4,10.0,0.0,0.0,0.0,10.0,0.0,0.0,0.0,10.0
1446034222491556816,17,1446034222487641096,robocape_mag,20.85,-3.0,-14.4,10.0,0.0,0.0,0.0,10.0,0.0,0.0,0.0,10.0
1446034222541170733,18,1446034222537987947,robocape_mag,20.85,-3.0,-14.4,10.0,0.0,0.0,0.0,10.0,0.0,0.0,0.0,10.0
1446034222590255608,19,1446034222586903095,robocape_mag,20.85,-3.0,-14.4,10.0,0.0,0.0,0.0,10.0,0.0,0.0,0.0,10.0
1446034222645611441,20,1446034222641613960,robocape_mag,19.35,-4.5,-12.9,10.0,0.0,0.0,0.0,10.0,0.0,0.0,0.0,10.0
1446034222690897358,21,1446034222686836957,robocape_mag,19.35,-4.5,-12.9,10.0,0.0,0.0,0.0,10.0,0.0,0.0,0.0,10.0
1446034222741822275,22,1446034222738095998,robocape_mag,19.35,-4.5,-12.9,10.0,0.0,0.0,0.0,10.0,0.0,0.0,0.0,10.0
1446034222791668816,23,1446034222788074016,robocape_mag,23.55,-4.5,-9.9,10.0,0.0,0.0,0.0,10.0,0.0,0.0,0.0,10.0
1446034222845160191,24,1446034222841454982,robocape_mag,23.55,-4.5,-9.9,10.0,0.0,0.0,0.0,10.0,0.0,0.0,0.0,10.0
1446034222890042775,25,1446034222886745929,robocape_mag,23.55,-4.5,-9.9,10.0,0.0,0.0,0.0,10.0,0.0,0.0,0.0,10.0
1446034222941146441,26,1446034222937232971,robocape_mag,21.75,-4.5,-11.7,10.0,0.0,0.0,0.0,10.0,0.0,0.0,0.0,10.0
1446034222990399233,27,1446034222986797094,robocape_mag,21.75,-4.5,-11.7,10.0,0.0,0.0,0.0,10.0,0.0,0.0,0.0,10.0
1446034223043982191,28,1446034223040343999,robocape_mag,21.75,-4.5,-11.7,10.0,0.0,0.0,0.0,10.0,0.0,0.0,0.0,10.0
1446034223090107275,29,1446034223086920976,robocape_mag,20.25,0.6,-9.6,10.0,0.0,0.0,0.0,10.0,0.0,0.0,0.0,10.0
1446034223140658608,30,1446034223137259006,robocape_mag,20.25,0.6,-9.6,10.0,0.0,0.0,0.0,10.0,0.0,0.0,0.0,10.0
1446034223190762525,31,1446034223187068939,robocape_mag,20.25,0.6,-9.6,10.0,0.0,0.0,0.0,10.0,0.0,0.0,0.0,10.0
1446034223241197191,32,1446034223237699031,robocape_mag,20.55,-0.3,-8.7,10.0,0.0,0.0,0.0,10.0,0.0,0.0,0.0,10.0
1446034223290418316,33,1446034223288167953,robocape_mag,20.55,-0.3,-8.7,10.0,0.0,0.0,0.0,10.0,0.0,0.0,0.0,10.0
1446034223340875733,34,1446034223337186098,robocape_mag,20.55,-0.3,-8.7,10.0,0.0,0.0,0.0,10.0,0.0,0.0,0.0,10.0
1446034223390523358,35,1446034223386822938,robocape_mag,20.55,-0.3,-8.7,10.0,0.0,0.0,0.0,10.0,0.0,0.0,0.0,10.0
1446034223440267650,36,1446034223436973094,robocape_mag,20.55,1.5,-6.3,10.0,0.0,0.0,0.0,10.0,0.0,0.0,0.0,10.0
1446034223492834692,37,1446034223489063978,robocape_mag,20.55,1.5,-6.3,10.0,0.0,0.0,0.0,10.0,0.0,0.0,0.0,10.0
1446034223540520025,38,1446034223537080049,robocape_mag,20.55,1.5,-6.3,10.0,0.0,0.0,0.0,10.0,0.0,0.0,0.0,10.0
1446034223590193317,39,1446034223587017059,robocape_mag,19.65,0.6,-7.2,10.0,0.0,0.0,0.0,10.0,0.0,0.0,0.0,10.0
1446034223640239233,40,1446034223637020111,robocape_mag,19.65,0.6,-7.2,10.0,0.0,0.0,0.0,10.0,0.0,0.0,0.0,10.0
1446034223696283525,41,1446034223692214012,robocape_mag,19.65,0.6,-7.2,10.0,0.0,0.0,0.0,10.0,0.0,0.0,0.0,10.0
1446034223740087983,42,1446034223736960887,robocape_mag,22.35,2.7,-6.3,10.0,0.0,0.0,0.0,10.0,0.0,0.0,0.0,10.0
1446034223790705567,43,1446034223786981105,robocape_mag,22.35,2.7,-6.3,10.0,0.0,0.0,0.0,10.0,0.0,0.0,0.0,10.0
1446034223840964733,44,1446034223837407112,robocape_mag,22.35,2.7,-6.3,10.0,0.0,0.0,0.0,10.0,0.0,0.0,0.0,10.0
1446034223896419067,45,1446034223892990112,robocape_mag,20.85,0.6,-7.2,10.0,0.0,0.0,0.0,10.0,0.0,0.0,0.0,10.0
1446034223940515025,46,1446034223936801910,robocape_mag,20.85,0.6,-7.2,10.0,0.0,0.0,0.0,10.0,0.0,0.0,0.0,10.0
1446034223990223233,47,1446034223986923933,robocape_mag,20.85,0.6,-7.2,10.0,0.0,0.0,0.0,10.0,0.0,0.0,0.0,10.0
1446034224040153400,48,1446034224036902904,robocape_mag,21.15,0.3,-8.7,10.0,0.0,0.0,0.0,10.0,0.0,0.0,0.0,10.0
1446034224094214234,49,1446034224090943098,robocape_mag,21.15,0.3,-8.7,10.0,0.0,0.0,0.0,10.0,0.0,0.0,0.0,10.0
1446034224140680442,50,1446034224136996984,robocape_mag,21.15,0.3,-8.7,10.0,0.0,0.0,0.0,10.0,0.0,0.0,0.0,10.0
1446034224191179692,51,1446034224187820911,robocape_mag,21.15,0.3,-8.7,10.0,0.0,0.0,0.0,10.0,0.0,0.0,0.0,10.0
1446034224240074025,52,1446034224236855030,robocape_mag,23.85,-2.4,-4.2,10.0,0.0,0.0,0.0,10.0,0.0,0.0,0.0,10.0
1446034224292637150,53,1446034224289376020,robocape_mag,23.85,-2.4,-4.2,10.0,0.0,0.0,0.0,10.0,0.0,0.0,0.0,10.0
1446034224340218609,54,1446034224336958885,robocape_mag,23.85,-2.4,-4.2,10.0,0.0,0.0,0.0,10.0,0.0,0.0,0.0,10.0
1446034224390523442,55,1446034224387270927,robocape_mag,23.55,-2.7,-5.1,10.0,0.0,0.0,0.0,10.0,0.0,0.0,0.0,10.0
1446034224440445442,56,1446034224436851978,robocape_mag,23.55,-2.7,-5.1,10.0,0.0,0.0,0.0,10.0,0.0,0.0,0.0,10.0
1446034224490507317,57,1446034224487091064,robocape_mag,23.55,-2.7,-5.1,10.0,0.0,0.0,0.0,10.0,0.0,0.0,0.0,10.0
1446034224542934150,58,1446034224539177894,robocape_mag,19.65,0.6,-6.6,10.0,0.0,0.0,0.0,10.0,0.0,0.0,0.0,10.0
1446034224590259442,59,1446034224586935997,robocape_mag,19.65,0.6,-6.6,10.0,0.0,0.0,0.0,10.0,0.0,0.0,0.0,10.0
1446034224640240859,60,1446034224637020111,robocape_mag,19.65,0.6,-6.6,10.0,0.0,0.0,0.0,10.0,0.0,0.0,0.0,10.0
1446034224690517859,61,1446034224686872959,robocape_mag,17.55,0.3,-8.7,10.0,0.0,0.0,0.0,10.0,0.0,0.0,0.0,10.0
1446034224741774525,62,1446034224738017082,robocape_mag,17.55,0.3,-8.7,10.0,0.0,0.0,0.0,10.0,0.0,0.0,0.0,10.0
1446034224790819651,63,1446034224786915063,robocape_mag,17.55,0.3,-8.7,10.0,0.0,0.0,0.0,10.0,0.0,0.0,0.0,10.0
1446034224840069151,64,1446034224836935043,robocape_mag,18.75,-0.3,-6.9,10.0,0.0,0.0,0.0,10.0,0.0,0.0,0.0,10.0
1446034224893231442,65,1446034224890640020,robocape_mag,18.75,-0.3,-6.9,10.0,0.0,0.0,0.0,10.0,0.0,0.0,0.0,10.0
1446034224940630067,66,1446034224937063932,robocape_mag,18.75,-0.3,-6.9,10.0,0.0,0.0,0.0,10.0,0.0,0.0,0.0,10.0
1446034224991682776,67,1446034224987884998,robocape_mag,18.75,-0.3,-6.9,10.0,0.0,0.0,0.0,10.0,0.0,0.0,0.0,10.0
1446034225040712109,68,1446034225036955118,robocape_mag,14.55,3.3,11.7,10.0,0.0,0.0,0.0,10.0,0.0,0.0,0.0,10.0
1446034225094388317,69,1446034225090924024,robocape_mag,14.55,3.3,11.7,10.0,0.0,0.0,0.0,10.0,0.0,0.0,0.0,10.0
1446034225140718776,70,1446034225136878013,robocape_mag,14.55,3.3,11.7,10.0,0.0,0.0,0.0,10.0,0.0,0.0,0.0,10.0
1446034225190305901,71,1446034225187012910,robocape_mag,16.05,-0.6,10.8,10.0,0.0,0.0,0.0,10.0,0.0,0.0,0.0,10.0
1446034225240259609,72,1446034225236799955,robocape_mag,16.05,-0.6,10.8,10.0,0.0,0.0,0.0,10.0,0.0,0.0,0.0,10.0
1446034225292842651,73,1446034225289688110,robocape_mag,16.05,-0.6,10.8,10.0,0.0,0.0,0.0,10.0,0.0,0.0,0.0,10.0
1446034225340892901,74,1446034225337007999,robocape_mag,28.35,-21.9,-3.9,10.0,0.0,0.0,0.0,10.0,0.0,0.0,0.0,10.0
1446034225392014234,75,1446034225388268947,robocape_mag,28.35,-21.9,-3.9,10.0,0.0,0.0,0.0,10.0,0.0,0.0,0.0,10.0
1446034225440912692,76,1446034225436940908,robocape_mag,28.35,-21.9,-3.9,10.0,0.0,0.0,0.0,10.0,0.0,0.0,0.0,10.0
1446034225492243734,77,1446034225488473892,robocape_mag,41.85,1.8,-17.4,10.0,0.0,0.0,0.0,10.0,0.0,0.0,0.0,10.0
1446034225540694276,78,1446034225536962985,robocape_mag,41.85,1.8,-17.4,10.0,0.0,0.0,0.0,10.0,0.0,0.0,0.0,10.0
1446034225590348359,79,1446034225587116003,robocape_mag,41.85,1.8,-17.4,10.0,0.0,0.0,0.0,10.0,0.0,0.0,0.0,10.0
1446034225640973984,80,1446034225637041091,robocape_mag,34.95,-13.5,-15.3,10.0,0.0,0.0,0.0,10.0,0.0,0.0,0.0,10.0
1446034225690827318,81,1446034225687413930,robocape_mag,34.95,-13.5,-15.3,10.0,0.0,0.0,0.0,10.0,0.0,0.0,0.0,10.0
1446034225742099276,82,1446034225738301038,robocape_mag,34.95,-13.5,-15.3,10.0,0.0,0.0,0.0,10.0,0.0,0.0,0.0,10.0
1446034225791105026,83,1446034225786937952,robocape_mag,34.95,-13.5,-15.3,10.0,0.0,0.0,0.0,10.0,0.0,0.0,0.0,10.0
1446034225840531693,84,1446034225837085008,robocape_mag,40.95,12.9,-17.1,10.0,0.0,0.0,0.0,10.0,0.0,0.0,0.0,10.0
1446034225890742193,85,1446034225887396097,robocape_mag,40.95,12.9,-17.1,10.0,0.0,0.0,0.0,10.0,0.0,0.0,0.0,10.0
1446034225941011984,86,1446034225937736034,robocape_mag,40.95,12.9,-17.1,10.0,0.0,0.0,0.0,10.0,0.0,0.0,0.0,10.0
1446034225990241234,87,1446034225986799955,robocape_mag,38.85,-10.8,-12.0,10.0,0.0,0.0,0.0,10.0,0.0,0.0,0.0,10.0
1446034226040721943,88,1446034226036838054,robocape_mag,38.85,-10.8,-12.0,10.0,0.0,0.0,0.0,10.0,0.0,0.0,0.0,10.0
1446034226090215276,89,1446034226086713075,robocape_mag,38.85,-10.8,-12.0,10.0,0.0,0.0,0.0,10.0,0.0,0.0,0.0,10.0
1446034226140391234,90,1446034226136997938,robocape_mag,35.55,-13.5,-15.3,10.0,0.0,0.0,0.0,10.0,0.0,0.0,0.0,10.0
1446034226190913026,91,1446034226186831951,robocape_mag,35.55,-13.5,-15.3,10.0,0.0,0.0,0.0,10.0,0.0,0.0,0.0,10.0
1446034226241861651,92,1446034226237890958,robocape_mag,35.55,-13.5,-15.3,10.0,0.0,0.0,0.0,10.0,0.0,0.0,0.0,10.0
1446034226294608693,93,1446034226290667057,robocape_mag,34.05,1.2,-13.2,10.0,0.0,0.0,0.0,10.0,0.0,0.0,0.0,10.0
1446034226340202193,94,1446034226336867094,robocape_mag,34.05,1.2,-13.2,10.0,0.0,0.0,0.0,10.0,0.0,0.0,0.0,10.0
1446034226391207735,95,1446034226386773109,robocape_mag,34.05,1.2,-13.2,10.0,0.0,0.0,0.0,10.0,0.0,0.0,0.0,10.0
1446034226443083068,96,1446034226438976049,robocape_mag,43.65,-19.8,-19.2,10.0,0.0,0.0,0.0,10.0,0.0,0.0,0.0,10.0
1446034226490814360,97,1446034226486731052,robocape_mag,43.65,-19.8,-19.2,10.0,0.0,0.0,0.0,10.0,0.0,0.0,0.0,10.0
1446034226540812485,98,1446034226536914110,robocape_mag,43.65,-19.8,-19.2,10.0,0.0,0.0,0.0,10.0,0.0,0.0,0.0,10.0
1446034226589996151,99,1446034226586728096,robocape_mag,43.65,-19.8,-19.2,10.0,0.0,0.0,0.0,10.0,0.0,0.0,0.0,10.0
1446034226642030443,100,1446034226638494014,robocape_mag,40.95,9.3,-15.3,10.0,0.0,0.0,0.0,10.0,0.0,0.0,0.0,10.0
1446034226690536526,101,1446034226687108039,robocape_mag,40.95,9.3,-15.3,10.0,0.0,0.0,0.0,10.0,0.0,0.0,0.0,10.0
1446034226742056401,102,1446034226738149881,robocape_mag,40.95,9.3,-15.3,10.0,0.0,0.0,0.0,10.0,0.0,0.0,0.0,10.0
1446034226790722485,103,1446034226786976099,robocape_mag,31.35,-2.7,-12.3,10.0,0.0,0.0,0.0,10.0,0.0,0.0,0.0,10.0
1446034226841447860,104,1446034226837670087,robocape_mag,31.35,-2.7,-12.3,10.0,0.0,0.0,0.0,10.0,0.0,0.0,0.0,10.0
1446034226890980860,105,1446034226887125968,robocape_mag,31.35,-2.7,-12.3,10.0,0.0,0.0,0.0,10.0,0.0,0.0,0.0,10.0
1446034226940484652,106,1446034226936855077,robocape_mag,35.25,6.0,-15.6,10.0,0.0,0.0,0.0,10.0,0.0,0.0,0.0,10.0
1446034226989999902,107,1446034226986784934,robocape_mag,35.25,6.0,-15.6,10.0,0.0,0.0,0.0,10.0,0.0,0.0,0.0,10.0
1446034227040553860,108,1446034227036837100,robocape_mag,35.25,6.0,-15.6,10.0,0.0,0.0,0.0,10.0,0.0,0.0,0.0,10.0
1446034227093532402,109,1446034227089255094,robocape_mag,36.75,15.3,-12.3,10.0,0.0,0.0,0.0,10.0,0.0,0.0,0.0,10.0
1446034227140357610,110,1446034227137000083,robocape_mag,36.75,15.3,-12.3,10.0,0.0,0.0,0.0,10.0,0.0,0.0,0.0,10.0
1446034227190547902,111,1446034227186902999,robocape_mag,36.75,15.3,-12.3,10.0,0.0,0.0,0.0,10.0,0.0,0.0,0.0,10.0
1446034227240014777,112,1446034227236790895,robocape_mag,24.45,-1.2,-13.2,10.0,0.0,0.0,0.0,10.0,0.0,0.0,0.0,10.0
1446034227294851027,113,1446034227291160106,robocape_mag,24.45,-1.2,-13.2,10.0,0.0,0.0,0.0,10.0,0.0,0.0,0.0,10.0
1446034227340110068,114,1446034227336909055,robocape_mag,24.45,-1.2,-13.2,10.0,0.0,0.0,0.0,10.0,0.0,0.0,0.0,10.0
1446034227390434485,115,1446034227386926889,robocape_mag,24.45,-1.2,-13.2,10.0,0.0,0.0,0.0,10.0,0.0,0.0,0.0,10.0
1446034227440388443,116,1446034227436825990,robocape_mag,44.85,2.4,-7.2,10.0,0.0,0.0,0.0,10.0,0.0,0.0,0.0,10.0
1446034227493311527,117,1446034227489973068,robocape_mag,44.85,2.4,-7.2,10.0,0.0,0.0,0.0,10.0,0.0,0.0,0.0,10.0
1446034227540137068,118,1446034227536902904,robocape_mag,44.85,2.4,-7.2,10.0,0.0,0.0,0.0,10.0,0.0,0.0,0.0,10.0
1446034227590197235,119,1446034227586785078,robocape_mag,36.15,21.3,-14.1,10.0,0.0,0.0,0.0,10.0,0.0,0.0,0.0,10.0
1446034227640352402,120,1446034227636945009,robocape_mag,36.15,21.3,-14.1,10.0,0.0,0.0,0.0,10.0,0.0,0.0,0.0,10.0
1446034227693221110,121,1446034227689526081,robocape_mag,36.15,21.3,-14.1,10.0,0.0,0.0,0.0,10.0,0.0,0.0,0.0,10.0
1446034227740065985,122,1446034227736867904,robocape_mag,30.45,0.6,-21.6,10.0,0.0,0.0,0.0,10.0,0.0,0.0,0.0,10.0
1446034227790647194,123,1446034227786942958,robocape_mag,30.45,0.6,-21.6,10.0,0.0,0.0,0.0,10.0,0.0,0.0,0.0,10.0
1446034227841131027,124,1446034227837225914,robocape_mag,30.45,0.6,-21.6,10.0,0.0,0.0,0.0,10.0,0.0,0.0,0.0,10.0
1446034227890855277,125,1446034227887470006,robocape_mag,42.75,18.3,-12.3,10.0,0.0,0.0,0.0,10.0,0.0,0.0,0.0,10.0
1446034227942150652,126,1446034227938522100,robocape_mag,42.75,18.3,-12.3,10.0,0.0,0.0,0.0,10.0,0.0,0.0,0.0,10.0
1446034227990067569,127,1446034227986843109,robocape_mag,42.75,18.3,-12.3,10.0,0.0,0.0,0.0,10.0,0.0,0.0,0.0,10.0
1446034228040627652,128,1446034228037347078,robocape_mag,33.15,21.9,-3.9,10.0,0.0,0.0,0.0,10.0,0.0,0.0,0.0,10.0
1446034228090023152,129,1446034228086910009,robocape_mag,33.15,21.9,-3.9,10.0,0.0,0.0,0.0,10.0,0.0,0.0,0.0,10.0
1446034228142234569,130,1446034228138966083,robocape_mag,33.15,21.9,-3.9,10.0,0.0,0.0,0.0,10.0,0.0,0.0,0.0,10.0
1446034228190574485,131,1446034228186953067,robocape_mag,33.15,21.9,-3.9,10.0,0.0,0.0,0.0,10.0,0.0,0.0,0.0,10.0
1446034228241917777,132,1446034228238219022,robocape_mag,-16.05,8.1,-3.3,10.0,0.0,0.0,0.0,10.0,0.0,0.0,0.0,10.0
1446034228290609444,133,1446034228286897897,robocape_mag,-16.05,8.1,-3.3,10.0,0.0,0.0,0.0,10.0,0.0,0.0,0.0,10.0
1446034228344912944,134,1446034228340909957,robocape_mag,-16.05,8.1,-3.3,10.0,0.0,0.0,0.0,10.0,0.0,0.0,0.0,10.0
1446034228390166069,135,1446034228386955976,robocape_mag,1.35,15.3,-4.5,10.0,0.0,0.0,0.0,10.0,0.0,0.0,0.0,10.0
1446034228440732069,136,1446034228437010049,robocape_mag,1.35,15.3,-4.5,10.0,0.0,0.0,0.0,10.0,0.0,0.0,0.0,10.0
1446034228490194527,137,1446034228486792087,robocape_mag,1.35,15.3,-4.5,10.0,0.0,0.0,0.0,10.0,0.0,0.0,0.0,10.0
1446034228544923402,138,1446034228540987968,robocape_mag,20.55,21.9,-17.1,10.0,0.0,0.0,0.0,10.0,0.0,0.0,0.0,10.0
1446034228590054569,139,1446034228586915016,robocape_mag,20.55,21.9,-17.1,10.0,0.0,0.0,0.0,10.0,0.0,0.0,0.0,10.0
1446034228640760111,140,1446034228636876106,robocape_mag,20.55,21.9,-17.1,10.0,0.0,0.0,0.0,10.0,0.0,0.0,0.0,10.0
1446034228690139569,141,1446034228686971902,robocape_mag,20.55,21.3,1.5,10.0,0.0,0.0,0.0,10.0,0.0,0.0,0.0,10.0
1446034228743246527,142,1446034228739625930,robocape_mag,20.55,21.3,1.5,10.0,0.0,0.0,0.0,10.0,0.0,0.0,0.0,10.0
1446034228790808111,143,1446034228786895036,robocape_mag,20.55,21.3,1.5,10.0,0.0,0.0,0.0,10.0,0.0,0.0,0.0,10.0
1446034228841503152,144,1446034228838206052,robocape_mag,32.85,15.6,0.6,10.0,0.0,0.0,0.0,10.0,0.0,0.0,0.0,10.0
1446034228890323402,145,1446034228886990070,robocape_mag,32.85,15.6,0.6,10.0,0.0,0.0,0.0,10.0,0.0,0.0,0.0,10.0
1446034228941440486,146,1446034228938287973,robocape_mag,32.85,15.6,0.6,10.0,0.0,0.0,0.0,10.0,0.0,0.0,0.0,10.0
1446034228990016694,147,1446034228986824989,robocape_mag,32.85,15.6,0.6,10.0,0.0,0.0,0.0,10.0,0.0,0.0,0.0,10.0
1446034229040747986,148,1446034229036977052,robocape_mag,-17.25,23.7,-6.3,10.0,0.0,0.0,0.0,10.0,0.0,0.0,0.0,10.0
1446034229089993736,149,1446034229086869955,robocape_mag,-17.25,23.7,-6.3,10.0,0.0,0.0,0.0,10.0,0.0,0.0,0.0,10.0
1446034229140432236,150,1446034229137283086,robocape_mag,-17.25,23.7,-6.3,10.0,0.0,0.0,0.0,10.0,0.0,0.0,0.0,10.0
1446034229191648319,151,1446034229188457965,robocape_mag,5.25,18.6,4.2,10.0,0.0,0.0,0.0,10.0,0.0,0.0,0.0,10.0
1446034229240447694,152,1446034229237117052,robocape_mag,5.25,18.6,4.2,10.0,0.0,0.0,0.0,10.0,0.0,0.0,0.0,10.0
1446034229290581694,153,1446034229286909103,robocape_mag,5.25,18.6,4.2,10.0,0.0,0.0,0.0,10.0,0.0,0.0,0.0,10.0
1446034229340943028,154,1446034229337475061,robocape_mag,7.35,19.5,-8.1,10.0,0.0,0.0,0.0,10.0,0.0,0.0,0.0,10.0
1446034229395242903,155,1446034229391115903,robocape_mag,7.35,19.5,-8.1,10.0,0.0,0.0,0.0,10.0,0.0,0.0,0.0,10.0
1446034229440809278,156,1446034229437103033,robocape_mag,7.35,19.5,-8.1,10.0,0.0,0.0,0.0,10.0,0.0,0.0,0.0,10.0
1446034229490049944,157,1446034229486797094,robocape_mag,10.35,22.5,-9.3,10.0,0.0,0.0,0.0,10.0,0.0,0.0,0.0,10.0
1446034229540574778,158,1446034229536904096,robocape_mag,10.35,22.5,-9.3,10.0,0.0,0.0,0.0,10.0,0.0,0.0,0.0,10.0
1446034229592422278,159,1446034229588799953,robocape_mag,10.35,22.5,-9.3,10.0,0.0,0.0,0.0,10.0,0.0,0.0,0.0,10.0
1446034229640425236,160,1446034229636918067,robocape_mag,-16.65,16.5,-6.3,10.0,0.0,0.0,0.0,10.0,0.0,0.0,0.0,10.0
1446034229690582778,161,1446034229686830043,robocape_mag,-16.65,16.5,-6.3,10.0,0.0,0.0,0.0,10.0,0.0,0.0,0.0,10.0
1446034229740302278,162,1446034229736828088,robocape_mag,-16.65,16.5,-6.3,10.0,0.0,0.0,0.0,10.0,0.0,0.0,0.0,10.0
1446034229793250361,163,1446034229789927005,robocape_mag,-16.65,16.5,-6.3,10.0,0.0,0.0,0.0,10.0,0.0,0.0,0.0,10.0
1446034229841702611,164,1446034229837325096,robocape_mag,-10.35,7.2,-5.4,10.0,0.0,0.0,0.0,10.0,0.0,0.0,0.0,10.0
1446034229890405195,165,1446034229886981010,robocape_mag,-10.35,7.2,-5.4,10.0,0.0,0.0,0.0,10.0,0.0,0.0,0.0,10.0
1446034229941110445,166,1446034229936826944,robocape_mag,-10.35,7.2,-5.4,10.0,0.0,0.0,0.0,10.0,0.0,0.0,0.0,10.0
1446034229992572070,167,1446034229989419937,robocape_mag,0.75,13.5,-8.1,10.0,0.0,0.0,0.0,10.0,0.0,0.0,0.0,10.0
1446034230041121861,168,1446034230036931991,robocape_mag,0.75,13.5,-8.1,10.0,0.0,0.0,0.0,10.0,0.0,0.0,0.0,10.0
1446034230089971736,169,1446034230086838960,robocape_mag,0.75,13.5,-8.1,10.0,0.0,0.0,0.0,10.0,0.0,0.0,0.0,10.0
1446034230140286486,170,1446034230137063980,robocape_mag,20.85,4.2,-12.6,10.0,0.0,0.0,0.0,10.0,0.0,0.0,0.0,10.0
1446034230191455653,171,1446034230188143014,robocape_mag,20.85,4.2,-12.6,10.0,0.0,0.0,0.0,10.0,0.0,0.0,0.0,10.0
1446034230240103778,172,1446034230236881017,robocape_mag,20.85,4.2,-12.6,10.0,0.0,0.0,0.0,10.0,0.0,0.0,0.0,10.0
1446034230290676111,173,1446034230286986112,robocape_mag,34.95,7.5,-12.3,10.0,0.0,0.0,0.0,10.0,0.0,0.0,0.0,10.0
1446034230340917111,174,1446034230337270021,robocape_mag,34.95,7.5,-12.3,10.0,0.0,0.0,0.0,10.0,0.0,0.0,0.0,10.0
1446034230390244695,175,1446034230386990070,robocape_mag,34.95,7.5,-12.3,10.0,0.0,0.0,0.0,10.0,0.0,0.0,0.0,10.0
1446034230441500070,176,1446034230438324928,robocape_mag,19.65,21.6,0.6,10.0,0.0,0.0,0.0,10.0,0.0,0.0,0.0,10.0
1446034230490554903,177,1446034230487307071,robocape_mag,19.65,21.6,0.6,10.0,0.0,0.0,0.0,10.0,0.0,0.0,0.0,10.0
1446034230540574695,178,1446034230536890983,robocape_mag,19.65,21.6,0.6,10.0,0.0,0.0,0.0,10.0,0.0,0.0,0.0,10.0
1446034230590104320,179,1446034230586918115,robocape_mag,19.65,21.6,0.6,10.0,0.0,0.0,0.0,10.0,0.0,0.0,0.0,10.0
1446034230642153487,180,1446034230639969110,robocape_mag,-30.75,23.4,-11.4,10.0,0.0,0.0,0.0,10.0,0.0,0.0,0.0,10.0
1446034230690479570,181,1446034230686844110,robocape_mag,-30.75,23.4,-11.4,10.0,0.0,0.0,0.0,10.0,0.0,0.0,0.0,10.0
1446034230740087195,182,1446034230736852884,robocape_mag,-30.75,23.4,-11.4,10.0,0.0,0.0,0.0,10.0,0.0,0.0,0.0,10.0
1446034230790633903,183,1446034230786941051,robocape_mag,1.65,14.4,-6.0,10.0,0.0,0.0,0.0,10.0,0.0,0.0,0.0,10.0
1446034230842484945,184,1446034230840133905,robocape_mag,1.65,14.4,-6.0,10.0,0.0,0.0,0.0,10.0,0.0,0.0,0.0,10.0
1446034230890515403,185,1446034230886749982,robocape_mag,1.65,14.4,-6.0,10.0,0.0,0.0,0.0,10.0,0.0,0.0,0.0,10.0
1446034230940593945,186,1446034230936974048,robocape_mag,22.95,14.1,-0.3,10.0,0.0,0.0,0.0,10.0,0.0,0.0,0.0,10.0
1446034230992753987,187,1446034230989445924,robocape_mag,22.95,14.1,-0.3,10.0,0.0,0.0,0.0,10.0,0.0,0.0,0.0,10.0
1446034231040176403,188,1446034231036843061,robocape_mag,22.95,14.1,-0.3,10.0,0.0,0.0,0.0,10.0,0.0,0.0,0.0,10.0
1446034231090350862,189,1446034231086936950,robocape_mag,20.55,28.5,-2.7,10.0,0.0,0.0,0.0,10.0,0.0,0.0,0.0,10.0
1446034231140327362,190,1446034231137008905,robocape_mag,20.55,28.5,-2.7,10.0,0.0,0.0,0.0,10.0,0.0,0.0,0.0,10.0
1446034231192996487,191,1446034231189280986,robocape_mag,20.55,28.5,-2.7,10.0,0.0,0.0,0.0,10.0,0.0,0.0,0.0,10.0
1446034231240049112,192,1446034231236787080,robocape_mag,22.35,19.5,0.9,10.0,0.0,0.0,0.0,10.0,0.0,0.0,0.0,10.0
1446034231290735779,193,1446034231287024021,robocape_mag,22.35,19.5,0.9,10.0,0.0,0.0,0.0,10.0,0.0,0.0,0.0,10.0
1446034231340375654,194,1446034231337217092,robocape_mag,22.35,19.5,0.9,10.0,0.0,0.0,0.0,10.0,0.0,0.0,0.0,10.0
1446034231390859237,195,1446034231387717962,robocape_mag,22.35,19.5,0.9,10.0,0.0,0.0,0.0,10.0,0.0,0.0,0.0,10.0
1446034231440709904,196,1446034231436975002,robocape_mag,0.45,27.0,-6.0,10.0,0.0,0.0,0.0,10.0,0.0,0.0,0.0,10.0
1446034231490094279,197,1446034231486860036,robocape_mag,0.45,27.0,-6.0,10.0,0.0,0.0,0.0,10.0,0.0,0.0,0.0,10.0
1446034231540682154,198,1446034231536993026,robocape_mag,0.45,27.0,-6.0,10.0,0.0,0.0,0.0,10.0,0.0,0.0,0.0,10.0
1446034231590022862,199,1446034231586759090,robocape_mag,3.45,33.0,-2.4,10.0,0.0,0.0,0.0,10.0,0.0,0.0,0.0,10.0
1446034231642583404,200,1446034231638833999,robocape_mag,3.45,33.0,-2.4,10.0,0.0,0.0,0.0,10.0,0.0,0.0,0.0,10.0
1446034231690562987,201,1446034231687000989,robocape_mag,3.45,33.0,-2.4,10.0,0.0,0.0,0.0,10.0,0.0,0.0,0.0,10.0
1446034231741581695,202,1446034231737917900,robocape_mag,-8.25,8.1,-5.1,10.0,0.0,0.0,0.0,10.0,0.0,0.0,0.0,10.0
1446034231790603071,203,1446034231786892890,robocape_mag,-8.25,8.1,-5.1,10.0,0.0,0.0,0.0,10.0,0.0,0.0,0.0,10.0
1446034231844275196,204,1446034231840132951,robocape_mag,-8.25,8.1,-5.1,10.0,0.0,0.0,0.0,10.0,0.0,0.0,0.0,10.0
1446034231891796529,205,1446034231888113975,robocape_mag,-11.85,5.1,-3.9,10.0,0.0,0.0,0.0,10.0,0.0,0.0,0.0,10.0
1446034231940588737,206,1446034231936824083,robocape_mag,-11.85,5.1,-3.9,10.0,0.0,0.0,0.0,10.0,0.0,0.0,0.0,10.0
1446034231990001196,207,1446034231986766099,robocape_mag,-11.85,5.1,-3.9,10.0,0.0,0.0,0.0,10.0,0.0,0.0,0.0,10.0
1446034232043957862,208,1446034232039994001,robocape_mag,-28.05,20.1,-8.1,10.0,0.0,0.0,0.0,10.0,0.0,0.0,0.0,10.0
1446034232089900321,209,1446034232086839914,robocape_mag,-28.05,20.1,-8.1,10.0,0.0,0.0,0.0,10.0,0.0,0.0,0.0,10.0
1446034232140964237,210,1446034232137393951,robocape_mag,-28.05,20.1,-8.1,10.0,0.0,0.0,0.0,10.0,0.0,0.0,0.0,10.0
1446034232191187571,211,1446034232187182903,robocape_mag,-28.05,20.1,-8.1,10.0,0.0,0.0,0.0,10.0,0.0,0.0,0.0,10.0
1446034232242566779,212,1446034232239186048,robocape_mag,-22.35,32.4,-3.0,10.0,0.0,0.0,0.0,10.0,0.0,0.0,0.0,10.0
1446034232290849904,213,1446034232286835908,robocape_mag,-22.35,32.4,-3.0,10.0,0.0,0.0,0.0,10.0,0.0,0.0,0.0,10.0
1446034232340084737,214,1446034232336827993,robocape_mag,-22.35,32.4,-3.0,10.0,0.0,0.0,0.0,10.0,0.0,0.0,0.0,10.0
1446034232390606779,215,1446034232386723041,robocape_mag,-18.15,28.8,-3.0,10.0,0.0,0.0,0.0,10.0,0.0,0.0,0.0,10.0
1446034232441208404,216,1446034232437583923,robocape_mag,-18.15,28.8,-3.0,10.0,0.0,0.0,0.0,10.0,0.0,0.0,0.0,10.0
1446034232491383988,217,1446034232489047050,robocape_mag,-18.15,28.8,-3.0,10.0,0.0,0.0,0.0,10.0,0.0,0.0,0.0,10.0
1446034232540630154,218,1446034232536887884,robocape_mag,-2.25,6.9,-3.9,10.0,0.0,0.0,0.0,10.0,0.0,0.0,0.0,10.0
1446034232590025113,219,1446034232586827993,robocape_mag,-2.25,6.9,-3.9,10.0,0.0,0.0,0.0,10.0,0.0,0.0,0.0,10.0
1446034232640231196,220,1446034232637001037,robocape_mag,-2.25,6.9,-3.9,10.0,0.0,0.0,0.0,10.0,0.0,0.0,0.0,10.0
1446034232691749279,221,1446034232688409090,robocape_mag,-4.05,7.5,-3.9,10.0,0.0,0.0,0.0,10.0,0.0,0.0,0.0,10.0
1446034232740046071,222,1446034232736884117,robocape_mag,-4.05,7.5,-3.9,10.0,0.0,0.0,0.0,10.0,0.0,0.0,0.0,10.0
1446034232790512654,223,1446034232786839008,robocape_mag,-4.05,7.5,-3.9,10.0,0.0,0.0,0.0,10.0,0.0,0.0,0.0,10.0
1446034232839928154,224,1446034232836740970,robocape_mag,-10.05,-3.9,-0.3,10.0,0.0,0.0,0.0,10.0,0.0,0.0,0.0,10.0
1446034232893547029,225,1446034232889489889,robocape_mag,-10.05,-3.9,-0.3,10.0,0.0,0.0,0.0,10.0,0.0,0.0,0.0,10.0
1446034232939935529,226,1446034232936817884,robocape_mag,-10.05,-3.9,-0.3,10.0,0.0,0.0,0.0,10.0,0.0,0.0,0.0,10.0
1446034232990123863,227,1446034232986826896,robocape_mag,-10.05,-3.9,-0.3,10.0,0.0,0.0,0.0,10.0,0.0,0.0,0.0,10.0
1446034233040524196,228,1446034233036839962,robocape_mag,-3.45,21.9,-1.5,10.0,0.0,0.0,0.0,10.0,0.0,0.0,0.0,10.0
1446034233094453613,229,1446034233090877056,robocape_mag,-3.45,21.9,-1.5,10.0,0.0,0.0,0.0,10.0,0.0,0.0,0.0,10.0
1446034233140652404,230,1446034233136957883,robocape_mag,-3.45,21.9,-1.5,10.0,0.0,0.0,0.0,10.0,0.0,0.0,0.0,10.0
1446034233190570155,231,1446034233186913013,robocape_mag,-7.95,20.4,7.2,10.0,0.0,0.0,0.0,10.0,0.0,0.0,0.0,10.0
1446034233240376946,232,1446034233236742019,robocape_mag,-7.95,20.4,7.2,10.0,0.0,0.0,0.0,10.0,0.0,0.0,0.0,10.0
1446034233290419655,233,1446034233286787033,robocape_mag,-7.95,20.4,7.2,10.0,0.0,0.0,0.0,10.0,0.0,0.0,0.0,10.0
1446034233339973488,234,1446034233336702108,robocape_mag,-2.85,-10.5,-2.7,10.0,0.0,0.0,0.0,10.0,0.0,0.0,0.0,10.0
1446034233390642196,235,1446034233386950969,robocape_mag,-2.85,-10.5,-2.7,10.0,0.0,0.0,0.0,10.0,0.0,0.0,0.0,10.0
1446034233440453655,236,1446034233436863899,robocape_mag,-2.85,-10.5,-2.7,10.0,0.0,0.0,0.0,10.0,0.0,0.0,0.0,10.0
1446034233492642613,237,1446034233489340066,robocape_mag,-2.85,-15.9,-2.7,10.0,0.0,0.0,0.0,10.0,0.0,0.0,0.0,10.0
1446034233540875321,238,1446034233537080049,robocape_mag,-2.85,-15.9,-2.7,10.0,0.0,0.0,0.0,10.0,0.0,0.0,0.0,10.0
1446034233589985613,239,1446034233586848974,robocape_mag,-2.85,-15.9,-2.7,10.0,0.0,0.0,0.0,10.0,0.0,0.0,0.0,10.0
1446034233640925821,240,1446034233637768983,robocape_mag,-8.25,5.1,2.1,10.0,0.0,0.0,0.0,10.0,0.0,0.0,0.0,10.0
1446034233690454155,241,1446034233686891078,robocape_mag,-8.25,5.1,2.1,10.0,0.0,0.0,0.0,10.0,0.0,0.0,0.0,10.0
1446034233740078155,242,1446034233736844062,robocape_mag,-8.25,5.1,2.1,10.0,0.0,0.0,0.0,10.0,0.0,0.0,0.0,10.0
1446034233790201030,243,1446034233788048028,robocape_mag,-8.25,5.1,2.1,10.0,0.0,0.0,0.0,10.0,0.0,0.0,0.0,10.0
1446034233840000946,244,1446034233836774110,robocape_mag,-9.75,-25.2,-7.2,10.0,0.0,0.0,0.0,10.0,0.0,0.0,0.0,10.0
1446034233890439447,245,1446034233886748075,robocape_mag,-9.75,-25.2,-7.2,10.0,0.0,0.0,0.0,10.0,0.0,0.0,0.0,10.0
1446034233940609655,246,1446034233937006950,robocape_mag,-9.75,-25.2,-7.2,10.0,0.0,0.0,0.0,10.0,0.0,0.0,0.0,10.0
1446034233990496405,247,1446034233986723899,robocape_mag,-15.45,-9.9,-6.3,10.0,0.0,0.0,0.0,10.0,0.0,0.0,0.0,10.0
1446034234040464113,248,1446034234036793947,robocape_mag,-15.45,-9.9,-6.3,10.0,0.0,0.0,0.0,10.0,0.0,0.0,0.0,10.0
1446034234091385738,249,1446034234087517023,robocape_mag,-15.45,-9.9,-6.3,10.0,0.0,0.0,0.0,10.0,0.0,0.0,0.0,10.0
1446034234140602113,250,1446034234136981010,robocape_mag,-22.05,-36.9,-2.1,10.0,0.0,0.0,0.0,10.0,0.0,0.0,0.0,10.0
1446034234190755738,251,1446034234186906099,robocape_mag,-22.05,-36.9,-2.1,10.0,0.0,0.0,0.0,10.0,0.0,0.0,0.0,10.0
1446034234240733572,252,1446034234236782073,robocape_mag,-22.05,-36.9,-2.1,10.0,0.0,0.0,0.0,10.0,0.0,0.0,0.0,10.0
1446034234294439780,253,1446034234290925025,robocape_mag,-34.65,-3.3,0.3,10.0,0.0,0.0,0.0,10.0,0.0,0.0,0.0,10.0
1446034234340100363,254,1446034234336853981,robocape_mag,-34.65,-3.3,0.3,10.0,0.0,0.0,0.0,10.0,0.0,0.0,0.0,10.0
1446034234390440155,255,1446034234386755943,robocape_mag,-34.65,-3.3,0.3,10.0,0.0,0.0,0.0,10.0,0.0,0.0,0.0,10.0
1446034234440598697,256,1446034234436992883,robocape_mag,-40.35,2.4,-3.6,10.0,0.0,0.0,0.0,10.0,0.0,0.0,0.0,10.0
1446034234493670155,257,1446034234490204095,robocape_mag,-40.35,2.4,-3.6,10.0,0.0,0.0,0.0,10.0,0.0,0.0,0.0,10.0
1446034234539935780,258,1446034234536864995,robocape_mag,-40.35,2.4,-3.6,10.0,0.0,0.0,0.0,10.0,0.0,0.0,0.0,10.0
1446034234590177489,259,1446034234586774110,robocape_mag,-40.35,2.4,-3.6,10.0,0.0,0.0,0.0,10.0,0.0,0.0,0.0,10.0
1446034234640808364,260,1446034234636980056,robocape_mag,-43.05,5.7,-9.9,10.0,0.0,0.0,0.0,10.0,0.0,0.0,0.0,10.0
1446034234693062072,261,1446034234689354896,robocape_mag,-43.05,5.7,-9.9,10.0,0.0,0.0,0.0,10.0,0.0,0.0,0.0,10.0
1446034234740048197,262,1446034234736747026,robocape_mag,-43.05,5.7,-9.9,10.0,0.0,0.0,0.0,10.0,0.0,0.0,0.0,10.0
1446034234790701655,263,1446034234786921024,robocape_mag,-38.55,-18.6,-7.2,10.0,0.0,0.0,0.0,10.0,0.0,0.0,0.0,10.0
1446034234839939905,264,1446034234836839914,robocape_mag,-38.55,-18.6,-7.2,10.0,0.0,0.0,0.0,10.0,0.0,0.0,0.0,10.0
1446034234891064489,265,1446034234887978076,robocape_mag,-38.55,-18.6,-7.2,10.0,0.0,0.0,0.0,10.0,0.0,0.0,0.0,10.0
1446034234941220655,266,1446034234937184095,robocape_mag,-18.45,11.1,4.5,10.0,0.0,0.0,0.0,10.0,0.0,0.0,0.0,10.0
1446034234990063780,267,1446034234986848115,robocape_mag,-18.45,11.1,4.5,10.0,0.0,0.0,0.0,10.0,0.0,0.0,0.0,10.0
1446034235040567697,268,1446034235036874055,robocape_mag,-18.45,11.1,4.5,10.0,0.0,0.0,0.0,10.0,0.0,0.0,0.0,10.0
1446034235089907655,269,1446034235086811065,robocape_mag,3.45,-17.4,4.8,10.0,0.0,0.0,0.0,10.0,0.0,0.0,0.0,10.0
1446034235142000155,270,1446034235138322114,robocape_mag,3.45,-17.4,4.8,10.0,0.0,0.0,0.0,10.0,0.0,0.0,0.0,10.0
1446034235190472489,271,1446034235186820030,robocape_mag,3.45,-17.4,4.8,10.0,0.0,0.0,0.0,10.0,0.0,0.0,0.0,10.0
1446034235240185155,272,1446034235236881971,robocape_mag,3.75,9.9,7.5,10.0,0.0,0.0,0.0,10.0,0.0,0.0,0.0,10.0
1446034235290480447,273,1446034235286833047,robocape_mag,3.75,9.9,7.5,10.0,0.0,0.0,0.0,10.0,0.0,0.0,0.0,10.0
1446034235343391989,274,1446034235340639114,robocape_mag,3.75,9.9,7.5,10.0,0.0,0.0,0.0,10.0,0.0,0.0,0.0,10.0
1446034235390450572,275,1446034235386738061,robocape_mag,3.75,9.9,7.5,10.0,0.0,0.0,0.0,10.0,0.0,0.0,0.0,10.0
1446034235440784406,276,1446034235437000989,robocape_mag,-6.45,7.5,6.3,10.0,0.0,0.0,0.0,10.0,0.0,0.0,0.0,10.0
1446034235490025739,277,1446034235486745119,robocape_mag,-6.45,7.5,6.3,10.0,0.0,0.0,0.0,10.0,0.0,0.0,0.0,10.0
1446034235544600447,278,1446034235540776968,robocape_mag,-6.45,7.5,6.3,10.0,0.0,0.0,0.0,10.0,0.0,0.0,0.0,10.0
1446034235589877531,279,1446034235586694955,robocape_mag,-9.75,-9.0,6.6,10.0,0.0,0.0,0.0,10.0,0.0,0.0,0.0,10.0
1446034235640238489,280,1446034235636956930,robocape_mag,-9.75,-9.0,6.6,10.0,0.0,0.0,0.0,10.0,0.0,0.0,0.0,10.0
1446034235690081781,281,1446034235686806917,robocape_mag,-9.75,-9.0,6.6,10.0,0.0,0.0,0.0,10.0,0.0,0.0,0.0,10.0
1446034235742541656,282,1446034235739360094,robocape_mag,4.35,-3.3,2.1,10.0,0.0,0.0,0.0,10.0,0.0,0.0,0.0,10.0
1446034235790563781,283,1446034235786830902,robocape_mag,4.35,-3.3,2.1,10.0,0.0,0.0,0.0,10.0,0.0,0.0,0.0,10.0
1446034235840157072,284,1446034235836920022,robocape_mag,4.35,-3.3,2.1,10.0,0.0,0.0,0.0,10.0,0.0,0.0,0.0,10.0
1446034235890303197,285,1446034235886996984,robocape_mag,-14.55,0.6,3.6,10.0,0.0,0.0,0.0,10.0,0.0,0.0,0.0,10.0
1446034235942736406,286,1446034235938932895,robocape_mag,-14.55,0.6,3.6,10.0,0.0,0.0,0.0,10.0,0.0,0.0,0.0,10.0
1446034235990431156,287,1446034235987164974,robocape_mag,-14.55,0.6,3.6,10.0,0.0,0.0,0.0,10.0,0.0,0.0,0.0,10.0
1446034236040625864,288,1446034236036919116,robocape_mag,-43.95,-11.4,-5.4,10.0,0.0,0.0,0.0,10.0,0.0,0.0,0.0,10.0
1446034236089877614,289,1446034236086744070,robocape_mag,-43.95,-11.4,-5.4,10.0,0.0,0.0,0.0,10.0,0.0,0.0,0.0,10.0
1446034236140658948,290,1446034236137485027,robocape_mag,-43.95,-11.4,-5.4,10.0,0.0,0.0,0.0,10.0,0.0,0.0,0.0,10.0
1446034236191450448,291,1446034236188225984,robocape_mag,-43.95,-11.4,-5.4,10.0,0.0,0.0,0.0,10.0,0.0,0.0,0.0,10.0
1446034236240093656,292,1446034236236953020,robocape_mag,-27.15,-1.8,-7.2,10.0,0.0,0.0,0.0,10.0,0.0,0.0,0.0,10.0
1446034236290531906,293,1446034236286833047,robocape_mag,-27.15,-1.8,-7.2,10.0,0.0,0.0,0.0,10.0,0.0,0.0,0.0,10.0
1446034236339968864,294,1446034236336774110,robocape_mag,-27.15,-1.8,-7.2,10.0,0.0,0.0,0.0,10.0,0.0,0.0,0.0,10.0
1446034236393393281,295,1446034236389638900,robocape_mag,-26.55,3.6,-1.2,10.0,0.0,0.0,0.0,10.0,0.0,0.0,0.0,10.0
1446034236441477198,296,1446034236436846971,robocape_mag,-26.55,3.6,-1.2,10.0,0.0,0.0,0.0,10.0,0.0,0.0,0.0,10.0
1446034236491681031,297,1446034236487951040,robocape_mag,-26.55,3.6,-1.2,10.0,0.0,0.0,0.0,10.0,0.0,0.0,0.0,10.0
1446034236540555781,298,1446034236536885976,robocape_mag,-19.95,6.6,3.6,10.0,0.0,0.0,0.0,10.0,0.0,0.0,0.0,10.0
1446034236592489239,299,1446034236590286970,robocape_mag,-19.95,6.6,3.6,10.0,0.0,0.0,0.0,10.0,0.0,0.0,0.0,10.0
1446034236640678698,300,1446034236636992931,robocape_mag,-19.95,6.6,3.6,10.0,0.0,0.0,0.0,10.0,0.0,0.0,0.0,10.0
1446034236690544948,301,1446034236686909914,robocape_mag,10.95,-18.9,3.3,10.0,0.0,0.0,0.0,10.0,0.0,0.0,0.0,10.0
1446034236743943198,302,1446034236740097045,robocape_mag,10.95,-18.9,3.3,10.0,0.0,0.0,0.0,10.0,0.0,0.0,0.0,10.0
1446034236790476948,303,1446034236786835908,robocape_mag,10.95,-18.9,3.3,10.0,0.0,0.0,0.0,10.0,0.0,0.0,0.0,10.0
1446034236840363323,304,1446034236836929082,robocape_mag,6.75,-26.7,5.7,10.0,0.0,0.0,0.0,10.0,0.0,0.0,0.0,10.0
1446034236890240865,305,1446034236886909008,robocape_mag,6.75,-26.7,5.7,10.0,0.0,0.0,0.0,10.0,0.0,0.0,0.0,10.0
1446034236940835406,306,1446034236936872005,robocape_mag,6.75,-26.7,5.7,10.0,0.0,0.0,0.0,10.0,0.0,0.0,0.0,10.0
1446034236991386615,307,1446034236987607955,robocape_mag,6.75,-26.7,5.7,10.0,0.0,0.0,0.0,10.0,0.0,0.0,0.0,10.0
1446034237040813781,308,1446034237036881923,robocape_mag,16.65,-8.4,1.8,10.0,0.0,0.0,0.0,10.0,0.0,0.0,0.0,10.0
1446034237090125573,309,1446034237086895942,robocape_mag,16.65,-8.4,1.8,10.0,0.0,0.0,0.0,10.0,0.0,0.0,0.0,10.0
1446034237140380365,310,1446034237137041091,robocape_mag,16.65,-8.4,1.8,10.0,0.0,0.0,0.0,10.0,0.0,0.0,0.0,10.0
1446034237191123781,311,1446034237187439918,robocape_mag,11.55,-7.5,1.5,10.0,0.0,0.0,0.0,10.0,0.0,0.0,0.0,10.0
1446034237240066406,312,1446034237236939907,robocape_mag,11.55,-7.5,1.5,10.0,0.0,0.0,0.0,10.0,0.0,0.0,0.0,10.0
1446034237290560990,313,1446034237286895990,robocape_mag,11.55,-7.5,1.5,10.0,0.0,0.0,0.0,10.0,0.0,0.0,0.0,10.0
1446034237340204823,314,1446034237336901903,robocape_mag,10.35,-29.1,-1.5,10.0,0.0,0.0,0.0,10.0,0.0,0.0,0.0,10.0
1446034237390430323,315,1446034237387223958,robocape_mag,10.35,-29.1,-1.5,10.0,0.0,0.0,0.0,10.0,0.0,0.0,0.0,10.0
1446034237441063698,316,1446034237437808990,robocape_mag,10.35,-29.1,-1.5,10.0,0.0,0.0,0.0,10.0,0.0,0.0,0.0,10.0
1446034237490054073,317,1446034237486834049,robocape_mag,-1.05,-2.1,5.7,10.0,0.0,0.0,0.0,10.0,0.0,0.0,0.0,10.0
1446034237540599115,318,1446034237536887884,robocape_mag,-1.05,-2.1,5.7,10.0,0.0,0.0,0.0,10.0,0.0,0.0,0.0,10.0
1446034237590085115,319,1446034237586935043,robocape_mag,-1.05,-2.1,5.7,10.0,0.0,0.0,0.0,10.0,0.0,0.0,0.0,10.0
1446034237642924698,320,1446034237639206886,robocape_mag,-18.45,-35.1,0.3,10.0,0.0,0.0,0.0,10.0,0.0,0.0,0.0,10.0
1446034237690617448,321,1446034237686945915,robocape_mag,-18.45,-35.1,0.3,10.0,0.0,0.0,0.0,10.0,0.0,0.0,0.0,10.0
1446034237740249073,322,1446034237737128973,robocape_mag,-18.45,-35.1,0.3,10.0,0.0,0.0,0.0,10.0,0.0,0.0,0.0,10.0
1446034237790525532,323,1446034237786876916,robocape_mag,-18.45,-35.1,0.3,10.0,0.0,0.0,0.0,10.0,0.0,0.0,0.0,10.0
1446034237844547198,324,1446034237840595006,robocape_mag,-17.85,-11.1,-3.3,10.0,0.0,0.0,0.0,10.0,0.0,0.0,0.0,10.0
1446034237890673282,325,1446034237886975049,robocape_mag,-17.85,-11.1,-3.3,10.0,0.0,0.0,0.0,10.0,0.0,0.0,0.0,10.0
1446034237941063407,326,1446034237937288999,robocape_mag,-17.85,-11.1,-3.3,10.0,0.0,0.0,0.0,10.0,0.0,0.0,0.0,10.0
1446034237990276615,327,1446034237987068891,robocape_mag,-24.45,-27.9,-6.3,10.0,0.0,0.0,0.0,10.0,0.0,0.0,0.0,10.0
1446034238042591157,328,1446034238039199113,robocape_mag,-24.45,-27.9,-6.3,10.0,0.0,0.0,0.0,10.0,0.0,0.0,0.0,10.0
1446034238091146615,329,1446034238087167024,robocape_mag,-24.45,-27.9,-6.3,10.0,0.0,0.0,0.0,10.0,0.0,0.0,0.0,10.0
1446034238140478032,330,1446034238137126922,robocape_mag,-14.85,0.3,2.1,10.0,0.0,0.0,0.0,10.0,0.0,0.0,0.0,10.0
1446034238193155782,331,1446034238190021038,robocape_mag,-14.85,0.3,2.1,10.0,0.0,0.0,0.0,10.0,0.0,0.0,0.0,10.0
1446034238240477199,332,1446034238237169981,robocape_mag,-14.85,0.3,2.1,10.0,0.0,0.0,0.0,10.0,0.0,0.0,0.0,10.0
1446034238290902532,333,1446034238287187099,robocape_mag,3.45,-12.6,3.6,10.0,0.0,0.0,0.0,10.0,0.0,0.0,0.0,10.0
1446034238340287365,334,1446034238337024927,robocape_mag,3.45,-12.6,3.6,10.0,0.0,0.0,0.0,10.0,0.0,0.0,0.0,10.0
1446034238390762157,335,1446034238387459993,robocape_mag,3.45,-12.6,3.6,10.0,0.0,0.0,0.0,10.0,0.0,0.0,0.0,10.0
1446034238441229199,336,1446034238437535047,robocape_mag,1.95,-0.9,6.3,10.0,0.0,0.0,0.0,10.0,0.0,0.0,0.0,10.0
1446034238489635199,337,1446034238487385034,robocape_mag,1.95,-0.9,6.3,10.0,0.0,0.0,0.0,10.0,0.0,0.0,0.0,10.0
1446034238540624074,338,1446034238536935091,robocape_mag,1.95,-0.9,6.3,10.0,0.0,0.0,0.0,10.0,0.0,0.0,0.0,10.0
1446034238590058740,339,1446034238586925029,robocape_mag,1.95,-0.9,6.3,10.0,0.0,0.0,0.0,10.0,0.0,0.0,0.0,10.0
1446034238640209532,340,1446034238637012004,robocape_mag,0.45,-21.0,3.6,10.0,0.0,0.0,0.0,10.0,0.0,0.0,0.0,10.0
1446034238691638365,341,1446034238688465118,robocape_mag,0.45,-21.0,3.6,10.0,0.0,0.0,0.0,10.0,0.0,0.0,0.0,10.0
1446034238740615115,342,1446034238737318038,robocape_mag,0.45,-21.0,3.6,10.0,0.0,0.0,0.0,10.0,0.0,0.0,0.0,10.0
1446034238790767199,343,1446034238787053108,robocape_mag,18.75,-1.5,0.9,10.0,0.0,0.0,0.0,10.0,0.0,0.0,0.0,10.0
1446034238840016949,344,1446034238836926937,robocape_mag,18.75,-1.5,0.9,10.0,0.0,0.0,0.0,10.0,0.0,0.0,0.0,10.0
1446034238896600824,345,1446034238891086101,robocape_mag,18.75,-1.5,0.9,10.0,0.0,0.0,0.0,10.0,0.0,0.0,0.0,10.0
1446034238940604074,346,1446034238937164068,robocape_mag,27.45,-14.4,-0.6,10.0,0.0,0.0,0.0,10.0,0.0,0.0,0.0,10.0
1446034238991580074,347,1446034238987900018,robocape_mag,27.45,-14.4,-0.6,10.0,0.0,0.0,0.0,10.0,0.0,0.0,0.0,10.0
1446034239040669741,348,1446034239036912918,robocape_mag,27.45,-14.4,-0.6,10.0,0.0,0.0,0.0,10.0,0.0,0.0,0.0,10.0
1446034239095934782,349,1446034239091315984,robocape_mag,10.65,-30.6,-1.8,10.0,0.0,0.0,0.0,10.0,0.0,0.0,0.0,10.0
1446034239140784741,350,1446034239137248039,robocape_mag,10.65,-30.6,-1.8,10.0,0.0,0.0,0.0,10.0,0.0,0.0,0.0,10.0
1446034239191008574,351,1446034239187446117,robocape_mag,10.65,-30.6,-1.8,10.0,0.0,0.0,0.0,10.0,0.0,0.0,0.0,10.0
1446034239240543282,352,1446034239237091064,robocape_mag,18.75,-31.5,-0.3,10.0,0.0,0.0,0.0,10.0,0.0,0.0,0.0,10.0
1446034239293124074,353,1446034239289956092,robocape_mag,18.75,-31.5,-0.3,10.0,0.0,0.0,0.0,10.0,0.0,0.0,0.0,10.0
1446034239340260991,354,1446034239336971998,robocape_mag,18.75,-31.5,-0.3,10.0,0.0,0.0,0.0,10.0,0.0,0.0,0.0,10.0
1446034239390366782,355,1446034239387124061,robocape_mag,18.75,-31.5,-0.3,10.0,0.0,0.0,0.0,10.0,0.0,0.0,0.0,10.0
1446034239441449907,356,1446034239438277006,robocape_mag,3.75,-26.7,3.3,10.0,0.0,0.0,0.0,10.0,0.0,0.0,0.0,10.0
1446034239490177158,357,1446034239487024068,robocape_mag,3.75,-26.7,3.3,10.0,0.0,0.0,0.0,10.0,0.0,0.0,0.0,10.0
1446034239540797241,358,1446034239537106037,robocape_mag,3.75,-26.7,3.3,10.0,0.0,0.0,0.0,10.0,0.0,0.0,0.0,10.0
1446034239591202991,359,1446034239587472915,robocape_mag,-23.55,-34.2,-1.8,10.0,0.0,0.0,0.0,10.0,0.0,0.0,0.0,10.0
1446034239640607533,360,1446034239637368917,robocape_mag,-23.55,-34.2,-1.8,10.0,0.0,0.0,0.0,10.0,0.0,0.0,0.0,10.0
1446034239691003449,361,1446034239686901092,robocape_mag,-23.55,-34.2,-1.8,10.0,0.0,0.0,0.0,10.0,0.0,0.0,0.0,10.0
1446034239741784116,362,1446034239738317966,robocape_mag,-13.35,-4.8,1.2,10.0,0.0,0.0,0.0,10.0,0.0,0.0,0.0,10.0
1446034239790943824,363,1446034239786905050,robocape_mag,-13.35,-4.8,1.2,10.0,0.0,0.0,0.0,10.0,0.0,0.0,0.0,10.0
1446034239840202116,364,1446034239837110042,robocape_mag,-13.35,-4.8,1.2,10.0,0.0,0.0,0.0,10.0,0.0,0.0,0.0,10.0
1446034239890674074,365,1446034239887129068,robocape_mag,-1.95,-4.8,3.0,10.0,0.0,0.0,0.0,10.0,0.0,0.0,0.0,10.0
1446034239944999949,366,1446034239941082000,robocape_mag,-1.95,-4.8,3.0,10.0,0.0,0.0,0.0,10.0,0.0,0.0,0.0,10.0
1446034239990451283,367,1446034239986882925,robocape_mag,-1.95,-4.8,3.0,10.0,0.0,0.0,0.0,10.0,0.0,0.0,0.0,10.0
1446034240041264866,368,1446034240038081884,robocape_mag,8.85,-27.6,0.6,10.0,0.0,0.0,0.0,10.0,0.0,0.0,0.0,10.0
1446034240090085783,369,1446034240086985111,robocape_mag,8.85,-27.6,0.6,10.0,0.0,0.0,0.0,10.0,0.0,0.0,0.0,10.0
1446034240144883658,370,1446034240141015052,robocape_mag,8.85,-27.6,0.6,10.0,0.0,0.0,0.0,10.0,0.0,0.0,0.0,10.0
1446034240190505991,371,1446034240186902999,robocape_mag,8.85,-27.6,0.6,10.0,0.0,0.0,0.0,10.0,0.0,0.0,0.0,10.0
1446034240240302450,372,1446034240236917018,robocape_mag,18.15,-31.5,-3.9,10.0,0.0,0.0,0.0,10.0,0.0,0.0,0.0,10.0
1446034240291988741,373,1446034240286912918,robocape_mag,18.15,-31.5,-3.9,10.0,0.0,0.0,0.0,10.0,0.0,0.0,0.0,10.0
1446034240342513241,374,1446034240339153051,robocape_mag,18.15,-31.5,-3.9,10.0,0.0,0.0,0.0,10.0,0.0,0.0,0.0,10.0
1446034240390116575,375,1446034240386846065,robocape_mag,18.15,-6.9,-2.7,10.0,0.0,0.0,0.0,10.0,0.0,0.0,0.0,10.0
1446034240440881075,376,1446034240436939954,robocape_mag,18.15,-6.9,-2.7,10.0,0.0,0.0,0.0,10.0,0.0,0.0,0.0,10.0
1446034240490223741,377,1446034240486865043,robocape_mag,18.15,-6.9,-2.7,10.0,0.0,0.0,0.0,10.0,0.0,0.0,0.0,10.0
1446034240542658741,378,1446034240539438962,robocape_mag,29.85,-4.2,-6.0,10.0,0.0,0.0,0.0,10.0,0.0,0.0,0.0,10.0
1446034240589996783,379,1446034240586791038,robocape_mag,29.85,-4.2,-6.0,10.0,0.0,0.0,0.0,10.0,0.0,0.0,0.0,10.0
1446034240640391200,380,1446034240637082099,robocape_mag,29.85,-4.2,-6.0,10.0,0.0,0.0,0.0,10.0,0.0,0.0,0.0,10.0
1446034240690603700,381,1446034240686876058,robocape_mag,32.85,-1.2,-8.4,10.0,0.0,0.0,0.0,10.0,0.0,0.0,0.0,10.0
1446034240741404075,382,1446034240737504005,robocape_mag,32.85,-1.2,-8.4,10.0,0.0,0.0,0.0,10.0,0.0,0.0,0.0,10.0
1446034240791041616,383,1446034240787072896,robocape_mag,32.85,-1.2,-8.4,10.0,0.0,0.0,0.0,10.0,0.0,0.0,0.0,10.0
1446034240840296575,384,1446034240837084054,robocape_mag,38.25,-20.4,-5.4,10.0,0.0,0.0,0.0,10.0,0.0,0.0,0.0,10.0
1446034240890429408,385,1446034240887093067,robocape_mag,38.25,-20.4,-5.4,10.0,0.0,0.0,0.0,10.0,0.0,0.0,0.0,10.0
1446034240941079408,386,1446034240937201023,robocape_mag,38.25,-20.4,-5.4,10.0,0.0,0.0,0.0,10.0,0.0,0.0,0.0,10.0
1446034240992094158,387,1446034240988281965,robocape_mag,38.25,-20.4,-5.4,10.0,0.0,0.0,0.0,10.0,0.0,0.0,0.0,10.0
1446034241040964325,388,1446034241037142992,robocape_mag,13.35,3.3,5.7,10.0,0.0,0.0,0.0,10.0,0.0,0.0,0.0,10.0
1446034241090045325,389,1446034241086937904,robocape_mag,13.35,3.3,5.7,10.0,0.0,0.0,0.0,10.0,0.0,0.0,0.0,10.0
1446034241140518825,390,1446034241136882066,robocape_mag,13.35,3.3,5.7,10.0,0.0,0.0,0.0,10.0,0.0,0.0,0.0,10.0
1446034241194907533,391,1446034241191570997,robocape_mag,2.85,-11.4,5.4,10.0,0.0,0.0,0.0,10.0,0.0,0.0,0.0,10.0
1446034241240294700,392,1446034241236901998,robocape_mag,2.85,-11.4,5.4,10.0,0.0,0.0,0.0,10.0,0.0,0.0,0.0,10.0
1446034241290699367,393,1446034241286911010,robocape_mag,2.85,-11.4,5.4,10.0,0.0,0.0,0.0,10.0,0.0,0.0,0.0,10.0
1446034241340376283,394,1446034241336936950,robocape_mag,-0.75,-25.8,4.8,10.0,0.0,0.0,0.0,10.0,0.0,0.0,0.0,10.0
1446034241394335533,395,1446034241390417098,robocape_mag,-0.75,-25.8,4.8,10.0,0.0,0.0,0.0,10.0,0.0,0.0,0.0,10.0
1446034241445017242,396,1446034241436954021,robocape_mag,-0.75,-25.8,4.8,10.0,0.0,0.0,0.0,10.0,0.0,0.0,0.0,10.0
1446034241492069700,397,1446034241487947940,robocape_mag,20.55,-33.3,-2.7,10.0,0.0,0.0,0.0,10.0,0.0,0.0,0.0,10.0
1446034241540653658,398,1446034241536967039,robocape_mag,20.55,-33.3,-2.7,10.0,0.0,0.0,0.0,10.0,0.0,0.0,0.0,10.0
1446034241593661825,399,1446034241589708089,robocape_mag,20.55,-33.3,-2.7,10.0,0.0,0.0,0.0,10.0,0.0,0.0,0.0,10.0
1446034241640642242,400,1446034241637006998,robocape_mag,28.65,-1.2,-7.8,10.0,0.0,0.0,0.0,10.0,0.0,0.0,0.0,10.0
1446034241690734159,401,1446034241686897039,robocape_mag,28.65,-1.2,-7.8,10.0,0.0,0.0,0.0,10.0,0.0,0.0,0.0,10.0
1446034241740129867,402,1446034241736942052,robocape_mag,28.65,-1.2,-7.8,10.0,0.0,0.0,0.0,10.0,0.0,0.0,0.0,10.0
1446034241791197617,403,1446034241787945032,robocape_mag,28.65,-1.2,-7.8,10.0,0.0,0.0,0.0,10.0,0.0,0.0,0.0,10.0
1446034241841390534,404,1446034241837240934,robocape_mag,39.15,-25.5,-12.3,10.0,0.0,0.0,0.0,10.0,0.0,0.0,0.0,10.0
1446034241890753659,405,1446034241887028932,robocape_mag,39.15,-25.5,-12.3,10.0,0.0,0.0,0.0,10.0,0.0,0.0,0.0,10.0
1446034241940555742,406,1446034241936866044,robocape_mag,39.15,-25.5,-12.3,10.0,0.0,0.0,0.0,10.0,0.0,0.0,0.0,10.0
1446034241990249742,407,1446034241986958026,robocape_mag,39.15,-1.5,-3.9,10.0,0.0,0.0,0.0,10.0,0.0,0.0,0.0,10.0
1446034242041781492,408,1446034242038379907,robocape_mag,39.15,-1.5,-3.9,10.0,0.0,0.0,0.0,10.0,0.0,0.0,0.0,10.0
1446034242090247867,409,1446034242086910963,robocape_mag,39.15,-1.5,-3.9,10.0,0.0,0.0,0.0,10.0,0.0,0.0,0.0,10.0
1446034242140476409,410,1446034242137121915,robocape_mag,10.95,3.3,-2.1,10.0,0.0,0.0,0.0,10.0,0.0,0.0,0.0,10.0
1446034242190528909,411,1446034242186881065,robocape_mag,10.95,3.3,-2.1,10.0,0.0,0.0,0.0,10.0,0.0,0.0,0.0,10.0
1446034242244062367,412,1446034242239713907,robocape_mag,10.95,3.3,-2.1,10.0,0.0,0.0,0.0,10.0,0.0,0.0,0.0,10.0
1446034242290554659,413,1446034242286891937,robocape_mag,7.65,-17.4,1.2,10.0,0.0,0.0,0.0,10.0,0.0,0.0,0.0,10.0
1446034242341465867,414,1446034242336874008,robocape_mag,7.65,-17.4,1.2,10.0,0.0,0.0,0.0,10.0,0.0,0.0,0.0,10.0
1446034242390245909,415,1446034242387013912,robocape_mag,7.65,-17.4,1.2,10.0,0.0,0.0,0.0,10.0,0.0,0.0,0.0,10.0
1446034242442975201,416,1446034242440006971,robocape_mag,16.35,-0.9,8.7,10.0,0.0,0.0,0.0,10.0,0.0,0.0,0.0,10.0
1446034242489979701,417,1446034242486790895,robocape_mag,16.35,-0.9,8.7,10.0,0.0,0.0,0.0,10.0,0.0,0.0,0.0,10.0
1446034242540681159,418,1446034242536928892,robocape_mag,16.35,-0.9,8.7,10.0,0.0,0.0,0.0,10.0,0.0,0.0,0.0,10.0
1446034242589896826,419,1446034242586811065,robocape_mag,16.35,-0.9,8.7,10.0,0.0,0.0,0.0,10.0,0.0,0.0,0.0,10.0
1446034242642998992,420,1446034242639591932,robocape_mag,19.95,-5.1,9.3,10.0,0.0,0.0,0.0,10.0,0.0,0.0,0.0,10.0
1446034242690060242,421,1446034242686794996,robocape_mag,19.95,-5.1,9.3,10.0,0.0,0.0,0.0,10.0,0.0,0.0,0.0,10.0
1446034242740497826,422,1446034242737020969,robocape_mag,19.95,-5.1,9.3,10.0,0.0,0.0,0.0,10.0,0.0,0.0,0.0,10.0
1446034242790673159,423,1446034242786885023,robocape_mag,25.35,-5.7,5.7,10.0,0.0,0.0,0.0,10.0,0.0,0.0,0.0,10.0
1446034242843156826,424,1446034242839472055,robocape_mag,25.35,-5.7,5.7,10.0,0.0,0.0,0.0,10.0,0.0,0.0,0.0,10.0
1446034242890555201,425,1446034242886784076,robocape_mag,25.35,-5.7,5.7,10.0,0.0,0.0,0.0,10.0,0.0,0.0,0.0,10.0
1446034242940861951,426,1446034242937165975,robocape_mag,28.95,-2.1,3.3,10.0,0.0,0.0,0.0,10.0,0.0,0.0,0.0,10.0
1446034242990050868,427,1446034242986766099,robocape_mag,28.95,-2.1,3.3,10.0,0.0,0.0,0.0,10.0,0.0,0.0,0.0,10.0
1446034243040903326,428,1446034243037760019,robocape_mag,28.95,-2.1,3.3,10.0,0.0,0.0,0.0,10.0,0.0,0.0,0.0,10.0
1446034243090096618,429,1446034243086865901,robocape_mag,22.05,-16.8,-7.2,10.0,0.0,0.0,0.0,10.0,0.0,0.0,0.0,10.0
1446034243140301534,430,1446034243137046098,robocape_mag,22.05,-16.8,-7.2,10.0,0.0,0.0,0.0,10.0,0.0,0.0,0.0,10.0
1446034243195661451,431,1446034243192377090,robocape_mag,22.05,-16.8,-7.2,10.0,0.0,0.0,0.0,10.0,0.0,0.0,0.0,10.0
1446034243240450284,432,1446034243237126111,robocape_mag,19.95,3.3,-4.5,10.0,0.0,0.0,0.0,10.0,0.0,0.0,0.0,10.0
1446034243292076784,433,1446034243288475990,robocape_mag,19.95,3.3,-4.5,10.0,0.0,0.0,0.0,10.0,0.0,0.0,0.0,10.0
1446034243340144534,434,1446034243337016105,robocape_mag,19.95,3.3,-4.5,10.0,0.0,0.0,0.0,10.0,0.0,0.0,0.0,10.0
1446034243390324743,435,1446034243387151956,robocape_mag,19.95,3.3,-4.5,10.0,0.0,0.0,0.0,10.0,0.0,0.0,0.0,10.0
1446034243440553868,436,1446034243436913013,robocape_mag,24.15,-2.7,9.3,10.0,0.0,0.0,0.0,10.0,0.0,0.0,0.0,10.0
1446034243493656659,437,1446034243490921020,robocape_mag,24.15,-2.7,9.3,10.0,0.0,0.0,0.0,10.0,0.0,0.0,0.0,10.0
1446034243540621618,438,1446034243536935091,robocape_mag,24.15,-2.7,9.3,10.0,0.0,0.0,0.0,10.0,0.0,0.0,0.0,10.0
1446034243590033909,439,1446034243586837053,robocape_mag,7.35,8.1,7.5,10.0,0.0,0.0,0.0,10.0,0.0,0.0,0.0,10.0
1446034243640227951,440,1446034243636985063,robocape_mag,7.35,8.1,7.5,10.0,0.0,0.0,0.0,10.0,0.0,0.0,0.0,10.0
1446034243692890868,441,1446034243689501047,robocape_mag,7.35,8.1,7.5,10.0,0.0,0.0,0.0,10.0,0.0,0.0,0.0,10.0
1446034243740192868,442,1446034243736771106,robocape_mag,6.15,-2.7,-2.1,10.0,0.0,0.0,0.0,10.0,0.0,0.0,0.0,10.0
1446034243790660326,443,1446034243786914110,robocape_mag,6.15,-2.7,-2.1,10.0,0.0,0.0,0.0,10.0,0.0,0.0,0.0,10.0
1446034243840345285,444,1446034243836690902,robocape_mag,6.15,-2.7,-2.1,10.0,0.0,0.0,0.0,10.0,0.0,0.0,0.0,10.0
1446034243893922576,445,1446034243890100955,robocape_mag,13.95,-13.5,-5.7,10.0,0.0,0.0,0.0,10.0,0.0,0.0,0.0,10.0
1446034243941085368,446,1446034243936780929,robocape_mag,13.95,-13.5,-5.7,10.0,0.0,0.0,0.0,10.0,0.0,0.0,0.0,10.0
1446034243990121826,447,1446034243986749887,robocape_mag,13.95,-13.5,-5.7,10.0,0.0,0.0,0.0,10.0,0.0,0.0,0.0,10.0
1446034244040937201,448,1446034244036787033,robocape_mag,34.35,-1.5,4.5,10.0,0.0,0.0,0.0,10.0,0.0,0.0,0.0,10.0
1446034244091434576,449,1446034244088187932,robocape_mag,34.35,-1.5,4.5,10.0,0.0,0.0,0.0,10.0,0.0,0.0,0.0,10.0
1446034244140446451,450,1446034244136926889,robocape_mag,34.35,-1.5,4.5,10.0,0.0,0.0,0.0,10.0,0.0,0.0,0.0,10.0
1446034244190551285,451,1446034244186887025,robocape_mag,34.35,-1.5,4.5,10.0,0.0,0.0,0.0,10.0,0.0,0.0,0.0,10.0
1446034244240198868,452,1446034244236788988,robocape_mag,14.55,-9.9,-6.9,10.0,0.0,0.0,0.0,10.0,0.0,0.0,0.0,10.0
1446034244290722410,453,1446034244287029027,robocape_mag,14.55,-9.9,-6.9,10.0,0.0,0.0,0.0,10.0,0.0,0.0,0.0,10.0
1446034244341832160,454,1446034244337920904,robocape_mag,14.55,-9.9,-6.9,10.0,0.0,0.0,0.0,10.0,0.0,0.0,0.0,10.0
1446034244390347410,455,1446034244387072086,robocape_mag,22.05,7.2,1.2,10.0,0.0,0.0,0.0,10.0,0.0,0.0,0.0,10.0
1446034244439974285,456,1446034244436836004,robocape_mag,22.05,7.2,1.2,10.0,0.0,0.0,0.0,10.0,0.0,0.0,0.0,10.0
1446034244491254368,457,1446034244487617015,robocape_mag,22.05,7.2,1.2,10.0,0.0,0.0,0.0,10.0,0.0,0.0,0.0,10.0
1446034244543707910,458,1446034244539506912,robocape_mag,26.85,1.8,4.8,10.0,0.0,0.0,0.0,10.0,0.0,0.0,0.0,10.0
1446034244589854410,459,1446034244586752891,robocape_mag,26.85,1.8,4.8,10.0,0.0,0.0,0.0,10.0,0.0,0.0,0.0,10.0
1446034244640573160,460,1446034244636755943,robocape_mag,26.85,1.8,4.8,10.0,0.0,0.0,0.0,10.0,0.0,0.0,0.0,10.0
1446034244690519618,461,1446034244686956882,robocape_mag,21.75,5.1,6.9,10.0,0.0,0.0,0.0,10.0,0.0,0.0,0.0,10.0
1446034244744065702,462,1446034244740432977,robocape_mag,21.75,5.1,6.9,10.0,0.0,0.0,0.0,10.0,0.0,0.0,0.0,10.0
1446034244790549952,463,1446034244786885023,robocape_mag,21.75,5.1,6.9,10.0,0.0,0.0,0.0,10.0,0.0,0.0,0.0,10.0
1446034244839968160,464,1446034244836755037,robocape_mag,0.15,-9.9,-2.7,10.0,0.0,0.0,0.0,10.0,0.0,0.0,0.0,10.0
1446034244890518285,465,1446034244886868953,robocape_mag,0.15,-9.9,-2.7,10.0,0.0,0.0,0.0,10.0,0.0,0.0,0.0,10.0
1446034244944067202,466,1446034244940519094,robocape_mag,0.15,-9.9,-2.7,10.0,0.0,0.0,0.0,10.0,0.0,0.0,0.0,10.0
1446034244989959285,467,1446034244986720085,robocape_mag,0.15,-9.9,-2.7,10.0,0.0,0.0,0.0,10.0,0.0,0.0,0.0,10.0
1446034245040201285,468,1446034245036909103,robocape_mag,6.15,2.1,0.9,10.0,0.0,0.0,0.0,10.0,0.0,0.0,0.0,10.0
1446034245090118160,469,1446034245086699008,robocape_mag,6.15,2.1,0.9,10.0,0.0,0.0,0.0,10.0,0.0,0.0,0.0,10.0
1446034245142551994,470,1446034245138875961,robocape_mag,6.15,2.1,0.9,10.0,0.0,0.0,0.0,10.0,0.0,0.0,0.0,10.0
1446034245190726577,471,1446034245186897993,robocape_mag,25.65,-16.2,0.0,10.0,0.0,0.0,0.0,10.0,0.0,0.0,0.0,10.0
1446034245241515077,472,1446034245237870931,robocape_mag,25.65,-16.2,0.0,10.0,0.0,0.0,0.0,10.0,0.0,0.0,0.0,10.0
1446034245290502535,473,1446034245286832094,robocape_mag,25.65,-16.2,0.0,10.0,0.0,0.0,0.0,10.0,0.0,0.0,0.0,10.0
1446034245341432952,474,1446034245337905883,robocape_mag,16.65,-1.8,-6.6,10.0,0.0,0.0,0.0,10.0,0.0,0.0,0.0,10.0
1446034245391094285,475,1446034245388005971,robocape_mag,16.65,-1.8,-6.6,10.0,0.0,0.0,0.0,10.0,0.0,0.0,0.0,10.0
1446034245439998535,476,1446034245436899900,robocape_mag,16.65,-1.8,-6.6,10.0,0.0,0.0,0.0,10.0,0.0,0.0,0.0,10.0
1446034245490080869,477,1446034245486963033,robocape_mag,26.25,4.2,3.0,10.0,0.0,0.0,0.0,10.0,0.0,0.0,0.0,10.0
1446034245541400160,478,1446034245538233995,robocape_mag,26.25,4.2,3.0,10.0,0.0,0.0,0.0,10.0,0.0,0.0,0.0,10.0
1446034245590634119,479,1446034245586909055,robocape_mag,26.25,4.2,3.0,10.0,0.0,0.0,0.0,10.0,0.0,0.0,0.0,10.0
1446034245640997494,480,1446034245637898921,robocape_mag,24.15,3.3,7.5,10.0,0.0,0.0,0.0,10.0,0.0,0.0,0.0,10.0
1446034245690623994,481,1446034245686955928,robocape_mag,24.15,3.3,7.5,10.0,0.0,0.0,0.0,10.0,0.0,0.0,0.0,10.0
1446034245741945869,482,1446034245738743066,robocape_mag,24.15,3.3,7.5,10.0,0.0,0.0,0.0,10.0,0.0,0.0,0.0,10.0
1446034245790486952,483,1446034245786793947,robocape_mag,24.15,3.3,7.5,10.0,0.0,0.0,0.0,10.0,0.0,0.0,0.0,10.0
1446034245840108202,484,1446034245836987018,robocape_mag,1.05,4.2,0.0,10.0,0.0,0.0,0.0,10.0,0.0,0.0,0.0,10.0
1446034245890322411,485,1446034245887000083,robocape_mag,1.05,4.2,0.0,10.0,0.0,0.0,0.0,10.0,0.0,0.0,0.0,10.0
1446034245942328494,486,1446034245940167903,robocape_mag,1.05,4.2,0.0,10.0,0.0,0.0,0.0,10.0,0.0,0.0,0.0,10.0
1446034245990304494,487,1446034245987042903,robocape_mag,-11.55,0.6,1.8,10.0,0.0,0.0,0.0,10.0,0.0,0.0,0.0,10.0
1446034246040773452,488,1446034246036952018,robocape_mag,-11.55,0.6,1.8,10.0,0.0,0.0,0.0,10.0,0.0,0.0,0.0,10.0
1446034246090009577,489,1446034246086708068,robocape_mag,-11.55,0.6,1.8,10.0,0.0,0.0,0.0,10.0,0.0,0.0,0.0,10.0
1446034246144315494,490,1446034246140769004,robocape_mag,-10.65,-14.7,0.3,10.0,0.0,0.0,0.0,10.0,0.0,0.0,0.0,10.0
1446034246191878452,491,1446034246187967061,robocape_mag,-10.65,-14.7,0.3,10.0,0.0,0.0,0.0,10.0,0.0,0.0,0.0,10.0
1446034246240492286,492,1446034246236993074,robocape_mag,-10.65,-14.7,0.3,10.0,0.0,0.0,0.0,10.0,0.0,0.0,0.0,10.0
1446034246290700827,493,1446034246286833047,robocape_mag,-1.95,-17.4,7.2,10.0,0.0,0.0,0.0,10.0,0.0,0.0,0.0,10.0
1446034246343296494,494,1446034246339519023,robocape_mag,-1.95,-17.4,7.2,10.0,0.0,0.0,0.0,10.0,0.0,0.0,0.0,10.0
1446034246390590036,495,1446034246386852025,robocape_mag,-1.95,-17.4,7.2,10.0,0.0,0.0,0.0,10.0,0.0,0.0,0.0,10.0
1446034246440900869,496,1446034246437115907,robocape_mag,7.35,-20.7,8.1,10.0,0.0,0.0,0.0,10.0,0.0,0.0,0.0,10.0
1446034246490770328,497,1446034246486804008,robocape_mag,7.35,-20.7,8.1,10.0,0.0,0.0,0.0,10.0,0.0,0.0,0.0,10.0
1446034246540769994,498,1446034246536964893,robocape_mag,7.35,-20.7,8.1,10.0,0.0,0.0,0.0,10.0,0.0,0.0,0.0,10.0
1446034246590355328,499,1446034246587208986,robocape_mag,7.35,-20.7,8.1,10.0,0.0,0.0,0.0,10.0,0.0,0.0,0.0,10.0
1446034246642154786,500,1446034246638524055,robocape_mag,7.65,-3.0,7.2,10.0,0.0,0.0,0.0,10.0,0.0,0.0,0.0,10.0
1446034246690755078,501,1446034246687056064,robocape_mag,7.65,-3.0,7.2,10.0,0.0,0.0,0.0,10.0,0.0,0.0,0.0,10.0
1446034246740201661,502,1446034246737063884,robocape_mag,7.65,-3.0,7.2,10.0,0.0,0.0,0.0,10.0,0.0,0.0,0.0,10.0
1446034246790535578,503,1446034246786848068,robocape_mag,4.95,-8.1,-2.1,10.0,0.0,0.0,0.0,10.0,0.0,0.0,0.0,10.0
1446034246841707994,504,1446034246838525056,robocape_mag,4.95,-8.1,-2.1,10.0,0.0,0.0,0.0,10.0,0.0,0.0,0.0,10.0
1446034246890557661,505,1446034246886862039,robocape_mag,4.95,-8.1,-2.1,10.0,0.0,0.0,0.0,10.0,0.0,0.0,0.0,10.0
1446034246940978953,506,1446034246937273025,robocape_mag,12.75,-22.5,-4.5,10.0,0.0,0.0,0.0,10.0,0.0,0.0,0.0,10.0
1446034246990299078,507,1446034246986784934,robocape_mag,12.75,-22.5,-4.5,10.0,0.0,0.0,0.0,10.0,0.0,0.0,0.0,10.0
1446034247044413744,508,1446034247040452003,robocape_mag,12.75,-22.5,-4.5,10.0,0.0,0.0,0.0,10.0,0.0,0.0,0.0,10.0
1446034247090059703,509,1446034247086864948,robocape_mag,31.05,-19.2,4.2,10.0,0.0,0.0,0.0,10.0,0.0,0.0,0.0,10.0
1446034247140704870,510,1446034247136965990,robocape_mag,31.05,-19.2,4.2,10.0,0.0,0.0,0.0,10.0,0.0,0.0,0.0,10.0
1446034247191346203,511,1446034247189097881,robocape_mag,31.05,-19.2,4.2,10.0,0.0,0.0,0.0,10.0,0.0,0.0,0.0,10.0
1446034247240136245,512,1446034247236848115,robocape_mag,16.35,-5.1,-4.5,10.0,0.0,0.0,0.0,10.0,0.0,0.0,0.0,10.0
1446034247290577370,513,1446034247286834955,robocape_mag,16.35,-5.1,-4.5,10.0,0.0,0.0,0.0,10.0,0.0,0.0,0.0,10.0
1446034247339955203,514,1446034247336690902,robocape_mag,16.35,-5.1,-4.5,10.0,0.0,0.0,0.0,10.0,0.0,0.0,0.0,10.0
1446034247393613995,515,1446034247389971017,robocape_mag,16.35,-5.1,-4.5,10.0,0.0,0.0,0.0,10.0,0.0,0.0,0.0,10.0
1446034247440494286,516,1446034247436769962,robocape_mag,12.15,-21.3,2.1,10.0,0.0,0.0,0.0,10.0,0.0,0.0,0.0,10.0
1446034247491672578,517,1446034247487821102,robocape_mag,12.15,-21.3,2.1,10.0,0.0,0.0,0.0,10.0,0.0,0.0,0.0,10.0
1446034247540687078,518,1446034247536875963,robocape_mag,12.15,-21.3,2.1,10.0,0.0,0.0,0.0,10.0,0.0,0.0,0.0,10.0
1446034247591936495,519,1446034247588767051,robocape_mag,12.45,-1.8,6.6,10.0,0.0,0.0,0.0,10.0,0.0,0.0,0.0,10.0
1446034247640218870,520,1446034247636998891,robocape_mag,12.45,-1.8,6.6,10.0,0.0,0.0,0.0,10.0,0.0,0.0,0.0,10.0
1446034247691341036,521,1446034247686842918,robocape_mag,12.45,-1.8,6.6,10.0,0.0,0.0,0.0,10.0,0.0,0.0,0.0,10.0
1446034247753566245,522,1446034247737070083,robocape_mag,8.85,-21.6,7.8,10.0,0.0,0.0,0.0,10.0,0.0,0.0,0.0,10.0
1446034247792007453,523,1446034247788422107,robocape_mag,8.85,-21.6,7.8,10.0,0.0,0.0,0.0,10.0,0.0,0.0,0.0,10.0
1446034247841305578,524,1446034247838129997,robocape_mag,8.85,-21.6,7.8,10.0,0.0,0.0,0.0,10.0,0.0,0.0,0.0,10.0
1446034247890552453,525,1446034247886786937,robocape_mag,-7.95,-7.8,1.2,10.0,0.0,0.0,0.0,10.0,0.0,0.0,0.0,10.0
1446034247940790328,526,1446034247936991930,robocape_mag,-7.95,-7.8,1.2,10.0,0.0,0.0,0.0,10.0,0.0,0.0,0.0,10.0
1446034247989933953,527,1446034247986742973,robocape_mag,-7.95,-7.8,1.2,10.0,0.0,0.0,0.0,10.0,0.0,0.0,0.0,10.0
1446034248040780078,528,1446034248037522077,robocape_mag,4.35,-6.9,9.3,10.0,0.0,0.0,0.0,10.0,0.0,0.0,0.0,10.0
1446034248090072912,529,1446034248086857080,robocape_mag,4.35,-6.9,9.3,10.0,0.0,0.0,0.0,10.0,0.0,0.0,0.0,10.0
1446034248140679537,530,1446034248136961936,robocape_mag,4.35,-6.9,9.3,10.0,0.0,0.0,0.0,10.0,0.0,0.0,0.0,10.0
1446034248190016995,531,1446034248186824083,robocape_mag,4.35,-6.9,9.3,10.0,0.0,0.0,0.0,10.0,0.0,0.0,0.0,10.0
1446034248244071412,532,1446034248240271091,robocape_mag,0.45,-9.0,9.0,10.0,0.0,0.0,0.0,10.0,0.0,0.0,0.0,10.0
1446034248291202578,533,1446034248287923097,robocape_mag,0.45,-9.0,9.0,10.0,0.0,0.0,0.0,10.0,0.0,0.0,0.0,10.0
