%time,field.header.seq,field.header.stamp,field.header.frame_id,field.magnetic_field.x,field.magnetic_field.y,field.magnetic_field.z,field.magnetic_field_covariance0,field.magnetic_field_covariance1,field.magnetic_field_covariance2,field.magnetic_field_covariance3,field.magnetic_field_covariance4,field.magnetic_field_covariance5,field.magnetic_field_covariance6,field.magnetic_field_covariance7,field.magnetic_field_covariance8
1446034842159961653,1,1446034841742260932,robocape_mag,19.65,-11.25,9.0,10.0,0.0,0.0,0.0,10.0,0.0,0.0,0.0,10.0
1446034842182250612,2,1446034841758050918,robocape_mag,19.65,-11.25,9.0,10.0,0.0,0.0,0.0,10.0,0.0,0.0,0.0,10.0
1446034842187222820,3,1446034841774625062,robocape_mag,19.65,-11.25,9.0,10.0,0.0,0.0,0.0,10.0,0.0,0.0,0.0,10.0
1446034842187284445,4,1446034841793778896,robocape_mag,19.65,-11.25,9.0,10.0,0.0,0.0,0.0,10.0,0.0,0.0,0.0,10.0
1446034842198286195,5,1446034841820499897,robocape_mag,19.65,-11.25,9.0,10.0,0.0,0.0,0.0,10.0,0.0,0.0,0.0,10.0
1446034842205040528,6,1446034841849404096,robocape_mag,19.65,-11.25,9.0,10.0,0.0,0.0,0.0,10.0,0.0,0.0,0.0,10.0
1446034842211204737,7,1446034841869673967,robocape_mag,19.65,-11.25,9.0,10.0,0.0,0.0,0.0,10.0,0.0,0.0,0.0,10.0
1446034842211486653,8,1446034841890535116,robocape_mag,21.75,-12.75,9.9,10.0,0.0,0.0,0.0,10.0,0.0,0.0,0.0,10.0
1446034842211531737,9,1446034841904295921,robocape_mag,21.75,-12.75,9.9,10.0,0.0,0.0,0.0,10.0,0.0,0.0,0.0,10.0
1446034842211567028,10,1446034841919003009,robocape_mag,21.75,-12.75,9.9,10.0,0.0,0.0,0.0,10.0,0.0,0.0,0.0,10.0
1446034842212068278,11,1446034841935353040,robocape_mag,21.75,-12.75,9.9,10.0,0.0,0.0,0.0,10.0,0.0,0.0,0.0,10.0
1446034842212127653,12,1446034841954531908,robocape_mag,21.75,-12.75,9.9,10.0,0.0,0.0,0.0,10.0,0.0,0.0,0.0,10.0
1446034842218517570,13,1446034841979366064,robocape_mag,21.75,-12.75,9.9,10.0,0.0,0.0,0.0,10.0,0.0,0.0,0.0,10.0
1446034842218596237,14,1446034842002506017,robocape_mag,21.75,-12.75,9.9,10.0,0.0,0.0,0.0,10.0,0.0,0.0,0.0,10.0
1446034842224994945,15,1446034842054569005,robocape_mag,21.15,-12.15,10.5,10.0,0.0,0.0,0.0,10.0,0.0,0.0,0.0,10.0
1446034842226532320,16,1446034842068628072,robocape_mag,21.15,-12.15,10.5,10.0,0.0,0.0,0.0,10.0,0.0,0.0,0.0,10.0
1446034842226999570,17,1446034842085421085,robocape_mag,21.15,-12.15,10.5,10.0,0.0,0.0,0.0,10.0,0.0,0.0,0.0,10.0
1446034842227076028,18,1446034842098048925,robocape_mag,21.15,-12.15,10.5,10.0,0.0,0.0,0.0,10.0,0.0,0.0,0.0,10.0
1446034842227511362,19,1446034842111970901,robocape_mag,21.15,-12.15,10.5,10.0,0.0,0.0,0.0,10.0,0.0,0.0,0.0,10.0
1446034842228649153,20,1446034842124885082,robocape_mag,21.15,-12.15,10.5,10.0,0.0,0.0,0.0,10.0,0.0,0.0,0.0,10.0
1446034842229578695,21,1446034842143157005,robocape_mag,21.15,-12.15,10.5,10.0,0.0,0.0,0.0,10.0,0.0,0.0,0.0,10.0
1446034842231505070,22,1446034842169823884,robocape_mag,21.15,-12.15,10.5,10.0,0.0,0.0,0.0,10.0,0.0,0.0,0.0,10.0
1446034842232226820,23,1446034842190815925,robocape_mag,21.15,-12.15,10.5,10.0,0.0,0.0,0.0,10.0,0.0,0.0,0.0,10.0
1446034842232274320,24,1446034842205305099,robocape_mag,21.15,-12.15,10.5,10.0,0.0,0.0,0.0,10.0,0.0,0.0,0.0,10.0
1446034842233763695,25,1446034842221535921,robocape_mag,20.85,-12.45,9.6,10.0,0.0,0.0,0.0,10.0,0.0,0.0,0.0,10.0
1446034842241950653,26,1446034842234530925,robocape_mag,20.85,-12.45,9.6,10.0,0.0,0.0,0.0,10.0,0.0,0.0,0.0,10.0
1446034842257027320,27,1446034842254208087,robocape_mag,20.85,-12.45,9.6,10.0,0.0,0.0,0.0,10.0,0.0,0.0,0.0,10.0
1446034842279593237,28,1446034842277106046,robocape_mag,20.85,-12.45,9.6,10.0,0.0,0.0,0.0,10.0,0.0,0.0,0.0,10.0
1446034842296286570,29,1446034842293227910,robocape_mag,20.85,-12.45,9.6,10.0,0.0,0.0,0.0,10.0,0.0,0.0,0.0,10.0
1446034842316373278,30,1446034842313301086,robocape_mag,20.85,-12.45,9.6,10.0,0.0,0.0,0.0,10.0,0.0,0.0,0.0,10.0
1446034842339564362,31,1446034842336467981,robocape_mag,20.85,-12.45,9.6,10.0,0.0,0.0,0.0,10.0,0.0,0.0,0.0,10.0
1446034842357671695,32,1446034842353842020,robocape_mag,20.85,-12.45,9.6,10.0,0.0,0.0,0.0,10.0,0.0,0.0,0.0,10.0
1446034842376592403,33,1446034842373380899,robocape_mag,19.35,-12.75,9.3,10.0,0.0,0.0,0.0,10.0,0.0,0.0,0.0,10.0
1446034842401519987,34,1446034842397550106,robocape_mag,19.35,-12.75,9.3,10.0,0.0,0.0,0.0,10.0,0.0,0.0,0.0,10.0
1446034842416298070,35,1446034842413178920,robocape_mag,19.35,-12.75,9.3,10.0,0.0,0.0,0.0,10.0,0.0,0.0,0.0,10.0
1446034842437393487,36,1446034842433758974,robocape_mag,19.35,-12.75,9.3,10.0,0.0,0.0,0.0,10.0,0.0,0.0,0.0,10.0
1446034842459325903,37,1446034842455892086,robocape_mag,19.35,-12.75,9.3,10.0,0.0,0.0,0.0,10.0,0.0,0.0,0.0,10.0
1446034842479014028,38,1446034842475910902,robocape_mag,19.35,-12.75,9.3,10.0,0.0,0.0,0.0,10.0,0.0,0.0,0.0,10.0
1446034842496286695,39,1446034842493163108,robocape_mag,19.35,-12.75,9.3,10.0,0.0,0.0,0.0,10.0,0.0,0.0,0.0,10.0
1446034842516946320,40,1446034842513065099,robocape_mag,19.35,-12.75,9.3,10.0,0.0,0.0,0.0,10.0,0.0,0.0,0.0,10.0
1446034842539069445,41,1446034842535969972,robocape_mag,19.35,-12.15,9.9,10.0,0.0,0.0,0.0,10.0,0.0,0.0,0.0,10.0
1446034842556137695,42,1446034842553040027,robocape_mag,19.35,-12.15,9.9,10.0,0.0,0.0,0.0,10.0,0.0,0.0,0.0,10.0
1446034842576316570,43,1446034842573183059,robocape_mag,19.35,-12.15,9.9,10.0,0.0,0.0,0.0,10.0,0.0,0.0,0.0,10.0
1446034842601060153,44,1446034842597292900,robocape_mag,19.35,-12.15,9.9,10.0,0.0,0.0,0.0,10.0,0.0,0.0,0.0,10.0
1446034842616953653,45,1446034842613158941,robocape_mag,19.35,-12.15,9.9,10.0,0.0,0.0,0.0,10.0,0.0,0.0,0.0,10.0
1446034842636527903,46,1446034842633429050,robocape_mag,19.35,-12.15,9.9,10.0,0.0,0.0,0.0,10.0,0.0,0.0,0.0,10.0
1446034842661471153,47,1446034842657601118,robocape_mag,19.35,-12.15,9.9,10.0,0.0,0.0,0.0,10.0,0.0,0.0,0.0,10.0
1446034842678269945,48,1446034842674598932,robocape_mag,19.35,-12.15,9.9,10.0,0.0,0.0,0.0,10.0,0.0,0.0,0.0,10.0
1446034842696397570,49,1446034842693339109,robocape_mag,19.35,-11.55,9.3,10.0,0.0,0.0,0.0,10.0,0.0,0.0,0.0,10.0
1446034842716590278,50,1446034842713356971,robocape_mag,19.35,-11.55,9.3,10.0,0.0,0.0,0.0,10.0,0.0,0.0,0.0,10.0
1446034842739852070,51,1446034842736644029,robocape_mag,19.35,-11.55,9.3,10.0,0.0,0.0,0.0,10.0,0.0,0.0,0.0,10.0
1446034842756333987,52,1446034842753262996,robocape_mag,19.35,-11.55,9.3,10.0,0.0,0.0,0.0,10.0,0.0,0.0,0.0,10.0
1446034842776990862,53,1446034842773346900,robocape_mag,19.35,-11.55,9.3,10.0,0.0,0.0,0.0,10.0,0.0,0.0,0.0,10.0
1446034842799897737,54,1446034842796298980,robocape_mag,19.35,-11.55,9.3,10.0,0.0,0.0,0.0,10.0,0.0,0.0,0.0,10.0
1446034842816357570,55,1446034842813143014,robocape_mag,19.35,-11.55,9.3,10.0,0.0,0.0,0.0,10.0,0.0,0.0,0.0,10.0
1446034842836262695,56,1446034842833102941,robocape_mag,19.35,-11.55,9.3,10.0,0.0,0.0,0.0,10.0,0.0,0.0,0.0,10.0
1446034842862669029,57,1446034842858814954,robocape_mag,19.35,-11.55,10.5,10.0,0.0,0.0,0.0,10.0,0.0,0.0,0.0,10.0
1446034842877256404,58,1446034842873841047,robocape_mag,19.35,-11.55,10.5,10.0,0.0,0.0,0.0,10.0,0.0,0.0,0.0,10.0
1446034842896607654,59,1446034842893357038,robocape_mag,19.35,-11.55,10.5,10.0,0.0,0.0,0.0,10.0,0.0,0.0,0.0,10.0
1446034842918265112,60,1446034842914469957,robocape_mag,19.35,-11.55,10.5,10.0,0.0,0.0,0.0,10.0,0.0,0.0,0.0,10.0
1446034842937724445,61,1446034842934623003,robocape_mag,19.35,-11.55,10.5,10.0,0.0,0.0,0.0,10.0,0.0,0.0,0.0,10.0
1446034842956682695,62,1446034842953051090,robocape_mag,19.35,-11.55,10.5,10.0,0.0,0.0,0.0,10.0,0.0,0.0,0.0,10.0
1446034842977019904,63,1446034842973567008,robocape_mag,19.35,-11.55,10.5,10.0,0.0,0.0,0.0,10.0,0.0,0.0,0.0,10.0
1446034842999831362,64,1446034842996153116,robocape_mag,19.35,-11.55,10.5,10.0,0.0,0.0,0.0,10.0,0.0,0.0,0.0,10.0
1446034843017071362,65,1446034843013259887,robocape_mag,19.35,-10.95,10.5,10.0,0.0,0.0,0.0,10.0,0.0,0.0,0.0,10.0
1446034843036721112,66,1446034843033171892,robocape_mag,19.35,-10.95,10.5,10.0,0.0,0.0,0.0,10.0,0.0,0.0,0.0,10.0
1446034843060522112,67,1446034843057310104,robocape_mag,19.35,-10.95,10.5,10.0,0.0,0.0,0.0,10.0,0.0,0.0,0.0,10.0
1446034843076521404,68,1446034843073179006,robocape_mag,19.35,-10.95,10.5,10.0,0.0,0.0,0.0,10.0,0.0,0.0,0.0,10.0
1446034843096770279,69,1446034843093172073,robocape_mag,19.35,-10.95,10.5,10.0,0.0,0.0,0.0,10.0,0.0,0.0,0.0,10.0
1446034843119401279,70,1446034843115091085,robocape_mag,19.35,-10.95,10.5,10.0,0.0,0.0,0.0,10.0,0.0,0.0,0.0,10.0
1446034843142331529,71,1446034843136069059,robocape_mag,19.35,-10.95,10.5,10.0,0.0,0.0,0.0,10.0,0.0,0.0,0.0,10.0
1446034843164289320,72,1446034843160254955,robocape_mag,19.35,-10.95,10.5,10.0,0.0,0.0,0.0,10.0,0.0,0.0,0.0,10.0
1446034843178616279,73,1446034843174819946,robocape_mag,19.65,-11.25,9.0,10.0,0.0,0.0,0.0,10.0,0.0,0.0,0.0,10.0
1446034843200409279,74,1446034843196789026,robocape_mag,19.65,-11.25,9.0,10.0,0.0,0.0,0.0,10.0,0.0,0.0,0.0,10.0
1446034843216449237,75,1446034843213176965,robocape_mag,19.65,-11.25,9.0,10.0,0.0,0.0,0.0,10.0,0.0,0.0,0.0,10.0
1446034843236409570,76,1446034843233262062,robocape_mag,19.65,-11.25,9.0,10.0,0.0,0.0,0.0,10.0,0.0,0.0,0.0,10.0
1446034843259908279,77,1446034843255997896,robocape_mag,19.65,-11.25,9.0,10.0,0.0,0.0,0.0,10.0,0.0,0.0,0.0,10.0
1446034843277068279,78,1446034843273484945,robocape_mag,19.65,-11.25,9.0,10.0,0.0,0.0,0.0,10.0,0.0,0.0,0.0,10.0
1446034843296393070,79,1446034843293298006,robocape_mag,19.65,-11.25,9.0,10.0,0.0,0.0,0.0,10.0,0.0,0.0,0.0,10.0
1446034843320138945,80,1446034843317224025,robocape_mag,19.65,-11.25,9.0,10.0,0.0,0.0,0.0,10.0,0.0,0.0,0.0,10.0
1446034843336487112,81,1446034843333270072,robocape_mag,20.25,-12.45,10.2,10.0,0.0,0.0,0.0,10.0,0.0,0.0,0.0,10.0
1446034843356642362,82,1446034843353101015,robocape_mag,20.25,-12.45,10.2,10.0,0.0,0.0,0.0,10.0,0.0,0.0,0.0,10.0
1446034843378391737,83,1446034843374711036,robocape_mag,20.25,-12.45,10.2,10.0,0.0,0.0,0.0,10.0,0.0,0.0,0.0,10.0
1446034843398042570,84,1446034843394340991,robocape_mag,20.25,-12.45,10.2,10.0,0.0,0.0,0.0,10.0,0.0,0.0,0.0,10.0
1446034843416394445,85,1446034843413132905,robocape_mag,20.25,-12.45,10.2,10.0,0.0,0.0,0.0,10.0,0.0,0.0,0.0,10.0
1446034843437150487,86,1446034843433360099,robocape_mag,20.25,-12.45,10.2,10.0,0.0,0.0,0.0,10.0,0.0,0.0,0.0,10.0
1446034843460450154,87,1446034843456630945,robocape_mag,20.25,-12.45,10.2,10.0,0.0,0.0,0.0,10.0,0.0,0.0,0.0,10.0
1446034843476416196,88,1446034843473247051,robocape_mag,20.25,-12.45,10.2,10.0,0.0,0.0,0.0,10.0,0.0,0.0,0.0,10.0
1446034843496404779,89,1446034843493252992,robocape_mag,20.25,-12.45,10.2,10.0,0.0,0.0,0.0,10.0,0.0,0.0,0.0,10.0
1446034843519929237,90,1446034843516546964,robocape_mag,20.25,-12.45,10.2,10.0,0.0,0.0,0.0,10.0,0.0,0.0,0.0,10.0
1446034843536768946,91,1446034843533508062,robocape_mag,20.25,-12.45,10.2,10.0,0.0,0.0,0.0,10.0,0.0,0.0,0.0,10.0
1446034843556622071,92,1446034843553040027,robocape_mag,20.25,-12.45,10.2,10.0,0.0,0.0,0.0,10.0,0.0,0.0,0.0,10.0
1446034843578629821,93,1446034843575098991,robocape_mag,20.25,-12.45,10.2,10.0,0.0,0.0,0.0,10.0,0.0,0.0,0.0,10.0
1446034843597253696,94,1446034843593996047,robocape_mag,20.25,-12.45,10.2,10.0,0.0,0.0,0.0,10.0,0.0,0.0,0.0,10.0
1446034843616344779,95,1446034843613061904,robocape_mag,20.25,-12.45,10.2,10.0,0.0,0.0,0.0,10.0,0.0,0.0,0.0,10.0
1446034843636548487,96,1446034843633438110,robocape_mag,20.25,-12.45,10.2,10.0,0.0,0.0,0.0,10.0,0.0,0.0,0.0,10.0
1446034843658927946,97,1446034843655606985,robocape_mag,18.75,-12.15,9.9,10.0,0.0,0.0,0.0,10.0,0.0,0.0,0.0,10.0
1446034843676761404,98,1446034843673506021,robocape_mag,18.75,-12.15,9.9,10.0,0.0,0.0,0.0,10.0,0.0,0.0,0.0,10.0
1446034843696715279,99,1446034843693162918,robocape_mag,18.75,-12.15,9.9,10.0,0.0,0.0,0.0,10.0,0.0,0.0,0.0,10.0
1446034843720183904,100,1446034843716450929,robocape_mag,18.75,-12.15,9.9,10.0,0.0,0.0,0.0,10.0,0.0,0.0,0.0,10.0
1446034843736614821,101,1446034843733449935,robocape_mag,18.75,-12.15,9.9,10.0,0.0,0.0,0.0,10.0,0.0,0.0,0.0,10.0
1446034843756255446,102,1446034843753228902,robocape_mag,18.75,-12.15,9.9,10.0,0.0,0.0,0.0,10.0,0.0,0.0,0.0,10.0
1446034843780199029,103,1446034843777558088,robocape_mag,18.75,-12.15,9.9,10.0,0.0,0.0,0.0,10.0,0.0,0.0,0.0,10.0
1446034843796554612,104,1446034843793323993,robocape_mag,18.75,-12.15,9.9,10.0,0.0,0.0,0.0,10.0,0.0,0.0,0.0,10.0
1446034843816405237,105,1446034843813064098,robocape_mag,18.15,-13.35,11.7,10.0,0.0,0.0,0.0,10.0,0.0,0.0,0.0,10.0
1446034843837937029,106,1446034843834820032,robocape_mag,18.15,-13.35,11.7,10.0,0.0,0.0,0.0,10.0,0.0,0.0,0.0,10.0
1446034843859277904,107,1446034843855576992,robocape_mag,18.15,-13.35,11.7,10.0,0.0,0.0,0.0,10.0,0.0,0.0,0.0,10.0
1446034843876614821,108,1446034843873500108,robocape_mag,18.15,-13.35,11.7,10.0,0.0,0.0,0.0,10.0,0.0,0.0,0.0,10.0
1446034843897136987,109,1446034843893316984,robocape_mag,18.15,-13.35,11.7,10.0,0.0,0.0,0.0,10.0,0.0,0.0,0.0,10.0
1446034843919920737,110,1446034843915932893,robocape_mag,18.15,-13.35,11.7,10.0,0.0,0.0,0.0,10.0,0.0,0.0,0.0,10.0
1446034843937878237,111,1446034843934644937,robocape_mag,18.15,-13.35,11.7,10.0,0.0,0.0,0.0,10.0,0.0,0.0,0.0,10.0
1446034843956681112,112,1446034843953162908,robocape_mag,18.15,-13.35,11.7,10.0,0.0,0.0,0.0,10.0,0.0,0.0,0.0,10.0
1446034843980975446,113,1446034843977627992,robocape_mag,19.05,-13.65,10.2,10.0,0.0,0.0,0.0,10.0,0.0,0.0,0.0,10.0
1446034843996412987,114,1446034843993093013,robocape_mag,19.05,-13.65,10.2,10.0,0.0,0.0,0.0,10.0,0.0,0.0,0.0,10.0
1446034844016903821,115,1446034844013117074,robocape_mag,19.05,-13.65,10.2,10.0,0.0,0.0,0.0,10.0,0.0,0.0,0.0,10.0
1446034844038112321,116,1446034844034878015,robocape_mag,19.05,-13.65,10.2,10.0,0.0,0.0,0.0,10.0,0.0,0.0,0.0,10.0
1446034844056610279,117,1446034844053549051,robocape_mag,19.05,-13.65,10.2,10.0,0.0,0.0,0.0,10.0,0.0,0.0,0.0,10.0
1446034844076547362,118,1446034844073170900,robocape_mag,19.05,-13.65,10.2,10.0,0.0,0.0,0.0,10.0,0.0,0.0,0.0,10.0
1446034844096707487,119,1446034844093255043,robocape_mag,19.05,-13.65,10.2,10.0,0.0,0.0,0.0,10.0,0.0,0.0,0.0,10.0
1446034844118898529,120,1446034844115405082,robocape_mag,19.05,-13.65,10.2,10.0,0.0,0.0,0.0,10.0,0.0,0.0,0.0,10.0
1446034844139155529,121,1446034844133332014,robocape_mag,21.75,-12.15,10.5,10.0,0.0,0.0,0.0,10.0,0.0,0.0,0.0,10.0
1446034844161097321,122,1446034844157556056,robocape_mag,21.75,-12.15,10.5,10.0,0.0,0.0,0.0,10.0,0.0,0.0,0.0,10.0
1446034844182773529,123,1446034844179203987,robocape_mag,21.75,-12.15,10.5,10.0,0.0,0.0,0.0,10.0,0.0,0.0,0.0,10.0
1446034844197375113,124,1446034844193814992,robocape_mag,21.75,-12.15,10.5,10.0,0.0,0.0,0.0,10.0,0.0,0.0,0.0,10.0
1446034844216302446,125,1446034844213129997,robocape_mag,21.75,-12.15,10.5,10.0,0.0,0.0,0.0,10.0,0.0,0.0,0.0,10.0
1446034844240596946,126,1446034844237941980,robocape_mag,21.75,-12.15,10.5,10.0,0.0,0.0,0.0,10.0,0.0,0.0,0.0,10.0
1446034844257013446,127,1446034844253238916,robocape_mag,21.75,-12.15,10.5,10.0,0.0,0.0,0.0,10.0,0.0,0.0,0.0,10.0
1446034844277136821,128,1446034844273287057,robocape_mag,21.75,-12.15,10.5,10.0,0.0,0.0,0.0,10.0,0.0,0.0,0.0,10.0
1446034844297368321,129,1446034844293679952,robocape_mag,18.45,-12.45,9.0,10.0,0.0,0.0,0.0,10.0,0.0,0.0,0.0,10.0
1446034844317108779,130,1446034844313777923,robocape_mag,18.45,-12.45,9.0,10.0,0.0,0.0,0.0,10.0,0.0,0.0,0.0,10.0
1446034844336958988,131,1446034844333427906,robocape_mag,18.45,-12.45,9.0,10.0,0.0,0.0,0.0,10.0,0.0,0.0,0.0,10.0
1446034844356228196,132,1446034844353086948,robocape_mag,18.45,-12.45,9.0,10.0,0.0,0.0,0.0,10.0,0.0,0.0,0.0,10.0
1446034844380549821,133,1446034844376838922,robocape_mag,18.45,-12.45,9.0,10.0,0.0,0.0,0.0,10.0,0.0,0.0,0.0,10.0
1446034844396207571,134,1446034844393233060,robocape_mag,18.45,-12.45,9.0,10.0,0.0,0.0,0.0,10.0,0.0,0.0,0.0,10.0
1446034844416819738,135,1446034844413362979,robocape_mag,18.45,-12.45,9.0,10.0,0.0,0.0,0.0,10.0,0.0,0.0,0.0,10.0
1446034844439817779,136,1446034844436538934,robocape_mag,18.45,-12.45,9.0,10.0,0.0,0.0,0.0,10.0,0.0,0.0,0.0,10.0
1446034844456925196,137,1446034844453177928,robocape_mag,20.25,-12.45,9.6,10.0,0.0,0.0,0.0,10.0,0.0,0.0,0.0,10.0
1446034844477183613,138,1446034844473351955,robocape_mag,20.25,-12.45,9.6,10.0,0.0,0.0,0.0,10.0,0.0,0.0,0.0,10.0
1446034844498207446,139,1446034844494843959,robocape_mag,20.25,-12.45,9.6,10.0,0.0,0.0,0.0,10.0,0.0,0.0,0.0,10.0
1446034844517368488,140,1446034844513703107,robocape_mag,20.25,-12.45,9.6,10.0,0.0,0.0,0.0,10.0,0.0,0.0,0.0,10.0
1446034844536512863,141,1446034844533241033,robocape_mag,20.25,-12.45,9.6,10.0,0.0,0.0,0.0,10.0,0.0,0.0,0.0,10.0
1446034844556639779,142,1446034844553040981,robocape_mag,20.25,-12.45,9.6,10.0,0.0,0.0,0.0,10.0,0.0,0.0,0.0,10.0
1446034844579705946,143,1446034844576478958,robocape_mag,20.25,-12.45,9.6,10.0,0.0,0.0,0.0,10.0,0.0,0.0,0.0,10.0
1446034844597444946,144,1446034844593127012,robocape_mag,20.25,-12.45,9.6,10.0,0.0,0.0,0.0,10.0,0.0,0.0,0.0,10.0
1446034844616806696,145,1446034844613264083,robocape_mag,19.65,-10.65,10.8,10.0,0.0,0.0,0.0,10.0,0.0,0.0,0.0,10.0
1446034844640311113,146,1446034844636404037,robocape_mag,19.65,-10.65,10.8,10.0,0.0,0.0,0.0,10.0,0.0,0.0,0.0,10.0
1446034844656616863,147,1446034844653250932,robocape_mag,19.65,-10.65,10.8,10.0,0.0,0.0,0.0,10.0,0.0,0.0,0.0,10.0
1446034844677258696,148,1446034844673491954,robocape_mag,19.65,-10.65,10.8,10.0,0.0,0.0,0.0,10.0,0.0,0.0,0.0,10.0
1446034844699750196,149,1446034844697537899,robocape_mag,19.65,-10.65,10.8,10.0,0.0,0.0,0.0,10.0,0.0,0.0,0.0,10.0
1446034844716686946,150,1446034844713248014,robocape_mag,19.65,-10.65,10.8,10.0,0.0,0.0,0.0,10.0,0.0,0.0,0.0,10.0
1446034844736383696,151,1446034844733205080,robocape_mag,19.65,-10.65,10.8,10.0,0.0,0.0,0.0,10.0,0.0,0.0,0.0,10.0
1446034844758116988,152,1446034844754463911,robocape_mag,19.65,-10.65,10.8,10.0,0.0,0.0,0.0,10.0,0.0,0.0,0.0,10.0
1446034844778916571,153,1446034844775084018,robocape_mag,20.25,-12.45,9.0,10.0,0.0,0.0,0.0,10.0,0.0,0.0,0.0,10.0
1446034844796807696,154,1446034844793144941,robocape_mag,20.25,-12.45,9.0,10.0,0.0,0.0,0.0,10.0,0.0,0.0,0.0,10.0
1446034844817337488,155,1446034844813270092,robocape_mag,20.25,-12.45,9.0,10.0,0.0,0.0,0.0,10.0,0.0,0.0,0.0,10.0
1446034844839466905,156,1446034844835670948,robocape_mag,20.25,-12.45,9.0,10.0,0.0,0.0,0.0,10.0,0.0,0.0,0.0,10.0
1446034844856469405,157,1446034844853072881,robocape_mag,20.25,-12.45,9.0,10.0,0.0,0.0,0.0,10.0,0.0,0.0,0.0,10.0
1446034844877753113,158,1446034844874438047,robocape_mag,20.25,-12.45,9.0,10.0,0.0,0.0,0.0,10.0,0.0,0.0,0.0,10.0
1446034844900945446,159,1446034844897785902,robocape_mag,20.25,-12.45,9.0,10.0,0.0,0.0,0.0,10.0,0.0,0.0,0.0,10.0
1446034844916242571,160,1446034844912972927,robocape_mag,20.25,-12.45,9.0,10.0,0.0,0.0,0.0,10.0,0.0,0.0,0.0,10.0
1446034844937277196,161,1446034844933976888,robocape_mag,19.35,-12.15,11.1,10.0,0.0,0.0,0.0,10.0,0.0,0.0,0.0,10.0
1446034844958376696,162,1446034844954817056,robocape_mag,19.35,-12.15,11.1,10.0,0.0,0.0,0.0,10.0,0.0,0.0,0.0,10.0
1446034844977940155,163,1446034844973989009,robocape_mag,19.35,-12.15,11.1,10.0,0.0,0.0,0.0,10.0,0.0,0.0,0.0,10.0
1446034844996763905,164,1446034844993407964,robocape_mag,19.35,-12.15,11.1,10.0,0.0,0.0,0.0,10.0,0.0,0.0,0.0,10.0
1446034845016455321,165,1446034845013016939,robocape_mag,19.35,-12.15,11.1,10.0,0.0,0.0,0.0,10.0,0.0,0.0,0.0,10.0
1446034845040704738,166,1446034845036993026,robocape_mag,19.35,-12.15,11.1,10.0,0.0,0.0,0.0,10.0,0.0,0.0,0.0,10.0
1446034845056598113,167,1446034845053049087,robocape_mag,19.35,-12.15,11.1,10.0,0.0,0.0,0.0,10.0,0.0,0.0,0.0,10.0
1446034845076657030,168,1446034845073555946,robocape_mag,19.35,-12.15,11.1,10.0,0.0,0.0,0.0,10.0,0.0,0.0,0.0,10.0
1446034845099614155,169,1446034845096354961,robocape_mag,18.45,-12.45,9.6,10.0,0.0,0.0,0.0,10.0,0.0,0.0,0.0,10.0
1446034845116547488,170,1446034845113078117,robocape_mag,18.45,-12.45,9.6,10.0,0.0,0.0,0.0,10.0,0.0,0.0,0.0,10.0
1446034845139322280,171,1446034845133630990,robocape_mag,18.45,-12.45,9.6,10.0,0.0,0.0,0.0,10.0,0.0,0.0,0.0,10.0
1446034845160412738,172,1446034845156918048,robocape_mag,18.45,-12.45,9.6,10.0,0.0,0.0,0.0,10.0,0.0,0.0,0.0,10.0
1446034845179698905,173,1446034845176093101,robocape_mag,18.45,-12.45,9.6,10.0,0.0,0.0,0.0,10.0,0.0,0.0,0.0,10.0
1446034845196953446,174,1446034845193315029,robocape_mag,18.45,-12.45,9.6,10.0,0.0,0.0,0.0,10.0,0.0,0.0,0.0,10.0
1446034845217248571,175,1446034845213387966,robocape_mag,18.45,-12.45,9.6,10.0,0.0,0.0,0.0,10.0,0.0,0.0,0.0,10.0
1446034845237700113,176,1446034845234019994,robocape_mag,18.45,-12.45,9.6,10.0,0.0,0.0,0.0,10.0,0.0,0.0,0.0,10.0
1446034845256226655,177,1446034845253211975,robocape_mag,20.55,-10.95,10.5,10.0,0.0,0.0,0.0,10.0,0.0,0.0,0.0,10.0
1446034845276784030,178,1446034845273211002,robocape_mag,20.55,-10.95,10.5,10.0,0.0,0.0,0.0,10.0,0.0,0.0,0.0,10.0
1446034845299238238,179,1446034845295957088,robocape_mag,20.55,-10.95,10.5,10.0,0.0,0.0,0.0,10.0,0.0,0.0,0.0,10.0
1446034845316339738,180,1446034845313230991,robocape_mag,20.55,-10.95,10.5,10.0,0.0,0.0,0.0,10.0,0.0,0.0,0.0,10.0
1446034845337049571,181,1446034845333487033,robocape_mag,20.55,-10.95,10.5,10.0,0.0,0.0,0.0,10.0,0.0,0.0,0.0,10.0
1446034845361614655,182,1446034845358412981,robocape_mag,20.55,-10.95,10.5,10.0,0.0,0.0,0.0,10.0,0.0,0.0,0.0,10.0
1446034845377319738,183,1446034845374048948,robocape_mag,20.55,-10.95,10.5,10.0,0.0,0.0,0.0,10.0,0.0,0.0,0.0,10.0
1446034845396561071,184,1446034845393488883,robocape_mag,20.55,-10.95,10.5,10.0,0.0,0.0,0.0,10.0,0.0,0.0,0.0,10.0
1446034845418196321,185,1446034845414841890,robocape_mag,19.05,-13.05,9.0,10.0,0.0,0.0,0.0,10.0,0.0,0.0,0.0,10.0
1446034845437391738,186,1446034845434106111,robocape_mag,19.05,-13.05,9.0,10.0,0.0,0.0,0.0,10.0,0.0,0.0,0.0,10.0
1446034845456628196,187,1446034845453007936,robocape_mag,19.05,-13.05,9.0,10.0,0.0,0.0,0.0,10.0,0.0,0.0,0.0,10.0
1446034845478094780,188,1446034845474349975,robocape_mag,19.05,-13.05,9.0,10.0,0.0,0.0,0.0,10.0,0.0,0.0,0.0,10.0
1446034845499709196,189,1446034845495937108,robocape_mag,19.05,-13.05,9.0,10.0,0.0,0.0,0.0,10.0,0.0,0.0,0.0,10.0
1446034845516538196,190,1446034845513107061,robocape_mag,19.05,-13.05,9.0,10.0,0.0,0.0,0.0,10.0,0.0,0.0,0.0,10.0
1446034845536720113,191,1446034845533529043,robocape_mag,19.05,-13.05,9.0,10.0,0.0,0.0,0.0,10.0,0.0,0.0,0.0,10.0
1446034845558575780,192,1446034845555344104,robocape_mag,19.05,-13.05,9.0,10.0,0.0,0.0,0.0,10.0,0.0,0.0,0.0,10.0
1446034845576270447,193,1446034845573200941,robocape_mag,22.35,-13.35,8.1,10.0,0.0,0.0,0.0,10.0,0.0,0.0,0.0,10.0
1446034845596606072,194,1446034845593146085,robocape_mag,22.35,-13.35,8.1,10.0,0.0,0.0,0.0,10.0,0.0,0.0,0.0,10.0
1446034845619772155,195,1446034845617161989,robocape_mag,22.35,-13.35,8.1,10.0,0.0,0.0,0.0,10.0,0.0,0.0,0.0,10.0
1446034845636944113,196,1446034845633198976,robocape_mag,22.35,-13.35,8.1,10.0,0.0,0.0,0.0,10.0,0.0,0.0,0.0,10.0
1446034845656668697,197,1446034845653409004,robocape_mag,22.35,-13.35,8.1,10.0,0.0,0.0,0.0,10.0,0.0,0.0,0.0,10.0
1446034845676796488,198,1446034845674514055,robocape_mag,22.35,-13.35,8.1,10.0,0.0,0.0,0.0,10.0,0.0,0.0,0.0,10.0
1446034845697102322,199,1446034845693934917,robocape_mag,22.35,-13.35,8.1,10.0,0.0,0.0,0.0,10.0,0.0,0.0,0.0,10.0
1446034845716332155,200,1446034845713164091,robocape_mag,22.35,-13.35,8.1,10.0,0.0,0.0,0.0,10.0,0.0,0.0,0.0,10.0
1446034845737083447,201,1446034845733248949,robocape_mag,19.35,-12.15,9.9,10.0,0.0,0.0,0.0,10.0,0.0,0.0,0.0,10.0
1446034845760009197,202,1446034845756851911,robocape_mag,19.35,-12.15,9.9,10.0,0.0,0.0,0.0,10.0,0.0,0.0,0.0,10.0
1446034845777202405,203,1446034845773323059,robocape_mag,19.35,-12.15,9.9,10.0,0.0,0.0,0.0,10.0,0.0,0.0,0.0,10.0
1446034845796756238,204,1446034845793206930,robocape_mag,19.35,-12.15,9.9,10.0,0.0,0.0,0.0,10.0,0.0,0.0,0.0,10.0
1446034845820257405,205,1446034845816703081,robocape_mag,19.35,-12.15,9.9,10.0,0.0,0.0,0.0,10.0,0.0,0.0,0.0,10.0
1446034845836875988,206,1446034845833272933,robocape_mag,19.35,-12.15,9.9,10.0,0.0,0.0,0.0,10.0,0.0,0.0,0.0,10.0
1446034845856829197,207,1446034845853101968,robocape_mag,19.35,-12.15,9.9,10.0,0.0,0.0,0.0,10.0,0.0,0.0,0.0,10.0
1446034845879228655,208,1446034845875232934,robocape_mag,19.35,-12.15,9.9,10.0,0.0,0.0,0.0,10.0,0.0,0.0,0.0,10.0
1446034845896983822,209,1446034845893842935,robocape_mag,19.95,-11.55,9.3,10.0,0.0,0.0,0.0,10.0,0.0,0.0,0.0,10.0
1446034845916627072,210,1446034845913096904,robocape_mag,19.95,-11.55,9.3,10.0,0.0,0.0,0.0,10.0,0.0,0.0,0.0,10.0
1446034845938957697,211,1446034845934879064,robocape_mag,19.95,-11.55,9.3,10.0,0.0,0.0,0.0,10.0,0.0,0.0,0.0,10.0
1446034845960000280,212,1446034845956403970,robocape_mag,19.95,-11.55,9.3,10.0,0.0,0.0,0.0,10.0,0.0,0.0,0.0,10.0
1446034845976580197,213,1446034845973464012,robocape_mag,19.95,-11.55,9.3,10.0,0.0,0.0,0.0,10.0,0.0,0.0,0.0,10.0
1446034845997625447,214,1446034845993228912,robocape_mag,19.95,-11.55,9.3,10.0,0.0,0.0,0.0,10.0,0.0,0.0,0.0,10.0
1446034846019323822,215,1446034846016057014,robocape_mag,19.95,-11.55,9.3,10.0,0.0,0.0,0.0,10.0,0.0,0.0,0.0,10.0
1446034846036852738,216,1446034846033104896,robocape_mag,19.95,-11.55,9.3,10.0,0.0,0.0,0.0,10.0,0.0,0.0,0.0,10.0
1446034846056411197,217,1446034846053203105,robocape_mag,20.85,-16.05,13.8,10.0,0.0,0.0,0.0,10.0,0.0,0.0,0.0,10.0
1446034846081024988,218,1446034846076723098,robocape_mag,20.85,-16.05,13.8,10.0,0.0,0.0,0.0,10.0,0.0,0.0,0.0,10.0
1446034846097858697,219,1446034846094518899,robocape_mag,20.85,-16.05,13.8,10.0,0.0,0.0,0.0,10.0,0.0,0.0,0.0,10.0
1446034846116698905,220,1446034846112999916,robocape_mag,20.85,-16.05,13.8,10.0,0.0,0.0,0.0,10.0,0.0,0.0,0.0,10.0
1446034846138651072,221,1446034846133492946,robocape_mag,20.85,-16.05,13.8,10.0,0.0,0.0,0.0,10.0,0.0,0.0,0.0,10.0
1446034846167989738,222,1446034846160121917,robocape_mag,20.85,-16.05,13.8,10.0,0.0,0.0,0.0,10.0,0.0,0.0,0.0,10.0
1446034846181783363,223,1446034846178036928,robocape_mag,20.85,-16.05,13.8,10.0,0.0,0.0,0.0,10.0,0.0,0.0,0.0,10.0
1446034846200498863,224,1446034846196929931,robocape_mag,20.85,-16.05,13.8,10.0,0.0,0.0,0.0,10.0,0.0,0.0,0.0,10.0
1446034846219274655,225,1446034846216263055,robocape_mag,19.95,-9.75,10.5,10.0,0.0,0.0,0.0,10.0,0.0,0.0,0.0,10.0
1446034846236463530,226,1446034846233184099,robocape_mag,19.95,-9.75,10.5,10.0,0.0,0.0,0.0,10.0,0.0,0.0,0.0,10.0
1446034846256935280,227,1446034846253215074,robocape_mag,19.95,-9.75,10.5,10.0,0.0,0.0,0.0,10.0,0.0,0.0,0.0,10.0
1446034846280130614,228,1446034846276725053,robocape_mag,19.95,-9.75,10.5,10.0,0.0,0.0,0.0,10.0,0.0,0.0,0.0,10.0
1446034846297078114,229,1446034846293217897,robocape_mag,19.95,-9.75,10.5,10.0,0.0,0.0,0.0,10.0,0.0,0.0,0.0,10.0
1446034846316343989,230,1446034846313235044,robocape_mag,19.95,-9.75,10.5,10.0,0.0,0.0,0.0,10.0,0.0,0.0,0.0,10.0
1446034846338347822,231,1446034846335036993,robocape_mag,19.95,-9.75,10.5,10.0,0.0,0.0,0.0,10.0,0.0,0.0,0.0,10.0
1446034846357652280,232,1446034846354402065,robocape_mag,19.95,-9.75,10.5,10.0,0.0,0.0,0.0,10.0,0.0,0.0,0.0,10.0
1446034846376807072,233,1446034846373490095,robocape_mag,20.85,-12.45,9.0,10.0,0.0,0.0,0.0,10.0,0.0,0.0,0.0,10.0
1446034846396198322,234,1446034846393119096,robocape_mag,20.85,-12.45,9.0,10.0,0.0,0.0,0.0,10.0,0.0,0.0,0.0,10.0
1446034846419146239,235,1446034846415457963,robocape_mag,20.85,-12.45,9.0,10.0,0.0,0.0,0.0,10.0,0.0,0.0,0.0,10.0
1446034846436710239,236,1446034846433213949,robocape_mag,20.85,-12.45,9.0,10.0,0.0,0.0,0.0,10.0,0.0,0.0,0.0,10.0
1446034846456240655,237,1446034846453051090,robocape_mag,20.85,-12.45,9.0,10.0,0.0,0.0,0.0,10.0,0.0,0.0,0.0,10.0
1446034846479613655,238,1446034846476057052,robocape_mag,20.85,-12.45,9.0,10.0,0.0,0.0,0.0,10.0,0.0,0.0,0.0,10.0
1446034846496224780,239,1446034846493135929,robocape_mag,20.85,-12.45,9.0,10.0,0.0,0.0,0.0,10.0,0.0,0.0,0.0,10.0
1446034846516630989,240,1446034846513185024,robocape_mag,20.85,-12.45,9.0,10.0,0.0,0.0,0.0,10.0,0.0,0.0,0.0,10.0
1446034846541333697,241,1446034846537396907,robocape_mag,20.25,-11.85,7.2,10.0,0.0,0.0,0.0,10.0,0.0,0.0,0.0,10.0
1446034846560259155,242,1446034846556278944,robocape_mag,20.25,-11.85,7.2,10.0,0.0,0.0,0.0,10.0,0.0,0.0,0.0,10.0
1446034846576442822,243,1446034846573165893,robocape_mag,20.25,-11.85,7.2,10.0,0.0,0.0,0.0,10.0,0.0,0.0,0.0,10.0
1446034846596867072,244,1446034846594306945,robocape_mag,20.25,-11.85,7.2,10.0,0.0,0.0,0.0,10.0,0.0,0.0,0.0,10.0
1446034846617658239,245,1446034846614542961,robocape_mag,20.25,-11.85,7.2,10.0,0.0,0.0,0.0,10.0,0.0,0.0,0.0,10.0
1446034846636444864,246,1446034846633342981,robocape_mag,20.25,-11.85,7.2,10.0,0.0,0.0,0.0,10.0,0.0,0.0,0.0,10.0
1446034846656941739,247,1446034846653491020,robocape_mag,20.25,-11.85,7.2,10.0,0.0,0.0,0.0,10.0,0.0,0.0,0.0,10.0
1446034846679438614,248,1446034846676192045,robocape_mag,20.25,-11.85,7.2,10.0,0.0,0.0,0.0,10.0,0.0,0.0,0.0,10.0
1446034846697026905,249,1446034846693278074,robocape_mag,21.15,-12.15,5.1,10.0,0.0,0.0,0.0,10.0,0.0,0.0,0.0,10.0
1446034846716299364,250,1446034846713150978,robocape_mag,21.15,-12.15,5.1,10.0,0.0,0.0,0.0,10.0,0.0,0.0,0.0,10.0
1446034846740187030,251,1446034846736604928,robocape_mag,21.15,-12.15,5.1,10.0,0.0,0.0,0.0,10.0,0.0,0.0,0.0,10.0
1446034846757048822,252,1446034846753297090,robocape_mag,21.15,-12.15,5.1,10.0,0.0,0.0,0.0,10.0,0.0,0.0,0.0,10.0
1446034846777195697,253,1446034846773397922,robocape_mag,21.15,-12.15,5.1,10.0,0.0,0.0,0.0,10.0,0.0,0.0,0.0,10.0
1446034846798753780,254,1446034846795066118,robocape_mag,21.15,-12.15,5.1,10.0,0.0,0.0,0.0,10.0,0.0,0.0,0.0,10.0
1446034846818100114,255,1446034846813761949,robocape_mag,21.15,-12.15,5.1,10.0,0.0,0.0,0.0,10.0,0.0,0.0,0.0,10.0
1446034846837009114,256,1446034846833432912,robocape_mag,21.15,-12.15,5.1,10.0,0.0,0.0,0.0,10.0,0.0,0.0,0.0,10.0
1446034846857435614,257,1446034846854348897,robocape_mag,22.35,-12.15,7.5,10.0,0.0,0.0,0.0,10.0,0.0,0.0,0.0,10.0
1446034846879413030,258,1446034846876266956,robocape_mag,22.35,-12.15,7.5,10.0,0.0,0.0,0.0,10.0,0.0,0.0,0.0,10.0
1446034846896367489,259,1446034846893290042,robocape_mag,22.35,-12.15,7.5,10.0,0.0,0.0,0.0,10.0,0.0,0.0,0.0,10.0
1446034846916348280,260,1446034846913136005,robocape_mag,22.35,-12.15,7.5,10.0,0.0,0.0,0.0,10.0,0.0,0.0,0.0,10.0
1446034846939792906,261,1446034846936522006,robocape_mag,22.35,-12.15,7.5,10.0,0.0,0.0,0.0,10.0,0.0,0.0,0.0,10.0
1446034846956685822,262,1446034846953156948,robocape_mag,22.35,-12.15,7.5,10.0,0.0,0.0,0.0,10.0,0.0,0.0,0.0,10.0
1446034846976451531,263,1446034846973174095,robocape_mag,22.35,-12.15,7.5,10.0,0.0,0.0,0.0,10.0,0.0,0.0,0.0,10.0
1446034846999389531,264,1446034846997136116,robocape_mag,22.35,-12.15,7.5,10.0,0.0,0.0,0.0,10.0,0.0,0.0,0.0,10.0
1446034847017014656,265,1446034847013385057,robocape_mag,18.75,-1.35,15.9,10.0,0.0,0.0,0.0,10.0,0.0,0.0,0.0,10.0
1446034847037175781,266,1446034847033293962,robocape_mag,18.75,-1.35,15.9,10.0,0.0,0.0,0.0,10.0,0.0,0.0,0.0,10.0
1446034847056588489,267,1446034847054438114,robocape_mag,18.75,-1.35,15.9,10.0,0.0,0.0,0.0,10.0,0.0,0.0,0.0,10.0
1446034847079194697,268,1446034847075081110,robocape_mag,18.75,-1.35,15.9,10.0,0.0,0.0,0.0,10.0,0.0,0.0,0.0,10.0
1446034847097102364,269,1446034847093547105,robocape_mag,18.75,-1.35,15.9,10.0,0.0,0.0,0.0,10.0,0.0,0.0,0.0,10.0
1446034847116263614,270,1446034847113056898,robocape_mag,18.75,-1.35,15.9,10.0,0.0,0.0,0.0,10.0,0.0,0.0,0.0,10.0
1446034847143135739,271,1446034847136707067,robocape_mag,18.75,-1.35,15.9,10.0,0.0,0.0,0.0,10.0,0.0,0.0,0.0,10.0
1446034847163446156,272,1446034847159486055,robocape_mag,18.75,-1.35,15.9,10.0,0.0,0.0,0.0,10.0,0.0,0.0,0.0,10.0
1446034847177668906,273,1446034847174411058,robocape_mag,25.95,-12.75,2.7,10.0,0.0,0.0,0.0,10.0,0.0,0.0,0.0,10.0
1446034847200794906,274,1446034847196933031,robocape_mag,25.95,-12.75,2.7,10.0,0.0,0.0,0.0,10.0,0.0,0.0,0.0,10.0
1446034847216938989,275,1446034847213131904,robocape_mag,25.95,-12.75,2.7,10.0,0.0,0.0,0.0,10.0,0.0,0.0,0.0,10.0
1446034847236696906,276,1446034847233262062,robocape_mag,25.95,-12.75,2.7,10.0,0.0,0.0,0.0,10.0,0.0,0.0,0.0,10.0
1446034847257942489,277,1446034847254745006,robocape_mag,25.95,-12.75,2.7,10.0,0.0,0.0,0.0,10.0,0.0,0.0,0.0,10.0
1446034847277388156,278,1446034847273560047,robocape_mag,25.95,-12.75,2.7,10.0,0.0,0.0,0.0,10.0,0.0,0.0,0.0,10.0
1446034847296440906,279,1446034847293301105,robocape_mag,25.95,-12.75,2.7,10.0,0.0,0.0,0.0,10.0,0.0,0.0,0.0,10.0
1446034847316326864,280,1446034847313252925,robocape_mag,25.95,-12.75,2.7,10.0,0.0,0.0,0.0,10.0,0.0,0.0,0.0,10.0
1446034847339559197,281,1446034847336307048,robocape_mag,34.35,-7.95,-11.7,10.0,0.0,0.0,0.0,10.0,0.0,0.0,0.0,10.0
1446034847357464447,282,1446034847353312015,robocape_mag,34.35,-7.95,-11.7,10.0,0.0,0.0,0.0,10.0,0.0,0.0,0.0,10.0
1446034847376697697,283,1446034847373402118,robocape_mag,34.35,-7.95,-11.7,10.0,0.0,0.0,0.0,10.0,0.0,0.0,0.0,10.0
1446034847399616114,284,1446034847395915985,robocape_mag,34.35,-7.95,-11.7,10.0,0.0,0.0,0.0,10.0,0.0,0.0,0.0,10.0
1446034847416341989,285,1446034847413378953,robocape_mag,34.35,-7.95,-11.7,10.0,0.0,0.0,0.0,10.0,0.0,0.0,0.0,10.0
1446034847437096239,286,1446034847433492898,robocape_mag,34.35,-7.95,-11.7,10.0,0.0,0.0,0.0,10.0,0.0,0.0,0.0,10.0
1446034847459091781,287,1446034847456722974,robocape_mag,34.35,-7.95,-11.7,10.0,0.0,0.0,0.0,10.0,0.0,0.0,0.0,10.0
1446034847476428947,288,1446034847473237991,robocape_mag,34.35,-7.95,-11.7,10.0,0.0,0.0,0.0,10.0,0.0,0.0,0.0,10.0
1446034847496488447,289,1446034847493195056,robocape_mag,43.05,-7.05,-29.4,10.0,0.0,0.0,0.0,10.0,0.0,0.0,0.0,10.0
1446034847516997239,290,1446034847513336896,robocape_mag,43.05,-7.05,-29.4,10.0,0.0,0.0,0.0,10.0,0.0,0.0,0.0,10.0
1446034847537503822,291,1446034847534235954,robocape_mag,43.05,-7.05,-29.4,10.0,0.0,0.0,0.0,10.0,0.0,0.0,0.0,10.0
1446034847556413614,292,1446034847553271055,robocape_mag,43.05,-7.05,-29.4,10.0,0.0,0.0,0.0,10.0,0.0,0.0,0.0,10.0
1446034847576181656,293,1446034847573029994,robocape_mag,43.05,-7.05,-29.4,10.0,0.0,0.0,0.0,10.0,0.0,0.0,0.0,10.0
1446034847599409114,294,1446034847596257925,robocape_mag,43.05,-7.05,-29.4,10.0,0.0,0.0,0.0,10.0,0.0,0.0,0.0,10.0
1446034847616589114,295,1446034847613080024,robocape_mag,43.05,-7.05,-29.4,10.0,0.0,0.0,0.0,10.0,0.0,0.0,0.0,10.0
1446034847636895989,296,1446034847633687019,robocape_mag,43.05,-7.05,-29.4,10.0,0.0,0.0,0.0,10.0,0.0,0.0,0.0,10.0
1446034847660401823,297,1446034847656802892,robocape_mag,44.55,-0.15,-25.5,10.0,0.0,0.0,0.0,10.0,0.0,0.0,0.0,10.0
1446034847677308364,298,1446034847673496007,robocape_mag,44.55,-0.15,-25.5,10.0,0.0,0.0,0.0,10.0,0.0,0.0,0.0,10.0
1446034847696800656,299,1446034847693269968,robocape_mag,44.55,-0.15,-25.5,10.0,0.0,0.0,0.0,10.0,0.0,0.0,0.0,10.0
1446034847718554406,300,1446034847714845895,robocape_mag,44.55,-0.15,-25.5,10.0,0.0,0.0,0.0,10.0,0.0,0.0,0.0,10.0
1446034847737158656,301,1446034847733711004,robocape_mag,44.55,-0.15,-25.5,10.0,0.0,0.0,0.0,10.0,0.0,0.0,0.0,10.0
1446034847757806198,302,1446034847754436016,robocape_mag,44.55,-0.15,-25.5,10.0,0.0,0.0,0.0,10.0,0.0,0.0,0.0,10.0
1446034847776868906,303,1446034847773186922,robocape_mag,44.55,-0.15,-25.5,10.0,0.0,0.0,0.0,10.0,0.0,0.0,0.0,10.0
1446034847798868406,304,1446034847795775890,robocape_mag,44.55,-0.15,-25.5,10.0,0.0,0.0,0.0,10.0,0.0,0.0,0.0,10.0
1446034847816200739,305,1446034847813102960,robocape_mag,42.15,7.05,-24.3,10.0,0.0,0.0,0.0,10.0,0.0,0.0,0.0,10.0
1446034847836215448,306,1446034847833092927,robocape_mag,42.15,7.05,-24.3,10.0,0.0,0.0,0.0,10.0,0.0,0.0,0.0,10.0
1446034847861198114,307,1446034847857506990,robocape_mag,42.15,7.05,-24.3,10.0,0.0,0.0,0.0,10.0,0.0,0.0,0.0,10.0
1446034847876692406,308,1446034847873420000,robocape_mag,42.15,7.05,-24.3,10.0,0.0,0.0,0.0,10.0,0.0,0.0,0.0,10.0
1446034847896310698,309,1446034847893203973,robocape_mag,42.15,7.05,-24.3,10.0,0.0,0.0,0.0,10.0,0.0,0.0,0.0,10.0
1446034847919853823,310,1446034847916225910,robocape_mag,42.15,7.05,-24.3,10.0,0.0,0.0,0.0,10.0,0.0,0.0,0.0,10.0
1446034847937104114,311,1446034847933438062,robocape_mag,42.15,7.05,-24.3,10.0,0.0,0.0,0.0,10.0,0.0,0.0,0.0,10.0
1446034847956888239,312,1446034847953099012,robocape_mag,42.15,7.05,-24.3,10.0,0.0,0.0,0.0,10.0,0.0,0.0,0.0,10.0
1446034847976492781,313,1446034847973311901,robocape_mag,39.15,-16.95,-17.1,10.0,0.0,0.0,0.0,10.0,0.0,0.0,0.0,10.0
1446034847998495614,314,1446034847995210886,robocape_mag,39.15,-16.95,-17.1,10.0,0.0,0.0,0.0,10.0,0.0,0.0,0.0,10.0
1446034848016599823,315,1446034848013175964,robocape_mag,39.15,-16.95,-17.1,10.0,0.0,0.0,0.0,10.0,0.0,0.0,0.0,10.0
1446034848036733156,316,1446034848033494949,robocape_mag,39.15,-16.95,-17.1,10.0,0.0,0.0,0.0,10.0,0.0,0.0,0.0,10.0
1446034848059961948,317,1446034848056293964,robocape_mag,39.15,-16.95,-17.1,10.0,0.0,0.0,0.0,10.0,0.0,0.0,0.0,10.0
1446034848076211948,318,1446034848073136091,robocape_mag,39.15,-16.95,-17.1,10.0,0.0,0.0,0.0,10.0,0.0,0.0,0.0,10.0
1446034848096718573,319,1446034848093235969,robocape_mag,39.15,-16.95,-17.1,10.0,0.0,0.0,0.0,10.0,0.0,0.0,0.0,10.0
1446034848119877406,320,1446034848116348981,robocape_mag,39.15,-16.95,-17.1,10.0,0.0,0.0,0.0,10.0,0.0,0.0,0.0,10.0
1446034848140395073,321,1446034848133224010,robocape_mag,42.45,11.55,-23.4,10.0,0.0,0.0,0.0,10.0,0.0,0.0,0.0,10.0
1446034848159156531,322,1446034848155829906,robocape_mag,42.45,11.55,-23.4,10.0,0.0,0.0,0.0,10.0,0.0,0.0,0.0,10.0
1446034848178100739,323,1446034848174932956,robocape_mag,42.45,11.55,-23.4,10.0,0.0,0.0,0.0,10.0,0.0,0.0,0.0,10.0
1446034848197480031,324,1446034848194370985,robocape_mag,42.45,11.55,-23.4,10.0,0.0,0.0,0.0,10.0,0.0,0.0,0.0,10.0
1446034848216807823,325,1446034848213160991,robocape_mag,42.45,11.55,-23.4,10.0,0.0,0.0,0.0,10.0,0.0,0.0,0.0,10.0
1446034848236592156,326,1446034848233459949,robocape_mag,42.45,11.55,-23.4,10.0,0.0,0.0,0.0,10.0,0.0,0.0,0.0,10.0
1446034848259552573,327,1446034848255918025,robocape_mag,42.45,11.55,-23.4,10.0,0.0,0.0,0.0,10.0,0.0,0.0,0.0,10.0
1446034848277078781,328,1446034848273329019,robocape_mag,42.45,11.55,-23.4,10.0,0.0,0.0,0.0,10.0,0.0,0.0,0.0,10.0
1446034848297727198,329,1446034848294249057,robocape_mag,33.75,3.45,-9.9,10.0,0.0,0.0,0.0,10.0,0.0,0.0,0.0,10.0
1446034848320121114,330,1446034848316414117,robocape_mag,33.75,3.45,-9.9,10.0,0.0,0.0,0.0,10.0,0.0,0.0,0.0,10.0
1446034848337120656,331,1446034848333587884,robocape_mag,33.75,3.45,-9.9,10.0,0.0,0.0,0.0,10.0,0.0,0.0,0.0,10.0
1446034848356845573,332,1446034848353207111,robocape_mag,33.75,3.45,-9.9,10.0,0.0,0.0,0.0,10.0,0.0,0.0,0.0,10.0
1446034848378829573,333,1446034848376616001,robocape_mag,33.75,3.45,-9.9,10.0,0.0,0.0,0.0,10.0,0.0,0.0,0.0,10.0
1446034848396533823,334,1446034848393475055,robocape_mag,33.75,3.45,-9.9,10.0,0.0,0.0,0.0,10.0,0.0,0.0,0.0,10.0
1446034848417037365,335,1446034848413414001,robocape_mag,33.75,3.45,-9.9,10.0,0.0,0.0,0.0,10.0,0.0,0.0,0.0,10.0
1446034848437107823,336,1446034848433460950,robocape_mag,33.75,3.45,-9.9,10.0,0.0,0.0,0.0,10.0,0.0,0.0,0.0,10.0
1446034848457220365,337,1446034848454114913,robocape_mag,28.95,10.05,-9.3,10.0,0.0,0.0,0.0,10.0,0.0,0.0,0.0,10.0
1446034848476337240,338,1446034848473120927,robocape_mag,28.95,10.05,-9.3,10.0,0.0,0.0,0.0,10.0,0.0,0.0,0.0,10.0
1446034848496722156,339,1446034848493465900,robocape_mag,28.95,10.05,-9.3,10.0,0.0,0.0,0.0,10.0,0.0,0.0,0.0,10.0
1446034848519168156,340,1446034848515947103,robocape_mag,28.95,10.05,-9.3,10.0,0.0,0.0,0.0,10.0,0.0,0.0,0.0,10.0
1446034848536979365,341,1446034848533252954,robocape_mag,28.95,10.05,-9.3,10.0,0.0,0.0,0.0,10.0,0.0,0.0,0.0,10.0
1446034848556417781,342,1446034848553265094,robocape_mag,28.95,10.05,-9.3,10.0,0.0,0.0,0.0,10.0,0.0,0.0,0.0,10.0
1446034848579481740,343,1446034848576158046,robocape_mag,28.95,10.05,-9.3,10.0,0.0,0.0,0.0,10.0,0.0,0.0,0.0,10.0
1446034848596849948,344,1446034848593167066,robocape_mag,28.95,10.05,-9.3,10.0,0.0,0.0,0.0,10.0,0.0,0.0,0.0,10.0
1446034848616922781,345,1446034848613307952,robocape_mag,26.25,22.35,-12.0,10.0,0.0,0.0,0.0,10.0,0.0,0.0,0.0,10.0
1446034848638575490,346,1446034848634881973,robocape_mag,26.25,22.35,-12.0,10.0,0.0,0.0,0.0,10.0,0.0,0.0,0.0,10.0
1446034848657318573,347,1446034848653951883,robocape_mag,26.25,22.35,-12.0,10.0,0.0,0.0,0.0,10.0,0.0,0.0,0.0,10.0
1446034848677396823,348,1446034848673428058,robocape_mag,26.25,22.35,-12.0,10.0,0.0,0.0,0.0,10.0,0.0,0.0,0.0,10.0
1446034848698008656,349,1446034848693327903,robocape_mag,26.25,22.35,-12.0,10.0,0.0,0.0,0.0,10.0,0.0,0.0,0.0,10.0
1446034848721217198,350,1446034848718067884,robocape_mag,26.25,22.35,-12.0,10.0,0.0,0.0,0.0,10.0,0.0,0.0,0.0,10.0
1446034848737086781,351,1446034848733407020,robocape_mag,26.25,22.35,-12.0,10.0,0.0,0.0,0.0,10.0,0.0,0.0,0.0,10.0
1446034848756864198,352,1446034848753336906,robocape_mag,26.25,22.35,-12.0,10.0,0.0,0.0,0.0,10.0,0.0,0.0,0.0,10.0
1446034848778838531,353,1446034848775325059,robocape_mag,23.55,34.05,-9.9,10.0,0.0,0.0,0.0,10.0,0.0,0.0,0.0,10.0
1446034848796718240,354,1446034848793164014,robocape_mag,23.55,34.05,-9.9,10.0,0.0,0.0,0.0,10.0,0.0,0.0,0.0,10.0
1446034848816237281,355,1446034848813247919,robocape_mag,23.55,34.05,-9.9,10.0,0.0,0.0,0.0,10.0,0.0,0.0,0.0,10.0
1446034848840253198,356,1446034848836575031,robocape_mag,23.55,34.05,-9.9,10.0,0.0,0.0,0.0,10.0,0.0,0.0,0.0,10.0
1446034848857175906,357,1446034848853426933,robocape_mag,23.55,34.05,-9.9,10.0,0.0,0.0,0.0,10.0,0.0,0.0,0.0,10.0
1446034848876535073,358,1446034848873298883,robocape_mag,23.55,34.05,-9.9,10.0,0.0,0.0,0.0,10.0,0.0,0.0,0.0,10.0
1446034848896437323,359,1446034848893280029,robocape_mag,23.55,34.05,-9.9,10.0,0.0,0.0,0.0,10.0,0.0,0.0,0.0,10.0
1446034848917851073,360,1446034848914165019,robocape_mag,23.55,34.05,-9.9,10.0,0.0,0.0,0.0,10.0,0.0,0.0,0.0,10.0
1446034848937168406,361,1446034848933357000,robocape_mag,31.35,10.05,-17.1,10.0,0.0,0.0,0.0,10.0,0.0,0.0,0.0,10.0
1446034848956261906,362,1446034848953200101,robocape_mag,31.35,10.05,-17.1,10.0,0.0,0.0,0.0,10.0,0.0,0.0,0.0,10.0
1446034848978494573,363,1446034848975126981,robocape_mag,31.35,10.05,-17.1,10.0,0.0,0.0,0.0,10.0,0.0,0.0,0.0,10.0
1446034848997111156,364,1446034848993539094,robocape_mag,31.35,10.05,-17.1,10.0,0.0,0.0,0.0,10.0,0.0,0.0,0.0,10.0
1446034849016665781,365,1446034849013217926,robocape_mag,31.35,10.05,-17.1,10.0,0.0,0.0,0.0,10.0,0.0,0.0,0.0,10.0
1446034849041087782,366,1446034849037087917,robocape_mag,31.35,10.05,-17.1,10.0,0.0,0.0,0.0,10.0,0.0,0.0,0.0,10.0
1446034849056633073,367,1446034849053250074,robocape_mag,31.35,10.05,-17.1,10.0,0.0,0.0,0.0,10.0,0.0,0.0,0.0,10.0
1446034849076075490,368,1446034849073024034,robocape_mag,31.35,10.05,-17.1,10.0,0.0,0.0,0.0,10.0,0.0,0.0,0.0,10.0
1446034849097960698,369,1446034849094739913,robocape_mag,13.95,24.45,-8.1,10.0,0.0,0.0,0.0,10.0,0.0,0.0,0.0,10.0
1446034849117016240,370,1446034849113797903,robocape_mag,13.95,24.45,-8.1,10.0,0.0,0.0,0.0,10.0,0.0,0.0,0.0,10.0
1446034849139764740,371,1446034849133084058,robocape_mag,13.95,24.45,-8.1,10.0,0.0,0.0,0.0,10.0,0.0,0.0,0.0,10.0
1446034849162419823,372,1446034849158535957,robocape_mag,13.95,24.45,-8.1,10.0,0.0,0.0,0.0,10.0,0.0,0.0,0.0,10.0
1446034849181536032,373,1446034849177583932,robocape_mag,13.95,24.45,-8.1,10.0,0.0,0.0,0.0,10.0,0.0,0.0,0.0,10.0
1446034849196576657,374,1446034849193355083,robocape_mag,13.95,24.45,-8.1,10.0,0.0,0.0,0.0,10.0,0.0,0.0,0.0,10.0
1446034849216744698,375,1446034849213654994,robocape_mag,13.95,24.45,-8.1,10.0,0.0,0.0,0.0,10.0,0.0,0.0,0.0,10.0
1446034849239817448,376,1446034849236131906,robocape_mag,13.95,24.45,-8.1,10.0,0.0,0.0,0.0,10.0,0.0,0.0,0.0,10.0
1446034849257182657,377,1446034849253231048,robocape_mag,-2.55,33.75,-2.4,10.0,0.0,0.0,0.0,10.0,0.0,0.0,0.0,10.0
1446034849276987198,378,1446034849273468017,robocape_mag,-2.55,33.75,-2.4,10.0,0.0,0.0,0.0,10.0,0.0,0.0,0.0,10.0
1446034849299515907,379,1446034849295819044,robocape_mag,-2.55,33.75,-2.4,10.0,0.0,0.0,0.0,10.0,0.0,0.0,0.0,10.0
1446034849316343115,380,1446034849313244104,robocape_mag,-2.55,33.75,-2.4,10.0,0.0,0.0,0.0,10.0,0.0,0.0,0.0,10.0
1446034849337247782,381,1446034849333333969,robocape_mag,-2.55,33.75,-2.4,10.0,0.0,0.0,0.0,10.0,0.0,0.0,0.0,10.0
1446034849357204407,382,1446034849353172063,robocape_mag,-2.55,33.75,-2.4,10.0,0.0,0.0,0.0,10.0,0.0,0.0,0.0,10.0
1446034849379612490,383,1446034849375984907,robocape_mag,-2.55,33.75,-2.4,10.0,0.0,0.0,0.0,10.0,0.0,0.0,0.0,10.0
1446034849397588532,384,1446034849393929958,robocape_mag,-2.55,33.75,-2.4,10.0,0.0,0.0,0.0,10.0,0.0,0.0,0.0,10.0
1446034849416227198,385,1446034849413098096,robocape_mag,-39.75,1.95,-21.0,10.0,0.0,0.0,0.0,10.0,0.0,0.0,0.0,10.0
1446034849436625740,386,1446034849433242082,robocape_mag,-39.75,1.95,-21.0,10.0,0.0,0.0,0.0,10.0,0.0,0.0,0.0,10.0
1446034849459180240,387,1446034849455988883,robocape_mag,-39.75,1.95,-21.0,10.0,0.0,0.0,0.0,10.0,0.0,0.0,0.0,10.0
1446034849476790573,388,1446034849473170042,robocape_mag,-39.75,1.95,-21.0,10.0,0.0,0.0,0.0,10.0,0.0,0.0,0.0,10.0
1446034849497137698,389,1446034849493609905,robocape_mag,-39.75,1.95,-21.0,10.0,0.0,0.0,0.0,10.0,0.0,0.0,0.0,10.0
1446034849519013823,390,1446034849515269994,robocape_mag,-39.75,1.95,-21.0,10.0,0.0,0.0,0.0,10.0,0.0,0.0,0.0,10.0
1446034849536904573,391,1446034849533165931,robocape_mag,-39.75,1.95,-21.0,10.0,0.0,0.0,0.0,10.0,0.0,0.0,0.0,10.0
1446034849556680782,392,1446034849553232908,robocape_mag,-39.75,1.95,-21.0,10.0,0.0,0.0,0.0,10.0,0.0,0.0,0.0,10.0
1446034849578569865,393,1446034849576375007,robocape_mag,-28.65,35.25,-12.3,10.0,0.0,0.0,0.0,10.0,0.0,0.0,0.0,10.0
1446034849597342865,394,1446034849593527078,robocape_mag,-28.65,35.25,-12.3,10.0,0.0,0.0,0.0,10.0,0.0,0.0,0.0,10.0
1446034849616783657,395,1446034849613092899,robocape_mag,-28.65,35.25,-12.3,10.0,0.0,0.0,0.0,10.0,0.0,0.0,0.0,10.0
1446034849636438490,396,1446034849634252071,robocape_mag,-28.65,35.25,-12.3,10.0,0.0,0.0,0.0,10.0,0.0,0.0,0.0,10.0
1446034849658712740,397,1446034849654836893,robocape_mag,-28.65,35.25,-12.3,10.0,0.0,0.0,0.0,10.0,0.0,0.0,0.0,10.0
1446034849677126948,398,1446034849673477888,robocape_mag,-28.65,35.25,-12.3,10.0,0.0,0.0,0.0,10.0,0.0,0.0,0.0,10.0
1446034849696591490,399,1446034849693350076,robocape_mag,-28.65,35.25,-12.3,10.0,0.0,0.0,0.0,10.0,0.0,0.0,0.0,10.0
1446034849718762490,400,1446034849715507030,robocape_mag,-28.65,35.25,-12.3,10.0,0.0,0.0,0.0,10.0,0.0,0.0,0.0,10.0
1446034849736434282,401,1446034849733175039,robocape_mag,-17.25,12.45,-15.9,10.0,0.0,0.0,0.0,10.0,0.0,0.0,0.0,10.0
1446034849756831740,402,1446034849753195047,robocape_mag,-17.25,12.45,-15.9,10.0,0.0,0.0,0.0,10.0,0.0,0.0,0.0,10.0
1446034849779782782,403,1446034849776381969,robocape_mag,-17.25,12.45,-15.9,10.0,0.0,0.0,0.0,10.0,0.0,0.0,0.0,10.0
1446034849796612157,404,1446034849793286085,robocape_mag,-17.25,12.45,-15.9,10.0,0.0,0.0,0.0,10.0,0.0,0.0,0.0,10.0
1446034849816250157,405,1446034849813169002,robocape_mag,-17.25,12.45,-15.9,10.0,0.0,0.0,0.0,10.0,0.0,0.0,0.0,10.0
1446034849838456240,406,1446034849834949016,robocape_mag,-17.25,12.45,-15.9,10.0,0.0,0.0,0.0,10.0,0.0,0.0,0.0,10.0
1446034849857151490,407,1446034849854022979,robocape_mag,-17.25,12.45,-15.9,10.0,0.0,0.0,0.0,10.0,0.0,0.0,0.0,10.0
1446034849876667282,408,1446034849873434066,robocape_mag,-17.25,12.45,-15.9,10.0,0.0,0.0,0.0,10.0,0.0,0.0,0.0,10.0
1446034849896221574,409,1446034849893158912,robocape_mag,-16.05,8.25,-11.7,10.0,0.0,0.0,0.0,10.0,0.0,0.0,0.0,10.0
1446034849918074949,410,1446034849914972066,robocape_mag,-16.05,8.25,-11.7,10.0,0.0,0.0,0.0,10.0,0.0,0.0,0.0,10.0
1446034849936636865,411,1446034849933173894,robocape_mag,-16.05,8.25,-11.7,10.0,0.0,0.0,0.0,10.0,0.0,0.0,0.0,10.0
1446034849956760490,412,1446034849953104019,robocape_mag,-16.05,8.25,-11.7,10.0,0.0,0.0,0.0,10.0,0.0,0.0,0.0,10.0
1446034849978468282,413,1446034849975150108,robocape_mag,-16.05,8.25,-11.7,10.0,0.0,0.0,0.0,10.0,0.0,0.0,0.0,10.0
1446034849996541282,414,1446034849993475914,robocape_mag,-16.05,8.25,-11.7,10.0,0.0,0.0,0.0,10.0,0.0,0.0,0.0,10.0
1446034850016652990,415,1446034850013232946,robocape_mag,-16.05,8.25,-11.7,10.0,0.0,0.0,0.0,10.0,0.0,0.0,0.0,10.0
1446034850040424865,416,1446034850036336898,robocape_mag,-16.05,8.25,-11.7,10.0,0.0,0.0,0.0,10.0,0.0,0.0,0.0,10.0
1446034850056420032,417,1446034850053241968,robocape_mag,-16.35,32.55,-5.4,10.0,0.0,0.0,0.0,10.0,0.0,0.0,0.0,10.0
1446034850076585240,418,1446034850073280096,robocape_mag,-16.35,32.55,-5.4,10.0,0.0,0.0,0.0,10.0,0.0,0.0,0.0,10.0
1446034850096672490,419,1446034850094516992,robocape_mag,-16.35,32.55,-5.4,10.0,0.0,0.0,0.0,10.0,0.0,0.0,0.0,10.0
1446034850117191699,420,1446034850114065885,robocape_mag,-16.35,32.55,-5.4,10.0,0.0,0.0,0.0,10.0,0.0,0.0,0.0,10.0
1446034850136352615,421,1446034850133151054,robocape_mag,-16.35,32.55,-5.4,10.0,0.0,0.0,0.0,10.0,0.0,0.0,0.0,10.0
1446034850160400407,422,1446034850156399011,robocape_mag,-16.35,32.55,-5.4,10.0,0.0,0.0,0.0,10.0,0.0,0.0,0.0,10.0
1446034850182024824,423,1446034850178631067,robocape_mag,-16.35,32.55,-5.4,10.0,0.0,0.0,0.0,10.0,0.0,0.0,0.0,10.0
1446034850197129824,424,1446034850193315029,robocape_mag,-16.35,32.55,-5.4,10.0,0.0,0.0,0.0,10.0,0.0,0.0,0.0,10.0
1446034850216305990,425,1446034850213202953,robocape_mag,-7.95,-0.45,-1.8,10.0,0.0,0.0,0.0,10.0,0.0,0.0,0.0,10.0
1446034850240465907,426,1446034850236691951,robocape_mag,-7.95,-0.45,-1.8,10.0,0.0,0.0,0.0,10.0,0.0,0.0,0.0,10.0
1446034850256877115,427,1446034850253211021,robocape_mag,-7.95,-0.45,-1.8,10.0,0.0,0.0,0.0,10.0,0.0,0.0,0.0,10.0
1446034850277562157,428,1446034850273251056,robocape_mag,-7.95,-0.45,-1.8,10.0,0.0,0.0,0.0,10.0,0.0,0.0,0.0,10.0
1446034850298472907,429,1446034850294781923,robocape_mag,-7.95,-0.45,-1.8,10.0,0.0,0.0,0.0,10.0,0.0,0.0,0.0,10.0
1446034850316789782,430,1446034850313504934,robocape_mag,-7.95,-0.45,-1.8,10.0,0.0,0.0,0.0,10.0,0.0,0.0,0.0,10.0
1446034850336926240,431,1446034850333336114,robocape_mag,-7.95,-0.45,-1.8,10.0,0.0,0.0,0.0,10.0,0.0,0.0,0.0,10.0
1446034850356998865,432,1446034850353046894,robocape_mag,-7.95,-0.45,-1.8,10.0,0.0,0.0,0.0,10.0,0.0,0.0,0.0,10.0
1446034850378680074,433,1446034850375591993,robocape_mag,-4.35,22.95,4.2,10.0,0.0,0.0,0.0,10.0,0.0,0.0,0.0,10.0
1446034850396495824,434,1446034850393371105,robocape_mag,-4.35,22.95,4.2,10.0,0.0,0.0,0.0,10.0,0.0,0.0,0.0,10.0
1446034850416173657,435,1446034850412978887,robocape_mag,-4.35,22.95,4.2,10.0,0.0,0.0,0.0,10.0,0.0,0.0,0.0,10.0
1446034850439209032,436,1446034850435745954,robocape_mag,-4.35,22.95,4.2,10.0,0.0,0.0,0.0,10.0,0.0,0.0,0.0,10.0
1446034850456699491,437,1446034850453162908,robocape_mag,-4.35,22.95,4.2,10.0,0.0,0.0,0.0,10.0,0.0,0.0,0.0,10.0
1446034850476298741,438,1446034850473181009,robocape_mag,-4.35,22.95,4.2,10.0,0.0,0.0,0.0,10.0,0.0,0.0,0.0,10.0
1446034850500683074,439,1446034850496543884,robocape_mag,-4.35,22.95,4.2,10.0,0.0,0.0,0.0,10.0,0.0,0.0,0.0,10.0
1446034850517099741,440,1446034850513179063,robocape_mag,-4.35,22.95,4.2,10.0,0.0,0.0,0.0,10.0,0.0,0.0,0.0,10.0
1446034850536765074,441,1446034850533078908,robocape_mag,25.35,-1.95,-2.7,10.0,0.0,0.0,0.0,10.0,0.0,0.0,0.0,10.0
1446034850556529741,442,1446034850554368972,robocape_mag,25.35,-1.95,-2.7,10.0,0.0,0.0,0.0,10.0,0.0,0.0,0.0,10.0
1446034850577699657,443,1446034850574031114,robocape_mag,25.35,-1.95,-2.7,10.0,0.0,0.0,0.0,10.0,0.0,0.0,0.0,10.0
1446034850597167116,444,1446034850593544006,robocape_mag,25.35,-1.95,-2.7,10.0,0.0,0.0,0.0,10.0,0.0,0.0,0.0,10.0
1446034850616325491,445,1446034850613070011,robocape_mag,25.35,-1.95,-2.7,10.0,0.0,0.0,0.0,10.0,0.0,0.0,0.0,10.0
1446034850638428782,446,1446034850635088920,robocape_mag,25.35,-1.95,-2.7,10.0,0.0,0.0,0.0,10.0,0.0,0.0,0.0,10.0
1446034850656231116,447,1446034850653100013,robocape_mag,25.35,-1.95,-2.7,10.0,0.0,0.0,0.0,10.0,0.0,0.0,0.0,10.0
1446034850677409949,448,1446034850673707962,robocape_mag,25.35,-1.95,-2.7,10.0,0.0,0.0,0.0,10.0,0.0,0.0,0.0,10.0
1446034850700753741,449,1446034850697412014,robocape_mag,43.35,10.05,-18.9,10.0,0.0,0.0,0.0,10.0,0.0,0.0,0.0,10.0
1446034850716857366,450,1446034850713443994,robocape_mag,43.35,10.05,-18.9,10.0,0.0,0.0,0.0,10.0,0.0,0.0,0.0,10.0
1446034850736526157,451,1446034850733407020,robocape_mag,43.35,10.05,-18.9,10.0,0.0,0.0,0.0,10.0,0.0,0.0,0.0,10.0
1446034850758174824,452,1446034850754908084,robocape_mag,43.35,10.05,-18.9,10.0,0.0,0.0,0.0,10.0,0.0,0.0,0.0,10.0
1446034850776992157,453,1446034850773798942,robocape_mag,43.35,10.05,-18.9,10.0,0.0,0.0,0.0,10.0,0.0,0.0,0.0,10.0
1446034850796825907,454,1446034850793100118,robocape_mag,43.35,10.05,-18.9,10.0,0.0,0.0,0.0,10.0,0.0,0.0,0.0,10.0
1446034850816490366,455,1446034850813204050,robocape_mag,43.35,10.05,-18.9,10.0,0.0,0.0,0.0,10.0,0.0,0.0,0.0,10.0
1446034850839285491,456,1446034850835509061,robocape_mag,43.35,10.05,-18.9,10.0,0.0,0.0,0.0,10.0,0.0,0.0,0.0,10.0
1446034850856315574,457,1446034850853084087,robocape_mag,29.55,-2.55,-9.3,10.0,0.0,0.0,0.0,10.0,0.0,0.0,0.0,10.0
1446034850876614616,458,1446034850873070001,robocape_mag,29.55,-2.55,-9.3,10.0,0.0,0.0,0.0,10.0,0.0,0.0,0.0,10.0
1446034850898636449,459,1446034850895405054,robocape_mag,29.55,-2.55,-9.3,10.0,0.0,0.0,0.0,10.0,0.0,0.0,0.0,10.0
1446034850916677282,460,1446034850913029909,robocape_mag,29.55,-2.55,-9.3,10.0,0.0,0.0,0.0,10.0,0.0,0.0,0.0,10.0
1446034850936832157,461,1446034850933110952,robocape_mag,29.55,-2.55,-9.3,10.0,0.0,0.0,0.0,10.0,0.0,0.0,0.0,10.0
1446034850959342616,462,1446034850956693887,robocape_mag,29.55,-2.55,-9.3,10.0,0.0,0.0,0.0,10.0,0.0,0.0,0.0,10.0
1446034850976548199,463,1446034850973404884,robocape_mag,29.55,-2.55,-9.3,10.0,0.0,0.0,0.0,10.0,0.0,0.0,0.0,10.0
1446034850996713657,464,1446034850993483066,robocape_mag,29.55,-2.55,-9.3,10.0,0.0,0.0,0.0,10.0,0.0,0.0,0.0,10.0
1446034851016889116,465,1446034851014173030,robocape_mag,-7.65,14.85,6.9,10.0,0.0,0.0,0.0,10.0,0.0,0.0,0.0,10.0
1446034851037229991,466,1446034851033998012,robocape_mag,-7.65,14.85,6.9,10.0,0.0,0.0,0.0,10.0,0.0,0.0,0.0,10.0
1446034851056443949,467,1446034851053252935,robocape_mag,-7.65,14.85,6.9,10.0,0.0,0.0,0.0,10.0,0.0,0.0,0.0,10.0
1446034851076440782,468,1446034851073267936,robocape_mag,-7.65,14.85,6.9,10.0,0.0,0.0,0.0,10.0,0.0,0.0,0.0,10.0
1446034851099416866,469,1446034851095740079,robocape_mag,-7.65,14.85,6.9,10.0,0.0,0.0,0.0,10.0,0.0,0.0,0.0,10.0
1446034851116975616,470,1446034851113296031,robocape_mag,-7.65,14.85,6.9,10.0,0.0,0.0,0.0,10.0,0.0,0.0,0.0,10.0
1446034851139307241,471,1446034851133083105,robocape_mag,-7.65,14.85,6.9,10.0,0.0,0.0,0.0,10.0,0.0,0.0,0.0,10.0
1446034851162983283,472,1446034851160414934,robocape_mag,-7.65,14.85,6.9,10.0,0.0,0.0,0.0,10.0,0.0,0.0,0.0,10.0
1446034851179086241,473,1446034851175167083,robocape_mag,0.15,13.65,-2.1,10.0,0.0,0.0,0.0,10.0,0.0,0.0,0.0,10.0
1446034851196720699,474,1446034851193411111,robocape_mag,0.15,13.65,-2.1,10.0,0.0,0.0,0.0,10.0,0.0,0.0,0.0,10.0
1446034851218426241,475,1446034851214543104,robocape_mag,0.15,13.65,-2.1,10.0,0.0,0.0,0.0,10.0,0.0,0.0,0.0,10.0
1446034851236728658,476,1446034851233517885,robocape_mag,0.15,13.65,-2.1,10.0,0.0,0.0,0.0,10.0,0.0,0.0,0.0,10.0
1446034851257034699,477,1446034851253424882,robocape_mag,0.15,13.65,-2.1,10.0,0.0,0.0,0.0,10.0,0.0,0.0,0.0,10.0
1446034851277566699,478,1446034851274523019,robocape_mag,0.15,13.65,-2.1,10.0,0.0,0.0,0.0,10.0,0.0,0.0,0.0,10.0
1446034851300284283,479,1446034851296524047,robocape_mag,0.15,13.65,-2.1,10.0,0.0,0.0,0.0,10.0,0.0,0.0,0.0,10.0
1446034851316265074,480,1446034851313179016,robocape_mag,0.15,13.65,-2.1,10.0,0.0,0.0,0.0,10.0,0.0,0.0,0.0,10.0
1446034851336130366,481,1446034851333060026,robocape_mag,25.65,-3.45,-7.2,10.0,0.0,0.0,0.0,10.0,0.0,0.0,0.0,10.0
1446034851359612908,482,1446034851356221914,robocape_mag,25.65,-3.45,-7.2,10.0,0.0,0.0,0.0,10.0,0.0,0.0,0.0,10.0
1446034851376908158,483,1446034851373328924,robocape_mag,25.65,-3.45,-7.2,10.0,0.0,0.0,0.0,10.0,0.0,0.0,0.0,10.0
1446034851396427033,484,1446034851393352031,robocape_mag,25.65,-3.45,-7.2,10.0,0.0,0.0,0.0,10.0,0.0,0.0,0.0,10.0
1446034851420390658,485,1446034851416165113,robocape_mag,25.65,-3.45,-7.2,10.0,0.0,0.0,0.0,10.0,0.0,0.0,0.0,10.0
1446034851436726533,486,1446034851433233022,robocape_mag,25.65,-3.45,-7.2,10.0,0.0,0.0,0.0,10.0,0.0,0.0,0.0,10.0
1446034851456991991,487,1446034851453217983,robocape_mag,25.65,-3.45,-7.2,10.0,0.0,0.0,0.0,10.0,0.0,0.0,0.0,10.0
1446034851476992449,488,1446034851474380970,robocape_mag,25.65,-3.45,-7.2,10.0,0.0,0.0,0.0,10.0,0.0,0.0,0.0,10.0
1446034851497942366,489,1446034851494287014,robocape_mag,33.15,20.85,-14.7,10.0,0.0,0.0,0.0,10.0,0.0,0.0,0.0,10.0
1446034851516643699,490,1446034851513186931,robocape_mag,33.15,20.85,-14.7,10.0,0.0,0.0,0.0,10.0,0.0,0.0,0.0,10.0
1446034851536473658,491,1446034851533128976,robocape_mag,33.15,20.85,-14.7,10.0,0.0,0.0,0.0,10.0,0.0,0.0,0.0,10.0
1446034851560134241,492,1446034851556447982,robocape_mag,33.15,20.85,-14.7,10.0,0.0,0.0,0.0,10.0,0.0,0.0,0.0,10.0
1446034851576212949,493,1446034851573219060,robocape_mag,33.15,20.85,-14.7,10.0,0.0,0.0,0.0,10.0,0.0,0.0,0.0,10.0
1446034851597027783,494,1446034851593416929,robocape_mag,33.15,20.85,-14.7,10.0,0.0,0.0,0.0,10.0,0.0,0.0,0.0,10.0
1446034851621065866,495,1446034851617055892,robocape_mag,33.15,20.85,-14.7,10.0,0.0,0.0,0.0,10.0,0.0,0.0,0.0,10.0
1446034851636506408,496,1446034851633122920,robocape_mag,33.15,20.85,-14.7,10.0,0.0,0.0,0.0,10.0,0.0,0.0,0.0,10.0
1446034851656792574,497,1446034851653134107,robocape_mag,37.35,2.85,-14.7,10.0,0.0,0.0,0.0,10.0,0.0,0.0,0.0,10.0
1446034851677250616,498,1446034851674040079,robocape_mag,37.35,2.85,-14.7,10.0,0.0,0.0,0.0,10.0,0.0,0.0,0.0,10.0
1446034851697393283,499,1446034851694277048,robocape_mag,37.35,2.85,-14.7,10.0,0.0,0.0,0.0,10.0,0.0,0.0,0.0,10.0
1446034851717028033,500,1446034851713294029,robocape_mag,37.35,2.85,-14.7,10.0,0.0,0.0,0.0,10.0,0.0,0.0,0.0,10.0
1446034851736330991,501,1446034851733110904,robocape_mag,37.35,2.85,-14.7,10.0,0.0,0.0,0.0,10.0,0.0,0.0,0.0,10.0
1446034851759497116,502,1446034851755676984,robocape_mag,37.35,2.85,-14.7,10.0,0.0,0.0,0.0,10.0,0.0,0.0,0.0,10.0
1446034851776806908,503,1446034851773236989,robocape_mag,37.35,2.85,-14.7,10.0,0.0,0.0,0.0,10.0,0.0,0.0,0.0,10.0
1446034851796628199,504,1446034851793433904,robocape_mag,37.35,2.85,-14.7,10.0,0.0,0.0,0.0,10.0,0.0,0.0,0.0,10.0
1446034851819817908,505,1446034851816127061,robocape_mag,20.25,31.95,-6.0,10.0,0.0,0.0,0.0,10.0,0.0,0.0,0.0,10.0
1446034851836205950,506,1446034851832979917,robocape_mag,20.25,31.95,-6.0,10.0,0.0,0.0,0.0,10.0,0.0,0.0,0.0,10.0
1446034851856779033,507,1446034851853096961,robocape_mag,20.25,31.95,-6.0,10.0,0.0,0.0,0.0,10.0,0.0,0.0,0.0,10.0
1446034851879244200,508,1446034851875350952,robocape_mag,20.25,31.95,-6.0,10.0,0.0,0.0,0.0,10.0,0.0,0.0,0.0,10.0
1446034851896594408,509,1446034851893362998,robocape_mag,20.25,31.95,-6.0,10.0,0.0,0.0,0.0,10.0,0.0,0.0,0.0,10.0
1446034851917004075,510,1446034851913291931,robocape_mag,20.25,31.95,-6.0,10.0,0.0,0.0,0.0,10.0,0.0,0.0,0.0,10.0
1446034851936821491,511,1446034851933218002,robocape_mag,20.25,31.95,-6.0,10.0,0.0,0.0,0.0,10.0,0.0,0.0,0.0,10.0
1446034851958219283,512,1446034851954516887,robocape_mag,20.25,31.95,-6.0,10.0,0.0,0.0,0.0,10.0,0.0,0.0,0.0,10.0
1446034851976369700,513,1446034851973175048,robocape_mag,4.05,4.95,-0.6,10.0,0.0,0.0,0.0,10.0,0.0,0.0,0.0,10.0
1446034851996600450,514,1446034851993292093,robocape_mag,4.05,4.95,-0.6,10.0,0.0,0.0,0.0,10.0,0.0,0.0,0.0,10.0
1446034852019093408,515,1446034852015912055,robocape_mag,4.05,4.95,-0.6,10.0,0.0,0.0,0.0,10.0,0.0,0.0,0.0,10.0
1446034852036558908,516,1446034852032995939,robocape_mag,4.05,4.95,-0.6,10.0,0.0,0.0,0.0,10.0,0.0,0.0,0.0,10.0
1446034852056242450,517,1446034852053136110,robocape_mag,4.05,4.95,-0.6,10.0,0.0,0.0,0.0,10.0,0.0,0.0,0.0,10.0
1446034852080015866,518,1446034852076077938,robocape_mag,4.05,4.95,-0.6,10.0,0.0,0.0,0.0,10.0,0.0,0.0,0.0,10.0
1446034852097276075,519,1446034852093400955,robocape_mag,4.05,4.95,-0.6,10.0,0.0,0.0,0.0,10.0,0.0,0.0,0.0,10.0
1446034852116604325,520,1446034852113092899,robocape_mag,4.05,4.95,-0.6,10.0,0.0,0.0,0.0,10.0,0.0,0.0,0.0,10.0
1446034852140532700,521,1446034852134527921,robocape_mag,-9.75,10.95,0.6,10.0,0.0,0.0,0.0,10.0,0.0,0.0,0.0,10.0
1446034852162572825,522,1446034852158459901,robocape_mag,-9.75,10.95,0.6,10.0,0.0,0.0,0.0,10.0,0.0,0.0,0.0,10.0
1446034852181137700,523,1446034852177928924,robocape_mag,-9.75,10.95,0.6,10.0,0.0,0.0,0.0,10.0,0.0,0.0,0.0,10.0
1446034852197305575,524,1446034852193447113,robocape_mag,-9.75,10.95,0.6,10.0,0.0,0.0,0.0,10.0,0.0,0.0,0.0,10.0
1446034852218781200,525,1446034852215688943,robocape_mag,-9.75,10.95,0.6,10.0,0.0,0.0,0.0,10.0,0.0,0.0,0.0,10.0
1446034852236582241,526,1446034852233100891,robocape_mag,-9.75,10.95,0.6,10.0,0.0,0.0,0.0,10.0,0.0,0.0,0.0,10.0
