%time,field.header.seq,field.header.stamp,field.header.frame_id,field.magnetic_field.x,field.magnetic_field.y,field.magnetic_field.z,field.magnetic_field_covariance0,field.magnetic_field_covariance1,field.magnetic_field_covariance2,field.magnetic_field_covariance3,field.magnetic_field_covariance4,field.magnetic_field_covariance5,field.magnetic_field_covariance6,field.magnetic_field_covariance7,field.magnetic_field_covariance8
1446035131390369083,4930,1446035130986105918,robocape_mag,18.75,-7.35,-15.3,10.0,0.0,0.0,0.0,10.0,0.0,0.0,0.0,10.0
1446035131407067083,4931,1446035131006870031,robocape_mag,18.75,-7.35,-15.3,10.0,0.0,0.0,0.0,10.0,0.0,0.0,0.0,10.0
1446035131407944958,4932,1446035131020220041,robocape_mag,18.75,-7.35,-15.3,10.0,0.0,0.0,0.0,10.0,0.0,0.0,0.0,10.0
1446035131408513166,4933,1446035131034821033,robocape_mag,19.95,-8.55,-14.7,10.0,0.0,0.0,0.0,10.0,0.0,0.0,0.0,10.0
1446035131408552208,4934,1446035131055166006,robocape_mag,19.95,-8.55,-14.7,10.0,0.0,0.0,0.0,10.0,0.0,0.0,0.0,10.0
1446035131408585416,4935,1446035131078864097,robocape_mag,19.95,-8.55,-14.7,10.0,0.0,0.0,0.0,10.0,0.0,0.0,0.0,10.0
1446035131409265083,4936,1446035131105118989,robocape_mag,19.95,-8.55,-14.7,10.0,0.0,0.0,0.0,10.0,0.0,0.0,0.0,10.0
1446035131409363583,4937,1446035131120089054,robocape_mag,19.95,-8.55,-14.7,10.0,0.0,0.0,0.0,10.0,0.0,0.0,0.0,10.0
1446035131412919124,4938,1446035131155678033,robocape_mag,19.95,-8.55,-14.7,10.0,0.0,0.0,0.0,10.0,0.0,0.0,0.0,10.0
1446035131412986374,4939,1446035131169228076,robocape_mag,19.95,-8.55,-14.7,10.0,0.0,0.0,0.0,10.0,0.0,0.0,0.0,10.0
1446035131413046499,4940,1446035131184962987,robocape_mag,19.95,-8.55,-14.7,10.0,0.0,0.0,0.0,10.0,0.0,0.0,0.0,10.0
1446035131418858291,4941,1446035131198014974,robocape_mag,19.35,-6.15,-15.3,10.0,0.0,0.0,0.0,10.0,0.0,0.0,0.0,10.0
1446035131451373250,4942,1446035131214721918,robocape_mag,19.35,-6.15,-15.3,10.0,0.0,0.0,0.0,10.0,0.0,0.0,0.0,10.0
1446035131454084958,4943,1446035131239670038,robocape_mag,19.35,-6.15,-15.3,10.0,0.0,0.0,0.0,10.0,0.0,0.0,0.0,10.0
1446035131454132166,4944,1446035131263652086,robocape_mag,19.35,-6.15,-15.3,10.0,0.0,0.0,0.0,10.0,0.0,0.0,0.0,10.0
1446035131455602625,4945,1446035131303828001,robocape_mag,19.35,-6.15,-15.3,10.0,0.0,0.0,0.0,10.0,0.0,0.0,0.0,10.0
1446035131455643791,4946,1446035131340554952,robocape_mag,19.35,-6.15,-15.3,10.0,0.0,0.0,0.0,10.0,0.0,0.0,0.0,10.0
1446035131456082041,4947,1446035131357316970,robocape_mag,19.35,-6.75,-15.3,10.0,0.0,0.0,0.0,10.0,0.0,0.0,0.0,10.0
1446035131456168208,4948,1446035131377708911,robocape_mag,19.35,-6.75,-15.3,10.0,0.0,0.0,0.0,10.0,0.0,0.0,0.0,10.0
1446035131456863541,4949,1446035131397233963,robocape_mag,19.35,-6.75,-15.3,10.0,0.0,0.0,0.0,10.0,0.0,0.0,0.0,10.0
1446035131457316958,4950,1446035131415754079,robocape_mag,19.35,-6.75,-15.3,10.0,0.0,0.0,0.0,10.0,0.0,0.0,0.0,10.0
1446035131457575500,4951,1446035131440270900,robocape_mag,19.35,-6.75,-15.3,10.0,0.0,0.0,0.0,10.0,0.0,0.0,0.0,10.0
1446035131466165250,4952,1446035131461579084,robocape_mag,19.35,-6.75,-15.3,10.0,0.0,0.0,0.0,10.0,0.0,0.0,0.0,10.0
1446035131478415541,4953,1446035131475775957,robocape_mag,19.35,-6.75,-15.3,10.0,0.0,0.0,0.0,10.0,0.0,0.0,0.0,10.0
1446035131502040250,4954,1446035131498575925,robocape_mag,19.35,-6.75,-15.3,10.0,0.0,0.0,0.0,10.0,0.0,0.0,0.0,10.0
1446035131518182250,4955,1446035131515122890,robocape_mag,18.75,-6.75,-15.3,10.0,0.0,0.0,0.0,10.0,0.0,0.0,0.0,10.0
1446035131544860500,4956,1446035131537178993,robocape_mag,18.75,-6.75,-15.3,10.0,0.0,0.0,0.0,10.0,0.0,0.0,0.0,10.0
1446035131560807166,4957,1446035131557414054,robocape_mag,18.75,-6.75,-15.3,10.0,0.0,0.0,0.0,10.0,0.0,0.0,0.0,10.0
1446035131581612708,4958,1446035131578023910,robocape_mag,18.75,-6.75,-15.3,10.0,0.0,0.0,0.0,10.0,0.0,0.0,0.0,10.0
1446035131599012833,4959,1446035131595504045,robocape_mag,18.75,-6.75,-15.3,10.0,0.0,0.0,0.0,10.0,0.0,0.0,0.0,10.0
1446035131618883666,4960,1446035131615212917,robocape_mag,18.75,-6.75,-15.3,10.0,0.0,0.0,0.0,10.0,0.0,0.0,0.0,10.0
1446035131641935791,4961,1446035131638636112,robocape_mag,18.75,-6.75,-15.3,10.0,0.0,0.0,0.0,10.0,0.0,0.0,0.0,10.0
1446035131658357250,4962,1446035131655353069,robocape_mag,18.75,-6.75,-15.3,10.0,0.0,0.0,0.0,10.0,0.0,0.0,0.0,10.0
1446035131679040916,4963,1446035131675277948,robocape_mag,19.65,-7.65,-16.2,10.0,0.0,0.0,0.0,10.0,0.0,0.0,0.0,10.0
1446035131702573666,4964,1446035131698932886,robocape_mag,19.65,-7.65,-16.2,10.0,0.0,0.0,0.0,10.0,0.0,0.0,0.0,10.0
1446035131718672166,4965,1446035131715152025,robocape_mag,19.65,-7.65,-16.2,10.0,0.0,0.0,0.0,10.0,0.0,0.0,0.0,10.0
1446035131738806625,4966,1446035131735239982,robocape_mag,19.65,-7.65,-16.2,10.0,0.0,0.0,0.0,10.0,0.0,0.0,0.0,10.0
1446035131764816375,4967,1446035131760071992,robocape_mag,19.65,-7.65,-16.2,10.0,0.0,0.0,0.0,10.0,0.0,0.0,0.0,10.0
1446035131781272500,4968,1446035131777862071,robocape_mag,19.65,-7.65,-16.2,10.0,0.0,0.0,0.0,10.0,0.0,0.0,0.0,10.0
1446035131799102250,4969,1446035131795223951,robocape_mag,19.65,-7.65,-16.2,10.0,0.0,0.0,0.0,10.0,0.0,0.0,0.0,10.0
1446035131818342583,4970,1446035131815284967,robocape_mag,19.65,-7.65,-16.2,10.0,0.0,0.0,0.0,10.0,0.0,0.0,0.0,10.0
1446035131840228791,4971,1446035131836700916,robocape_mag,19.65,-6.45,-15.0,10.0,0.0,0.0,0.0,10.0,0.0,0.0,0.0,10.0
1446035131859170333,4972,1446035131855608940,robocape_mag,19.65,-6.45,-15.0,10.0,0.0,0.0,0.0,10.0,0.0,0.0,0.0,10.0
1446035131878455625,4973,1446035131875346899,robocape_mag,19.65,-6.45,-15.0,10.0,0.0,0.0,0.0,10.0,0.0,0.0,0.0,10.0
1446035131902207875,4974,1446035131899013996,robocape_mag,19.65,-6.45,-15.0,10.0,0.0,0.0,0.0,10.0,0.0,0.0,0.0,10.0
1446035131918721458,4975,1446035131915179967,robocape_mag,19.65,-6.45,-15.0,10.0,0.0,0.0,0.0,10.0,0.0,0.0,0.0,10.0
1446035131938613875,4976,1446035131935116052,robocape_mag,19.65,-6.45,-15.0,10.0,0.0,0.0,0.0,10.0,0.0,0.0,0.0,10.0
1446035131964007208,4977,1446035131960572957,robocape_mag,19.65,-6.45,-15.0,10.0,0.0,0.0,0.0,10.0,0.0,0.0,0.0,10.0
1446035131981405541,4978,1446035131977977991,robocape_mag,19.65,-6.45,-15.0,10.0,0.0,0.0,0.0,10.0,0.0,0.0,0.0,10.0
1446035131998250875,4979,1446035131995217084,robocape_mag,18.75,-6.15,-15.9,10.0,0.0,0.0,0.0,10.0,0.0,0.0,0.0,10.0
1446035132020964291,4980,1446035132017004013,robocape_mag,18.75,-6.15,-15.9,10.0,0.0,0.0,0.0,10.0,0.0,0.0,0.0,10.0
1446035132039498833,4981,1446035132035989999,robocape_mag,18.75,-6.15,-15.9,10.0,0.0,0.0,0.0,10.0,0.0,0.0,0.0,10.0
1446035132058865625,4982,1446035132055433034,robocape_mag,18.75,-6.15,-15.9,10.0,0.0,0.0,0.0,10.0,0.0,0.0,0.0,10.0
1446035132078607375,4983,1446035132075475931,robocape_mag,18.75,-6.15,-15.9,10.0,0.0,0.0,0.0,10.0,0.0,0.0,0.0,10.0
1446035132101497791,4984,1446035132098217010,robocape_mag,18.75,-6.15,-15.9,10.0,0.0,0.0,0.0,10.0,0.0,0.0,0.0,10.0
1446035132118730041,4985,1446035132115170955,robocape_mag,18.75,-6.15,-15.9,10.0,0.0,0.0,0.0,10.0,0.0,0.0,0.0,10.0
1446035132138430958,4986,1446035132135302066,robocape_mag,18.75,-6.15,-15.9,10.0,0.0,0.0,0.0,10.0,0.0,0.0,0.0,10.0
1446035132162765625,4987,1446035132158951997,robocape_mag,18.75,-7.95,-14.1,10.0,0.0,0.0,0.0,10.0,0.0,0.0,0.0,10.0
1446035132178834500,4988,1446035132175349950,robocape_mag,18.75,-7.95,-14.1,10.0,0.0,0.0,0.0,10.0,0.0,0.0,0.0,10.0
1446035132198923625,4989,1446035132195290088,robocape_mag,18.75,-7.95,-14.1,10.0,0.0,0.0,0.0,10.0,0.0,0.0,0.0,10.0
1446035132223110167,4990,1446035132219352006,robocape_mag,18.75,-7.95,-14.1,10.0,0.0,0.0,0.0,10.0,0.0,0.0,0.0,10.0
1446035132238455458,4991,1446035132235312938,robocape_mag,18.75,-7.95,-14.1,10.0,0.0,0.0,0.0,10.0,0.0,0.0,0.0,10.0
1446035132259474542,4992,1446035132255425930,robocape_mag,18.75,-7.95,-14.1,10.0,0.0,0.0,0.0,10.0,0.0,0.0,0.0,10.0
1446035132279082458,4993,1446035132275422096,robocape_mag,18.75,-7.95,-14.1,10.0,0.0,0.0,0.0,10.0,0.0,0.0,0.0,10.0
1446035132300417000,4994,1446035132297249078,robocape_mag,18.75,-7.95,-14.1,10.0,0.0,0.0,0.0,10.0,0.0,0.0,0.0,10.0
1446035132318224250,4995,1446035132315216064,robocape_mag,19.05,-6.45,-16.2,10.0,0.0,0.0,0.0,10.0,0.0,0.0,0.0,10.0
1446035132338778625,4996,1446035132335124969,robocape_mag,19.05,-6.45,-16.2,10.0,0.0,0.0,0.0,10.0,0.0,0.0,0.0,10.0
1446035132361209708,4997,1446035132357872009,robocape_mag,19.05,-6.45,-16.2,10.0,0.0,0.0,0.0,10.0,0.0,0.0,0.0,10.0
1446035132378520792,4998,1446035132375356912,robocape_mag,19.05,-6.45,-16.2,10.0,0.0,0.0,0.0,10.0,0.0,0.0,0.0,10.0
1446035132402226625,4999,1446035132398475885,robocape_mag,19.05,-6.45,-16.2,10.0,0.0,0.0,0.0,10.0,0.0,0.0,0.0,10.0
1446035132422975500,5000,1446035132419068098,robocape_mag,19.05,-6.45,-16.2,10.0,0.0,0.0,0.0,10.0,0.0,0.0,0.0,10.0
1446035132439400542,5001,1446035132435477018,robocape_mag,19.05,-6.45,-16.2,10.0,0.0,0.0,0.0,10.0,0.0,0.0,0.0,10.0
1446035132458955667,5002,1446035132455383062,robocape_mag,19.05,-6.45,-16.2,10.0,0.0,0.0,0.0,10.0,0.0,0.0,0.0,10.0
1446035132480438000,5003,1446035132477298021,robocape_mag,19.65,-5.85,-13.2,10.0,0.0,0.0,0.0,10.0,0.0,0.0,0.0,10.0
1446035132500149708,5004,1446035132496953964,robocape_mag,19.65,-5.85,-13.2,10.0,0.0,0.0,0.0,10.0,0.0,0.0,0.0,10.0
1446035132518559417,5005,1446035132515142917,robocape_mag,19.65,-5.85,-13.2,10.0,0.0,0.0,0.0,10.0,0.0,0.0,0.0,10.0
1446035132538884292,5006,1446035132535137891,robocape_mag,19.65,-5.85,-13.2,10.0,0.0,0.0,0.0,10.0,0.0,0.0,0.0,10.0
1446035132561204208,5007,1446035132557930946,robocape_mag,19.65,-5.85,-13.2,10.0,0.0,0.0,0.0,10.0,0.0,0.0,0.0,10.0
1446035132579664375,5008,1446035132575974941,robocape_mag,19.65,-5.85,-13.2,10.0,0.0,0.0,0.0,10.0,0.0,0.0,0.0,10.0
1446035132599489250,5009,1446035132595832109,robocape_mag,19.65,-5.85,-13.2,10.0,0.0,0.0,0.0,10.0,0.0,0.0,0.0,10.0
1446035132621159708,5010,1446035132617801904,robocape_mag,19.65,-5.85,-13.2,10.0,0.0,0.0,0.0,10.0,0.0,0.0,0.0,10.0
1446035132638542542,5011,1446035132635160923,robocape_mag,20.25,-6.45,-15.6,10.0,0.0,0.0,0.0,10.0,0.0,0.0,0.0,10.0
1446035132658375000,5012,1446035132655229091,robocape_mag,20.25,-6.45,-15.6,10.0,0.0,0.0,0.0,10.0,0.0,0.0,0.0,10.0
1446035132680722958,5013,1446035132678539991,robocape_mag,20.25,-6.45,-15.6,10.0,0.0,0.0,0.0,10.0,0.0,0.0,0.0,10.0
1446035132698968958,5014,1446035132695856094,robocape_mag,20.25,-6.45,-15.6,10.0,0.0,0.0,0.0,10.0,0.0,0.0,0.0,10.0
1446035132718962958,5015,1446035132715254068,robocape_mag,20.25,-6.45,-15.6,10.0,0.0,0.0,0.0,10.0,0.0,0.0,0.0,10.0
1446035132738739458,5016,1446035132735666990,robocape_mag,20.25,-6.45,-15.6,10.0,0.0,0.0,0.0,10.0,0.0,0.0,0.0,10.0
1446035132761498125,5017,1446035132758101940,robocape_mag,20.25,-6.45,-15.6,10.0,0.0,0.0,0.0,10.0,0.0,0.0,0.0,10.0
1446035132779158458,5018,1446035132775341033,robocape_mag,20.25,-6.45,-15.6,10.0,0.0,0.0,0.0,10.0,0.0,0.0,0.0,10.0
1446035132798754750,5019,1446035132795598030,robocape_mag,19.35,-6.15,-14.1,10.0,0.0,0.0,0.0,10.0,0.0,0.0,0.0,10.0
1446035132821665500,5020,1446035132817984104,robocape_mag,19.35,-6.15,-14.1,10.0,0.0,0.0,0.0,10.0,0.0,0.0,0.0,10.0
1446035132839675375,5021,1446035132835266113,robocape_mag,19.35,-6.15,-14.1,10.0,0.0,0.0,0.0,10.0,0.0,0.0,0.0,10.0
1446035132858858334,5022,1446035132855349063,robocape_mag,19.35,-6.15,-14.1,10.0,0.0,0.0,0.0,10.0,0.0,0.0,0.0,10.0
1446035132883121292,5023,1446035132879265069,robocape_mag,19.35,-6.15,-14.1,10.0,0.0,0.0,0.0,10.0,0.0,0.0,0.0,10.0
1446035132899267167,5024,1446035132895555973,robocape_mag,19.35,-6.15,-14.1,10.0,0.0,0.0,0.0,10.0,0.0,0.0,0.0,10.0
1446035132918332125,5025,1446035132915242910,robocape_mag,19.35,-6.15,-14.1,10.0,0.0,0.0,0.0,10.0,0.0,0.0,0.0,10.0
1446035132939123625,5026,1446035132935555934,robocape_mag,19.35,-6.15,-14.1,10.0,0.0,0.0,0.0,10.0,0.0,0.0,0.0,10.0
1446035132959413792,5027,1446035132956295967,robocape_mag,20.55,-6.15,-16.5,10.0,0.0,0.0,0.0,10.0,0.0,0.0,0.0,10.0
1446035132978539792,5028,1446035132975392103,robocape_mag,20.55,-6.15,-16.5,10.0,0.0,0.0,0.0,10.0,0.0,0.0,0.0,10.0
1446035132999420667,5029,1446035132995434045,robocape_mag,20.55,-6.15,-16.5,10.0,0.0,0.0,0.0,10.0,0.0,0.0,0.0,10.0
1446035133021386209,5030,1446035133018110036,robocape_mag,20.55,-6.15,-16.5,10.0,0.0,0.0,0.0,10.0,0.0,0.0,0.0,10.0
1446035133038687709,5031,1446035133035131931,robocape_mag,20.55,-6.15,-16.5,10.0,0.0,0.0,0.0,10.0,0.0,0.0,0.0,10.0
1446035133058589459,5032,1446035133055475950,robocape_mag,20.55,-6.15,-16.5,10.0,0.0,0.0,0.0,10.0,0.0,0.0,0.0,10.0
1446035133082300625,5033,1446035133079173088,robocape_mag,20.55,-6.15,-16.5,10.0,0.0,0.0,0.0,10.0,0.0,0.0,0.0,10.0
1446035133099367709,5034,1446035133095571994,robocape_mag,20.55,-6.15,-16.5,10.0,0.0,0.0,0.0,10.0,0.0,0.0,0.0,10.0
1446035133119119459,5035,1446035133115515947,robocape_mag,18.45,-5.25,-15.6,10.0,0.0,0.0,0.0,10.0,0.0,0.0,0.0,10.0
1446035133141500000,5036,1446035133137482881,robocape_mag,18.45,-5.25,-15.6,10.0,0.0,0.0,0.0,10.0,0.0,0.0,0.0,10.0
1446035133158351500,5037,1446035133155277013,robocape_mag,18.45,-5.25,-15.6,10.0,0.0,0.0,0.0,10.0,0.0,0.0,0.0,10.0
1446035133178746250,5038,1446035133175151109,robocape_mag,18.45,-5.25,-15.6,10.0,0.0,0.0,0.0,10.0,0.0,0.0,0.0,10.0
1446035133199321625,5039,1446035133196074008,robocape_mag,18.45,-5.25,-15.6,10.0,0.0,0.0,0.0,10.0,0.0,0.0,0.0,10.0
1446035133220447834,5040,1446035133217241048,robocape_mag,18.45,-5.25,-15.6,10.0,0.0,0.0,0.0,10.0,0.0,0.0,0.0,10.0
1446035133238245209,5041,1446035133235148906,robocape_mag,18.45,-5.25,-15.6,10.0,0.0,0.0,0.0,10.0,0.0,0.0,0.0,10.0
1446035133258688667,5042,1446035133255203962,robocape_mag,18.45,-5.25,-15.6,10.0,0.0,0.0,0.0,10.0,0.0,0.0,0.0,10.0
1446035133281063959,5043,1446035133277981042,robocape_mag,19.35,-6.75,-14.1,10.0,0.0,0.0,0.0,10.0,0.0,0.0,0.0,10.0
1446035133298760667,5044,1446035133295583963,robocape_mag,19.35,-6.75,-14.1,10.0,0.0,0.0,0.0,10.0,0.0,0.0,0.0,10.0
1446035133318374500,5045,1446035133315278053,robocape_mag,19.35,-6.75,-14.1,10.0,0.0,0.0,0.0,10.0,0.0,0.0,0.0,10.0
1446035133343108792,5046,1446035133339232921,robocape_mag,19.35,-6.75,-14.1,10.0,0.0,0.0,0.0,10.0,0.0,0.0,0.0,10.0
1446035133360182709,5047,1446035133356389045,robocape_mag,19.35,-6.75,-14.1,10.0,0.0,0.0,0.0,10.0,0.0,0.0,0.0,10.0
1446035133378928834,5048,1446035133375327110,robocape_mag,19.35,-6.75,-14.1,10.0,0.0,0.0,0.0,10.0,0.0,0.0,0.0,10.0
1446035133404659542,5049,1446035133402040004,robocape_mag,19.35,-6.75,-14.1,10.0,0.0,0.0,0.0,10.0,0.0,0.0,0.0,10.0
1446035133423679875,5050,1446035133420033931,robocape_mag,19.35,-6.75,-14.1,10.0,0.0,0.0,0.0,10.0,0.0,0.0,0.0,10.0
1446035133439293917,5051,1446035133436219930,robocape_mag,18.45,-5.85,-14.4,10.0,0.0,0.0,0.0,10.0,0.0,0.0,0.0,10.0
1446035133458810084,5052,1446035133455415964,robocape_mag,18.45,-5.85,-14.4,10.0,0.0,0.0,0.0,10.0,0.0,0.0,0.0,10.0
1446035133482119542,5053,1446035133478419065,robocape_mag,18.45,-5.85,-14.4,10.0,0.0,0.0,0.0,10.0,0.0,0.0,0.0,10.0
1446035133499565500,5054,1446035133495891094,robocape_mag,18.45,-5.85,-14.4,10.0,0.0,0.0,0.0,10.0,0.0,0.0,0.0,10.0
1446035133519358292,5055,1446035133516335964,robocape_mag,18.45,-5.85,-14.4,10.0,0.0,0.0,0.0,10.0,0.0,0.0,0.0,10.0
1446035133542159126,5056,1446035133538536071,robocape_mag,18.45,-5.85,-14.4,10.0,0.0,0.0,0.0,10.0,0.0,0.0,0.0,10.0
1446035133558560126,5057,1446035133555371046,robocape_mag,18.45,-5.85,-14.4,10.0,0.0,0.0,0.0,10.0,0.0,0.0,0.0,10.0
1446035133578953501,5058,1446035133575673103,robocape_mag,18.45,-5.85,-14.4,10.0,0.0,0.0,0.0,10.0,0.0,0.0,0.0,10.0
1446035133601219001,5059,1446035133597069025,robocape_mag,20.25,-5.85,-16.2,10.0,0.0,0.0,0.0,10.0,0.0,0.0,0.0,10.0
1446035133619405209,5060,1446035133616218090,robocape_mag,20.25,-5.85,-16.2,10.0,0.0,0.0,0.0,10.0,0.0,0.0,0.0,10.0
1446035133639252917,5061,1446035133635508060,robocape_mag,20.25,-5.85,-16.2,10.0,0.0,0.0,0.0,10.0,0.0,0.0,0.0,10.0
1446035133658246709,5062,1446035133655200004,robocape_mag,20.25,-5.85,-16.2,10.0,0.0,0.0,0.0,10.0,0.0,0.0,0.0,10.0
1446035133680732501,5063,1446035133677162885,robocape_mag,20.25,-5.85,-16.2,10.0,0.0,0.0,0.0,10.0,0.0,0.0,0.0,10.0
1446035133699322042,5064,1446035133695525884,robocape_mag,20.25,-5.85,-16.2,10.0,0.0,0.0,0.0,10.0,0.0,0.0,0.0,10.0
1446035133718334751,5065,1446035133715192079,robocape_mag,20.25,-5.85,-16.2,10.0,0.0,0.0,0.0,10.0,0.0,0.0,0.0,10.0
1446035133742033292,5066,1446035133738320112,robocape_mag,20.25,-5.85,-16.2,10.0,0.0,0.0,0.0,10.0,0.0,0.0,0.0,10.0
1446035133758984209,5067,1446035133755458116,robocape_mag,19.65,-8.25,-15.6,10.0,0.0,0.0,0.0,10.0,0.0,0.0,0.0,10.0
1446035133779011959,5068,1446035133775444984,robocape_mag,19.65,-8.25,-15.6,10.0,0.0,0.0,0.0,10.0,0.0,0.0,0.0,10.0
1446035133804680001,5069,1446035133800201892,robocape_mag,19.65,-8.25,-15.6,10.0,0.0,0.0,0.0,10.0,0.0,0.0,0.0,10.0
1446035133820030584,5070,1446035133816787958,robocape_mag,19.65,-8.25,-15.6,10.0,0.0,0.0,0.0,10.0,0.0,0.0,0.0,10.0
1446035133838669209,5071,1446035133835249900,robocape_mag,19.65,-8.25,-15.6,10.0,0.0,0.0,0.0,10.0,0.0,0.0,0.0,10.0
1446035133860144417,5072,1446035133856853961,robocape_mag,19.65,-8.25,-15.6,10.0,0.0,0.0,0.0,10.0,0.0,0.0,0.0,10.0
1446035133880292167,5073,1446035133876615047,robocape_mag,19.65,-8.25,-15.6,10.0,0.0,0.0,0.0,10.0,0.0,0.0,0.0,10.0
1446035133899255667,5074,1446035133895680904,robocape_mag,19.65,-8.25,-15.6,10.0,0.0,0.0,0.0,10.0,0.0,0.0,0.0,10.0
1446035133919510709,5075,1446035133915812015,robocape_mag,18.45,-5.85,-15.6,10.0,0.0,0.0,0.0,10.0,0.0,0.0,0.0,10.0
1446035133941118626,5076,1446035133938021898,robocape_mag,18.45,-5.85,-15.6,10.0,0.0,0.0,0.0,10.0,0.0,0.0,0.0,10.0
1446035133958905626,5077,1446035133955347061,robocape_mag,18.45,-5.85,-15.6,10.0,0.0,0.0,0.0,10.0,0.0,0.0,0.0,10.0
1446035133978727667,5078,1446035133975631952,robocape_mag,18.45,-5.85,-15.6,10.0,0.0,0.0,0.0,10.0,0.0,0.0,0.0,10.0
1446035134002328417,5079,1446035133998728036,robocape_mag,18.45,-5.85,-15.6,10.0,0.0,0.0,0.0,10.0,0.0,0.0,0.0,10.0
1446035134018901751,5080,1446035134015279054,robocape_mag,18.45,-5.85,-15.6,10.0,0.0,0.0,0.0,10.0,0.0,0.0,0.0,10.0
1446035134038750417,5081,1446035134035197973,robocape_mag,18.45,-5.85,-15.6,10.0,0.0,0.0,0.0,10.0,0.0,0.0,0.0,10.0
1446035134062305417,5082,1446035134058294057,robocape_mag,18.45,-5.85,-15.6,10.0,0.0,0.0,0.0,10.0,0.0,0.0,0.0,10.0
1446035134079301042,5083,1446035134075985908,robocape_mag,18.75,-7.95,-16.5,10.0,0.0,0.0,0.0,10.0,0.0,0.0,0.0,10.0
1446035134098918626,5084,1446035134095293045,robocape_mag,18.75,-7.95,-16.5,10.0,0.0,0.0,0.0,10.0,0.0,0.0,0.0,10.0
1446035134121042834,5085,1446035134117052078,robocape_mag,18.75,-7.95,-16.5,10.0,0.0,0.0,0.0,10.0,0.0,0.0,0.0,10.0
1446035134141623751,5086,1446035134138042926,robocape_mag,18.75,-7.95,-16.5,10.0,0.0,0.0,0.0,10.0,0.0,0.0,0.0,10.0
1446035134158404001,5087,1446035134155350923,robocape_mag,18.75,-7.95,-16.5,10.0,0.0,0.0,0.0,10.0,0.0,0.0,0.0,10.0
1446035134178781834,5088,1446035134175281047,robocape_mag,18.75,-7.95,-16.5,10.0,0.0,0.0,0.0,10.0,0.0,0.0,0.0,10.0
1446035134201413042,5089,1446035134198014974,robocape_mag,18.75,-7.95,-16.5,10.0,0.0,0.0,0.0,10.0,0.0,0.0,0.0,10.0
1446035134218523126,5090,1446035134215373039,robocape_mag,18.75,-7.95,-16.5,10.0,0.0,0.0,0.0,10.0,0.0,0.0,0.0,10.0
1446035134238819459,5091,1446035134235188007,robocape_mag,18.75,-4.95,-16.5,10.0,0.0,0.0,0.0,10.0,0.0,0.0,0.0,10.0
1446035134261815126,5092,1446035134258374929,robocape_mag,18.75,-4.95,-16.5,10.0,0.0,0.0,0.0,10.0,0.0,0.0,0.0,10.0
1446035134278614418,5093,1446035134275233030,robocape_mag,18.75,-4.95,-16.5,10.0,0.0,0.0,0.0,10.0,0.0,0.0,0.0,10.0
1446035134298357126,5094,1446035134295212984,robocape_mag,18.75,-4.95,-16.5,10.0,0.0,0.0,0.0,10.0,0.0,0.0,0.0,10.0
1446035134317945834,5095,1446035134315743923,robocape_mag,18.75,-4.95,-16.5,10.0,0.0,0.0,0.0,10.0,0.0,0.0,0.0,10.0
1446035134339364959,5096,1446035134335716009,robocape_mag,18.75,-4.95,-16.5,10.0,0.0,0.0,0.0,10.0,0.0,0.0,0.0,10.0
1446035134358890084,5097,1446035134355268001,robocape_mag,18.75,-4.95,-16.5,10.0,0.0,0.0,0.0,10.0,0.0,0.0,0.0,10.0
1446035134378632334,5098,1446035134375305891,robocape_mag,18.75,-4.95,-16.5,10.0,0.0,0.0,0.0,10.0,0.0,0.0,0.0,10.0
1446035134405269626,5099,1446035134400907993,robocape_mag,19.35,-7.95,-17.1,10.0,0.0,0.0,0.0,10.0,0.0,0.0,0.0,10.0
1446035134422029126,5100,1446035134418848037,robocape_mag,19.35,-7.95,-17.1,10.0,0.0,0.0,0.0,10.0,0.0,0.0,0.0,10.0
1446035134438683251,5101,1446035134435275077,robocape_mag,19.35,-7.95,-17.1,10.0,0.0,0.0,0.0,10.0,0.0,0.0,0.0,10.0
1446035134460998084,5102,1446035134457740068,robocape_mag,19.35,-7.95,-17.1,10.0,0.0,0.0,0.0,10.0,0.0,0.0,0.0,10.0
1446035134478428918,5103,1446035134475147962,robocape_mag,19.35,-7.95,-17.1,10.0,0.0,0.0,0.0,10.0,0.0,0.0,0.0,10.0
1446035134498909084,5104,1446035134495120048,robocape_mag,19.35,-7.95,-17.1,10.0,0.0,0.0,0.0,10.0,0.0,0.0,0.0,10.0
1446035134523672043,5105,1446035134519825935,robocape_mag,19.35,-7.95,-17.1,10.0,0.0,0.0,0.0,10.0,0.0,0.0,0.0,10.0
1446035134539036459,5106,1446035134535424947,robocape_mag,19.35,-7.95,-17.1,10.0,0.0,0.0,0.0,10.0,0.0,0.0,0.0,10.0
1446035134559641584,5107,1446035134555742979,robocape_mag,19.95,-6.75,-14.1,10.0,0.0,0.0,0.0,10.0,0.0,0.0,0.0,10.0
1446035134578990709,5108,1446035134575648069,robocape_mag,19.95,-6.75,-14.1,10.0,0.0,0.0,0.0,10.0,0.0,0.0,0.0,10.0
1446035134601056209,5109,1446035134597572088,robocape_mag,19.95,-6.75,-14.1,10.0,0.0,0.0,0.0,10.0,0.0,0.0,0.0,10.0
1446035134619183626,5110,1446035134615427970,robocape_mag,19.95,-6.75,-14.1,10.0,0.0,0.0,0.0,10.0,0.0,0.0,0.0,10.0
1446035134638612668,5111,1446035134635529041,robocape_mag,19.95,-6.75,-14.1,10.0,0.0,0.0,0.0,10.0,0.0,0.0,0.0,10.0
1446035134661668543,5112,1446035134658464908,robocape_mag,19.95,-6.75,-14.1,10.0,0.0,0.0,0.0,10.0,0.0,0.0,0.0,10.0
1446035134678835418,5113,1446035134675353050,robocape_mag,19.95,-6.75,-14.1,10.0,0.0,0.0,0.0,10.0,0.0,0.0,0.0,10.0
1446035134698445084,5114,1446035134695169925,robocape_mag,19.95,-6.75,-14.1,10.0,0.0,0.0,0.0,10.0,0.0,0.0,0.0,10.0
1446035134724132459,5115,1446035134720179080,robocape_mag,19.35,-6.75,-16.5,10.0,0.0,0.0,0.0,10.0,0.0,0.0,0.0,10.0
1446035134738481251,5116,1446035134735250949,robocape_mag,19.35,-6.75,-16.5,10.0,0.0,0.0,0.0,10.0,0.0,0.0,0.0,10.0
1446035134759521209,5117,1446035134755496978,robocape_mag,19.35,-6.75,-16.5,10.0,0.0,0.0,0.0,10.0,0.0,0.0,0.0,10.0
1446035134777918959,5118,1446035134775752067,robocape_mag,19.35,-6.75,-16.5,10.0,0.0,0.0,0.0,10.0,0.0,0.0,0.0,10.0
1446035134799165334,5119,1446035134795906066,robocape_mag,19.35,-6.75,-16.5,10.0,0.0,0.0,0.0,10.0,0.0,0.0,0.0,10.0
1446035134818604834,5120,1446035134815471887,robocape_mag,19.35,-6.75,-16.5,10.0,0.0,0.0,0.0,10.0,0.0,0.0,0.0,10.0
1446035134838847626,5121,1446035134835160017,robocape_mag,19.35,-6.75,-16.5,10.0,0.0,0.0,0.0,10.0,0.0,0.0,0.0,10.0
1446035134861038584,5122,1446035134857948064,robocape_mag,19.35,-6.75,-16.5,10.0,0.0,0.0,0.0,10.0,0.0,0.0,0.0,10.0
1446035134878478168,5123,1446035134875358104,robocape_mag,19.95,-5.55,-15.9,10.0,0.0,0.0,0.0,10.0,0.0,0.0,0.0,10.0
1446035134898392793,5124,1446035134895354032,robocape_mag,19.95,-5.55,-15.9,10.0,0.0,0.0,0.0,10.0,0.0,0.0,0.0,10.0
1446035134923155293,5125,1446035134919444084,robocape_mag,19.95,-5.55,-15.9,10.0,0.0,0.0,0.0,10.0,0.0,0.0,0.0,10.0
1446035134938989043,5126,1446035134935360908,robocape_mag,19.95,-5.55,-15.9,10.0,0.0,0.0,0.0,10.0,0.0,0.0,0.0,10.0
1446035134958557210,5127,1446035134955363035,robocape_mag,19.95,-5.55,-15.9,10.0,0.0,0.0,0.0,10.0,0.0,0.0,0.0,10.0
1446035134983371251,5128,1446035134977631092,robocape_mag,19.95,-5.55,-15.9,10.0,0.0,0.0,0.0,10.0,0.0,0.0,0.0,10.0
1446035135003129418,5129,1446035134998980998,robocape_mag,19.95,-5.55,-15.9,10.0,0.0,0.0,0.0,10.0,0.0,0.0,0.0,10.0
1446035135019155960,5130,1446035135015415906,robocape_mag,19.95,-5.55,-15.9,10.0,0.0,0.0,0.0,10.0,0.0,0.0,0.0,10.0
1446035135038927168,5131,1446035135035305023,robocape_mag,17.85,-7.05,-15.6,10.0,0.0,0.0,0.0,10.0,0.0,0.0,0.0,10.0
1446035135060763001,5132,1446035135057485103,robocape_mag,17.85,-7.05,-15.6,10.0,0.0,0.0,0.0,10.0,0.0,0.0,0.0,10.0
1446035135078711126,5133,1446035135075309991,robocape_mag,17.85,-7.05,-15.6,10.0,0.0,0.0,0.0,10.0,0.0,0.0,0.0,10.0
1446035135098802251,5134,1446035135095221996,robocape_mag,17.85,-7.05,-15.6,10.0,0.0,0.0,0.0,10.0,0.0,0.0,0.0,10.0
1446035135122606710,5135,1446035135119398117,robocape_mag,17.85,-7.05,-15.6,10.0,0.0,0.0,0.0,10.0,0.0,0.0,0.0,10.0
1446035135138725126,5136,1446035135135206937,robocape_mag,17.85,-7.05,-15.6,10.0,0.0,0.0,0.0,10.0,0.0,0.0,0.0,10.0
1446035135158621626,5137,1446035135155559062,robocape_mag,17.85,-7.05,-15.6,10.0,0.0,0.0,0.0,10.0,0.0,0.0,0.0,10.0
1446035135183407835,5138,1446035135179619073,robocape_mag,17.85,-7.05,-15.6,10.0,0.0,0.0,0.0,10.0,0.0,0.0,0.0,10.0
1446035135198593085,5139,1446035135195245981,robocape_mag,20.25,-7.65,-14.4,10.0,0.0,0.0,0.0,10.0,0.0,0.0,0.0,10.0
1446035135218677085,5140,1446035135215445041,robocape_mag,20.25,-7.65,-14.4,10.0,0.0,0.0,0.0,10.0,0.0,0.0,0.0,10.0
1446035135239471960,5141,1446035135235992908,robocape_mag,20.25,-7.65,-14.4,10.0,0.0,0.0,0.0,10.0,0.0,0.0,0.0,10.0
1446035135259762501,5142,1446035135256439924,robocape_mag,20.25,-7.65,-14.4,10.0,0.0,0.0,0.0,10.0,0.0,0.0,0.0,10.0
1446035135278868543,5143,1446035135275161027,robocape_mag,20.25,-7.65,-14.4,10.0,0.0,0.0,0.0,10.0,0.0,0.0,0.0,10.0
1446035135298913876,5144,1446035135295200109,robocape_mag,20.25,-7.65,-14.4,10.0,0.0,0.0,0.0,10.0,0.0,0.0,0.0,10.0
1446035135322160668,5145,1446035135318460941,robocape_mag,20.25,-7.65,-14.4,10.0,0.0,0.0,0.0,10.0,0.0,0.0,0.0,10.0
1446035135339273335,5146,1446035135335443019,robocape_mag,20.25,-7.65,-14.4,10.0,0.0,0.0,0.0,10.0,0.0,0.0,0.0,10.0
1446035135359009668,5147,1446035135355489015,robocape_mag,19.05,-7.05,-13.8,10.0,0.0,0.0,0.0,10.0,0.0,0.0,0.0,10.0
1446035135382711210,5148,1446035135379564046,robocape_mag,19.05,-7.05,-13.8,10.0,0.0,0.0,0.0,10.0,0.0,0.0,0.0,10.0
1446035135405871876,5149,1446035135402165889,robocape_mag,19.05,-7.05,-13.8,10.0,0.0,0.0,0.0,10.0,0.0,0.0,0.0,10.0
1446035135420197751,5150,1446035135417114973,robocape_mag,19.05,-7.05,-13.8,10.0,0.0,0.0,0.0,10.0,0.0,0.0,0.0,10.0
1446035135442575335,5151,1446035135437557935,robocape_mag,19.05,-7.05,-13.8,10.0,0.0,0.0,0.0,10.0,0.0,0.0,0.0,10.0
1446035135458995251,5152,1446035135455751895,robocape_mag,19.05,-7.05,-13.8,10.0,0.0,0.0,0.0,10.0,0.0,0.0,0.0,10.0
1446035135478758501,5153,1446035135475285053,robocape_mag,19.05,-7.05,-13.8,10.0,0.0,0.0,0.0,10.0,0.0,0.0,0.0,10.0
1446035135498260585,5154,1446035135495207071,robocape_mag,19.05,-7.05,-13.8,10.0,0.0,0.0,0.0,10.0,0.0,0.0,0.0,10.0
1446035135521324710,5155,1446035135517625093,robocape_mag,19.35,-6.75,-15.3,10.0,0.0,0.0,0.0,10.0,0.0,0.0,0.0,10.0
1446035135538891126,5156,1446035135535351991,robocape_mag,19.35,-6.75,-15.3,10.0,0.0,0.0,0.0,10.0,0.0,0.0,0.0,10.0
1446035135558607585,5157,1446035135555382013,robocape_mag,19.35,-6.75,-15.3,10.0,0.0,0.0,0.0,10.0,0.0,0.0,0.0,10.0
1446035135582509043,5158,1446035135579257965,robocape_mag,19.35,-6.75,-15.3,10.0,0.0,0.0,0.0,10.0,0.0,0.0,0.0,10.0
1446035135599318168,5159,1446035135595500946,robocape_mag,19.35,-6.75,-15.3,10.0,0.0,0.0,0.0,10.0,0.0,0.0,0.0,10.0
1446035135619076918,5160,1446035135615443944,robocape_mag,19.35,-6.75,-15.3,10.0,0.0,0.0,0.0,10.0,0.0,0.0,0.0,10.0
1446035135643868460,5161,1446035135639771938,robocape_mag,19.35,-6.75,-15.3,10.0,0.0,0.0,0.0,10.0,0.0,0.0,0.0,10.0
1446035135658716752,5162,1446035135655405044,robocape_mag,19.35,-6.75,-15.3,10.0,0.0,0.0,0.0,10.0,0.0,0.0,0.0,10.0
1446035135678670335,5163,1446035135675131082,robocape_mag,19.95,-5.55,-14.7,10.0,0.0,0.0,0.0,10.0,0.0,0.0,0.0,10.0
1446035135701520502,5164,1446035135697937965,robocape_mag,19.95,-5.55,-14.7,10.0,0.0,0.0,0.0,10.0,0.0,0.0,0.0,10.0
1446035135720806793,5165,1446035135717713117,robocape_mag,19.95,-5.55,-14.7,10.0,0.0,0.0,0.0,10.0,0.0,0.0,0.0,10.0
1446035135738203877,5166,1446035135735132932,robocape_mag,19.95,-5.55,-14.7,10.0,0.0,0.0,0.0,10.0,0.0,0.0,0.0,10.0
1446035135759550293,5167,1446035135755475997,robocape_mag,19.95,-5.55,-14.7,10.0,0.0,0.0,0.0,10.0,0.0,0.0,0.0,10.0
1446035135782311502,5168,1446035135778578042,robocape_mag,19.95,-5.55,-14.7,10.0,0.0,0.0,0.0,10.0,0.0,0.0,0.0,10.0
1446035135798715377,5169,1446035135795188903,robocape_mag,19.95,-5.55,-14.7,10.0,0.0,0.0,0.0,10.0,0.0,0.0,0.0,10.0
1446035135818828877,5170,1446035135815613031,robocape_mag,19.95,-5.55,-14.7,10.0,0.0,0.0,0.0,10.0,0.0,0.0,0.0,10.0
1446035135841497585,5171,1446035135838224887,robocape_mag,19.05,-6.45,-16.8,10.0,0.0,0.0,0.0,10.0,0.0,0.0,0.0,10.0
1446035135859046835,5172,1446035135855433940,robocape_mag,19.05,-6.45,-16.8,10.0,0.0,0.0,0.0,10.0,0.0,0.0,0.0,10.0
1446035135878510043,5173,1446035135875391006,robocape_mag,19.05,-6.45,-16.8,10.0,0.0,0.0,0.0,10.0,0.0,0.0,0.0,10.0
1446035135903424252,5174,1446035135899424076,robocape_mag,19.05,-6.45,-16.8,10.0,0.0,0.0,0.0,10.0,0.0,0.0,0.0,10.0
1446035135919864210,5175,1446035135916183948,robocape_mag,19.05,-6.45,-16.8,10.0,0.0,0.0,0.0,10.0,0.0,0.0,0.0,10.0
1446035135939037210,5176,1446035135935256004,robocape_mag,19.05,-6.45,-16.8,10.0,0.0,0.0,0.0,10.0,0.0,0.0,0.0,10.0
1446035135958683418,5177,1446035135955626964,robocape_mag,19.05,-6.45,-16.8,10.0,0.0,0.0,0.0,10.0,0.0,0.0,0.0,10.0
1446035135980326710,5178,1446035135977118968,robocape_mag,19.05,-6.45,-16.8,10.0,0.0,0.0,0.0,10.0,0.0,0.0,0.0,10.0
1446035135998836710,5179,1446035135995379924,robocape_mag,20.55,-4.35,-15.9,10.0,0.0,0.0,0.0,10.0,0.0,0.0,0.0,10.0
1446035136019477627,5180,1446035136015748023,robocape_mag,20.55,-4.35,-15.9,10.0,0.0,0.0,0.0,10.0,0.0,0.0,0.0,10.0
1446035136041277377,5181,1446035136038131952,robocape_mag,20.55,-4.35,-15.9,10.0,0.0,0.0,0.0,10.0,0.0,0.0,0.0,10.0
1446035136060069293,5182,1446035136056262969,robocape_mag,20.55,-4.35,-15.9,10.0,0.0,0.0,0.0,10.0,0.0,0.0,0.0,10.0
1446035136078299585,5183,1446035136075282096,robocape_mag,20.55,-4.35,-15.9,10.0,0.0,0.0,0.0,10.0,0.0,0.0,0.0,10.0
1446035136103481835,5184,1446035136099632024,robocape_mag,20.55,-4.35,-15.9,10.0,0.0,0.0,0.0,10.0,0.0,0.0,0.0,10.0
1446035136119423710,5185,1446035136115922927,robocape_mag,20.55,-4.35,-15.9,10.0,0.0,0.0,0.0,10.0,0.0,0.0,0.0,10.0
1446035136138579960,5186,1446035136135485887,robocape_mag,20.55,-4.35,-15.9,10.0,0.0,0.0,0.0,10.0,0.0,0.0,0.0,10.0
1446035136160430460,5187,1446035136156789064,robocape_mag,19.35,-5.55,-15.9,10.0,0.0,0.0,0.0,10.0,0.0,0.0,0.0,10.0
1446035136180030377,5188,1446035136176772117,robocape_mag,19.35,-5.55,-15.9,10.0,0.0,0.0,0.0,10.0,0.0,0.0,0.0,10.0
1446035136198643877,5189,1446035136195172071,robocape_mag,19.35,-5.55,-15.9,10.0,0.0,0.0,0.0,10.0,0.0,0.0,0.0,10.0
1446035136218736377,5190,1446035136215491056,robocape_mag,19.35,-5.55,-15.9,10.0,0.0,0.0,0.0,10.0,0.0,0.0,0.0,10.0
1446035136241581793,5191,1446035136237922906,robocape_mag,19.35,-5.55,-15.9,10.0,0.0,0.0,0.0,10.0,0.0,0.0,0.0,10.0
1446035136258802252,5192,1446035136255666017,robocape_mag,19.35,-5.55,-15.9,10.0,0.0,0.0,0.0,10.0,0.0,0.0,0.0,10.0
1446035136278770377,5193,1446035136275202035,robocape_mag,19.35,-5.55,-15.9,10.0,0.0,0.0,0.0,10.0,0.0,0.0,0.0,10.0
1446035136302704627,5194,1446035136299467086,robocape_mag,19.35,-5.55,-15.9,10.0,0.0,0.0,0.0,10.0,0.0,0.0,0.0,10.0
1446035136318626168,5195,1446035136315336942,robocape_mag,19.65,-6.45,-14.4,10.0,0.0,0.0,0.0,10.0,0.0,0.0,0.0,10.0
1446035136338858544,5196,1446035136335244894,robocape_mag,19.65,-6.45,-14.4,10.0,0.0,0.0,0.0,10.0,0.0,0.0,0.0,10.0
1446035136360360627,5197,1446035136357062101,robocape_mag,19.65,-6.45,-14.4,10.0,0.0,0.0,0.0,10.0,0.0,0.0,0.0,10.0
1446035136378657544,5198,1446035136375551939,robocape_mag,19.65,-6.45,-14.4,10.0,0.0,0.0,0.0,10.0,0.0,0.0,0.0,10.0
1446035136404092335,5199,1446035136400935888,robocape_mag,19.65,-6.45,-14.4,10.0,0.0,0.0,0.0,10.0,0.0,0.0,0.0,10.0
1446035136419333752,5200,1446035136415518045,robocape_mag,19.65,-6.45,-14.4,10.0,0.0,0.0,0.0,10.0,0.0,0.0,0.0,10.0
1446035136441154544,5201,1446035136437479972,robocape_mag,19.65,-6.45,-14.4,10.0,0.0,0.0,0.0,10.0,0.0,0.0,0.0,10.0
1446035136458592210,5202,1446035136455450057,robocape_mag,19.65,-6.45,-14.4,10.0,0.0,0.0,0.0,10.0,0.0,0.0,0.0,10.0
1446035136478297877,5203,1446035136475169897,robocape_mag,19.05,-7.05,-16.2,10.0,0.0,0.0,0.0,10.0,0.0,0.0,0.0,10.0
1446035136501814252,5204,1446035136498163938,robocape_mag,19.05,-7.05,-16.2,10.0,0.0,0.0,0.0,10.0,0.0,0.0,0.0,10.0
1446035136519420377,5205,1446035136515774011,robocape_mag,19.05,-7.05,-16.2,10.0,0.0,0.0,0.0,10.0,0.0,0.0,0.0,10.0
1446035136539867919,5206,1446035136536386013,robocape_mag,19.05,-7.05,-16.2,10.0,0.0,0.0,0.0,10.0,0.0,0.0,0.0,10.0
1446035136561860210,5207,1446035136559469938,robocape_mag,19.05,-7.05,-16.2,10.0,0.0,0.0,0.0,10.0,0.0,0.0,0.0,10.0
1446035136578609669,5208,1446035136575344085,robocape_mag,19.05,-7.05,-16.2,10.0,0.0,0.0,0.0,10.0,0.0,0.0,0.0,10.0
1446035136599405002,5209,1446035136595571994,robocape_mag,19.05,-7.05,-16.2,10.0,0.0,0.0,0.0,10.0,0.0,0.0,0.0,10.0
1446035136618509502,5210,1446035136616106986,robocape_mag,19.05,-7.05,-16.2,10.0,0.0,0.0,0.0,10.0,0.0,0.0,0.0,10.0
1446035136639158002,5211,1446035136636042118,robocape_mag,19.95,-6.75,-14.1,10.0,0.0,0.0,0.0,10.0,0.0,0.0,0.0,10.0
1446035136659244794,5212,1446035136655572891,robocape_mag,19.95,-6.75,-14.1,10.0,0.0,0.0,0.0,10.0,0.0,0.0,0.0,10.0
1446035136679157460,5213,1446035136675352096,robocape_mag,19.95,-6.75,-14.1,10.0,0.0,0.0,0.0,10.0,0.0,0.0,0.0,10.0
1446035136701414044,5214,1446035136698174953,robocape_mag,19.95,-6.75,-14.1,10.0,0.0,0.0,0.0,10.0,0.0,0.0,0.0,10.0
1446035136718916169,5215,1446035136715652942,robocape_mag,19.95,-6.75,-14.1,10.0,0.0,0.0,0.0,10.0,0.0,0.0,0.0,10.0
1446035136738285002,5216,1446035136735212087,robocape_mag,19.95,-6.75,-14.1,10.0,0.0,0.0,0.0,10.0,0.0,0.0,0.0,10.0
1446035136763581210,5217,1446035136759634971,robocape_mag,19.95,-6.75,-14.1,10.0,0.0,0.0,0.0,10.0,0.0,0.0,0.0,10.0
1446035136779157085,5218,1446035136775465011,robocape_mag,19.95,-6.75,-14.1,10.0,0.0,0.0,0.0,10.0,0.0,0.0,0.0,10.0
1446035136799043669,5219,1446035136795259952,robocape_mag,18.75,-7.35,-14.7,10.0,0.0,0.0,0.0,10.0,0.0,0.0,0.0,10.0
1446035136820857794,5220,1446035136817389965,robocape_mag,18.75,-7.35,-14.7,10.0,0.0,0.0,0.0,10.0,0.0,0.0,0.0,10.0
1446035136840074002,5221,1446035136836966991,robocape_mag,18.75,-7.35,-14.7,10.0,0.0,0.0,0.0,10.0,0.0,0.0,0.0,10.0
1446035136859264460,5222,1446035136855654001,robocape_mag,18.75,-7.35,-14.7,10.0,0.0,0.0,0.0,10.0,0.0,0.0,0.0,10.0
1446035136878621002,5223,1446035136875441074,robocape_mag,18.75,-7.35,-14.7,10.0,0.0,0.0,0.0,10.0,0.0,0.0,0.0,10.0
1446035136902259335,5224,1446035136898520946,robocape_mag,18.75,-7.35,-14.7,10.0,0.0,0.0,0.0,10.0,0.0,0.0,0.0,10.0
1446035136919336419,5225,1446035136915729045,robocape_mag,18.75,-7.35,-14.7,10.0,0.0,0.0,0.0,10.0,0.0,0.0,0.0,10.0
1446035136939403960,5226,1446035136936299085,robocape_mag,18.75,-7.35,-14.7,10.0,0.0,0.0,0.0,10.0,0.0,0.0,0.0,10.0
1446035136962689627,5227,1446035136958911895,robocape_mag,22.35,-4.95,-15.3,10.0,0.0,0.0,0.0,10.0,0.0,0.0,0.0,10.0
1446035136978396044,5228,1446035136975383996,robocape_mag,22.35,-4.95,-15.3,10.0,0.0,0.0,0.0,10.0,0.0,0.0,0.0,10.0
1446035136998675710,5229,1446035136995177984,robocape_mag,22.35,-4.95,-15.3,10.0,0.0,0.0,0.0,10.0,0.0,0.0,0.0,10.0
1446035137024272752,5230,1446035137020370006,robocape_mag,22.35,-4.95,-15.3,10.0,0.0,0.0,0.0,10.0,0.0,0.0,0.0,10.0
1446035137042624919,5231,1446035137038640975,robocape_mag,22.35,-4.95,-15.3,10.0,0.0,0.0,0.0,10.0,0.0,0.0,0.0,10.0
1446035137058522294,5232,1446035137055285930,robocape_mag,22.35,-4.95,-15.3,10.0,0.0,0.0,0.0,10.0,0.0,0.0,0.0,10.0
1446035137077682794,5233,1446035137075568914,robocape_mag,22.35,-4.95,-15.3,10.0,0.0,0.0,0.0,10.0,0.0,0.0,0.0,10.0
1446035137099307669,5234,1446035137096004009,robocape_mag,22.35,-4.95,-15.3,10.0,0.0,0.0,0.0,10.0,0.0,0.0,0.0,10.0
1446035137119581877,5235,1446035137115272045,robocape_mag,20.55,-6.75,-15.3,10.0,0.0,0.0,0.0,10.0,0.0,0.0,0.0,10.0
1446035137139035919,5236,1446035137135282993,robocape_mag,20.55,-6.75,-15.3,10.0,0.0,0.0,0.0,10.0,0.0,0.0,0.0,10.0
1446035137162272502,5237,1446035137158473968,robocape_mag,20.55,-6.75,-15.3,10.0,0.0,0.0,0.0,10.0,0.0,0.0,0.0,10.0
1446035137179091127,5238,1446035137175348997,robocape_mag,20.55,-6.75,-15.3,10.0,0.0,0.0,0.0,10.0,0.0,0.0,0.0,10.0
1446035137198706586,5239,1446035137195202112,robocape_mag,20.55,-6.75,-15.3,10.0,0.0,0.0,0.0,10.0,0.0,0.0,0.0,10.0
1446035137223733752,5240,1446035137220123052,robocape_mag,20.55,-6.75,-15.3,10.0,0.0,0.0,0.0,10.0,0.0,0.0,0.0,10.0
1446035137238262211,5241,1446035137235163927,robocape_mag,20.55,-6.75,-15.3,10.0,0.0,0.0,0.0,10.0,0.0,0.0,0.0,10.0
1446035137258946086,5242,1446035137255299091,robocape_mag,20.55,-6.75,-15.3,10.0,0.0,0.0,0.0,10.0,0.0,0.0,0.0,10.0
1446035137279526169,5243,1446035137276093006,robocape_mag,19.95,-6.15,-16.5,10.0,0.0,0.0,0.0,10.0,0.0,0.0,0.0,10.0
1446035137298960252,5244,1446035137295900106,robocape_mag,19.95,-6.15,-16.5,10.0,0.0,0.0,0.0,10.0,0.0,0.0,0.0,10.0
1446035137319756169,5245,1446035137315458059,robocape_mag,19.95,-6.15,-16.5,10.0,0.0,0.0,0.0,10.0,0.0,0.0,0.0,10.0
1446035137338779752,5246,1446035137335304021,robocape_mag,19.95,-6.15,-16.5,10.0,0.0,0.0,0.0,10.0,0.0,0.0,0.0,10.0
1446035137361536711,5247,1446035137357484102,robocape_mag,19.95,-6.15,-16.5,10.0,0.0,0.0,0.0,10.0,0.0,0.0,0.0,10.0
1446035137378863419,5248,1446035137375300884,robocape_mag,19.95,-6.15,-16.5,10.0,0.0,0.0,0.0,10.0,0.0,0.0,0.0,10.0
1446035137404319336,5249,1446035137401129007,robocape_mag,19.95,-6.15,-16.5,10.0,0.0,0.0,0.0,10.0,0.0,0.0,0.0,10.0
1446035137424172669,5250,1446035137421063899,robocape_mag,19.95,-6.15,-16.5,10.0,0.0,0.0,0.0,10.0,0.0,0.0,0.0,10.0
1446035137439053794,5251,1446035137435157060,robocape_mag,19.95,-7.35,-15.3,10.0,0.0,0.0,0.0,10.0,0.0,0.0,0.0,10.0
1446035137458853586,5252,1446035137455158948,robocape_mag,19.95,-7.35,-15.3,10.0,0.0,0.0,0.0,10.0,0.0,0.0,0.0,10.0
1446035137481155044,5253,1446035137478988885,robocape_mag,19.95,-7.35,-15.3,10.0,0.0,0.0,0.0,10.0,0.0,0.0,0.0,10.0
1446035137498755752,5254,1446035137495544910,robocape_mag,19.95,-7.35,-15.3,10.0,0.0,0.0,0.0,10.0,0.0,0.0,0.0,10.0
1446035137519221419,5255,1446035137515237092,robocape_mag,19.95,-7.35,-15.3,10.0,0.0,0.0,0.0,10.0,0.0,0.0,0.0,10.0
1446035137542440461,5256,1446035137538561105,robocape_mag,19.95,-7.35,-15.3,10.0,0.0,0.0,0.0,10.0,0.0,0.0,0.0,10.0
1446035137560307669,5257,1446035137556444883,robocape_mag,19.95,-7.35,-15.3,10.0,0.0,0.0,0.0,10.0,0.0,0.0,0.0,10.0
1446035137579660002,5258,1446035137576498031,robocape_mag,19.95,-7.35,-15.3,10.0,0.0,0.0,0.0,10.0,0.0,0.0,0.0,10.0
1446035137599747627,5259,1446035137595942974,robocape_mag,20.25,-5.85,-14.4,10.0,0.0,0.0,0.0,10.0,0.0,0.0,0.0,10.0
1446035137621550877,5260,1446035137617698907,robocape_mag,20.25,-5.85,-14.4,10.0,0.0,0.0,0.0,10.0,0.0,0.0,0.0,10.0
1446035137638800169,5261,1446035137635283946,robocape_mag,20.25,-5.85,-14.4,10.0,0.0,0.0,0.0,10.0,0.0,0.0,0.0,10.0
1446035137658626836,5262,1446035137655529022,robocape_mag,20.25,-5.85,-14.4,10.0,0.0,0.0,0.0,10.0,0.0,0.0,0.0,10.0
1446035137683286794,5263,1446035137679529905,robocape_mag,20.25,-5.85,-14.4,10.0,0.0,0.0,0.0,10.0,0.0,0.0,0.0,10.0
1446035137698581836,5264,1446035137695358991,robocape_mag,20.25,-5.85,-14.4,10.0,0.0,0.0,0.0,10.0,0.0,0.0,0.0,10.0
1446035137718387461,5265,1446035137715226888,robocape_mag,20.25,-5.85,-14.4,10.0,0.0,0.0,0.0,10.0,0.0,0.0,0.0,10.0
1446035137741735461,5266,1446035137739427089,robocape_mag,20.25,-5.85,-14.4,10.0,0.0,0.0,0.0,10.0,0.0,0.0,0.0,10.0
1446035137758653169,5267,1446035137755383968,robocape_mag,20.85,-5.85,-17.4,10.0,0.0,0.0,0.0,10.0,0.0,0.0,0.0,10.0
1446035137778378961,5268,1446035137775188922,robocape_mag,20.85,-5.85,-17.4,10.0,0.0,0.0,0.0,10.0,0.0,0.0,0.0,10.0
1446035137798924044,5269,1446035137795351028,robocape_mag,20.85,-5.85,-17.4,10.0,0.0,0.0,0.0,10.0,0.0,0.0,0.0,10.0
1446035137820371711,5270,1446035137816689014,robocape_mag,20.85,-5.85,-17.4,10.0,0.0,0.0,0.0,10.0,0.0,0.0,0.0,10.0
1446035137840818919,5271,1446035137837246894,robocape_mag,20.85,-5.85,-17.4,10.0,0.0,0.0,0.0,10.0,0.0,0.0,0.0,10.0
1446035137858711711,5272,1446035137855137109,robocape_mag,20.85,-5.85,-17.4,10.0,0.0,0.0,0.0,10.0,0.0,0.0,0.0,10.0
1446035137878994003,5273,1446035137875255107,robocape_mag,20.85,-5.85,-17.4,10.0,0.0,0.0,0.0,10.0,0.0,0.0,0.0,10.0
1446035137902454503,5274,1446035137898729085,robocape_mag,20.85,-5.85,-17.4,10.0,0.0,0.0,0.0,10.0,0.0,0.0,0.0,10.0
1446035137918990711,5275,1446035137915488004,robocape_mag,19.65,-5.25,-14.4,10.0,0.0,0.0,0.0,10.0,0.0,0.0,0.0,10.0
1446035137938939378,5276,1446035137935332059,robocape_mag,19.65,-5.25,-14.4,10.0,0.0,0.0,0.0,10.0,0.0,0.0,0.0,10.0
1446035137961310461,5277,1446035137957631111,robocape_mag,19.65,-5.25,-14.4,10.0,0.0,0.0,0.0,10.0,0.0,0.0,0.0,10.0
1446035137978659086,5278,1446035137975361108,robocape_mag,19.65,-5.25,-14.4,10.0,0.0,0.0,0.0,10.0,0.0,0.0,0.0,10.0
1446035137999149878,5279,1446035137995371103,robocape_mag,19.65,-5.25,-14.4,10.0,0.0,0.0,0.0,10.0,0.0,0.0,0.0,10.0
1446035138024189919,5280,1446035138019747972,robocape_mag,19.65,-5.25,-14.4,10.0,0.0,0.0,0.0,10.0,0.0,0.0,0.0,10.0
1446035138039299878,5281,1446035138036190032,robocape_mag,19.65,-5.25,-14.4,10.0,0.0,0.0,0.0,10.0,0.0,0.0,0.0,10.0
1446035138058627294,5282,1446035138055191993,robocape_mag,19.65,-5.25,-14.4,10.0,0.0,0.0,0.0,10.0,0.0,0.0,0.0,10.0
1446035138078619503,5283,1446035138075484037,robocape_mag,20.55,-7.95,-17.7,10.0,0.0,0.0,0.0,10.0,0.0,0.0,0.0,10.0
1446035138101244878,5284,1446035138097951889,robocape_mag,20.55,-7.95,-17.7,10.0,0.0,0.0,0.0,10.0,0.0,0.0,0.0,10.0
1446035138119040544,5285,1446035138115279912,robocape_mag,20.55,-7.95,-17.7,10.0,0.0,0.0,0.0,10.0,0.0,0.0,0.0,10.0
1446035138138509461,5286,1446035138135313034,robocape_mag,20.55,-7.95,-17.7,10.0,0.0,0.0,0.0,10.0,0.0,0.0,0.0,10.0
1446035138162243794,5287,1446035138158399105,robocape_mag,20.55,-7.95,-17.7,10.0,0.0,0.0,0.0,10.0,0.0,0.0,0.0,10.0
1446035138178873003,5288,1446035138175244092,robocape_mag,20.55,-7.95,-17.7,10.0,0.0,0.0,0.0,10.0,0.0,0.0,0.0,10.0
1446035138199067419,5289,1446035138195949077,robocape_mag,20.55,-7.95,-17.7,10.0,0.0,0.0,0.0,10.0,0.0,0.0,0.0,10.0
1446035138221867086,5290,1446035138219558000,robocape_mag,20.55,-7.95,-17.7,10.0,0.0,0.0,0.0,10.0,0.0,0.0,0.0,10.0
1446035138239624669,5291,1446035138235832929,robocape_mag,21.15,-4.95,-15.9,10.0,0.0,0.0,0.0,10.0,0.0,0.0,0.0,10.0
1446035138259351628,5292,1446035138255418062,robocape_mag,21.15,-4.95,-15.9,10.0,0.0,0.0,0.0,10.0,0.0,0.0,0.0,10.0
1446035138280486294,5293,1446035138276989936,robocape_mag,21.15,-4.95,-15.9,10.0,0.0,0.0,0.0,10.0,0.0,0.0,0.0,10.0
1446035138300311753,5294,1446035138296648979,robocape_mag,21.15,-4.95,-15.9,10.0,0.0,0.0,0.0,10.0,0.0,0.0,0.0,10.0
1446035138318637544,5295,1446035138315360069,robocape_mag,21.15,-4.95,-15.9,10.0,0.0,0.0,0.0,10.0,0.0,0.0,0.0,10.0
1446035138338978628,5296,1446035138335254907,robocape_mag,21.15,-4.95,-15.9,10.0,0.0,0.0,0.0,10.0,0.0,0.0,0.0,10.0
1446035138361163669,5297,1446035138357711076,robocape_mag,21.15,-4.95,-15.9,10.0,0.0,0.0,0.0,10.0,0.0,0.0,0.0,10.0
1446035138378963044,5298,1446035138375303983,robocape_mag,21.15,-4.95,-15.9,10.0,0.0,0.0,0.0,10.0,0.0,0.0,0.0,10.0
1446035138402279086,5299,1446035138398416042,robocape_mag,20.55,-5.55,-15.9,10.0,0.0,0.0,0.0,10.0,0.0,0.0,0.0,10.0
1446035138424685169,5300,1446035138420922994,robocape_mag,20.55,-5.55,-15.9,10.0,0.0,0.0,0.0,10.0,0.0,0.0,0.0,10.0
1446035138439212753,5301,1446035138435620069,robocape_mag,20.55,-5.55,-15.9,10.0,0.0,0.0,0.0,10.0,0.0,0.0,0.0,10.0
1446035138458872503,5302,1446035138455347061,robocape_mag,20.55,-5.55,-15.9,10.0,0.0,0.0,0.0,10.0,0.0,0.0,0.0,10.0
1446035138483366586,5303,1446035138479244947,robocape_mag,20.55,-5.55,-15.9,10.0,0.0,0.0,0.0,10.0,0.0,0.0,0.0,10.0
1446035138499111961,5304,1446035138495451927,robocape_mag,20.55,-5.55,-15.9,10.0,0.0,0.0,0.0,10.0,0.0,0.0,0.0,10.0
1446035138519442836,5305,1446035138515263080,robocape_mag,20.55,-5.55,-15.9,10.0,0.0,0.0,0.0,10.0,0.0,0.0,0.0,10.0
1446035138538618086,5306,1446035138535481929,robocape_mag,20.55,-5.55,-15.9,10.0,0.0,0.0,0.0,10.0,0.0,0.0,0.0,10.0
1446035138560398128,5307,1446035138557158946,robocape_mag,20.25,-8.25,-16.2,10.0,0.0,0.0,0.0,10.0,0.0,0.0,0.0,10.0
1446035138578605045,5308,1446035138575349092,robocape_mag,20.25,-8.25,-16.2,10.0,0.0,0.0,0.0,10.0,0.0,0.0,0.0,10.0
1446035138599126753,5309,1446035138595520019,robocape_mag,20.25,-8.25,-16.2,10.0,0.0,0.0,0.0,10.0,0.0,0.0,0.0,10.0
1446035138622732295,5310,1446035138618863105,robocape_mag,20.25,-8.25,-16.2,10.0,0.0,0.0,0.0,10.0,0.0,0.0,0.0,10.0
1446035138638669378,5311,1446035138635525941,robocape_mag,20.25,-8.25,-16.2,10.0,0.0,0.0,0.0,10.0,0.0,0.0,0.0,10.0
1446035138658704586,5312,1446035138655236959,robocape_mag,20.25,-8.25,-16.2,10.0,0.0,0.0,0.0,10.0,0.0,0.0,0.0,10.0
1446035138683689836,5313,1446035138679629087,robocape_mag,20.25,-8.25,-16.2,10.0,0.0,0.0,0.0,10.0,0.0,0.0,0.0,10.0
1446035138698410170,5314,1446035138695285081,robocape_mag,20.25,-8.25,-16.2,10.0,0.0,0.0,0.0,10.0,0.0,0.0,0.0,10.0
1446035138718768128,5315,1446035138715291976,robocape_mag,21.75,-6.15,-17.7,10.0,0.0,0.0,0.0,10.0,0.0,0.0,0.0,10.0
1446035138740709628,5316,1446035138737248897,robocape_mag,21.75,-6.15,-17.7,10.0,0.0,0.0,0.0,10.0,0.0,0.0,0.0,10.0
1446035138760156711,5317,1446035138756933927,robocape_mag,21.75,-6.15,-17.7,10.0,0.0,0.0,0.0,10.0,0.0,0.0,0.0,10.0
1446035138778870503,5318,1446035138775187015,robocape_mag,21.75,-6.15,-17.7,10.0,0.0,0.0,0.0,10.0,0.0,0.0,0.0,10.0
1446035138798945628,5319,1446035138795211076,robocape_mag,21.75,-6.15,-17.7,10.0,0.0,0.0,0.0,10.0,0.0,0.0,0.0,10.0
1446035138822426295,5320,1446035138819250106,robocape_mag,21.75,-6.15,-17.7,10.0,0.0,0.0,0.0,10.0,0.0,0.0,0.0,10.0
1446035138839213045,5321,1446035138835558891,robocape_mag,21.75,-6.15,-17.7,10.0,0.0,0.0,0.0,10.0,0.0,0.0,0.0,10.0
1446035138858700003,5322,1446035138855189085,robocape_mag,21.75,-6.15,-17.7,10.0,0.0,0.0,0.0,10.0,0.0,0.0,0.0,10.0
1446035138882632253,5323,1446035138879132032,robocape_mag,20.55,-5.55,-17.7,10.0,0.0,0.0,0.0,10.0,0.0,0.0,0.0,10.0
1446035138898282170,5324,1446035138895196914,robocape_mag,20.55,-5.55,-17.7,10.0,0.0,0.0,0.0,10.0,0.0,0.0,0.0,10.0
1446035138918763628,5325,1446035138915302991,robocape_mag,20.55,-5.55,-17.7,10.0,0.0,0.0,0.0,10.0,0.0,0.0,0.0,10.0
1446035138943250628,5326,1446035138939294099,robocape_mag,20.55,-5.55,-17.7,10.0,0.0,0.0,0.0,10.0,0.0,0.0,0.0,10.0
1446035138958980211,5327,1446035138955348014,robocape_mag,20.55,-5.55,-17.7,10.0,0.0,0.0,0.0,10.0,0.0,0.0,0.0,10.0
1446035138978808086,5328,1446035138975323915,robocape_mag,20.55,-5.55,-17.7,10.0,0.0,0.0,0.0,10.0,0.0,0.0,0.0,10.0
1446035138998520670,5329,1446035138995326995,robocape_mag,20.55,-5.55,-17.7,10.0,0.0,0.0,0.0,10.0,0.0,0.0,0.0,10.0
1446035139021225836,5330,1446035139017182111,robocape_mag,20.55,-5.55,-17.7,10.0,0.0,0.0,0.0,10.0,0.0,0.0,0.0,10.0
1446035139039065753,5331,1446035139035330057,robocape_mag,19.35,-7.95,-15.9,10.0,0.0,0.0,0.0,10.0,0.0,0.0,0.0,10.0
1446035139058321461,5332,1446035139055223941,robocape_mag,19.35,-7.95,-15.9,10.0,0.0,0.0,0.0,10.0,0.0,0.0,0.0,10.0
1446035139081931170,5333,1446035139078489065,robocape_mag,19.35,-7.95,-15.9,10.0,0.0,0.0,0.0,10.0,0.0,0.0,0.0,10.0
1446035139099166961,5334,1446035139095329999,robocape_mag,19.35,-7.95,-15.9,10.0,0.0,0.0,0.0,10.0,0.0,0.0,0.0,10.0
1446035139118953711,5335,1446035139115269899,robocape_mag,19.35,-7.95,-15.9,10.0,0.0,0.0,0.0,10.0,0.0,0.0,0.0,10.0
1446035139143438003,5336,1446035139139857053,robocape_mag,19.35,-7.95,-15.9,10.0,0.0,0.0,0.0,10.0,0.0,0.0,0.0,10.0
1446035139158548670,5337,1446035139155185937,robocape_mag,19.35,-7.95,-15.9,10.0,0.0,0.0,0.0,10.0,0.0,0.0,0.0,10.0
1446035139178763962,5338,1446035139175251007,robocape_mag,19.35,-7.95,-15.9,10.0,0.0,0.0,0.0,10.0,0.0,0.0,0.0,10.0
1446035139201649462,5339,1446035139198237895,robocape_mag,19.35,-7.95,-14.7,10.0,0.0,0.0,0.0,10.0,0.0,0.0,0.0,10.0
1446035139220799962,5340,1446035139217389106,robocape_mag,19.35,-7.95,-14.7,10.0,0.0,0.0,0.0,10.0,0.0,0.0,0.0,10.0
1446035139238659128,5341,1446035139235426902,robocape_mag,19.35,-7.95,-14.7,10.0,0.0,0.0,0.0,10.0,0.0,0.0,0.0,10.0
1446035139258882462,5342,1446035139255178928,robocape_mag,19.35,-7.95,-14.7,10.0,0.0,0.0,0.0,10.0,0.0,0.0,0.0,10.0
1446035139281446087,5343,1446035139278208971,robocape_mag,19.35,-7.95,-14.7,10.0,0.0,0.0,0.0,10.0,0.0,0.0,0.0,10.0
1446035139298933962,5344,1446035139295397043,robocape_mag,19.35,-7.95,-14.7,10.0,0.0,0.0,0.0,10.0,0.0,0.0,0.0,10.0
1446035139318613753,5345,1446035139315550088,robocape_mag,19.35,-7.95,-14.7,10.0,0.0,0.0,0.0,10.0,0.0,0.0,0.0,10.0
1446035139341406503,5346,1446035139338053941,robocape_mag,19.35,-7.95,-14.7,10.0,0.0,0.0,0.0,10.0,0.0,0.0,0.0,10.0
1446035139358603087,5347,1446035139355202913,robocape_mag,19.95,-6.15,-15.3,10.0,0.0,0.0,0.0,10.0,0.0,0.0,0.0,10.0
1446035139378781920,5348,1446035139375261068,robocape_mag,19.95,-6.15,-15.3,10.0,0.0,0.0,0.0,10.0,0.0,0.0,0.0,10.0
1446035139402863212,5349,1446035139399211883,robocape_mag,19.95,-6.15,-15.3,10.0,0.0,0.0,0.0,10.0,0.0,0.0,0.0,10.0
1446035139423979712,5350,1446035139419857025,robocape_mag,19.95,-6.15,-15.3,10.0,0.0,0.0,0.0,10.0,0.0,0.0,0.0,10.0
1446035139439221295,5351,1446035139435472965,robocape_mag,19.95,-6.15,-15.3,10.0,0.0,0.0,0.0,10.0,0.0,0.0,0.0,10.0
1446035139458506837,5352,1446035139455394029,robocape_mag,19.95,-6.15,-15.3,10.0,0.0,0.0,0.0,10.0,0.0,0.0,0.0,10.0
1446035139481786962,5353,1446035139477874040,robocape_mag,19.95,-6.15,-15.3,10.0,0.0,0.0,0.0,10.0,0.0,0.0,0.0,10.0
1446035139498290753,5354,1446035139495201110,robocape_mag,19.95,-6.15,-15.3,10.0,0.0,0.0,0.0,10.0,0.0,0.0,0.0,10.0
1446035139518729962,5355,1446035139515295982,robocape_mag,19.35,-7.95,-14.7,10.0,0.0,0.0,0.0,10.0,0.0,0.0,0.0,10.0
1446035139542160837,5356,1446035139538499116,robocape_mag,19.35,-7.95,-14.7,10.0,0.0,0.0,0.0,10.0,0.0,0.0,0.0,10.0
1446035139558676087,5357,1446035139555149078,robocape_mag,19.35,-7.95,-14.7,10.0,0.0,0.0,0.0,10.0,0.0,0.0,0.0,10.0
1446035139579005420,5358,1446035139575480937,robocape_mag,19.35,-7.95,-14.7,10.0,0.0,0.0,0.0,10.0,0.0,0.0,0.0,10.0
1446035139602212170,5359,1446035139598747968,robocape_mag,19.35,-7.95,-14.7,10.0,0.0,0.0,0.0,10.0,0.0,0.0,0.0,10.0
1446035139618883337,5360,1446035139615535974,robocape_mag,19.35,-7.95,-14.7,10.0,0.0,0.0,0.0,10.0,0.0,0.0,0.0,10.0
1446035139638628128,5361,1446035139635351896,robocape_mag,19.35,-7.95,-14.7,10.0,0.0,0.0,0.0,10.0,0.0,0.0,0.0,10.0
1446035139660285503,5362,1446035139656697988,robocape_mag,19.35,-7.95,-14.7,10.0,0.0,0.0,0.0,10.0,0.0,0.0,0.0,10.0
1446035139679944295,5363,1446035139676764011,robocape_mag,19.65,-8.85,-14.4,10.0,0.0,0.0,0.0,10.0,0.0,0.0,0.0,10.0
1446035139698913462,5364,1446035139695346117,robocape_mag,19.65,-8.85,-14.4,10.0,0.0,0.0,0.0,10.0,0.0,0.0,0.0,10.0
1446035139719021295,5365,1446035139715239048,robocape_mag,19.65,-8.85,-14.4,10.0,0.0,0.0,0.0,10.0,0.0,0.0,0.0,10.0
1446035139741424628,5366,1446035139738130092,robocape_mag,19.65,-8.85,-14.4,10.0,0.0,0.0,0.0,10.0,0.0,0.0,0.0,10.0
1446035139758903378,5367,1446035139755275011,robocape_mag,19.65,-8.85,-14.4,10.0,0.0,0.0,0.0,10.0,0.0,0.0,0.0,10.0
1446035139778868212,5368,1446035139775310993,robocape_mag,19.65,-8.85,-14.4,10.0,0.0,0.0,0.0,10.0,0.0,0.0,0.0,10.0
1446035139803182837,5369,1446035139799540042,robocape_mag,19.65,-8.85,-14.4,10.0,0.0,0.0,0.0,10.0,0.0,0.0,0.0,10.0
1446035139818567420,5370,1446035139815305948,robocape_mag,19.65,-8.85,-14.4,10.0,0.0,0.0,0.0,10.0,0.0,0.0,0.0,10.0
1446035139839078212,5371,1446035139835375070,robocape_mag,18.75,-6.75,-16.5,10.0,0.0,0.0,0.0,10.0,0.0,0.0,0.0,10.0
1446035139860554545,5372,1446035139856437921,robocape_mag,18.75,-6.75,-16.5,10.0,0.0,0.0,0.0,10.0,0.0,0.0,0.0,10.0
1446035139879128420,5373,1446035139876029014,robocape_mag,18.75,-6.75,-16.5,10.0,0.0,0.0,0.0,10.0,0.0,0.0,0.0,10.0
1446035139898766004,5374,1446035139895252943,robocape_mag,18.75,-6.75,-16.5,10.0,0.0,0.0,0.0,10.0,0.0,0.0,0.0,10.0
1446035139918994712,5375,1446035139915478944,robocape_mag,18.75,-6.75,-16.5,10.0,0.0,0.0,0.0,10.0,0.0,0.0,0.0,10.0
1446035139941290337,5376,1446035139937587976,robocape_mag,18.75,-6.75,-16.5,10.0,0.0,0.0,0.0,10.0,0.0,0.0,0.0,10.0
1446035139958894962,5377,1446035139955331087,robocape_mag,18.75,-6.75,-16.5,10.0,0.0,0.0,0.0,10.0,0.0,0.0,0.0,10.0
1446035139978769754,5378,1446035139975574970,robocape_mag,18.75,-6.75,-16.5,10.0,0.0,0.0,0.0,10.0,0.0,0.0,0.0,10.0
1446035140001722420,5379,1446035139998626947,robocape_mag,20.85,-8.25,-15.0,10.0,0.0,0.0,0.0,10.0,0.0,0.0,0.0,10.0
1446035140018709254,5380,1446035140015115976,robocape_mag,20.85,-8.25,-15.0,10.0,0.0,0.0,0.0,10.0,0.0,0.0,0.0,10.0
1446035140038795962,5381,1446035140035485029,robocape_mag,20.85,-8.25,-15.0,10.0,0.0,0.0,0.0,10.0,0.0,0.0,0.0,10.0
1446035140063169087,5382,1446035140059564113,robocape_mag,20.85,-8.25,-15.0,10.0,0.0,0.0,0.0,10.0,0.0,0.0,0.0,10.0
1446035140080119420,5383,1446035140076452970,robocape_mag,20.85,-8.25,-15.0,10.0,0.0,0.0,0.0,10.0,0.0,0.0,0.0,10.0
1446035140099211962,5384,1446035140095500946,robocape_mag,20.85,-8.25,-15.0,10.0,0.0,0.0,0.0,10.0,0.0,0.0,0.0,10.0
1446035140119623962,5385,1446035140116504907,robocape_mag,20.85,-8.25,-15.0,10.0,0.0,0.0,0.0,10.0,0.0,0.0,0.0,10.0
1446035140143057045,5386,1446035140139465093,robocape_mag,20.85,-8.25,-15.0,10.0,0.0,0.0,0.0,10.0,0.0,0.0,0.0,10.0
1446035140159342379,5387,1446035140155807018,robocape_mag,20.85,-6.45,-16.2,10.0,0.0,0.0,0.0,10.0,0.0,0.0,0.0,10.0
1446035140179277254,5388,1446035140175501108,robocape_mag,20.85,-6.45,-16.2,10.0,0.0,0.0,0.0,10.0,0.0,0.0,0.0,10.0
1446035140199067045,5389,1446035140195204019,robocape_mag,20.85,-6.45,-16.2,10.0,0.0,0.0,0.0,10.0,0.0,0.0,0.0,10.0
1446035140220671045,5390,1446035140216960906,robocape_mag,20.85,-6.45,-16.2,10.0,0.0,0.0,0.0,10.0,0.0,0.0,0.0,10.0
1446035140238500254,5391,1446035140235441923,robocape_mag,20.85,-6.45,-16.2,10.0,0.0,0.0,0.0,10.0,0.0,0.0,0.0,10.0
1446035140258825087,5392,1446035140255306959,robocape_mag,20.85,-6.45,-16.2,10.0,0.0,0.0,0.0,10.0,0.0,0.0,0.0,10.0
1446035140282564754,5393,1446035140278738021,robocape_mag,20.85,-6.45,-16.2,10.0,0.0,0.0,0.0,10.0,0.0,0.0,0.0,10.0
1446035140298601920,5394,1446035140295203924,robocape_mag,20.85,-6.45,-16.2,10.0,0.0,0.0,0.0,10.0,0.0,0.0,0.0,10.0
1446035140318369337,5395,1446035140315321922,robocape_mag,19.65,-5.85,-17.4,10.0,0.0,0.0,0.0,10.0,0.0,0.0,0.0,10.0
1446035140343188212,5396,1446035140340749025,robocape_mag,19.65,-5.85,-17.4,10.0,0.0,0.0,0.0,10.0,0.0,0.0,0.0,10.0
1446035140358902837,5397,1446035140355314970,robocape_mag,19.65,-5.85,-17.4,10.0,0.0,0.0,0.0,10.0,0.0,0.0,0.0,10.0
1446035140378868212,5398,1446035140375292062,robocape_mag,19.65,-5.85,-17.4,10.0,0.0,0.0,0.0,10.0,0.0,0.0,0.0,10.0
1446035140401678379,5399,1446035140397476911,robocape_mag,19.65,-5.85,-17.4,10.0,0.0,0.0,0.0,10.0,0.0,0.0,0.0,10.0
1446035140423298670,5400,1446035140419502973,robocape_mag,19.65,-5.85,-17.4,10.0,0.0,0.0,0.0,10.0,0.0,0.0,0.0,10.0
1446035140439359004,5401,1446035140435355901,robocape_mag,19.65,-5.85,-17.4,10.0,0.0,0.0,0.0,10.0,0.0,0.0,0.0,10.0
1446035140458820545,5402,1446035140455312967,robocape_mag,19.65,-5.85,-17.4,10.0,0.0,0.0,0.0,10.0,0.0,0.0,0.0,10.0
1446035140482202629,5403,1446035140478552103,robocape_mag,20.85,-7.65,-15.6,10.0,0.0,0.0,0.0,10.0,0.0,0.0,0.0,10.0
1446035140498476462,5404,1446035140495389938,robocape_mag,20.85,-7.65,-15.6,10.0,0.0,0.0,0.0,10.0,0.0,0.0,0.0,10.0
1446035140519035837,5405,1446035140515525102,robocape_mag,20.85,-7.65,-15.6,10.0,0.0,0.0,0.0,10.0,0.0,0.0,0.0,10.0
1446035140542490587,5406,1446035140539328098,robocape_mag,20.85,-7.65,-15.6,10.0,0.0,0.0,0.0,10.0,0.0,0.0,0.0,10.0
1446035140558871587,5407,1446035140555116891,robocape_mag,20.85,-7.65,-15.6,10.0,0.0,0.0,0.0,10.0,0.0,0.0,0.0,10.0
1446035140578551421,5408,1446035140575336933,robocape_mag,20.85,-7.65,-15.6,10.0,0.0,0.0,0.0,10.0,0.0,0.0,0.0,10.0
1446035140600897962,5409,1446035140598584890,robocape_mag,20.85,-7.65,-15.6,10.0,0.0,0.0,0.0,10.0,0.0,0.0,0.0,10.0
1446035140618765671,5410,1446035140615518093,robocape_mag,20.85,-7.65,-15.6,10.0,0.0,0.0,0.0,10.0,0.0,0.0,0.0,10.0
1446035140639439921,5411,1446035140635360956,robocape_mag,19.05,-6.45,-15.0,10.0,0.0,0.0,0.0,10.0,0.0,0.0,0.0,10.0
1446035140658505962,5412,1446035140655406951,robocape_mag,19.05,-6.45,-15.0,10.0,0.0,0.0,0.0,10.0,0.0,0.0,0.0,10.0
1446035140680663129,5413,1446035140677059888,robocape_mag,19.05,-6.45,-15.0,10.0,0.0,0.0,0.0,10.0,0.0,0.0,0.0,10.0
1446035140698985296,5414,1446035140695336103,robocape_mag,19.05,-6.45,-15.0,10.0,0.0,0.0,0.0,10.0,0.0,0.0,0.0,10.0
1446035140718468129,5415,1446035140715384960,robocape_mag,19.05,-6.45,-15.0,10.0,0.0,0.0,0.0,10.0,0.0,0.0,0.0,10.0
1446035140742217962,5416,1446035140738188028,robocape_mag,19.05,-6.45,-15.0,10.0,0.0,0.0,0.0,10.0,0.0,0.0,0.0,10.0
1446035140758515046,5417,1446035140755361080,robocape_mag,19.05,-6.45,-15.0,10.0,0.0,0.0,0.0,10.0,0.0,0.0,0.0,10.0
1446035140778908212,5418,1446035140775281906,robocape_mag,19.05,-6.45,-15.0,10.0,0.0,0.0,0.0,10.0,0.0,0.0,0.0,10.0
1446035140803182379,5419,1446035140799568891,robocape_mag,21.45,-6.45,-15.6,10.0,0.0,0.0,0.0,10.0,0.0,0.0,0.0,10.0
1446035140818815921,5420,1446035140815387964,robocape_mag,21.45,-6.45,-15.6,10.0,0.0,0.0,0.0,10.0,0.0,0.0,0.0,10.0
1446035140839058796,5421,1446035140835505962,robocape_mag,21.45,-6.45,-15.6,10.0,0.0,0.0,0.0,10.0,0.0,0.0,0.0,10.0
1446035140859932296,5422,1446035140856548070,robocape_mag,21.45,-6.45,-15.6,10.0,0.0,0.0,0.0,10.0,0.0,0.0,0.0,10.0
1446035140880025046,5423,1446035140876432895,robocape_mag,21.45,-6.45,-15.6,10.0,0.0,0.0,0.0,10.0,0.0,0.0,0.0,10.0
1446035140898619754,5424,1446035140895510911,robocape_mag,21.45,-6.45,-15.6,10.0,0.0,0.0,0.0,10.0,0.0,0.0,0.0,10.0
1446035140918951504,5425,1446035140915318965,robocape_mag,21.45,-6.45,-15.6,10.0,0.0,0.0,0.0,10.0,0.0,0.0,0.0,10.0
1446035140941578879,5426,1446035140937860012,robocape_mag,21.45,-6.45,-15.6,10.0,0.0,0.0,0.0,10.0,0.0,0.0,0.0,10.0
1446035140958675837,5427,1446035140955174922,robocape_mag,19.05,-4.65,-16.8,10.0,0.0,0.0,0.0,10.0,0.0,0.0,0.0,10.0
1446035140978571129,5428,1446035140975466966,robocape_mag,19.05,-4.65,-16.8,10.0,0.0,0.0,0.0,10.0,0.0,0.0,0.0,10.0
1446035140998315087,5429,1446035140995126962,robocape_mag,19.05,-4.65,-16.8,10.0,0.0,0.0,0.0,10.0,0.0,0.0,0.0,10.0
1446035141021188254,5430,1446035141018032073,robocape_mag,19.05,-4.65,-16.8,10.0,0.0,0.0,0.0,10.0,0.0,0.0,0.0,10.0
1446035141038883671,5431,1446035141035223007,robocape_mag,19.05,-4.65,-16.8,10.0,0.0,0.0,0.0,10.0,0.0,0.0,0.0,10.0
1446035141058366837,5432,1446035141055265903,robocape_mag,19.05,-4.65,-16.8,10.0,0.0,0.0,0.0,10.0,0.0,0.0,0.0,10.0
1446035141083333212,5433,1446035141079442024,robocape_mag,19.05,-4.65,-16.8,10.0,0.0,0.0,0.0,10.0,0.0,0.0,0.0,10.0
1446035141099613587,5434,1446035141095782041,robocape_mag,19.05,-4.65,-16.8,10.0,0.0,0.0,0.0,10.0,0.0,0.0,0.0,10.0
1446035141118989879,5435,1446035141115304946,robocape_mag,20.25,-7.65,-17.4,10.0,0.0,0.0,0.0,10.0,0.0,0.0,0.0,10.0
1446035141139111129,5436,1446035141136076927,robocape_mag,20.25,-7.65,-17.4,10.0,0.0,0.0,0.0,10.0,0.0,0.0,0.0,10.0
1446035141159814879,5437,1446035141156601905,robocape_mag,20.25,-7.65,-17.4,10.0,0.0,0.0,0.0,10.0,0.0,0.0,0.0,10.0
1446035141179073879,5438,1446035141175399065,robocape_mag,20.25,-7.65,-17.4,10.0,0.0,0.0,0.0,10.0,0.0,0.0,0.0,10.0
1446035141199011504,5439,1446035141195200920,robocape_mag,20.25,-7.65,-17.4,10.0,0.0,0.0,0.0,10.0,0.0,0.0,0.0,10.0
1446035141222363171,5440,1446035141218647003,robocape_mag,20.25,-7.65,-17.4,10.0,0.0,0.0,0.0,10.0,0.0,0.0,0.0,10.0
1446035141238729921,5441,1446035141235483884,robocape_mag,20.25,-7.65,-17.4,10.0,0.0,0.0,0.0,10.0,0.0,0.0,0.0,10.0
1446035141258906629,5442,1446035141255276918,robocape_mag,20.25,-7.65,-17.4,10.0,0.0,0.0,0.0,10.0,0.0,0.0,0.0,10.0
1446035141282313129,5443,1446035141278709888,robocape_mag,19.95,-4.35,-15.9,10.0,0.0,0.0,0.0,10.0,0.0,0.0,0.0,10.0
1446035141298323671,5444,1446035141295218944,robocape_mag,19.95,-4.35,-15.9,10.0,0.0,0.0,0.0,10.0,0.0,0.0,0.0,10.0
1446035141319068796,5445,1446035141315320968,robocape_mag,19.95,-4.35,-15.9,10.0,0.0,0.0,0.0,10.0,0.0,0.0,0.0,10.0
1446035141340706713,5446,1446035141338500976,robocape_mag,19.95,-4.35,-15.9,10.0,0.0,0.0,0.0,10.0,0.0,0.0,0.0,10.0
1446035141359071129,5447,1446035141355433940,robocape_mag,19.95,-4.35,-15.9,10.0,0.0,0.0,0.0,10.0,0.0,0.0,0.0,10.0
