%time,field.header.seq,field.header.stamp,field.header.frame_id,field.magnetic_field.x,field.magnetic_field.y,field.magnetic_field.z,field.magnetic_field_covariance0,field.magnetic_field_covariance1,field.magnetic_field_covariance2,field.magnetic_field_covariance3,field.magnetic_field_covariance4,field.magnetic_field_covariance5,field.magnetic_field_covariance6,field.magnetic_field_covariance7,field.magnetic_field_covariance8
1446038004986103553,1,1446038004623708963,robocape_mag,10.2,2.7,1.05,10.0,0.0,0.0,0.0,10.0,0.0,0.0,0.0,10.0
1446038004997082720,2,1446038004658693075,robocape_mag,10.2,2.7,1.05,10.0,0.0,0.0,0.0,10.0,0.0,0.0,0.0,10.0
1446038005005077970,3,1446038004690057992,robocape_mag,10.2,2.7,1.05,10.0,0.0,0.0,0.0,10.0,0.0,0.0,0.0,10.0
1446038005007279345,4,1446038004722062110,robocape_mag,9.6,2.1,-0.15,10.0,0.0,0.0,0.0,10.0,0.0,0.0,0.0,10.0
1446038005007341803,5,1446038004765688896,robocape_mag,9.6,2.1,-0.15,10.0,0.0,0.0,0.0,10.0,0.0,0.0,0.0,10.0
1446038005007379803,6,1446038004788815021,robocape_mag,9.6,2.1,-0.15,10.0,0.0,0.0,0.0,10.0,0.0,0.0,0.0,10.0
1446038005014552303,7,1446038004819472074,robocape_mag,9.6,2.1,-0.15,10.0,0.0,0.0,0.0,10.0,0.0,0.0,0.0,10.0
1446038005014586178,8,1446038004854686975,robocape_mag,9.6,2.1,-0.15,10.0,0.0,0.0,0.0,10.0,0.0,0.0,0.0,10.0
1446038005014619178,9,1446038004885946035,robocape_mag,12.9,1.8,3.15,10.0,0.0,0.0,0.0,10.0,0.0,0.0,0.0,10.0
1446038005014715803,10,1446038004919847011,robocape_mag,12.9,1.8,3.15,10.0,0.0,0.0,0.0,10.0,0.0,0.0,0.0,10.0
1446038005014813137,11,1446038004970808029,robocape_mag,12.9,1.8,3.15,10.0,0.0,0.0,0.0,10.0,0.0,0.0,0.0,10.0
1446038005015675303,12,1446038005008584022,robocape_mag,12.9,1.8,3.15,10.0,0.0,0.0,0.0,10.0,0.0,0.0,0.0,10.0
1446038005032919220,13,1446038005029304981,robocape_mag,8.1,4.2,-1.65,10.0,0.0,0.0,0.0,10.0,0.0,0.0,0.0,10.0
1446038005071682428,14,1446038005053689956,robocape_mag,8.1,4.2,-1.65,10.0,0.0,0.0,0.0,10.0,0.0,0.0,0.0,10.0
1446038005093558303,15,1446038005088677883,robocape_mag,8.1,4.2,-1.65,10.0,0.0,0.0,0.0,10.0,0.0,0.0,0.0,10.0
1446038005127132720,16,1446038005118401050,robocape_mag,8.1,4.2,-1.65,10.0,0.0,0.0,0.0,10.0,0.0,0.0,0.0,10.0
1446038005156569637,17,1446038005151740074,robocape_mag,8.1,4.2,-1.65,10.0,0.0,0.0,0.0,10.0,0.0,0.0,0.0,10.0
1446038005192732470,18,1446038005187767982,robocape_mag,7.2,4.5,3.45,10.0,0.0,0.0,0.0,10.0,0.0,0.0,0.0,10.0
1446038005223549845,19,1446038005218405008,robocape_mag,7.2,4.5,3.45,10.0,0.0,0.0,0.0,10.0,0.0,0.0,0.0,10.0
1446038005256435720,20,1446038005251610994,robocape_mag,7.2,4.5,3.45,10.0,0.0,0.0,0.0,10.0,0.0,0.0,0.0,10.0
1446038005291655137,21,1446038005285459995,robocape_mag,7.2,4.5,3.45,10.0,0.0,0.0,0.0,10.0,0.0,0.0,0.0,10.0
1446038005323253012,22,1446038005318124055,robocape_mag,7.2,4.5,3.45,10.0,0.0,0.0,0.0,10.0,0.0,0.0,0.0,10.0
1446038005356411095,23,1446038005351440906,robocape_mag,12.0,0.9,1.65,10.0,0.0,0.0,0.0,10.0,0.0,0.0,0.0,10.0
1446038005389712387,24,1446038005384896039,robocape_mag,12.0,0.9,1.65,10.0,0.0,0.0,0.0,10.0,0.0,0.0,0.0,10.0
1446038005428280345,25,1446038005418189048,robocape_mag,12.0,0.9,1.65,10.0,0.0,0.0,0.0,10.0,0.0,0.0,0.0,10.0
1446038005456605804,26,1446038005451659917,robocape_mag,12.0,0.9,1.65,10.0,0.0,0.0,0.0,10.0,0.0,0.0,0.0,10.0
1446038005489687804,27,1446038005484785079,robocape_mag,12.0,0.9,1.65,10.0,0.0,0.0,0.0,10.0,0.0,0.0,0.0,10.0
1446038005523851054,28,1446038005518755912,robocape_mag,6.9,2.4,0.75,10.0,0.0,0.0,0.0,10.0,0.0,0.0,0.0,10.0
1446038005556660512,29,1446038005551717042,robocape_mag,6.9,2.4,0.75,10.0,0.0,0.0,0.0,10.0,0.0,0.0,0.0,10.0
1446038005590094845,30,1446038005585155010,robocape_mag,6.9,2.4,0.75,10.0,0.0,0.0,0.0,10.0,0.0,0.0,0.0,10.0
1446038005623382179,31,1446038005618338108,robocape_mag,6.9,2.4,0.75,10.0,0.0,0.0,0.0,10.0,0.0,0.0,0.0,10.0
1446038005656665595,32,1446038005651808023,robocape_mag,6.9,2.4,0.75,10.0,0.0,0.0,0.0,10.0,0.0,0.0,0.0,10.0
1446038005690267887,33,1446038005684945106,robocape_mag,11.7,2.4,4.95,10.0,0.0,0.0,0.0,10.0,0.0,0.0,0.0,10.0
1446038005723393470,34,1446038005718103885,robocape_mag,11.7,2.4,4.95,10.0,0.0,0.0,0.0,10.0,0.0,0.0,0.0,10.0
1446038005756201637,35,1446038005751312971,robocape_mag,11.7,2.4,4.95,10.0,0.0,0.0,0.0,10.0,0.0,0.0,0.0,10.0
1446038005790382595,36,1446038005784841060,robocape_mag,11.7,2.4,4.95,10.0,0.0,0.0,0.0,10.0,0.0,0.0,0.0,10.0
1446038005825290262,37,1446038005818084955,robocape_mag,11.7,2.4,1.05,10.0,0.0,0.0,0.0,10.0,0.0,0.0,0.0,10.0
1446038005857054929,38,1446038005851295948,robocape_mag,7.8,3.9,1.05,10.0,0.0,0.0,0.0,10.0,0.0,0.0,0.0,10.0
1446038005890659720,39,1446038005884659051,robocape_mag,7.8,3.9,1.05,10.0,0.0,0.0,0.0,10.0,0.0,0.0,0.0,10.0
1446038005923963095,40,1446038005917980909,robocape_mag,7.8,3.9,1.05,10.0,0.0,0.0,0.0,10.0,0.0,0.0,0.0,10.0
1446038005956474262,41,1446038005951433897,robocape_mag,7.8,3.9,1.05,10.0,0.0,0.0,0.0,10.0,0.0,0.0,0.0,10.0
1446038005990289221,42,1446038005984729051,robocape_mag,10.2,2.7,1.05,10.0,0.0,0.0,0.0,10.0,0.0,0.0,0.0,10.0
1446038006024791846,43,1446038006019213914,robocape_mag,10.2,2.7,1.05,10.0,0.0,0.0,0.0,10.0,0.0,0.0,0.0,10.0
1446038006056910262,44,1446038006051640987,robocape_mag,10.2,2.7,1.05,10.0,0.0,0.0,0.0,10.0,0.0,0.0,0.0,10.0
1446038006089887846,45,1446038006084817886,robocape_mag,10.2,2.7,1.05,10.0,0.0,0.0,0.0,10.0,0.0,0.0,0.0,10.0
1446038006123128012,46,1446038006117961883,robocape_mag,10.2,2.7,1.05,10.0,0.0,0.0,0.0,10.0,0.0,0.0,0.0,10.0
1446038006156566137,47,1446038006151314020,robocape_mag,9.0,2.1,0.45,10.0,0.0,0.0,0.0,10.0,0.0,0.0,0.0,10.0
1446038006190200846,48,1446038006184685945,robocape_mag,9.0,2.1,0.45,10.0,0.0,0.0,0.0,10.0,0.0,0.0,0.0,10.0
1446038006224476637,49,1446038006217938899,robocape_mag,9.0,2.1,0.45,10.0,0.0,0.0,0.0,10.0,0.0,0.0,0.0,10.0
1446038006258339387,50,1446038006251370906,robocape_mag,9.0,2.1,0.45,10.0,0.0,0.0,0.0,10.0,0.0,0.0,0.0,10.0
1446038006289920554,51,1446038006284945011,robocape_mag,9.0,2.1,0.45,10.0,0.0,0.0,0.0,10.0,0.0,0.0,0.0,10.0
1446038006324555387,52,1446038006318099975,robocape_mag,6.6,3.9,2.25,10.0,0.0,0.0,0.0,10.0,0.0,0.0,0.0,10.0
1446038006357178929,53,1446038006352314949,robocape_mag,6.6,3.9,2.25,10.0,0.0,0.0,0.0,10.0,0.0,0.0,0.0,10.0
1446038006390804929,54,1446038006385797023,robocape_mag,6.6,3.9,2.25,10.0,0.0,0.0,0.0,10.0,0.0,0.0,0.0,10.0
1446038006424678887,55,1446038006419425964,robocape_mag,6.6,3.9,2.25,10.0,0.0,0.0,0.0,10.0,0.0,0.0,0.0,10.0
1446038006457985887,56,1446038006452625036,robocape_mag,6.6,3.9,2.25,10.0,0.0,0.0,0.0,10.0,0.0,0.0,0.0,10.0
1446038006491682637,57,1446038006486848115,robocape_mag,10.8,0.9,-0.15,10.0,0.0,0.0,0.0,10.0,0.0,0.0,0.0,10.0
1446038006524461096,58,1446038006518994092,robocape_mag,10.8,0.9,-0.15,10.0,0.0,0.0,0.0,10.0,0.0,0.0,0.0,10.0
1446038006562751054,59,1446038006556961059,robocape_mag,10.8,0.9,-0.15,10.0,0.0,0.0,0.0,10.0,0.0,0.0,0.0,10.0
1446038006591350929,60,1446038006586273908,robocape_mag,10.8,0.9,-0.15,10.0,0.0,0.0,0.0,10.0,0.0,0.0,0.0,10.0
1446038006627478096,61,1446038006620454072,robocape_mag,10.8,5.7,-1.35,10.0,0.0,0.0,0.0,10.0,0.0,0.0,0.0,10.0
1446038006657971679,62,1446038006652955055,robocape_mag,4.8,5.7,-1.35,10.0,0.0,0.0,0.0,10.0,0.0,0.0,0.0,10.0
1446038006695417513,63,1446038006687752008,robocape_mag,4.8,5.7,-1.35,10.0,0.0,0.0,0.0,10.0,0.0,0.0,0.0,10.0
1446038006728686679,64,1446038006720963954,robocape_mag,4.8,5.7,-1.35,10.0,0.0,0.0,0.0,10.0,0.0,0.0,0.0,10.0
1446038006766006596,65,1446038006755352020,robocape_mag,4.8,5.7,-1.35,10.0,0.0,0.0,0.0,10.0,0.0,0.0,0.0,10.0
1446038006796121679,66,1446038006788212060,robocape_mag,8.1,2.4,-1.05,10.0,0.0,0.0,0.0,10.0,0.0,0.0,0.0,10.0
1446038006828158846,67,1446038006822489023,robocape_mag,8.1,2.4,-1.05,10.0,0.0,0.0,0.0,10.0,0.0,0.0,0.0,10.0
1446038006860054596,68,1446038006854655027,robocape_mag,8.1,2.4,-1.05,10.0,0.0,0.0,0.0,10.0,0.0,0.0,0.0,10.0
1446038006896830971,69,1446038006887586116,robocape_mag,8.1,2.4,-1.05,10.0,0.0,0.0,0.0,10.0,0.0,0.0,0.0,10.0
1446038006931817471,70,1446038006921355009,robocape_mag,8.1,2.4,-1.05,10.0,0.0,0.0,0.0,10.0,0.0,0.0,0.0,10.0
1446038006960095388,71,1446038006954922914,robocape_mag,9.9,2.4,-2.85,10.0,0.0,0.0,0.0,10.0,0.0,0.0,0.0,10.0
1446038007002795054,72,1446038006990334987,robocape_mag,9.9,2.4,-2.85,10.0,0.0,0.0,0.0,10.0,0.0,0.0,0.0,10.0
1446038007029920096,73,1446038007022200107,robocape_mag,9.9,2.4,-2.85,10.0,0.0,0.0,0.0,10.0,0.0,0.0,0.0,10.0
1446038007060327513,74,1446038007055358886,robocape_mag,9.9,2.4,-2.85,10.0,0.0,0.0,0.0,10.0,0.0,0.0,0.0,10.0
1446038007093037429,75,1446038007088057994,robocape_mag,9.9,2.4,-2.85,10.0,0.0,0.0,0.0,10.0,0.0,0.0,0.0,10.0
1446038007126361638,76,1446038007121265888,robocape_mag,6.3,2.4,0.15,10.0,0.0,0.0,0.0,10.0,0.0,0.0,0.0,10.0
1446038007160417054,77,1446038007155467033,robocape_mag,6.3,2.4,0.15,10.0,0.0,0.0,0.0,10.0,0.0,0.0,0.0,10.0
1446038007193679096,78,1446038007188627004,robocape_mag,6.3,2.4,0.15,10.0,0.0,0.0,0.0,10.0,0.0,0.0,0.0,10.0
1446038007224720388,79,1446038007219835042,robocape_mag,6.3,2.4,0.15,10.0,0.0,0.0,0.0,10.0,0.0,0.0,0.0,10.0
1446038007258994638,80,1446038007254163980,robocape_mag,6.3,2.4,0.15,10.0,0.0,0.0,0.0,10.0,0.0,0.0,0.0,10.0
1446038007295125346,81,1446038007287786006,robocape_mag,11.4,1.5,1.05,10.0,0.0,0.0,0.0,10.0,0.0,0.0,0.0,10.0
1446038007328093721,82,1446038007321386098,robocape_mag,11.4,1.5,1.05,10.0,0.0,0.0,0.0,10.0,0.0,0.0,0.0,10.0
1446038007358749263,83,1446038007353888988,robocape_mag,11.4,1.5,1.05,10.0,0.0,0.0,0.0,10.0,0.0,0.0,0.0,10.0
1446038007392614888,84,1446038007387465000,robocape_mag,11.4,1.5,1.05,10.0,0.0,0.0,0.0,10.0,0.0,0.0,0.0,10.0
1446038007424735180,85,1446038007419645071,robocape_mag,11.4,2.4,1.35,10.0,0.0,0.0,0.0,10.0,0.0,0.0,0.0,10.0
1446038007457213930,86,1446038007452390909,robocape_mag,10.5,2.4,1.35,10.0,0.0,0.0,0.0,10.0,0.0,0.0,0.0,10.0
1446038007494355513,87,1446038007485215902,robocape_mag,10.5,2.4,1.35,10.0,0.0,0.0,0.0,10.0,0.0,0.0,0.0,10.0
1446038007523667888,88,1446038007518532991,robocape_mag,10.5,2.4,1.35,10.0,0.0,0.0,0.0,10.0,0.0,0.0,0.0,10.0
1446038007556999596,89,1446038007552171945,robocape_mag,10.5,2.4,1.35,10.0,0.0,0.0,0.0,10.0,0.0,0.0,0.0,10.0
1446038007589990763,90,1446038007585150957,robocape_mag,7.5,2.4,-1.05,10.0,0.0,0.0,0.0,10.0,0.0,0.0,0.0,10.0
1446038007622978388,91,1446038007618113040,robocape_mag,7.5,2.4,-1.05,10.0,0.0,0.0,0.0,10.0,0.0,0.0,0.0,10.0
1446038007656521555,92,1446038007651745080,robocape_mag,7.5,2.4,-1.05,10.0,0.0,0.0,0.0,10.0,0.0,0.0,0.0,10.0
1446038007689675055,93,1446038007684782981,robocape_mag,7.5,2.4,-1.05,10.0,0.0,0.0,0.0,10.0,0.0,0.0,0.0,10.0
1446038007722922888,94,1446038007718132972,robocape_mag,7.5,2.4,-1.05,10.0,0.0,0.0,0.0,10.0,0.0,0.0,0.0,10.0
1446038007756251263,95,1446038007751514911,robocape_mag,6.9,4.2,-2.85,10.0,0.0,0.0,0.0,10.0,0.0,0.0,0.0,10.0
1446038007789497180,96,1446038007784702062,robocape_mag,6.9,4.2,-2.85,10.0,0.0,0.0,0.0,10.0,0.0,0.0,0.0,10.0
1446038007828543305,97,1446038007821248054,robocape_mag,6.9,4.2,-2.85,10.0,0.0,0.0,0.0,10.0,0.0,0.0,0.0,10.0
1446038007856165180,98,1446038007851242065,robocape_mag,6.9,4.2,-2.85,10.0,0.0,0.0,0.0,10.0,0.0,0.0,0.0,10.0
1446038007889672055,99,1446038007884768962,robocape_mag,6.9,4.2,-2.85,10.0,0.0,0.0,0.0,10.0,0.0,0.0,0.0,10.0
1446038007923388013,100,1446038007918277978,robocape_mag,5.7,4.2,0.15,10.0,0.0,0.0,0.0,10.0,0.0,0.0,0.0,10.0
1446038007956609138,101,1446038007951632022,robocape_mag,5.7,4.2,0.15,10.0,0.0,0.0,0.0,10.0,0.0,0.0,0.0,10.0
1446038007997460596,102,1446038007987567901,robocape_mag,5.7,4.2,0.15,10.0,0.0,0.0,0.0,10.0,0.0,0.0,0.0,10.0
1446038008029829430,103,1446038008022241115,robocape_mag,5.7,4.2,0.15,10.0,0.0,0.0,0.0,10.0,0.0,0.0,0.0,10.0
1446038008062455805,104,1446038008055229902,robocape_mag,5.7,4.2,0.15,10.0,0.0,0.0,0.0,10.0,0.0,0.0,0.0,10.0
1446038008098245930,105,1446038008089541912,robocape_mag,9.6,1.5,2.25,10.0,0.0,0.0,0.0,10.0,0.0,0.0,0.0,10.0
1446038008129638930,106,1446038008122747898,robocape_mag,9.6,1.5,2.25,10.0,0.0,0.0,0.0,10.0,0.0,0.0,0.0,10.0
1446038008164465680,107,1446038008156218051,robocape_mag,9.6,1.5,2.25,10.0,0.0,0.0,0.0,10.0,0.0,0.0,0.0,10.0
1446038008194393222,108,1446038008189161062,robocape_mag,9.6,1.5,2.25,10.0,0.0,0.0,0.0,10.0,0.0,0.0,0.0,10.0
1446038008225835597,109,1446038008220741987,robocape_mag,9.6,2.1,3.45,10.0,0.0,0.0,0.0,10.0,0.0,0.0,0.0,10.0
1446038008259895930,110,1446038008254884004,robocape_mag,9.6,2.1,3.45,10.0,0.0,0.0,0.0,10.0,0.0,0.0,0.0,10.0
1446038008297101805,111,1446038008287298917,robocape_mag,9.6,2.1,3.45,10.0,0.0,0.0,0.0,10.0,0.0,0.0,0.0,10.0
1446038008325353847,112,1446038008320475101,robocape_mag,9.6,2.1,3.45,10.0,0.0,0.0,0.0,10.0,0.0,0.0,0.0,10.0
1446038008359593097,113,1446038008354806900,robocape_mag,9.6,2.1,3.45,10.0,0.0,0.0,0.0,10.0,0.0,0.0,0.0,10.0
1446038008396888847,114,1446038008387644052,robocape_mag,6.6,2.1,-1.35,10.0,0.0,0.0,0.0,10.0,0.0,0.0,0.0,10.0
1446038008424910097,115,1446038008419929981,robocape_mag,6.6,2.1,-1.35,10.0,0.0,0.0,0.0,10.0,0.0,0.0,0.0,10.0
1446038008459682597,116,1446038008454924106,robocape_mag,6.6,2.1,-1.35,10.0,0.0,0.0,0.0,10.0,0.0,0.0,0.0,10.0
1446038008492706263,117,1446038008487277030,robocape_mag,6.6,2.1,-1.35,10.0,0.0,0.0,0.0,10.0,0.0,0.0,0.0,10.0
1446038008525307972,118,1446038008520184040,robocape_mag,6.6,2.1,-1.35,10.0,0.0,0.0,0.0,10.0,0.0,0.0,0.0,10.0
1446038008558689888,119,1446038008553603887,robocape_mag,11.7,3.0,1.35,10.0,0.0,0.0,0.0,10.0,0.0,0.0,0.0,10.0
1446038008590688597,120,1446038008585699081,robocape_mag,11.7,3.0,1.35,10.0,0.0,0.0,0.0,10.0,0.0,0.0,0.0,10.0
1446038008623591180,121,1446038008618787050,robocape_mag,11.7,3.0,1.35,10.0,0.0,0.0,0.0,10.0,0.0,0.0,0.0,10.0
1446038008657238597,122,1446038008652363061,robocape_mag,11.7,3.0,1.35,10.0,0.0,0.0,0.0,10.0,0.0,0.0,0.0,10.0
1446038008690236097,123,1446038008685231924,robocape_mag,11.7,3.0,1.35,10.0,0.0,0.0,0.0,10.0,0.0,0.0,0.0,10.0
1446038008723294013,124,1446038008718488931,robocape_mag,10.5,1.2,4.95,10.0,0.0,0.0,0.0,10.0,0.0,0.0,0.0,10.0
1446038008756456764,125,1446038008751687049,robocape_mag,10.5,1.2,4.95,10.0,0.0,0.0,0.0,10.0,0.0,0.0,0.0,10.0
1446038008790034264,126,1446038008785084962,robocape_mag,10.5,1.2,4.95,10.0,0.0,0.0,0.0,10.0,0.0,0.0,0.0,10.0
1446038008823022930,127,1446038008818191051,robocape_mag,10.5,1.2,4.95,10.0,0.0,0.0,0.0,10.0,0.0,0.0,0.0,10.0
1446038008856512805,128,1446038008851453065,robocape_mag,10.5,1.2,4.95,10.0,0.0,0.0,0.0,10.0,0.0,0.0,0.0,10.0
1446038008889848847,129,1446038008884910106,robocape_mag,11.1,1.2,2.55,10.0,0.0,0.0,0.0,10.0,0.0,0.0,0.0,10.0
1446038008922714430,130,1446038008917963981,robocape_mag,11.1,1.2,2.55,10.0,0.0,0.0,0.0,10.0,0.0,0.0,0.0,10.0
1446038008956560805,131,1446038008951498985,robocape_mag,11.1,1.2,2.55,10.0,0.0,0.0,0.0,10.0,0.0,0.0,0.0,10.0
1446038008995747055,132,1446038008986352920,robocape_mag,11.1,1.2,2.55,10.0,0.0,0.0,0.0,10.0,0.0,0.0,0.0,10.0
1446038009024002430,133,1446038009019244909,robocape_mag,11.1,2.4,3.15,10.0,0.0,0.0,0.0,10.0,0.0,0.0,0.0,10.0
1446038009056413055,134,1446038009051568984,robocape_mag,9.3,2.4,3.15,10.0,0.0,0.0,0.0,10.0,0.0,0.0,0.0,10.0
1446038009089920764,135,1446038009084880113,robocape_mag,9.3,2.4,3.15,10.0,0.0,0.0,0.0,10.0,0.0,0.0,0.0,10.0
1446038009123057555,136,1446038009118246078,robocape_mag,9.3,2.4,3.15,10.0,0.0,0.0,0.0,10.0,0.0,0.0,0.0,10.0
1446038009156593389,137,1446038009151860952,robocape_mag,9.3,2.4,3.15,10.0,0.0,0.0,0.0,10.0,0.0,0.0,0.0,10.0
1446038009192332264,138,1446038009185409069,robocape_mag,10.8,0.3,5.25,10.0,0.0,0.0,0.0,10.0,0.0,0.0,0.0,10.0
1446038009223433055,139,1446038009218588113,robocape_mag,10.8,0.3,5.25,10.0,0.0,0.0,0.0,10.0,0.0,0.0,0.0,10.0
1446038009256539305,140,1446038009251811027,robocape_mag,10.8,0.3,5.25,10.0,0.0,0.0,0.0,10.0,0.0,0.0,0.0,10.0
1446038009289613472,141,1446038009284852027,robocape_mag,10.8,0.3,5.25,10.0,0.0,0.0,0.0,10.0,0.0,0.0,0.0,10.0
1446038009323388680,142,1446038009318135023,robocape_mag,10.8,0.3,5.25,10.0,0.0,0.0,0.0,10.0,0.0,0.0,0.0,10.0
1446038009356142014,143,1446038009351288080,robocape_mag,7.8,2.7,2.25,10.0,0.0,0.0,0.0,10.0,0.0,0.0,0.0,10.0
1446038009391142722,144,1446038009385109901,robocape_mag,7.8,2.7,2.25,10.0,0.0,0.0,0.0,10.0,0.0,0.0,0.0,10.0
1446038009424753055,145,1446038009418061971,robocape_mag,7.8,2.7,2.25,10.0,0.0,0.0,0.0,10.0,0.0,0.0,0.0,10.0
1446038009457192472,146,1446038009452162981,robocape_mag,7.8,2.7,2.25,10.0,0.0,0.0,0.0,10.0,0.0,0.0,0.0,10.0
1446038009490270472,147,1446038009484978914,robocape_mag,7.8,2.7,2.25,10.0,0.0,0.0,0.0,10.0,0.0,0.0,0.0,10.0
1446038009522954139,148,1446038009517940998,robocape_mag,6.0,2.7,2.25,10.0,0.0,0.0,0.0,10.0,0.0,0.0,0.0,10.0
1446038009556443639,149,1446038009551359891,robocape_mag,6.0,2.7,2.25,10.0,0.0,0.0,0.0,10.0,0.0,0.0,0.0,10.0
1446038009590113514,150,1446038009584908008,robocape_mag,6.0,2.7,2.25,10.0,0.0,0.0,0.0,10.0,0.0,0.0,0.0,10.0
1446038009623471514,151,1446038009618240118,robocape_mag,6.0,2.7,2.25,10.0,0.0,0.0,0.0,10.0,0.0,0.0,0.0,10.0
1446038009656686306,152,1446038009651474952,robocape_mag,6.0,2.7,2.25,10.0,0.0,0.0,0.0,10.0,0.0,0.0,0.0,10.0
1446038009690199639,153,1446038009685416936,robocape_mag,7.5,3.0,3.75,10.0,0.0,0.0,0.0,10.0,0.0,0.0,0.0,10.0
1446038009724709972,154,1446038009719837903,robocape_mag,7.5,3.0,3.75,10.0,0.0,0.0,0.0,10.0,0.0,0.0,0.0,10.0
1446038009762310847,155,1446038009752639055,robocape_mag,7.5,3.0,3.75,10.0,0.0,0.0,0.0,10.0,0.0,0.0,0.0,10.0
1446038009794805597,156,1446038009786324977,robocape_mag,7.5,3.0,3.75,10.0,0.0,0.0,0.0,10.0,0.0,0.0,0.0,10.0
1446038009823851097,157,1446038009819020032,robocape_mag,7.5,4.5,2.85,10.0,0.0,0.0,0.0,10.0,0.0,0.0,0.0,10.0
1446038009856935389,158,1446038009851970911,robocape_mag,6.6,4.5,2.85,10.0,0.0,0.0,0.0,10.0,0.0,0.0,0.0,10.0
1446038009890208139,159,1446038009885145902,robocape_mag,6.6,4.5,2.85,10.0,0.0,0.0,0.0,10.0,0.0,0.0,0.0,10.0
1446038009923416556,160,1446038009918488025,robocape_mag,6.6,4.5,2.85,10.0,0.0,0.0,0.0,10.0,0.0,0.0,0.0,10.0
1446038009956563306,161,1446038009951762914,robocape_mag,6.6,4.5,2.85,10.0,0.0,0.0,0.0,10.0,0.0,0.0,0.0,10.0
1446038009996436764,162,1446038009986229896,robocape_mag,8.4,2.1,2.85,10.0,0.0,0.0,0.0,10.0,0.0,0.0,0.0,10.0
1446038010025189431,163,1446038010020363092,robocape_mag,8.4,2.1,2.85,10.0,0.0,0.0,0.0,10.0,0.0,0.0,0.0,10.0
1446038010056491222,164,1446038010051614046,robocape_mag,8.4,2.1,2.85,10.0,0.0,0.0,0.0,10.0,0.0,0.0,0.0,10.0
1446038010089874389,165,1446038010085089921,robocape_mag,8.4,2.1,2.85,10.0,0.0,0.0,0.0,10.0,0.0,0.0,0.0,10.0
1446038010122943556,166,1446038010118144989,robocape_mag,8.4,2.1,2.85,10.0,0.0,0.0,0.0,10.0,0.0,0.0,0.0,10.0
1446038010156790931,167,1446038010152033090,robocape_mag,10.5,3.0,3.75,10.0,0.0,0.0,0.0,10.0,0.0,0.0,0.0,10.0
1446038010189741598,168,1446038010184948921,robocape_mag,10.5,3.0,3.75,10.0,0.0,0.0,0.0,10.0,0.0,0.0,0.0,10.0
1446038010223058848,169,1446038010218278884,robocape_mag,10.5,3.0,3.75,10.0,0.0,0.0,0.0,10.0,0.0,0.0,0.0,10.0
1446038010256647056,170,1446038010251892089,robocape_mag,10.5,3.0,3.75,10.0,0.0,0.0,0.0,10.0,0.0,0.0,0.0,10.0
1446038010289829723,171,1446038010285034894,robocape_mag,10.5,3.0,3.75,10.0,0.0,0.0,0.0,10.0,0.0,0.0,0.0,10.0
1446038010322834264,172,1446038010318061113,robocape_mag,10.8,2.1,5.25,10.0,0.0,0.0,0.0,10.0,0.0,0.0,0.0,10.0
1446038010356461389,173,1446038010351618051,robocape_mag,10.8,2.1,5.25,10.0,0.0,0.0,0.0,10.0,0.0,0.0,0.0,10.0
1446038010391160264,174,1446038010386221885,robocape_mag,10.8,2.1,5.25,10.0,0.0,0.0,0.0,10.0,0.0,0.0,0.0,10.0
1446038010422851889,175,1446038010418090105,robocape_mag,10.8,2.1,5.25,10.0,0.0,0.0,0.0,10.0,0.0,0.0,0.0,10.0
1446038010456256514,176,1446038010451308012,robocape_mag,10.8,2.1,5.25,10.0,0.0,0.0,0.0,10.0,0.0,0.0,0.0,10.0
1446038010492052848,177,1446038010484972953,robocape_mag,8.7,3.0,4.95,10.0,0.0,0.0,0.0,10.0,0.0,0.0,0.0,10.0
1446038010525430139,178,1446038010518012046,robocape_mag,8.7,3.0,4.95,10.0,0.0,0.0,0.0,10.0,0.0,0.0,0.0,10.0
1446038010556793264,179,1446038010551384925,robocape_mag,8.7,3.0,4.95,10.0,0.0,0.0,0.0,10.0,0.0,0.0,0.0,10.0
1446038010589963973,180,1446038010584692955,robocape_mag,8.7,3.0,4.95,10.0,0.0,0.0,0.0,10.0,0.0,0.0,0.0,10.0
1446038010623469348,181,1446038010618341922,robocape_mag,8.7,3.0,4.65,10.0,0.0,0.0,0.0,10.0,0.0,0.0,0.0,10.0
1446038010656435139,182,1446038010651351928,robocape_mag,9.0,7.5,4.65,10.0,0.0,0.0,0.0,10.0,0.0,0.0,0.0,10.0
1446038010689807806,183,1446038010684703111,robocape_mag,9.0,7.5,4.65,10.0,0.0,0.0,0.0,10.0,0.0,0.0,0.0,10.0
1446038010723202806,184,1446038010718035936,robocape_mag,9.0,7.5,4.65,10.0,0.0,0.0,0.0,10.0,0.0,0.0,0.0,10.0
1446038010756866389,185,1446038010751698017,robocape_mag,9.0,7.5,4.65,10.0,0.0,0.0,0.0,10.0,0.0,0.0,0.0,10.0
1446038010789723348,186,1446038010784805059,robocape_mag,8.1,4.8,3.15,10.0,0.0,0.0,0.0,10.0,0.0,0.0,0.0,10.0
1446038010822927764,187,1446038010818037033,robocape_mag,8.1,4.8,3.15,10.0,0.0,0.0,0.0,10.0,0.0,0.0,0.0,10.0
1446038010856606140,188,1446038010851490974,robocape_mag,8.1,4.8,3.15,10.0,0.0,0.0,0.0,10.0,0.0,0.0,0.0,10.0
1446038010889632390,189,1446038010884756088,robocape_mag,8.1,4.8,3.15,10.0,0.0,0.0,0.0,10.0,0.0,0.0,0.0,10.0
1446038010923307681,190,1446038010918117046,robocape_mag,8.1,4.8,3.15,10.0,0.0,0.0,0.0,10.0,0.0,0.0,0.0,10.0
1446038010956915931,191,1446038010951596021,robocape_mag,12.3,3.6,2.55,10.0,0.0,0.0,0.0,10.0,0.0,0.0,0.0,10.0
1446038010995480723,192,1446038010986638069,robocape_mag,12.3,3.6,2.55,10.0,0.0,0.0,0.0,10.0,0.0,0.0,0.0,10.0
1446038011026902681,193,1446038011019248962,robocape_mag,12.3,3.6,2.55,10.0,0.0,0.0,0.0,10.0,0.0,0.0,0.0,10.0
1446038011058192973,194,1446038011053018093,robocape_mag,12.3,3.6,2.55,10.0,0.0,0.0,0.0,10.0,0.0,0.0,0.0,10.0
1446038011090909973,195,1446038011086167097,robocape_mag,12.3,3.6,2.55,10.0,0.0,0.0,0.0,10.0,0.0,0.0,0.0,10.0
1446038011125115181,196,1446038011119376897,robocape_mag,7.5,3.6,4.35,10.0,0.0,0.0,0.0,10.0,0.0,0.0,0.0,10.0
1446038011159799848,197,1446038011153017044,robocape_mag,7.5,3.6,4.35,10.0,0.0,0.0,0.0,10.0,0.0,0.0,0.0,10.0
1446038011190148973,198,1446038011185250043,robocape_mag,7.5,3.6,4.35,10.0,0.0,0.0,0.0,10.0,0.0,0.0,0.0,10.0
1446038011224978390,199,1446038011219686031,robocape_mag,7.5,3.6,4.35,10.0,0.0,0.0,0.0,10.0,0.0,0.0,0.0,10.0
1446038011260754556,200,1446038011255238056,robocape_mag,7.5,3.6,4.35,10.0,0.0,0.0,0.0,10.0,0.0,0.0,0.0,10.0
1446038011291540223,201,1446038011286546945,robocape_mag,16.8,-0.3,5.25,10.0,0.0,0.0,0.0,10.0,0.0,0.0,0.0,10.0
1446038011331195306,202,1446038011322887897,robocape_mag,16.8,-0.3,5.25,10.0,0.0,0.0,0.0,10.0,0.0,0.0,0.0,10.0
1446038011357444681,203,1446038011352375984,robocape_mag,16.8,-0.3,5.25,10.0,0.0,0.0,0.0,10.0,0.0,0.0,0.0,10.0
1446038011394925390,204,1446038011389017105,robocape_mag,16.8,-0.3,5.25,10.0,0.0,0.0,0.0,10.0,0.0,0.0,0.0,10.0
1446038011427597015,205,1446038011418797016,robocape_mag,16.8,-0.3,4.95,10.0,0.0,0.0,0.0,10.0,0.0,0.0,0.0,10.0
1446038011461065265,206,1446038011455615043,robocape_mag,9.9,2.4,4.95,10.0,0.0,0.0,0.0,10.0,0.0,0.0,0.0,10.0
1446038011494563515,207,1446038011489233970,robocape_mag,9.9,2.4,4.95,10.0,0.0,0.0,0.0,10.0,0.0,0.0,0.0,10.0
1446038011531881765,208,1446038011522125959,robocape_mag,9.9,2.4,4.95,10.0,0.0,0.0,0.0,10.0,0.0,0.0,0.0,10.0
1446038011560652265,209,1446038011555104970,robocape_mag,9.9,2.4,4.95,10.0,0.0,0.0,0.0,10.0,0.0,0.0,0.0,10.0
1446038011598293848,210,1446038011588162899,robocape_mag,10.5,1.2,6.15,10.0,0.0,0.0,0.0,10.0,0.0,0.0,0.0,10.0
1446038011631412848,211,1446038011621948957,robocape_mag,10.5,1.2,6.15,10.0,0.0,0.0,0.0,10.0,0.0,0.0,0.0,10.0
1446038011661303015,212,1446038011655978918,robocape_mag,10.5,1.2,6.15,10.0,0.0,0.0,0.0,10.0,0.0,0.0,0.0,10.0
1446038011693289057,213,1446038011688040971,robocape_mag,10.5,1.2,6.15,10.0,0.0,0.0,0.0,10.0,0.0,0.0,0.0,10.0
1446038011727011182,214,1446038011721728086,robocape_mag,10.5,1.2,6.15,10.0,0.0,0.0,0.0,10.0,0.0,0.0,0.0,10.0
1446038011759050098,215,1446038011754034996,robocape_mag,7.5,6.0,4.35,10.0,0.0,0.0,0.0,10.0,0.0,0.0,0.0,10.0
1446038011792165473,216,1446038011787044048,robocape_mag,7.5,6.0,4.35,10.0,0.0,0.0,0.0,10.0,0.0,0.0,0.0,10.0
1446038011826732765,217,1446038011821552991,robocape_mag,7.5,6.0,4.35,10.0,0.0,0.0,0.0,10.0,0.0,0.0,0.0,10.0
1446038011859123015,218,1446038011853785037,robocape_mag,7.5,6.0,4.35,10.0,0.0,0.0,0.0,10.0,0.0,0.0,0.0,10.0
1446038011897059807,219,1446038011887245893,robocape_mag,7.5,6.0,4.35,10.0,0.0,0.0,0.0,10.0,0.0,0.0,0.0,10.0
1446038011926228598,220,1446038011921035051,robocape_mag,11.1,5.4,4.35,10.0,0.0,0.0,0.0,10.0,0.0,0.0,0.0,10.0
1446038011959405682,221,1446038011954199075,robocape_mag,11.1,5.4,4.35,10.0,0.0,0.0,0.0,10.0,0.0,0.0,0.0,10.0
1446038012000584348,222,1446038011989473104,robocape_mag,11.1,5.4,4.35,10.0,0.0,0.0,0.0,10.0,0.0,0.0,0.0,10.0
1446038012025907765,223,1446038012021119117,robocape_mag,11.1,5.4,4.35,10.0,0.0,0.0,0.0,10.0,0.0,0.0,0.0,10.0
1446038012059133015,224,1446038012054193973,robocape_mag,11.1,5.4,4.35,10.0,0.0,0.0,0.0,10.0,0.0,0.0,0.0,10.0
1446038012090871682,225,1446038012085741043,robocape_mag,10.8,4.5,5.85,10.0,0.0,0.0,0.0,10.0,0.0,0.0,0.0,10.0
1446038012123519515,226,1446038012118607044,robocape_mag,10.8,4.5,5.85,10.0,0.0,0.0,0.0,10.0,0.0,0.0,0.0,10.0
1446038012157610098,227,1446038012152482986,robocape_mag,10.8,4.5,5.85,10.0,0.0,0.0,0.0,10.0,0.0,0.0,0.0,10.0
1446038012190475432,228,1446038012185554981,robocape_mag,10.8,4.5,5.85,10.0,0.0,0.0,0.0,10.0,0.0,0.0,0.0,10.0
1446038012223717265,229,1446038012218863010,robocape_mag,10.8,4.5,4.35,10.0,0.0,0.0,0.0,10.0,0.0,0.0,0.0,10.0
1446038012256776682,230,1446038012251733064,robocape_mag,9.3,4.8,4.35,10.0,0.0,0.0,0.0,10.0,0.0,0.0,0.0,10.0
1446038012289832015,231,1446038012284898996,robocape_mag,9.3,4.8,4.35,10.0,0.0,0.0,0.0,10.0,0.0,0.0,0.0,10.0
1446038012323352349,232,1446038012318550109,robocape_mag,9.3,4.8,4.35,10.0,0.0,0.0,0.0,10.0,0.0,0.0,0.0,10.0
1446038012356541349,233,1446038012351674079,robocape_mag,9.3,4.8,4.35,10.0,0.0,0.0,0.0,10.0,0.0,0.0,0.0,10.0
1446038012392884015,234,1446038012384665966,robocape_mag,10.8,3.9,5.25,10.0,0.0,0.0,0.0,10.0,0.0,0.0,0.0,10.0
1446038012423013140,235,1446038012418122053,robocape_mag,10.8,3.9,5.25,10.0,0.0,0.0,0.0,10.0,0.0,0.0,0.0,10.0
1446038012456188224,236,1446038012451301097,robocape_mag,10.8,3.9,5.25,10.0,0.0,0.0,0.0,10.0,0.0,0.0,0.0,10.0
1446038012494788640,237,1446038012484735965,robocape_mag,10.8,3.9,5.25,10.0,0.0,0.0,0.0,10.0,0.0,0.0,0.0,10.0
1446038012527634724,238,1446038012518102884,robocape_mag,10.8,3.9,5.25,10.0,0.0,0.0,0.0,10.0,0.0,0.0,0.0,10.0
1446038012556509640,239,1446038012551614999,robocape_mag,12.3,7.2,4.95,10.0,0.0,0.0,0.0,10.0,0.0,0.0,0.0,10.0
1446038012593553682,240,1446038012584892988,robocape_mag,12.3,7.2,4.95,10.0,0.0,0.0,0.0,10.0,0.0,0.0,0.0,10.0
1446038012626640057,241,1446038012618482112,robocape_mag,12.3,7.2,4.95,10.0,0.0,0.0,0.0,10.0,0.0,0.0,0.0,10.0
1446038012656645349,242,1446038012651725053,robocape_mag,12.3,7.2,4.95,10.0,0.0,0.0,0.0,10.0,0.0,0.0,0.0,10.0
1446038012691733099,243,1446038012684983968,robocape_mag,12.3,7.2,4.95,10.0,0.0,0.0,0.0,10.0,0.0,0.0,0.0,10.0
1446038012723149849,244,1446038012718322038,robocape_mag,9.6,4.5,7.65,10.0,0.0,0.0,0.0,10.0,0.0,0.0,0.0,10.0
1446038012756307349,245,1446038012751378059,robocape_mag,9.6,4.5,7.65,10.0,0.0,0.0,0.0,10.0,0.0,0.0,0.0,10.0
1446038012790976515,246,1446038012784677982,robocape_mag,9.6,4.5,7.65,10.0,0.0,0.0,0.0,10.0,0.0,0.0,0.0,10.0
1446038012823909724,247,1446038012818231105,robocape_mag,9.6,4.5,7.65,10.0,0.0,0.0,0.0,10.0,0.0,0.0,0.0,10.0
1446038012857356140,248,1446038012851671934,robocape_mag,9.6,4.5,7.65,10.0,0.0,0.0,0.0,10.0,0.0,0.0,0.0,10.0
1446038012890564890,249,1446038012885050058,robocape_mag,12.3,3.6,7.35,10.0,0.0,0.0,0.0,10.0,0.0,0.0,0.0,10.0
1446038012922859349,250,1446038012917867898,robocape_mag,12.3,3.6,7.35,10.0,0.0,0.0,0.0,10.0,0.0,0.0,0.0,10.0
1446038012956490224,251,1446038012951282978,robocape_mag,12.3,3.6,7.35,10.0,0.0,0.0,0.0,10.0,0.0,0.0,0.0,10.0
1446038012999282099,252,1446038012984710931,robocape_mag,12.3,3.6,7.35,10.0,0.0,0.0,0.0,10.0,0.0,0.0,0.0,10.0
1446038013026573182,253,1446038013018923997,robocape_mag,12.3,3.6,5.25,10.0,0.0,0.0,0.0,10.0,0.0,0.0,0.0,10.0
1446038013056757266,254,1446038013051645994,robocape_mag,8.4,7.5,5.25,10.0,0.0,0.0,0.0,10.0,0.0,0.0,0.0,10.0
1446038013089792141,255,1446038013084577083,robocape_mag,8.4,7.5,5.25,10.0,0.0,0.0,0.0,10.0,0.0,0.0,0.0,10.0
1446038013123354682,256,1446038013118499994,robocape_mag,8.4,7.5,5.25,10.0,0.0,0.0,0.0,10.0,0.0,0.0,0.0,10.0
1446038013156468807,257,1446038013151499986,robocape_mag,8.4,7.5,5.25,10.0,0.0,0.0,0.0,10.0,0.0,0.0,0.0,10.0
1446038013189985807,258,1446038013184720039,robocape_mag,9.9,6.6,3.15,10.0,0.0,0.0,0.0,10.0,0.0,0.0,0.0,10.0
1446038013223198766,259,1446038013218400001,robocape_mag,9.9,6.6,3.15,10.0,0.0,0.0,0.0,10.0,0.0,0.0,0.0,10.0
1446038013256477141,260,1446038013251507043,robocape_mag,9.9,6.6,3.15,10.0,0.0,0.0,0.0,10.0,0.0,0.0,0.0,10.0
1446038013292923599,261,1446038013287707090,robocape_mag,9.9,6.6,3.15,10.0,0.0,0.0,0.0,10.0,0.0,0.0,0.0,10.0
1446038013323203432,262,1446038013318280935,robocape_mag,9.9,6.6,3.15,10.0,0.0,0.0,0.0,10.0,0.0,0.0,0.0,10.0
1446038013360006057,263,1446038013352674007,robocape_mag,9.9,6.0,4.95,10.0,0.0,0.0,0.0,10.0,0.0,0.0,0.0,10.0
1446038013392331057,264,1446038013385987043,robocape_mag,9.9,6.0,4.95,10.0,0.0,0.0,0.0,10.0,0.0,0.0,0.0,10.0
1446038013424421766,265,1446038013419411897,robocape_mag,9.9,6.0,4.95,10.0,0.0,0.0,0.0,10.0,0.0,0.0,0.0,10.0
1446038013459926807,266,1446038013453382968,robocape_mag,9.9,6.0,4.95,10.0,0.0,0.0,0.0,10.0,0.0,0.0,0.0,10.0
1446038013492709432,267,1446038013486255884,robocape_mag,9.9,6.0,4.95,10.0,0.0,0.0,0.0,10.0,0.0,0.0,0.0,10.0
1446038013524605474,268,1446038013519541978,robocape_mag,8.7,7.8,6.15,10.0,0.0,0.0,0.0,10.0,0.0,0.0,0.0,10.0
1446038013562462057,269,1446038013553633928,robocape_mag,8.7,7.8,6.15,10.0,0.0,0.0,0.0,10.0,0.0,0.0,0.0,10.0
1446038013591620016,270,1446038013586438894,robocape_mag,8.7,7.8,6.15,10.0,0.0,0.0,0.0,10.0,0.0,0.0,0.0,10.0
1446038013627087766,271,1446038013621176004,robocape_mag,8.7,7.8,6.15,10.0,0.0,0.0,0.0,10.0,0.0,0.0,0.0,10.0
1446038013666405058,272,1446038013654426097,robocape_mag,8.7,7.8,6.15,10.0,0.0,0.0,0.0,10.0,0.0,0.0,0.0,10.0
1446038013690295974,273,1446038013685528039,robocape_mag,9.6,6.9,5.85,10.0,0.0,0.0,0.0,10.0,0.0,0.0,0.0,10.0
1446038013731842891,274,1446038013721421003,robocape_mag,9.6,6.9,5.85,10.0,0.0,0.0,0.0,10.0,0.0,0.0,0.0,10.0
1446038013761155516,275,1446038013754365921,robocape_mag,9.6,6.9,5.85,10.0,0.0,0.0,0.0,10.0,0.0,0.0,0.0,10.0
1446038013795362641,276,1446038013787889957,robocape_mag,9.6,6.9,5.85,10.0,0.0,0.0,0.0,10.0,0.0,0.0,0.0,10.0
1446038013830734683,277,1446038013821860074,robocape_mag,9.6,7.5,7.05,10.0,0.0,0.0,0.0,10.0,0.0,0.0,0.0,10.0
1446038013866050058,278,1446038013853701114,robocape_mag,10.2,7.5,7.05,10.0,0.0,0.0,0.0,10.0,0.0,0.0,0.0,10.0
1446038013893065849,279,1446038013887798070,robocape_mag,10.2,7.5,7.05,10.0,0.0,0.0,0.0,10.0,0.0,0.0,0.0,10.0
1446038013927662224,280,1446038013921610116,robocape_mag,10.2,7.5,7.05,10.0,0.0,0.0,0.0,10.0,0.0,0.0,0.0,10.0
1446038013963501933,281,1446038013955127954,robocape_mag,10.2,7.5,7.05,10.0,0.0,0.0,0.0,10.0,0.0,0.0,0.0,10.0
1446038014003306474,282,1446038013990168094,robocape_mag,14.1,3.6,5.55,10.0,0.0,0.0,0.0,10.0,0.0,0.0,0.0,10.0
1446038014026403308,283,1446038014021454095,robocape_mag,14.1,3.6,5.55,10.0,0.0,0.0,0.0,10.0,0.0,0.0,0.0,10.0
1446038014060556016,284,1446038014055689096,robocape_mag,14.1,3.6,5.55,10.0,0.0,0.0,0.0,10.0,0.0,0.0,0.0,10.0
1446038014092877183,285,1446038014087832927,robocape_mag,14.1,3.6,5.55,10.0,0.0,0.0,0.0,10.0,0.0,0.0,0.0,10.0
1446038014125977266,286,1446038014120918989,robocape_mag,14.1,3.6,5.55,10.0,0.0,0.0,0.0,10.0,0.0,0.0,0.0,10.0
1446038014159246058,287,1446038014154311895,robocape_mag,8.4,5.7,6.45,10.0,0.0,0.0,0.0,10.0,0.0,0.0,0.0,10.0
1446038014192071599,288,1446038014186979055,robocape_mag,8.4,5.7,6.45,10.0,0.0,0.0,0.0,10.0,0.0,0.0,0.0,10.0
1446038014225802724,289,1446038014220833063,robocape_mag,8.4,5.7,6.45,10.0,0.0,0.0,0.0,10.0,0.0,0.0,0.0,10.0
1446038014259431933,290,1446038014254414081,robocape_mag,8.4,5.7,6.45,10.0,0.0,0.0,0.0,10.0,0.0,0.0,0.0,10.0
1446038014292386183,291,1446038014287497997,robocape_mag,8.4,5.7,6.45,10.0,0.0,0.0,0.0,10.0,0.0,0.0,0.0,10.0
1446038014325399558,292,1446038014320278882,robocape_mag,9.3,6.6,6.75,10.0,0.0,0.0,0.0,10.0,0.0,0.0,0.0,10.0
1446038014363827058,293,1446038014354074954,robocape_mag,9.3,6.6,6.75,10.0,0.0,0.0,0.0,10.0,0.0,0.0,0.0,10.0
1446038014391021933,294,1446038014386255979,robocape_mag,9.3,6.6,6.75,10.0,0.0,0.0,0.0,10.0,0.0,0.0,0.0,10.0
1446038014423986850,295,1446038014418802976,robocape_mag,9.3,6.6,6.75,10.0,0.0,0.0,0.0,10.0,0.0,0.0,0.0,10.0
1446038014457551350,296,1446038014452167034,robocape_mag,9.3,6.6,6.75,10.0,0.0,0.0,0.0,10.0,0.0,0.0,0.0,10.0
1446038014490980641,297,1446038014485975027,robocape_mag,7.8,6.9,5.85,10.0,0.0,0.0,0.0,10.0,0.0,0.0,0.0,10.0
1446038014523515433,298,1446038014518521070,robocape_mag,7.8,6.9,5.85,10.0,0.0,0.0,0.0,10.0,0.0,0.0,0.0,10.0
1446038014557642600,299,1446038014552395105,robocape_mag,7.8,6.9,5.85,10.0,0.0,0.0,0.0,10.0,0.0,0.0,0.0,10.0
1446038014589980141,300,1446038014585136890,robocape_mag,7.8,6.9,5.85,10.0,0.0,0.0,0.0,10.0,0.0,0.0,0.0,10.0
1446038014623191808,301,1446038014618244886,robocape_mag,7.8,6.9,5.85,10.0,0.0,0.0,0.0,10.0,0.0,0.0,0.0,10.0
1446038014657189266,302,1446038014651927947,robocape_mag,9.9,7.2,6.75,10.0,0.0,0.0,0.0,10.0,0.0,0.0,0.0,10.0
1446038014689738975,303,1446038014684916973,robocape_mag,9.9,7.2,6.75,10.0,0.0,0.0,0.0,10.0,0.0,0.0,0.0,10.0
1446038014723095725,304,1446038014718116044,robocape_mag,9.9,7.2,6.75,10.0,0.0,0.0,0.0,10.0,0.0,0.0,0.0,10.0
1446038014757340766,305,1446038014751857042,robocape_mag,9.9,7.2,6.75,10.0,0.0,0.0,0.0,10.0,0.0,0.0,0.0,10.0
1446038014789675600,306,1446038014784863948,robocape_mag,6.3,5.4,7.35,10.0,0.0,0.0,0.0,10.0,0.0,0.0,0.0,10.0
1446038014822765225,307,1446038014817980051,robocape_mag,6.3,5.4,7.35,10.0,0.0,0.0,0.0,10.0,0.0,0.0,0.0,10.0
1446038014857170308,308,1446038014851502895,robocape_mag,6.3,5.4,7.35,10.0,0.0,0.0,0.0,10.0,0.0,0.0,0.0,10.0
1446038014889628225,309,1446038014884907960,robocape_mag,6.3,5.4,7.35,10.0,0.0,0.0,0.0,10.0,0.0,0.0,0.0,10.0
1446038014923039308,310,1446038014918322086,robocape_mag,6.3,5.4,7.35,10.0,0.0,0.0,0.0,10.0,0.0,0.0,0.0,10.0
1446038014957337725,311,1446038014952022075,robocape_mag,11.1,6.0,5.55,10.0,0.0,0.0,0.0,10.0,0.0,0.0,0.0,10.0
1446038014998542308,312,1446038014987737894,robocape_mag,11.1,6.0,5.55,10.0,0.0,0.0,0.0,10.0,0.0,0.0,0.0,10.0
1446038015026548766,313,1446038015021343946,robocape_mag,11.1,6.0,5.55,10.0,0.0,0.0,0.0,10.0,0.0,0.0,0.0,10.0
1446038015056983933,314,1446038015051584959,robocape_mag,11.1,6.0,5.55,10.0,0.0,0.0,0.0,10.0,0.0,0.0,0.0,10.0
1446038015089592725,315,1446038015084775924,robocape_mag,11.1,6.0,5.55,10.0,0.0,0.0,0.0,10.0,0.0,0.0,0.0,10.0
1446038015122782808,316,1446038015117986917,robocape_mag,7.2,8.1,7.05,10.0,0.0,0.0,0.0,10.0,0.0,0.0,0.0,10.0
1446038015157488142,317,1446038015151428937,robocape_mag,7.2,8.1,7.05,10.0,0.0,0.0,0.0,10.0,0.0,0.0,0.0,10.0
1446038015190299392,318,1446038015184746026,robocape_mag,7.2,8.1,7.05,10.0,0.0,0.0,0.0,10.0,0.0,0.0,0.0,10.0
1446038015224966600,319,1446038015218126058,robocape_mag,7.2,8.1,7.05,10.0,0.0,0.0,0.0,10.0,0.0,0.0,0.0,10.0
1446038015258296642,320,1446038015252778053,robocape_mag,7.2,8.1,7.05,10.0,0.0,0.0,0.0,10.0,0.0,0.0,0.0,10.0
1446038015289765100,321,1446038015284782886,robocape_mag,11.1,4.8,9.75,10.0,0.0,0.0,0.0,10.0,0.0,0.0,0.0,10.0
1446038015322925892,322,1446038015317986011,robocape_mag,11.1,4.8,9.75,10.0,0.0,0.0,0.0,10.0,0.0,0.0,0.0,10.0
1446038015359708808,323,1446038015351409912,robocape_mag,11.1,4.8,9.75,10.0,0.0,0.0,0.0,10.0,0.0,0.0,0.0,10.0
1446038015390066725,324,1446038015384860992,robocape_mag,11.1,4.8,9.75,10.0,0.0,0.0,0.0,10.0,0.0,0.0,0.0,10.0
1446038015423008683,325,1446038015417869091,robocape_mag,11.1,4.8,9.75,10.0,0.0,0.0,0.0,10.0,0.0,0.0,0.0,10.0
1446038015457665433,326,1446038015451513051,robocape_mag,7.5,7.8,6.15,10.0,0.0,0.0,0.0,10.0,0.0,0.0,0.0,10.0
1446038015489903850,327,1446038015484744071,robocape_mag,7.5,7.8,6.15,10.0,0.0,0.0,0.0,10.0,0.0,0.0,0.0,10.0
1446038015522876642,328,1446038015517961025,robocape_mag,7.5,7.8,6.15,10.0,0.0,0.0,0.0,10.0,0.0,0.0,0.0,10.0
1446038015557850392,329,1446038015551704883,robocape_mag,7.5,7.8,6.15,10.0,0.0,0.0,0.0,10.0,0.0,0.0,0.0,10.0
1446038015589483433,330,1446038015584656000,robocape_mag,14.1,3.0,8.55,10.0,0.0,0.0,0.0,10.0,0.0,0.0,0.0,10.0
1446038015622969517,331,1446038015618103027,robocape_mag,14.1,3.0,8.55,10.0,0.0,0.0,0.0,10.0,0.0,0.0,0.0,10.0
1446038015658286058,332,1446038015652755022,robocape_mag,14.1,3.0,8.55,10.0,0.0,0.0,0.0,10.0,0.0,0.0,0.0,10.0
1446038015691061350,333,1446038015686197042,robocape_mag,14.1,3.0,8.55,10.0,0.0,0.0,0.0,10.0,0.0,0.0,0.0,10.0
1446038015724254350,334,1446038015719305992,robocape_mag,14.1,3.0,8.55,10.0,0.0,0.0,0.0,10.0,0.0,0.0,0.0,10.0
1446038015762152642,335,1446038015752882957,robocape_mag,8.4,3.3,4.65,10.0,0.0,0.0,0.0,10.0,0.0,0.0,0.0,10.0
1446038015790678559,336,1446038015785811901,robocape_mag,8.4,3.3,4.65,10.0,0.0,0.0,0.0,10.0,0.0,0.0,0.0,10.0
1446038015823475600,337,1446038015818705081,robocape_mag,8.4,3.3,4.65,10.0,0.0,0.0,0.0,10.0,0.0,0.0,0.0,10.0
1446038015862019642,338,1446038015852996110,robocape_mag,8.4,3.3,4.65,10.0,0.0,0.0,0.0,10.0,0.0,0.0,0.0,10.0
1446038015891685559,339,1446038015886702060,robocape_mag,8.4,3.3,4.65,10.0,0.0,0.0,0.0,10.0,0.0,0.0,0.0,10.0
1446038015925192725,340,1446038015919884920,robocape_mag,12.0,0.3,6.45,10.0,0.0,0.0,0.0,10.0,0.0,0.0,0.0,10.0
1446038015967107559,341,1446038015954690933,robocape_mag,12.0,0.3,6.45,10.0,0.0,0.0,0.0,10.0,0.0,0.0,0.0,10.0
1446038015999014184,342,1446038015987740993,robocape_mag,12.0,0.3,6.45,10.0,0.0,0.0,0.0,10.0,0.0,0.0,0.0,10.0
1446038016028459600,343,1446038016021315097,robocape_mag,12.0,0.3,6.45,10.0,0.0,0.0,0.0,10.0,0.0,0.0,0.0,10.0
1446038016062206267,344,1446038016054941892,robocape_mag,12.0,0.3,6.45,10.0,0.0,0.0,0.0,10.0,0.0,0.0,0.0,10.0
1446038016097762600,345,1446038016088836908,robocape_mag,8.7,3.6,7.35,10.0,0.0,0.0,0.0,10.0,0.0,0.0,0.0,10.0
1446038016127487600,346,1446038016120680093,robocape_mag,8.7,3.6,7.35,10.0,0.0,0.0,0.0,10.0,0.0,0.0,0.0,10.0
1446038016189279100,347,1446038016155405044,robocape_mag,8.7,3.6,7.35,10.0,0.0,0.0,0.0,10.0,0.0,0.0,0.0,10.0
1446038016211615017,348,1446038016206402063,robocape_mag,8.7,3.6,7.35,10.0,0.0,0.0,0.0,10.0,0.0,0.0,0.0,10.0
1446038016234766600,349,1446038016229863882,robocape_mag,7.2,4.5,6.45,10.0,0.0,0.0,0.0,10.0,0.0,0.0,0.0,10.0
1446038016264137642,350,1446038016254128932,robocape_mag,7.2,4.5,6.45,10.0,0.0,0.0,0.0,10.0,0.0,0.0,0.0,10.0
1446038016293845559,351,1446038016288676023,robocape_mag,7.2,4.5,6.45,10.0,0.0,0.0,0.0,10.0,0.0,0.0,0.0,10.0
1446038016328022517,352,1446038016322948932,robocape_mag,7.2,4.5,6.45,10.0,0.0,0.0,0.0,10.0,0.0,0.0,0.0,10.0
1446038016362372184,353,1446038016354753017,robocape_mag,7.2,4.5,6.45,10.0,0.0,0.0,0.0,10.0,0.0,0.0,0.0,10.0
1446038016392622184,354,1446038016387526988,robocape_mag,9.0,7.5,5.85,10.0,0.0,0.0,0.0,10.0,0.0,0.0,0.0,10.0
1446038016427279350,355,1446038016422249078,robocape_mag,9.0,7.5,5.85,10.0,0.0,0.0,0.0,10.0,0.0,0.0,0.0,10.0
1446038016459967434,356,1446038016454765081,robocape_mag,9.0,7.5,5.85,10.0,0.0,0.0,0.0,10.0,0.0,0.0,0.0,10.0
1446038016492716892,357,1446038016487695932,robocape_mag,9.0,7.5,5.85,10.0,0.0,0.0,0.0,10.0,0.0,0.0,0.0,10.0
1446038016525435517,358,1446038016520106077,robocape_mag,9.0,7.5,5.85,10.0,0.0,0.0,0.0,10.0,0.0,0.0,0.0,10.0
1446038016558963601,359,1446038016553973913,robocape_mag,9.9,4.8,6.75,10.0,0.0,0.0,0.0,10.0,0.0,0.0,0.0,10.0
1446038016592073351,360,1446038016587296962,robocape_mag,9.9,4.8,6.75,10.0,0.0,0.0,0.0,10.0,0.0,0.0,0.0,10.0
1446038016625593226,361,1446038016620596885,robocape_mag,9.9,4.8,6.75,10.0,0.0,0.0,0.0,10.0,0.0,0.0,0.0,10.0
1446038016659046642,362,1446038016654036045,robocape_mag,9.9,4.8,6.75,10.0,0.0,0.0,0.0,10.0,0.0,0.0,0.0,10.0
1446038016691493351,363,1446038016686675071,robocape_mag,9.9,4.8,6.75,10.0,0.0,0.0,0.0,10.0,0.0,0.0,0.0,10.0
1446038016724365642,364,1446038016719193935,robocape_mag,5.7,6.6,4.95,10.0,0.0,0.0,0.0,10.0,0.0,0.0,0.0,10.0
1446038016758249059,365,1446038016753042936,robocape_mag,5.7,6.6,4.95,10.0,0.0,0.0,0.0,10.0,0.0,0.0,0.0,10.0
1446038016790143476,366,1446038016785377979,robocape_mag,5.7,6.6,4.95,10.0,0.0,0.0,0.0,10.0,0.0,0.0,0.0,10.0
1446038016828340934,367,1446038016819216012,robocape_mag,5.7,6.6,4.95,10.0,0.0,0.0,0.0,10.0,0.0,0.0,0.0,10.0
1446038016857102642,368,1446038016851681947,robocape_mag,5.7,6.6,4.95,10.0,0.0,0.0,0.0,10.0,0.0,0.0,0.0,10.0
1446038016889704726,369,1446038016884933948,robocape_mag,8.4,6.3,8.25,10.0,0.0,0.0,0.0,10.0,0.0,0.0,0.0,10.0
1446038016923314726,370,1446038016918445110,robocape_mag,8.4,6.3,8.25,10.0,0.0,0.0,0.0,10.0,0.0,0.0,0.0,10.0
1446038016961126434,371,1446038016952030897,robocape_mag,8.4,6.3,8.25,10.0,0.0,0.0,0.0,10.0,0.0,0.0,0.0,10.0
1446038016997952892,372,1446038016985197067,robocape_mag,8.4,6.3,8.25,10.0,0.0,0.0,0.0,10.0,0.0,0.0,0.0,10.0
1446038017026043351,373,1446038017021121978,robocape_mag,6.9,7.2,7.95,10.0,0.0,0.0,0.0,10.0,0.0,0.0,0.0,10.0
1446038017057005142,374,1446038017051739931,robocape_mag,6.9,7.2,7.95,10.0,0.0,0.0,0.0,10.0,0.0,0.0,0.0,10.0
1446038017089670017,375,1446038017084805965,robocape_mag,6.9,7.2,7.95,10.0,0.0,0.0,0.0,10.0,0.0,0.0,0.0,10.0
1446038017123097184,376,1446038017118184089,robocape_mag,6.9,7.2,7.95,10.0,0.0,0.0,0.0,10.0,0.0,0.0,0.0,10.0
1446038017156266726,377,1446038017151457071,robocape_mag,6.9,7.2,7.95,10.0,0.0,0.0,0.0,10.0,0.0,0.0,0.0,10.0
1446038017189949518,378,1446038017185079097,robocape_mag,7.2,6.9,6.45,10.0,0.0,0.0,0.0,10.0,0.0,0.0,0.0,10.0
1446038017223254726,379,1446038017218282938,robocape_mag,7.2,6.9,6.45,10.0,0.0,0.0,0.0,10.0,0.0,0.0,0.0,10.0
1446038017256212768,380,1446038017251475095,robocape_mag,7.2,6.9,6.45,10.0,0.0,0.0,0.0,10.0,0.0,0.0,0.0,10.0
1446038017289606018,381,1446038017284733057,robocape_mag,7.2,6.9,6.45,10.0,0.0,0.0,0.0,10.0,0.0,0.0,0.0,10.0
1446038017323305893,382,1446038017318288087,robocape_mag,7.2,6.9,6.45,10.0,0.0,0.0,0.0,10.0,0.0,0.0,0.0,10.0
1446038017357087934,383,1446038017352169990,robocape_mag,11.7,5.4,6.75,10.0,0.0,0.0,0.0,10.0,0.0,0.0,0.0,10.0
1446038017389807393,384,1446038017384948968,robocape_mag,11.7,5.4,6.75,10.0,0.0,0.0,0.0,10.0,0.0,0.0,0.0,10.0
1446038017423514684,385,1446038017418359994,robocape_mag,11.7,5.4,6.75,10.0,0.0,0.0,0.0,10.0,0.0,0.0,0.0,10.0
1446038017456181768,386,1446038017451201915,robocape_mag,11.7,5.4,6.75,10.0,0.0,0.0,0.0,10.0,0.0,0.0,0.0,10.0
1446038017490740893,387,1446038017484721899,robocape_mag,11.7,5.4,6.75,10.0,0.0,0.0,0.0,10.0,0.0,0.0,0.0,10.0
1446038017523883309,388,1446038017518075942,robocape_mag,12.3,3.0,9.15,10.0,0.0,0.0,0.0,10.0,0.0,0.0,0.0,10.0
1446038017558237518,389,1446038017551422119,robocape_mag,12.3,3.0,9.15,10.0,0.0,0.0,0.0,10.0,0.0,0.0,0.0,10.0
1446038017590160351,390,1446038017584640979,robocape_mag,12.3,3.0,9.15,10.0,0.0,0.0,0.0,10.0,0.0,0.0,0.0,10.0
1446038017625066518,391,1446038017618170022,robocape_mag,12.3,3.0,9.15,10.0,0.0,0.0,0.0,10.0,0.0,0.0,0.0,10.0
1446038017656930143,392,1446038017651690006,robocape_mag,12.3,3.0,9.15,10.0,0.0,0.0,0.0,10.0,0.0,0.0,0.0,10.0
1446038017691750309,393,1446038017684798955,robocape_mag,13.8,2.1,7.65,10.0,0.0,0.0,0.0,10.0,0.0,0.0,0.0,10.0
1446038017725224643,394,1446038017718113899,robocape_mag,13.8,2.1,7.65,10.0,0.0,0.0,0.0,10.0,0.0,0.0,0.0,10.0
1446038017756611434,395,1446038017751291036,robocape_mag,13.8,2.1,7.65,10.0,0.0,0.0,0.0,10.0,0.0,0.0,0.0,10.0
1446038017789817809,396,1446038017784781932,robocape_mag,13.8,2.1,7.65,10.0,0.0,0.0,0.0,10.0,0.0,0.0,0.0,10.0
1446038017823291434,397,1446038017818224906,robocape_mag,13.8,2.1,7.65,10.0,0.0,0.0,0.0,10.0,0.0,0.0,0.0,10.0
1446038017856424185,398,1446038017851375102,robocape_mag,9.3,3.0,7.35,10.0,0.0,0.0,0.0,10.0,0.0,0.0,0.0,10.0
1446038017889648851,399,1446038017884784936,robocape_mag,9.3,3.0,7.35,10.0,0.0,0.0,0.0,10.0,0.0,0.0,0.0,10.0
1446038017922978435,400,1446038017918243885,robocape_mag,9.3,3.0,7.35,10.0,0.0,0.0,0.0,10.0,0.0,0.0,0.0,10.0
1446038017956409393,401,1446038017951368093,robocape_mag,9.3,3.0,7.35,10.0,0.0,0.0,0.0,10.0,0.0,0.0,0.0,10.0
1446038017994316518,402,1446038017984957933,robocape_mag,9.9,2.4,6.75,10.0,0.0,0.0,0.0,10.0,0.0,0.0,0.0,10.0
1446038018026316518,403,1446038018020883083,robocape_mag,9.9,2.4,6.75,10.0,0.0,0.0,0.0,10.0,0.0,0.0,0.0,10.0
1446038018057204018,404,1446038018051604032,robocape_mag,9.9,2.4,6.75,10.0,0.0,0.0,0.0,10.0,0.0,0.0,0.0,10.0
1446038018092002393,405,1446038018086565017,robocape_mag,9.9,2.4,6.75,10.0,0.0,0.0,0.0,10.0,0.0,0.0,0.0,10.0
1446038018125247768,406,1446038018119913101,robocape_mag,9.9,2.4,6.75,10.0,0.0,0.0,0.0,10.0,0.0,0.0,0.0,10.0
1446038018158465726,407,1446038018153057098,robocape_mag,5.7,4.2,6.15,10.0,0.0,0.0,0.0,10.0,0.0,0.0,0.0,10.0
1446038018195292226,408,1446038018190064907,robocape_mag,5.7,4.2,6.15,10.0,0.0,0.0,0.0,10.0,0.0,0.0,0.0,10.0
1446038018223762685,409,1446038018218493938,robocape_mag,5.7,4.2,6.15,10.0,0.0,0.0,0.0,10.0,0.0,0.0,0.0,10.0
1446038018260576018,410,1446038018252814054,robocape_mag,5.7,4.2,6.15,10.0,0.0,0.0,0.0,10.0,0.0,0.0,0.0,10.0
1446038018291185726,411,1446038018286289930,robocape_mag,5.7,4.2,6.15,10.0,0.0,0.0,0.0,10.0,0.0,0.0,0.0,10.0
1446038018329153643,412,1446038018321260929,robocape_mag,8.4,3.9,7.65,10.0,0.0,0.0,0.0,10.0,0.0,0.0,0.0,10.0
1446038018357451476,413,1446038018352044105,robocape_mag,8.4,3.9,7.65,10.0,0.0,0.0,0.0,10.0,0.0,0.0,0.0,10.0
1446038018395087518,414,1446038018388829946,robocape_mag,8.4,3.9,7.65,10.0,0.0,0.0,0.0,10.0,0.0,0.0,0.0,10.0
1446038018426126226,415,1446038018420248985,robocape_mag,8.4,3.9,7.65,10.0,0.0,0.0,0.0,10.0,0.0,0.0,0.0,10.0
1446038018461550435,416,1446038018456398963,robocape_mag,8.4,3.9,7.65,10.0,0.0,0.0,0.0,10.0,0.0,0.0,0.0,10.0
1446038018494160643,417,1446038018488295078,robocape_mag,12.9,2.4,7.35,10.0,0.0,0.0,0.0,10.0,0.0,0.0,0.0,10.0
1446038018531401351,418,1446038018523133993,robocape_mag,12.9,2.4,7.35,10.0,0.0,0.0,0.0,10.0,0.0,0.0,0.0,10.0
1446038018560956060,419,1446038018555565118,robocape_mag,12.9,2.4,7.35,10.0,0.0,0.0,0.0,10.0,0.0,0.0,0.0,10.0
1446038018595255018,420,1446038018590042114,robocape_mag,12.9,2.4,7.35,10.0,0.0,0.0,0.0,10.0,0.0,0.0,0.0,10.0
1446038018626555435,421,1446038018621203899,robocape_mag,6.9,4.2,7.35,10.0,0.0,0.0,0.0,10.0,0.0,0.0,0.0,10.0
1446038018660810143,422,1446038018655518054,robocape_mag,6.9,4.2,7.35,10.0,0.0,0.0,0.0,10.0,0.0,0.0,0.0,10.0
1446038018694138810,423,1446038018689176082,robocape_mag,6.9,4.2,7.35,10.0,0.0,0.0,0.0,10.0,0.0,0.0,0.0,10.0
1446038018727620685,424,1446038018722605943,robocape_mag,6.9,4.2,7.35,10.0,0.0,0.0,0.0,10.0,0.0,0.0,0.0,10.0
1446038018760993102,425,1446038018754309892,robocape_mag,6.9,4.2,7.35,10.0,0.0,0.0,0.0,10.0,0.0,0.0,0.0,10.0
1446038018793017060,426,1446038018788172960,robocape_mag,11.1,2.4,7.95,10.0,0.0,0.0,0.0,10.0,0.0,0.0,0.0,10.0
1446038018826134227,427,1446038018821314096,robocape_mag,11.1,2.4,7.95,10.0,0.0,0.0,0.0,10.0,0.0,0.0,0.0,10.0
1446038018858792268,428,1446038018853662014,robocape_mag,11.1,2.4,7.95,10.0,0.0,0.0,0.0,10.0,0.0,0.0,0.0,10.0
1446038018892752977,429,1446038018887841939,robocape_mag,11.1,2.4,7.95,10.0,0.0,0.0,0.0,10.0,0.0,0.0,0.0,10.0
1446038018925470602,430,1446038018920640945,robocape_mag,11.1,2.4,7.95,10.0,0.0,0.0,0.0,10.0,0.0,0.0,0.0,10.0
1446038018959544727,431,1446038018954478025,robocape_mag,9.9,3.6,7.95,10.0,0.0,0.0,0.0,10.0,0.0,0.0,0.0,10.0
1446038018998947227,432,1446038018989639997,robocape_mag,9.9,3.6,7.95,10.0,0.0,0.0,0.0,10.0,0.0,0.0,0.0,10.0
1446038019025929893,433,1446038019021126031,robocape_mag,9.9,3.6,7.95,10.0,0.0,0.0,0.0,10.0,0.0,0.0,0.0,10.0
1446038019058358602,434,1446038019053241968,robocape_mag,9.9,3.6,7.95,10.0,0.0,0.0,0.0,10.0,0.0,0.0,0.0,10.0
1446038019091962685,435,1446038019086903095,robocape_mag,9.9,3.6,7.95,10.0,0.0,0.0,0.0,10.0,0.0,0.0,0.0,10.0
1446038019124476560,436,1446038019119643926,robocape_mag,4.8,5.7,6.45,10.0,0.0,0.0,0.0,10.0,0.0,0.0,0.0,10.0
1446038019157193185,437,1446038019152199983,robocape_mag,4.8,5.7,6.45,10.0,0.0,0.0,0.0,10.0,0.0,0.0,0.0,10.0
1446038019191232143,438,1446038019186139106,robocape_mag,4.8,5.7,6.45,10.0,0.0,0.0,0.0,10.0,0.0,0.0,0.0,10.0
1446038019223663935,439,1446038019218620061,robocape_mag,4.8,5.7,6.45,10.0,0.0,0.0,0.0,10.0,0.0,0.0,0.0,10.0
1446038019256341269,440,1446038019251585006,robocape_mag,4.8,5.7,6.45,10.0,0.0,0.0,0.0,10.0,0.0,0.0,0.0,10.0
1446038019289854144,441,1446038019285095930,robocape_mag,7.8,6.9,6.45,10.0,0.0,0.0,0.0,10.0,0.0,0.0,0.0,10.0
1446038019322933769,442,1446038019318007946,robocape_mag,7.8,6.9,6.45,10.0,0.0,0.0,0.0,10.0,0.0,0.0,0.0,10.0
1446038019356666310,443,1446038019351907014,robocape_mag,7.8,6.9,6.45,10.0,0.0,0.0,0.0,10.0,0.0,0.0,0.0,10.0
1446038019389494644,444,1446038019384701013,robocape_mag,7.8,6.9,6.45,10.0,0.0,0.0,0.0,10.0,0.0,0.0,0.0,10.0
1446038019423112894,445,1446038019418106079,robocape_mag,7.8,6.9,6.45,10.0,0.0,0.0,0.0,10.0,0.0,0.0,0.0,10.0
1446038019456240810,446,1446038019451513051,robocape_mag,10.2,8.7,5.85,10.0,0.0,0.0,0.0,10.0,0.0,0.0,0.0,10.0
1446038019490079810,447,1446038019484978914,robocape_mag,10.2,8.7,5.85,10.0,0.0,0.0,0.0,10.0,0.0,0.0,0.0,10.0
1446038019522929435,448,1446038019517972946,robocape_mag,10.2,8.7,5.85,10.0,0.0,0.0,0.0,10.0,0.0,0.0,0.0,10.0
1446038019556542102,449,1446038019551639080,robocape_mag,10.2,8.7,5.85,10.0,0.0,0.0,0.0,10.0,0.0,0.0,0.0,10.0
1446038019589634852,450,1446038019584845066,robocape_mag,5.4,8.7,7.65,10.0,0.0,0.0,0.0,10.0,0.0,0.0,0.0,10.0
1446038019622923352,451,1446038019618132114,robocape_mag,5.4,8.7,7.65,10.0,0.0,0.0,0.0,10.0,0.0,0.0,0.0,10.0
1446038019656296352,452,1446038019651473045,robocape_mag,5.4,8.7,7.65,10.0,0.0,0.0,0.0,10.0,0.0,0.0,0.0,10.0
1446038019690242644,453,1446038019685197114,robocape_mag,5.4,8.7,7.65,10.0,0.0,0.0,0.0,10.0,0.0,0.0,0.0,10.0
1446038019725392310,454,1446038019719877958,robocape_mag,5.4,8.7,7.65,10.0,0.0,0.0,0.0,10.0,0.0,0.0,0.0,10.0
1446038019756166769,455,1446038019751347064,robocape_mag,8.4,5.1,6.45,10.0,0.0,0.0,0.0,10.0,0.0,0.0,0.0,10.0
1446038019789586519,456,1446038019784789085,robocape_mag,8.4,5.1,6.45,10.0,0.0,0.0,0.0,10.0,0.0,0.0,0.0,10.0
1446038019823087977,457,1446038019818103075,robocape_mag,8.4,5.1,6.45,10.0,0.0,0.0,0.0,10.0,0.0,0.0,0.0,10.0
1446038019856890602,458,1446038019851311922,robocape_mag,8.4,5.1,6.45,10.0,0.0,0.0,0.0,10.0,0.0,0.0,0.0,10.0
1446038019889862102,459,1446038019884634971,robocape_mag,8.4,5.1,6.45,10.0,0.0,0.0,0.0,10.0,0.0,0.0,0.0,10.0
1446038019923385477,460,1446038019918317079,robocape_mag,9.0,8.7,6.45,10.0,0.0,0.0,0.0,10.0,0.0,0.0,0.0,10.0
1446038019956562311,461,1446038019951267004,robocape_mag,9.0,8.7,6.45,10.0,0.0,0.0,0.0,10.0,0.0,0.0,0.0,10.0
1446038019996657519,462,1446038019986275911,robocape_mag,9.0,8.7,6.45,10.0,0.0,0.0,0.0,10.0,0.0,0.0,0.0,10.0
1446038020028063894,463,1446038020020548105,robocape_mag,9.0,8.7,6.45,10.0,0.0,0.0,0.0,10.0,0.0,0.0,0.0,10.0
1446038020056591144,464,1446038020051645040,robocape_mag,9.0,8.7,6.45,10.0,0.0,0.0,0.0,10.0,0.0,0.0,0.0,10.0
1446038020089842727,465,1446038020084845066,robocape_mag,6.3,7.2,7.35,10.0,0.0,0.0,0.0,10.0,0.0,0.0,0.0,10.0
1446038020123192811,466,1446038020118273973,robocape_mag,6.3,7.2,7.35,10.0,0.0,0.0,0.0,10.0,0.0,0.0,0.0,10.0
1446038020157346561,467,1446038020152540922,robocape_mag,6.3,7.2,7.35,10.0,0.0,0.0,0.0,10.0,0.0,0.0,0.0,10.0
1446038020189798936,468,1446038020185007095,robocape_mag,6.3,7.2,7.35,10.0,0.0,0.0,0.0,10.0,0.0,0.0,0.0,10.0
1446038020223204936,469,1446038020218445062,robocape_mag,6.3,7.2,7.35,10.0,0.0,0.0,0.0,10.0,0.0,0.0,0.0,10.0
1446038020256285727,470,1446038020251427888,robocape_mag,9.9,8.4,6.75,10.0,0.0,0.0,0.0,10.0,0.0,0.0,0.0,10.0
1446038020289620727,471,1446038020284841060,robocape_mag,9.9,8.4,6.75,10.0,0.0,0.0,0.0,10.0,0.0,0.0,0.0,10.0
1446038020323059019,472,1446038020318275928,robocape_mag,9.9,8.4,6.75,10.0,0.0,0.0,0.0,10.0,0.0,0.0,0.0,10.0
1446038020357323852,473,1446038020351660013,robocape_mag,9.9,8.4,6.75,10.0,0.0,0.0,0.0,10.0,0.0,0.0,0.0,10.0
1446038020390963269,474,1446038020386209011,robocape_mag,6.6,6.3,5.85,10.0,0.0,0.0,0.0,10.0,0.0,0.0,0.0,10.0
1446038020424277019,475,1446038020419395923,robocape_mag,6.6,6.3,5.85,10.0,0.0,0.0,0.0,10.0,0.0,0.0,0.0,10.0
1446038020456986394,476,1446038020451977014,robocape_mag,6.6,6.3,5.85,10.0,0.0,0.0,0.0,10.0,0.0,0.0,0.0,10.0
1446038020495156727,477,1446038020486394882,robocape_mag,6.6,6.3,5.85,10.0,0.0,0.0,0.0,10.0,0.0,0.0,0.0,10.0
1446038020525604644,478,1446038020520561933,robocape_mag,6.6,6.3,5.85,10.0,0.0,0.0,0.0,10.0,0.0,0.0,0.0,10.0
1446038020558508769,479,1446038020553421974,robocape_mag,10.2,5.1,8.25,10.0,0.0,0.0,0.0,10.0,0.0,0.0,0.0,10.0
1446038020597539769,480,1446038020590754032,robocape_mag,10.2,5.1,8.25,10.0,0.0,0.0,0.0,10.0,0.0,0.0,0.0,10.0
1446038020627332311,481,1446038020619792938,robocape_mag,10.2,5.1,8.25,10.0,0.0,0.0,0.0,10.0,0.0,0.0,0.0,10.0
1446038020660146728,482,1446038020654499053,robocape_mag,10.2,5.1,8.25,10.0,0.0,0.0,0.0,10.0,0.0,0.0,0.0,10.0
1446038020695358353,483,1446038020688817024,robocape_mag,10.2,5.1,8.25,10.0,0.0,0.0,0.0,10.0,0.0,0.0,0.0,10.0
1446038020728187103,484,1446038020721354007,robocape_mag,6.9,9.0,7.35,10.0,0.0,0.0,0.0,10.0,0.0,0.0,0.0,10.0
1446038020761152811,485,1446038020753789901,robocape_mag,6.9,9.0,7.35,10.0,0.0,0.0,0.0,10.0,0.0,0.0,0.0,10.0
1446038020796470769,486,1446038020788280010,robocape_mag,6.9,9.0,7.35,10.0,0.0,0.0,0.0,10.0,0.0,0.0,0.0,10.0
1446038020827550728,487,1446038020822256088,robocape_mag,6.9,9.0,7.35,10.0,0.0,0.0,0.0,10.0,0.0,0.0,0.0,10.0
1446038020863950269,488,1446038020854897975,robocape_mag,6.9,9.0,7.35,10.0,0.0,0.0,0.0,10.0,0.0,0.0,0.0,10.0
1446038020894417103,489,1446038020889230012,robocape_mag,14.4,3.3,8.25,10.0,0.0,0.0,0.0,10.0,0.0,0.0,0.0,10.0
1446038020928226603,490,1446038020923187017,robocape_mag,14.4,3.3,8.25,10.0,0.0,0.0,0.0,10.0,0.0,0.0,0.0,10.0
1446038020960908894,491,1446038020955843925,robocape_mag,14.4,3.3,8.25,10.0,0.0,0.0,0.0,10.0,0.0,0.0,0.0,10.0
1446038020999028978,492,1446038020990781068,robocape_mag,14.4,3.3,8.25,10.0,0.0,0.0,0.0,10.0,0.0,0.0,0.0,10.0
1446038021031239519,493,1446038021022308111,robocape_mag,7.5,6.6,6.15,10.0,0.0,0.0,0.0,10.0,0.0,0.0,0.0,10.0
1446038021059833603,494,1446038021054723978,robocape_mag,7.5,6.6,6.15,10.0,0.0,0.0,0.0,10.0,0.0,0.0,0.0,10.0
1446038021093268269,495,1446038021088361978,robocape_mag,7.5,6.6,6.15,10.0,0.0,0.0,0.0,10.0,0.0,0.0,0.0,10.0
1446038021126190436,496,1446038021120870113,robocape_mag,7.5,6.6,6.15,10.0,0.0,0.0,0.0,10.0,0.0,0.0,0.0,10.0
1446038021159601686,497,1446038021154650926,robocape_mag,7.5,6.6,6.15,10.0,0.0,0.0,0.0,10.0,0.0,0.0,0.0,10.0
1446038021193751603,498,1446038021188663005,robocape_mag,8.4,6.3,9.45,10.0,0.0,0.0,0.0,10.0,0.0,0.0,0.0,10.0
1446038021226305311,499,1446038021220356941,robocape_mag,8.4,6.3,9.45,10.0,0.0,0.0,0.0,10.0,0.0,0.0,0.0,10.0
1446038021259466561,500,1446038021254600048,robocape_mag,8.4,6.3,9.45,10.0,0.0,0.0,0.0,10.0,0.0,0.0,0.0,10.0
1446038021292962561,501,1446038021287931919,robocape_mag,8.4,6.3,9.45,10.0,0.0,0.0,0.0,10.0,0.0,0.0,0.0,10.0
1446038021325361561,502,1446038021319961071,robocape_mag,8.4,6.3,9.45,10.0,0.0,0.0,0.0,10.0,0.0,0.0,0.0,10.0
1446038021358905811,503,1446038021353975057,robocape_mag,10.5,6.0,7.95,10.0,0.0,0.0,0.0,10.0,0.0,0.0,0.0,10.0
1446038021391461145,504,1446038021386595964,robocape_mag,10.5,6.0,7.95,10.0,0.0,0.0,0.0,10.0,0.0,0.0,0.0,10.0
1446038021424149061,505,1446038021418993949,robocape_mag,10.5,6.0,7.95,10.0,0.0,0.0,0.0,10.0,0.0,0.0,0.0,10.0
1446038021457574770,506,1446038021452799081,robocape_mag,10.5,6.0,7.95,10.0,0.0,0.0,0.0,10.0,0.0,0.0,0.0,10.0
1446038021490368395,507,1446038021485264062,robocape_mag,10.5,6.0,7.95,10.0,0.0,0.0,0.0,10.0,0.0,0.0,0.0,10.0
1446038021523591478,508,1446038021518446922,robocape_mag,8.4,6.3,8.85,10.0,0.0,0.0,0.0,10.0,0.0,0.0,0.0,10.0
1446038021557121270,509,1446038021552244901,robocape_mag,8.4,6.3,8.85,10.0,0.0,0.0,0.0,10.0,0.0,0.0,0.0,10.0
1446038021589903353,510,1446038021585076093,robocape_mag,8.4,6.3,8.85,10.0,0.0,0.0,0.0,10.0,0.0,0.0,0.0,10.0
1446038021623531228,511,1446038021618510007,robocape_mag,8.4,6.3,8.85,10.0,0.0,0.0,0.0,10.0,0.0,0.0,0.0,10.0
1446038021656453478,512,1446038021651561975,robocape_mag,8.4,6.3,8.85,10.0,0.0,0.0,0.0,10.0,0.0,0.0,0.0,10.0
1446038021689983228,513,1446038021685184955,robocape_mag,9.3,6.6,8.55,10.0,0.0,0.0,0.0,10.0,0.0,0.0,0.0,10.0
1446038021723241561,514,1446038021718455076,robocape_mag,9.3,6.6,8.55,10.0,0.0,0.0,0.0,10.0,0.0,0.0,0.0,10.0
1446038021756514895,515,1446038021751650094,robocape_mag,9.3,6.6,8.55,10.0,0.0,0.0,0.0,10.0,0.0,0.0,0.0,10.0
1446038021789640436,516,1446038021784786939,robocape_mag,9.3,6.6,8.55,10.0,0.0,0.0,0.0,10.0,0.0,0.0,0.0,10.0
1446038021826225936,517,1446038021818341970,robocape_mag,9.3,6.6,8.55,10.0,0.0,0.0,0.0,10.0,0.0,0.0,0.0,10.0
1446038021856300978,518,1446038021851423978,robocape_mag,10.8,8.1,6.45,10.0,0.0,0.0,0.0,10.0,0.0,0.0,0.0,10.0
1446038021889624311,519,1446038021884676933,robocape_mag,10.8,8.1,6.45,10.0,0.0,0.0,0.0,10.0,0.0,0.0,0.0,10.0
1446038021923397728,520,1446038021918292999,robocape_mag,10.8,8.1,6.45,10.0,0.0,0.0,0.0,10.0,0.0,0.0,0.0,10.0
1446038021956598103,521,1446038021951755046,robocape_mag,10.8,8.1,6.45,10.0,0.0,0.0,0.0,10.0,0.0,0.0,0.0,10.0
1446038021994757978,522,1446038021984899997,robocape_mag,10.2,6.9,5.85,10.0,0.0,0.0,0.0,10.0,0.0,0.0,0.0,10.0
1446038022023977645,523,1446038022018903970,robocape_mag,10.2,6.9,5.85,10.0,0.0,0.0,0.0,10.0,0.0,0.0,0.0,10.0
1446038022056958812,524,1446038022052099943,robocape_mag,10.2,6.9,5.85,10.0,0.0,0.0,0.0,10.0,0.0,0.0,0.0,10.0
1446038022089839895,525,1446038022084933042,robocape_mag,10.2,6.9,5.85,10.0,0.0,0.0,0.0,10.0,0.0,0.0,0.0,10.0
1446038022122888020,526,1446038022118062973,robocape_mag,10.2,6.9,5.85,10.0,0.0,0.0,0.0,10.0,0.0,0.0,0.0,10.0
1446038022156544770,527,1446038022151551008,robocape_mag,19.8,5.1,-29.55,10.0,0.0,0.0,0.0,10.0,0.0,0.0,0.0,10.0
1446038022192071687,528,1446038022185110092,robocape_mag,19.8,5.1,-29.55,10.0,0.0,0.0,0.0,10.0,0.0,0.0,0.0,10.0
1446038022223628437,529,1446038022218264102,robocape_mag,19.8,5.1,-29.55,10.0,0.0,0.0,0.0,10.0,0.0,0.0,0.0,10.0
1446038022256743020,530,1446038022251815080,robocape_mag,19.8,5.1,-29.55,10.0,0.0,0.0,0.0,10.0,0.0,0.0,0.0,10.0
1446038022289848062,531,1446038022284881114,robocape_mag,19.8,5.1,-29.55,10.0,0.0,0.0,0.0,10.0,0.0,0.0,0.0,10.0
1446038022324144020,532,1446038022318931102,robocape_mag,15.6,27.3,-5.55,10.0,0.0,0.0,0.0,10.0,0.0,0.0,0.0,10.0
1446038022358371853,533,1446038022353383064,robocape_mag,15.6,27.3,-5.55,10.0,0.0,0.0,0.0,10.0,0.0,0.0,0.0,10.0
1446038022390119437,534,1446038022384891033,robocape_mag,15.6,27.3,-5.55,10.0,0.0,0.0,0.0,10.0,0.0,0.0,0.0,10.0
1446038022423363395,535,1446038022418015003,robocape_mag,15.6,27.3,-5.55,10.0,0.0,0.0,0.0,10.0,0.0,0.0,0.0,10.0
1446038022457103853,536,1446038022452107906,robocape_mag,15.6,27.3,-5.55,10.0,0.0,0.0,0.0,10.0,0.0,0.0,0.0,10.0
1446038022490311187,537,1446038022484703063,robocape_mag,30.0,11.1,-6.75,10.0,0.0,0.0,0.0,10.0,0.0,0.0,0.0,10.0
1446038022523223478,538,1446038022518130064,robocape_mag,30.0,11.1,-6.75,10.0,0.0,0.0,0.0,10.0,0.0,0.0,0.0,10.0
1446038022556863937,539,1446038022551877975,robocape_mag,30.0,11.1,-6.75,10.0,0.0,0.0,0.0,10.0,0.0,0.0,0.0,10.0
1446038022590365812,540,1446038022585077047,robocape_mag,30.0,11.1,-6.75,10.0,0.0,0.0,0.0,10.0,0.0,0.0,0.0,10.0
1446038022623147978,541,1446038022618297100,robocape_mag,30.0,11.1,-6.75,10.0,0.0,0.0,0.0,10.0,0.0,0.0,0.0,10.0
1446038022656466853,542,1446038022651604890,robocape_mag,1.8,4.5,-10.35,10.0,0.0,0.0,0.0,10.0,0.0,0.0,0.0,10.0
1446038022690150812,543,1446038022684954881,robocape_mag,1.8,4.5,-10.35,10.0,0.0,0.0,0.0,10.0,0.0,0.0,0.0,10.0
1446038022724430520,544,1446038022719269990,robocape_mag,1.8,4.5,-10.35,10.0,0.0,0.0,0.0,10.0,0.0,0.0,0.0,10.0
