%time,field.header.seq,field.header.stamp,field.header.frame_id,field.magnetic_field.x,field.magnetic_field.y,field.magnetic_field.z,field.magnetic_field_covariance0,field.magnetic_field_covariance1,field.magnetic_field_covariance2,field.magnetic_field_covariance3,field.magnetic_field_covariance4,field.magnetic_field_covariance5,field.magnetic_field_covariance6,field.magnetic_field_covariance7,field.magnetic_field_covariance8
1446039167349287945,1,1446039166943279981,robocape_mag,-35.1,-24.6,51.9,10.0,0.0,0.0,0.0,10.0,0.0,0.0,0.0,10.0
1446039167349571861,2,1446039166963517904,robocape_mag,-35.1,-24.6,51.9,10.0,0.0,0.0,0.0,10.0,0.0,0.0,0.0,10.0
1446039167349609528,3,1446039166990941047,robocape_mag,-35.1,-24.6,51.9,10.0,0.0,0.0,0.0,10.0,0.0,0.0,0.0,10.0
1446039167349678945,4,1446039167033634901,robocape_mag,-35.1,-24.6,51.9,10.0,0.0,0.0,0.0,10.0,0.0,0.0,0.0,10.0
1446039167349746028,5,1446039167065067052,robocape_mag,-36.3,-24.6,52.5,10.0,0.0,0.0,0.0,10.0,0.0,0.0,0.0,10.0
1446039167349808778,6,1446039167092935085,robocape_mag,-36.3,-24.6,52.5,10.0,0.0,0.0,0.0,10.0,0.0,0.0,0.0,10.0
1446039167349841778,7,1446039167124120950,robocape_mag,-36.3,-24.6,52.5,10.0,0.0,0.0,0.0,10.0,0.0,0.0,0.0,10.0
1446039167349872820,8,1446039167156611919,robocape_mag,-36.3,-24.6,52.5,10.0,0.0,0.0,0.0,10.0,0.0,0.0,0.0,10.0
1446039167349903695,9,1446039167192611932,robocape_mag,-36.3,-24.6,52.5,10.0,0.0,0.0,0.0,10.0,0.0,0.0,0.0,10.0
1446039167349992903,10,1446039167255098104,robocape_mag,-35.1,-24.6,51.9,10.0,0.0,0.0,0.0,10.0,0.0,0.0,0.0,10.0
1446039167361117570,11,1446039167283165931,robocape_mag,-35.1,-24.6,51.9,10.0,0.0,0.0,0.0,10.0,0.0,0.0,0.0,10.0
1446039167362966111,12,1446039167305360078,robocape_mag,-35.1,-24.6,51.9,10.0,0.0,0.0,0.0,10.0,0.0,0.0,0.0,10.0
1446039167363506861,13,1446039167346888065,robocape_mag,-35.1,-24.6,51.9,10.0,0.0,0.0,0.0,10.0,0.0,0.0,0.0,10.0
1446039167380314986,14,1446039167372566938,robocape_mag,-34.2,-24.3,52.2,10.0,0.0,0.0,0.0,10.0,0.0,0.0,0.0,10.0
1446039167403012528,15,1446039167398211956,robocape_mag,-34.2,-24.3,52.2,10.0,0.0,0.0,0.0,10.0,0.0,0.0,0.0,10.0
1446039167429663070,16,1446039167422686100,robocape_mag,-34.2,-24.3,52.2,10.0,0.0,0.0,0.0,10.0,0.0,0.0,0.0,10.0
1446039167460515778,17,1446039167455266952,robocape_mag,-34.2,-24.3,52.2,10.0,0.0,0.0,0.0,10.0,0.0,0.0,0.0,10.0
1446039167493656153,18,1446039167488341093,robocape_mag,-34.2,-24.3,52.2,10.0,0.0,0.0,0.0,10.0,0.0,0.0,0.0,10.0
1446039167534795695,19,1446039167523838043,robocape_mag,-33.6,-24.3,54.6,10.0,0.0,0.0,0.0,10.0,0.0,0.0,0.0,10.0
1446039167560862903,20,1446039167555481910,robocape_mag,-33.6,-24.3,54.6,10.0,0.0,0.0,0.0,10.0,0.0,0.0,0.0,10.0
1446039167593533111,21,1446039167588459014,robocape_mag,-33.6,-24.3,54.6,10.0,0.0,0.0,0.0,10.0,0.0,0.0,0.0,10.0
1446039167628437778,22,1446039167622611999,robocape_mag,-33.6,-24.3,54.6,10.0,0.0,0.0,0.0,10.0,0.0,0.0,0.0,10.0
1446039167660440528,23,1446039167654992103,robocape_mag,-33.6,-24.3,54.6,10.0,0.0,0.0,0.0,10.0,0.0,0.0,0.0,10.0
1446039167693740736,24,1446039167688509941,robocape_mag,-28.8,-28.5,53.4,10.0,0.0,0.0,0.0,10.0,0.0,0.0,0.0,10.0
1446039167727000236,25,1446039167721764087,robocape_mag,-28.8,-28.5,53.4,10.0,0.0,0.0,0.0,10.0,0.0,0.0,0.0,10.0
1446039167760670236,26,1446039167755409955,robocape_mag,-28.8,-28.5,53.4,10.0,0.0,0.0,0.0,10.0,0.0,0.0,0.0,10.0
1446039167793489820,27,1446039167788486957,robocape_mag,-28.8,-28.5,53.4,10.0,0.0,0.0,0.0,10.0,0.0,0.0,0.0,10.0
1446039167826859820,28,1446039167821857929,robocape_mag,-28.8,-28.5,53.4,10.0,0.0,0.0,0.0,10.0,0.0,0.0,0.0,10.0
1446039167861762778,29,1446039167855098009,robocape_mag,-31.5,-24.6,51.3,10.0,0.0,0.0,0.0,10.0,0.0,0.0,0.0,10.0
1446039167893404570,30,1446039167888576984,robocape_mag,-31.5,-24.6,51.3,10.0,0.0,0.0,0.0,10.0,0.0,0.0,0.0,10.0
1446039167926685236,31,1446039167921873092,robocape_mag,-31.5,-24.6,51.3,10.0,0.0,0.0,0.0,10.0,0.0,0.0,0.0,10.0
1446039167960550278,32,1446039167955303907,robocape_mag,-31.5,-24.6,51.3,10.0,0.0,0.0,0.0,10.0,0.0,0.0,0.0,10.0
1446039167994500487,33,1446039167988914012,robocape_mag,-31.5,-24.6,51.3,10.0,0.0,0.0,0.0,10.0,0.0,0.0,0.0,10.0
1446039168028365320,34,1446039168023245096,robocape_mag,-35.7,-22.8,51.9,10.0,0.0,0.0,0.0,10.0,0.0,0.0,0.0,10.0
1446039168062597987,35,1446039168057297945,robocape_mag,-35.7,-22.8,51.9,10.0,0.0,0.0,0.0,10.0,0.0,0.0,0.0,10.0
1446039168098899862,36,1446039168089991092,robocape_mag,-35.7,-22.8,51.9,10.0,0.0,0.0,0.0,10.0,0.0,0.0,0.0,10.0
1446039168129426445,37,1446039168123713970,robocape_mag,-35.7,-22.8,51.9,10.0,0.0,0.0,0.0,10.0,0.0,0.0,0.0,10.0
1446039168162908987,38,1446039168157504081,robocape_mag,-35.7,-23.1,52.2,10.0,0.0,0.0,0.0,10.0,0.0,0.0,0.0,10.0
1446039168195378112,39,1446039168190107107,robocape_mag,-35.4,-23.1,52.2,10.0,0.0,0.0,0.0,10.0,0.0,0.0,0.0,10.0
1446039168230425237,40,1446039168223459959,robocape_mag,-35.4,-23.1,52.2,10.0,0.0,0.0,0.0,10.0,0.0,0.0,0.0,10.0
1446039168267093612,41,1446039168258899927,robocape_mag,-35.4,-23.1,52.2,10.0,0.0,0.0,0.0,10.0,0.0,0.0,0.0,10.0
1446039168294960737,42,1446039168290184974,robocape_mag,-35.4,-23.1,52.2,10.0,0.0,0.0,0.0,10.0,0.0,0.0,0.0,10.0
1446039168344857737,43,1446039168326153993,robocape_mag,-34.2,-23.1,53.4,10.0,0.0,0.0,0.0,10.0,0.0,0.0,0.0,10.0
1446039168365995820,44,1446039168360529899,robocape_mag,-34.2,-23.1,53.4,10.0,0.0,0.0,0.0,10.0,0.0,0.0,0.0,10.0
1446039168402671487,45,1446039168391927003,robocape_mag,-34.2,-23.1,53.4,10.0,0.0,0.0,0.0,10.0,0.0,0.0,0.0,10.0
1446039168434428320,46,1446039168426033973,robocape_mag,-34.2,-23.1,53.4,10.0,0.0,0.0,0.0,10.0,0.0,0.0,0.0,10.0
1446039168464908653,47,1446039168458123922,robocape_mag,-34.2,-23.1,53.4,10.0,0.0,0.0,0.0,10.0,0.0,0.0,0.0,10.0
1446039168500581737,48,1446039168492943048,robocape_mag,-36.0,-24.3,51.6,10.0,0.0,0.0,0.0,10.0,0.0,0.0,0.0,10.0
1446039168530395112,49,1446039168525319099,robocape_mag,-36.0,-24.3,51.6,10.0,0.0,0.0,0.0,10.0,0.0,0.0,0.0,10.0
1446039168564678112,50,1446039168558814048,robocape_mag,-36.0,-24.3,51.6,10.0,0.0,0.0,0.0,10.0,0.0,0.0,0.0,10.0
1446039168598498612,51,1446039168593156099,robocape_mag,-36.0,-24.3,51.6,10.0,0.0,0.0,0.0,10.0,0.0,0.0,0.0,10.0
1446039168629849737,52,1446039168624749898,robocape_mag,-36.0,-24.3,51.6,10.0,0.0,0.0,0.0,10.0,0.0,0.0,0.0,10.0
1446039168667105487,53,1446039168658382892,robocape_mag,-34.2,-23.7,52.8,10.0,0.0,0.0,0.0,10.0,0.0,0.0,0.0,10.0
1446039168701435779,54,1446039168692333936,robocape_mag,-34.2,-23.7,52.8,10.0,0.0,0.0,0.0,10.0,0.0,0.0,0.0,10.0
1446039168730122029,55,1446039168725085973,robocape_mag,-34.2,-23.7,52.8,10.0,0.0,0.0,0.0,10.0,0.0,0.0,0.0,10.0
1446039168762908279,56,1446039168757769107,robocape_mag,-34.2,-23.7,52.8,10.0,0.0,0.0,0.0,10.0,0.0,0.0,0.0,10.0
1446039168796078862,57,1446039168791105985,robocape_mag,-34.2,-23.7,52.8,10.0,0.0,0.0,0.0,10.0,0.0,0.0,0.0,10.0
1446039168832482820,58,1446039168824955940,robocape_mag,-35.7,-25.8,52.5,10.0,0.0,0.0,0.0,10.0,0.0,0.0,0.0,10.0
1446039168862645404,59,1446039168857811927,robocape_mag,-35.7,-25.8,52.5,10.0,0.0,0.0,0.0,10.0,0.0,0.0,0.0,10.0
1446039168895826279,60,1446039168890764951,robocape_mag,-35.7,-25.8,52.5,10.0,0.0,0.0,0.0,10.0,0.0,0.0,0.0,10.0
1446039168929946404,61,1446039168925187110,robocape_mag,-35.7,-25.8,52.5,10.0,0.0,0.0,0.0,10.0,0.0,0.0,0.0,10.0
1446039168965011362,62,1446039168959327936,robocape_mag,-34.2,-23.7,52.2,10.0,0.0,0.0,0.0,10.0,0.0,0.0,0.0,10.0
1446039168995365529,63,1446039168990138053,robocape_mag,-34.2,-23.7,52.2,10.0,0.0,0.0,0.0,10.0,0.0,0.0,0.0,10.0
1446039169027867945,64,1446039169023077011,robocape_mag,-34.2,-23.7,52.2,10.0,0.0,0.0,0.0,10.0,0.0,0.0,0.0,10.0
1446039169062490029,65,1446039169057715892,robocape_mag,-34.2,-23.7,52.2,10.0,0.0,0.0,0.0,10.0,0.0,0.0,0.0,10.0
1446039169094994654,66,1446039169090066909,robocape_mag,-34.2,-23.7,52.2,10.0,0.0,0.0,0.0,10.0,0.0,0.0,0.0,10.0
1446039169128270362,67,1446039169123400926,robocape_mag,-33.6,-23.1,53.4,10.0,0.0,0.0,0.0,10.0,0.0,0.0,0.0,10.0
1446039169161300904,68,1446039169156379938,robocape_mag,-33.6,-23.1,53.4,10.0,0.0,0.0,0.0,10.0,0.0,0.0,0.0,10.0
1446039169194435029,69,1446039169189415931,robocape_mag,-33.6,-23.1,53.4,10.0,0.0,0.0,0.0,10.0,0.0,0.0,0.0,10.0
1446039169226756612,70,1446039169221946001,robocape_mag,-33.6,-23.1,53.4,10.0,0.0,0.0,0.0,10.0,0.0,0.0,0.0,10.0
1446039169265888987,71,1446039169255908012,robocape_mag,-33.6,-23.1,53.4,10.0,0.0,0.0,0.0,10.0,0.0,0.0,0.0,10.0
1446039169294175029,72,1446039169289154052,robocape_mag,-36.0,-25.5,51.6,10.0,0.0,0.0,0.0,10.0,0.0,0.0,0.0,10.0
1446039169330688779,73,1446039169321816921,robocape_mag,-36.0,-25.5,51.6,10.0,0.0,0.0,0.0,10.0,0.0,0.0,0.0,10.0
1446039169364216237,74,1446039169358668088,robocape_mag,-36.0,-25.5,51.6,10.0,0.0,0.0,0.0,10.0,0.0,0.0,0.0,10.0
1446039169394218904,75,1446039169389120101,robocape_mag,-36.0,-25.5,51.6,10.0,0.0,0.0,0.0,10.0,0.0,0.0,0.0,10.0
1446039169426526946,76,1446039169421715974,robocape_mag,-36.0,-25.5,51.6,10.0,0.0,0.0,0.0,10.0,0.0,0.0,0.0,10.0
1446039169460352612,77,1446039169455291032,robocape_mag,-34.8,-23.1,51.6,10.0,0.0,0.0,0.0,10.0,0.0,0.0,0.0,10.0
1446039169493591487,78,1446039169488588094,robocape_mag,-34.8,-23.1,51.6,10.0,0.0,0.0,0.0,10.0,0.0,0.0,0.0,10.0
1446039169526883446,79,1446039169522027969,robocape_mag,-34.8,-23.1,51.6,10.0,0.0,0.0,0.0,10.0,0.0,0.0,0.0,10.0
1446039169560493487,80,1446039169555474996,robocape_mag,-34.8,-23.1,51.6,10.0,0.0,0.0,0.0,10.0,0.0,0.0,0.0,10.0
1446039169593707071,81,1446039169588639974,robocape_mag,-34.8,-23.1,51.6,10.0,0.0,0.0,0.0,10.0,0.0,0.0,0.0,10.0
1446039169626683029,82,1446039169621889114,robocape_mag,-35.1,-22.8,52.5,10.0,0.0,0.0,0.0,10.0,0.0,0.0,0.0,10.0
1446039169660382279,83,1446039169655597925,robocape_mag,-35.1,-22.8,52.5,10.0,0.0,0.0,0.0,10.0,0.0,0.0,0.0,10.0
1446039169694058321,84,1446039169689013004,robocape_mag,-35.1,-22.8,52.5,10.0,0.0,0.0,0.0,10.0,0.0,0.0,0.0,10.0
1446039169726881404,85,1446039169722107887,robocape_mag,-35.1,-22.8,52.5,10.0,0.0,0.0,0.0,10.0,0.0,0.0,0.0,10.0
1446039169760265946,86,1446039169755502939,robocape_mag,-35.1,-22.8,52.5,10.0,0.0,0.0,0.0,10.0,0.0,0.0,0.0,10.0
1446039169793830696,87,1446039169788791894,robocape_mag,-36.6,-23.1,50.4,10.0,0.0,0.0,0.0,10.0,0.0,0.0,0.0,10.0
1446039169826611612,88,1446039169821742057,robocape_mag,-36.6,-23.1,50.4,10.0,0.0,0.0,0.0,10.0,0.0,0.0,0.0,10.0
1446039169860755696,89,1446039169855206012,robocape_mag,-36.6,-23.1,50.4,10.0,0.0,0.0,0.0,10.0,0.0,0.0,0.0,10.0
1446039169895377571,90,1446039169888637065,robocape_mag,-36.6,-23.1,50.4,10.0,0.0,0.0,0.0,10.0,0.0,0.0,0.0,10.0
1446039169926883404,91,1446039169921879053,robocape_mag,-34.2,-26.1,53.4,10.0,0.0,0.0,0.0,10.0,0.0,0.0,0.0,10.0
1446039169960473071,92,1446039169955312967,robocape_mag,-34.2,-26.1,53.4,10.0,0.0,0.0,0.0,10.0,0.0,0.0,0.0,10.0
1446039169995798946,93,1446039169988491058,robocape_mag,-34.2,-26.1,53.4,10.0,0.0,0.0,0.0,10.0,0.0,0.0,0.0,10.0
1446039170026806946,94,1446039170021663904,robocape_mag,-34.2,-26.1,53.4,10.0,0.0,0.0,0.0,10.0,0.0,0.0,0.0,10.0
1446039170060617321,95,1446039170055620908,robocape_mag,-34.2,-26.1,53.4,10.0,0.0,0.0,0.0,10.0,0.0,0.0,0.0,10.0
1446039170096443029,96,1446039170088479042,robocape_mag,-38.1,-25.8,50.7,10.0,0.0,0.0,0.0,10.0,0.0,0.0,0.0,10.0
1446039170126789488,97,1446039170121767044,robocape_mag,-38.1,-25.8,50.7,10.0,0.0,0.0,0.0,10.0,0.0,0.0,0.0,10.0
1446039170160501488,98,1446039170155307054,robocape_mag,-38.1,-25.8,50.7,10.0,0.0,0.0,0.0,10.0,0.0,0.0,0.0,10.0
1446039170194509529,99,1446039170188576936,robocape_mag,-38.1,-25.8,50.7,10.0,0.0,0.0,0.0,10.0,0.0,0.0,0.0,10.0
1446039170226599946,100,1446039170221813917,robocape_mag,-38.1,-25.8,50.7,10.0,0.0,0.0,0.0,10.0,0.0,0.0,0.0,10.0
1446039170260957029,101,1446039170255295991,robocape_mag,-36.0,-24.9,52.2,10.0,0.0,0.0,0.0,10.0,0.0,0.0,0.0,10.0
1446039170293715988,102,1446039170288729906,robocape_mag,-36.0,-24.9,52.2,10.0,0.0,0.0,0.0,10.0,0.0,0.0,0.0,10.0
1446039170335541779,103,1446039170322902917,robocape_mag,-36.0,-24.9,52.2,10.0,0.0,0.0,0.0,10.0,0.0,0.0,0.0,10.0
1446039170361447988,104,1446039170355717897,robocape_mag,-36.0,-24.9,52.2,10.0,0.0,0.0,0.0,10.0,0.0,0.0,0.0,10.0
1446039170395095113,105,1446039170390043973,robocape_mag,-36.0,-24.9,52.2,10.0,0.0,0.0,0.0,10.0,0.0,0.0,0.0,10.0
1446039170428410779,106,1446039170423100948,robocape_mag,-36.0,-24.3,52.2,10.0,0.0,0.0,0.0,10.0,0.0,0.0,0.0,10.0
1446039170462177238,107,1446039170456476926,robocape_mag,-36.0,-24.3,52.2,10.0,0.0,0.0,0.0,10.0,0.0,0.0,0.0,10.0
1446039170494159821,108,1446039170489037036,robocape_mag,-36.0,-24.3,52.2,10.0,0.0,0.0,0.0,10.0,0.0,0.0,0.0,10.0
1446039170527861988,109,1446039170522702932,robocape_mag,-36.0,-24.3,52.2,10.0,0.0,0.0,0.0,10.0,0.0,0.0,0.0,10.0
1446039170562337946,110,1446039170557080030,robocape_mag,-36.0,-24.3,56.1,10.0,0.0,0.0,0.0,10.0,0.0,0.0,0.0,10.0
1446039170603710363,111,1446039170592027902,robocape_mag,-30.3,-24.6,56.1,10.0,0.0,0.0,0.0,10.0,0.0,0.0,0.0,10.0
1446039170631732488,112,1446039170624869108,robocape_mag,-30.3,-24.6,56.1,10.0,0.0,0.0,0.0,10.0,0.0,0.0,0.0,10.0
1446039170665915529,113,1446039170659250974,robocape_mag,-30.3,-24.6,56.1,10.0,0.0,0.0,0.0,10.0,0.0,0.0,0.0,10.0
1446039170703072529,114,1446039170690593004,robocape_mag,-30.3,-24.6,56.1,10.0,0.0,0.0,0.0,10.0,0.0,0.0,0.0,10.0
1446039170736316113,115,1446039170725121974,robocape_mag,-31.2,-22.5,52.8,10.0,0.0,0.0,0.0,10.0,0.0,0.0,0.0,10.0
1446039170765097821,116,1446039170758476972,robocape_mag,-31.2,-22.5,52.8,10.0,0.0,0.0,0.0,10.0,0.0,0.0,0.0,10.0
1446039170798497446,117,1446039170792922019,robocape_mag,-31.2,-22.5,52.8,10.0,0.0,0.0,0.0,10.0,0.0,0.0,0.0,10.0
1446039170832067321,118,1446039170824769973,robocape_mag,-31.2,-22.5,52.8,10.0,0.0,0.0,0.0,10.0,0.0,0.0,0.0,10.0
1446039170867520405,119,1446039170858588933,robocape_mag,-31.2,-22.5,52.8,10.0,0.0,0.0,0.0,10.0,0.0,0.0,0.0,10.0
1446039170896827030,120,1446039170890851020,robocape_mag,-36.9,-25.8,50.7,10.0,0.0,0.0,0.0,10.0,0.0,0.0,0.0,10.0
1446039170930751280,121,1446039170925523996,robocape_mag,-36.9,-25.8,50.7,10.0,0.0,0.0,0.0,10.0,0.0,0.0,0.0,10.0
1446039170964861155,122,1446039170959448099,robocape_mag,-36.9,-25.8,50.7,10.0,0.0,0.0,0.0,10.0,0.0,0.0,0.0,10.0
1446039171002076113,123,1446039170992880105,robocape_mag,-36.9,-25.8,50.7,10.0,0.0,0.0,0.0,10.0,0.0,0.0,0.0,10.0
1446039171029676821,124,1446039171024518966,robocape_mag,-36.9,-25.8,50.7,10.0,0.0,0.0,0.0,10.0,0.0,0.0,0.0,10.0
1446039171064105155,125,1446039171058815002,robocape_mag,-33.0,-23.7,51.6,10.0,0.0,0.0,0.0,10.0,0.0,0.0,0.0,10.0
1446039171101404821,126,1446039171091026067,robocape_mag,-33.0,-23.7,51.6,10.0,0.0,0.0,0.0,10.0,0.0,0.0,0.0,10.0
1446039171129828280,127,1446039171125036954,robocape_mag,-33.0,-23.7,51.6,10.0,0.0,0.0,0.0,10.0,0.0,0.0,0.0,10.0
1446039171163691821,128,1446039171158644914,robocape_mag,-33.0,-23.7,51.6,10.0,0.0,0.0,0.0,10.0,0.0,0.0,0.0,10.0
1446039171197184280,129,1446039171191056013,robocape_mag,-33.0,-23.7,51.6,10.0,0.0,0.0,0.0,10.0,0.0,0.0,0.0,10.0
1446039171229232196,130,1446039171224431037,robocape_mag,-31.5,-24.0,52.5,10.0,0.0,0.0,0.0,10.0,0.0,0.0,0.0,10.0
1446039171263898071,131,1446039171258136034,robocape_mag,-31.5,-24.0,52.5,10.0,0.0,0.0,0.0,10.0,0.0,0.0,0.0,10.0
1446039171297266030,132,1446039171290832042,robocape_mag,-31.5,-24.0,52.5,10.0,0.0,0.0,0.0,10.0,0.0,0.0,0.0,10.0
1446039171335471030,133,1446039171323327064,robocape_mag,-31.5,-24.0,52.5,10.0,0.0,0.0,0.0,10.0,0.0,0.0,0.0,10.0
1446039171362960738,134,1446039171357999086,robocape_mag,-31.5,-27.6,51.3,10.0,0.0,0.0,0.0,10.0,0.0,0.0,0.0,10.0
1446039171394770155,135,1446039171389712095,robocape_mag,-28.5,-27.6,51.3,10.0,0.0,0.0,0.0,10.0,0.0,0.0,0.0,10.0
1446039171428365363,136,1446039171423049926,robocape_mag,-28.5,-27.6,51.3,10.0,0.0,0.0,0.0,10.0,0.0,0.0,0.0,10.0
1446039171460976571,137,1446039171455974102,robocape_mag,-28.5,-27.6,51.3,10.0,0.0,0.0,0.0,10.0,0.0,0.0,0.0,10.0
1446039171494437447,138,1446039171489119052,robocape_mag,-28.5,-27.6,51.3,10.0,0.0,0.0,0.0,10.0,0.0,0.0,0.0,10.0
1446039171526879863,139,1446039171522073030,robocape_mag,-34.2,-24.9,49.2,10.0,0.0,0.0,0.0,10.0,0.0,0.0,0.0,10.0
1446039171560663738,140,1446039171555716037,robocape_mag,-34.2,-24.9,49.2,10.0,0.0,0.0,0.0,10.0,0.0,0.0,0.0,10.0
1446039171594261780,141,1446039171589302062,robocape_mag,-34.2,-24.9,49.2,10.0,0.0,0.0,0.0,10.0,0.0,0.0,0.0,10.0
1446039171626704155,142,1446039171621829032,robocape_mag,-34.2,-24.9,49.2,10.0,0.0,0.0,0.0,10.0,0.0,0.0,0.0,10.0
1446039171660224030,143,1446039171655092954,robocape_mag,-34.2,-24.9,49.2,10.0,0.0,0.0,0.0,10.0,0.0,0.0,0.0,10.0
1446039171693785822,144,1446039171688641071,robocape_mag,-32.7,-24.0,51.3,10.0,0.0,0.0,0.0,10.0,0.0,0.0,0.0,10.0
1446039171726691905,145,1446039171721935033,robocape_mag,-32.7,-24.0,51.3,10.0,0.0,0.0,0.0,10.0,0.0,0.0,0.0,10.0
1446039171760302947,146,1446039171755148887,robocape_mag,-32.7,-24.0,51.3,10.0,0.0,0.0,0.0,10.0,0.0,0.0,0.0,10.0
1446039171793806655,147,1446039171789022922,robocape_mag,-32.7,-24.0,51.3,10.0,0.0,0.0,0.0,10.0,0.0,0.0,0.0,10.0
1446039171826743697,148,1446039171821996927,robocape_mag,-32.7,-24.0,51.3,10.0,0.0,0.0,0.0,10.0,0.0,0.0,0.0,10.0
1446039171860483488,149,1446039171855283021,robocape_mag,-31.2,-26.1,52.8,10.0,0.0,0.0,0.0,10.0,0.0,0.0,0.0,10.0
1446039171893702863,150,1446039171888868093,robocape_mag,-31.2,-26.1,52.8,10.0,0.0,0.0,0.0,10.0,0.0,0.0,0.0,10.0
1446039171926876988,151,1446039171922020912,robocape_mag,-31.2,-26.1,52.8,10.0,0.0,0.0,0.0,10.0,0.0,0.0,0.0,10.0
1446039171963392988,152,1446039171955348968,robocape_mag,-31.2,-26.1,52.8,10.0,0.0,0.0,0.0,10.0,0.0,0.0,0.0,10.0
1446039171993470697,153,1446039171988384008,robocape_mag,-31.2,-26.1,52.8,10.0,0.0,0.0,0.0,10.0,0.0,0.0,0.0,10.0
1446039172026852905,154,1446039172021962881,robocape_mag,-37.5,-25.8,50.7,10.0,0.0,0.0,0.0,10.0,0.0,0.0,0.0,10.0
1446039172063835488,155,1446039172056690931,robocape_mag,-37.5,-25.8,50.7,10.0,0.0,0.0,0.0,10.0,0.0,0.0,0.0,10.0
1446039172093856197,156,1446039172088640928,robocape_mag,-37.5,-25.8,50.7,10.0,0.0,0.0,0.0,10.0,0.0,0.0,0.0,10.0
1446039172126647572,157,1446039172121748924,robocape_mag,-37.5,-25.8,50.7,10.0,0.0,0.0,0.0,10.0,0.0,0.0,0.0,10.0
1446039172161615905,158,1446039172155050992,robocape_mag,-37.5,-25.8,50.7,10.0,0.0,0.0,0.0,10.0,0.0,0.0,0.0,10.0
1446039172195453780,159,1446039172188524007,robocape_mag,-36.6,-26.1,50.4,10.0,0.0,0.0,0.0,10.0,0.0,0.0,0.0,10.0
1446039172226902614,160,1446039172222002029,robocape_mag,-36.6,-26.1,50.4,10.0,0.0,0.0,0.0,10.0,0.0,0.0,0.0,10.0
1446039172260479072,161,1446039172255409955,robocape_mag,-36.6,-26.1,50.4,10.0,0.0,0.0,0.0,10.0,0.0,0.0,0.0,10.0
1446039172294018405,162,1446039172288634061,robocape_mag,-36.6,-26.1,50.4,10.0,0.0,0.0,0.0,10.0,0.0,0.0,0.0,10.0
1446039172336756405,163,1446039172321743011,robocape_mag,-32.7,-23.4,51.9,10.0,0.0,0.0,0.0,10.0,0.0,0.0,0.0,10.0
1446039172361710905,164,1446039172356515884,robocape_mag,-32.7,-23.4,51.9,10.0,0.0,0.0,0.0,10.0,0.0,0.0,0.0,10.0
1446039172397294364,165,1446039172390611886,robocape_mag,-32.7,-23.4,51.9,10.0,0.0,0.0,0.0,10.0,0.0,0.0,0.0,10.0
1446039172426830655,166,1446039172421833992,robocape_mag,-32.7,-23.4,51.9,10.0,0.0,0.0,0.0,10.0,0.0,0.0,0.0,10.0
1446039172460188989,167,1446039172455149888,robocape_mag,-32.7,-23.4,51.9,10.0,0.0,0.0,0.0,10.0,0.0,0.0,0.0,10.0
1446039172493869114,168,1446039172488526105,robocape_mag,-36.0,-26.1,51.6,10.0,0.0,0.0,0.0,10.0,0.0,0.0,0.0,10.0
1446039172526970614,169,1446039172522094011,robocape_mag,-36.0,-26.1,51.6,10.0,0.0,0.0,0.0,10.0,0.0,0.0,0.0,10.0
1446039172560228864,170,1446039172555140018,robocape_mag,-36.0,-26.1,51.6,10.0,0.0,0.0,0.0,10.0,0.0,0.0,0.0,10.0
1446039172594076239,171,1446039172588551044,robocape_mag,-36.0,-26.1,51.6,10.0,0.0,0.0,0.0,10.0,0.0,0.0,0.0,10.0
1446039172628063489,172,1446039172621836900,robocape_mag,-36.0,-26.1,51.6,10.0,0.0,0.0,0.0,10.0,0.0,0.0,0.0,10.0
1446039172661197030,173,1446039172656259059,robocape_mag,-30.9,-26.4,53.7,10.0,0.0,0.0,0.0,10.0,0.0,0.0,0.0,10.0
1446039172694962530,174,1446039172689851999,robocape_mag,-30.9,-26.4,53.7,10.0,0.0,0.0,0.0,10.0,0.0,0.0,0.0,10.0
1446039172727981989,175,1446039172723021984,robocape_mag,-30.9,-26.4,53.7,10.0,0.0,0.0,0.0,10.0,0.0,0.0,0.0,10.0
1446039172760480114,176,1446039172755525112,robocape_mag,-30.9,-26.4,53.7,10.0,0.0,0.0,0.0,10.0,0.0,0.0,0.0,10.0
1446039172794149739,177,1446039172789050102,robocape_mag,-30.9,-26.4,53.7,10.0,0.0,0.0,0.0,10.0,0.0,0.0,0.0,10.0
1446039172831516155,178,1446039172823457002,robocape_mag,-32.7,-23.4,53.1,10.0,0.0,0.0,0.0,10.0,0.0,0.0,0.0,10.0
1446039172865224280,179,1446039172856837034,robocape_mag,-32.7,-23.4,53.1,10.0,0.0,0.0,0.0,10.0,0.0,0.0,0.0,10.0
1446039172899305031,180,1446039172890687942,robocape_mag,-32.7,-23.4,53.1,10.0,0.0,0.0,0.0,10.0,0.0,0.0,0.0,10.0
1446039172928196531,181,1446039172923367977,robocape_mag,-32.7,-23.4,53.1,10.0,0.0,0.0,0.0,10.0,0.0,0.0,0.0,10.0
1446039172970592906,182,1446039172957073926,robocape_mag,-32.7,-23.4,51.3,10.0,0.0,0.0,0.0,10.0,0.0,0.0,0.0,10.0
1446039172999105072,183,1446039172992232084,robocape_mag,-33.9,-24.0,51.3,10.0,0.0,0.0,0.0,10.0,0.0,0.0,0.0,10.0
1446039173029860281,184,1446039173025064945,robocape_mag,-33.9,-24.0,51.3,10.0,0.0,0.0,0.0,10.0,0.0,0.0,0.0,10.0
1446039173065000697,185,1446039173057142019,robocape_mag,-33.9,-24.0,51.3,10.0,0.0,0.0,0.0,10.0,0.0,0.0,0.0,10.0
1446039173100768739,186,1446039173091898918,robocape_mag,-33.9,-24.0,51.3,10.0,0.0,0.0,0.0,10.0,0.0,0.0,0.0,10.0
1446039173131014989,187,1446039173125771999,robocape_mag,-35.1,-21.6,53.1,10.0,0.0,0.0,0.0,10.0,0.0,0.0,0.0,10.0
1446039173164464197,188,1446039173158934116,robocape_mag,-35.1,-21.6,53.1,10.0,0.0,0.0,0.0,10.0,0.0,0.0,0.0,10.0
1446039173200899364,189,1446039173192662954,robocape_mag,-35.1,-21.6,53.1,10.0,0.0,0.0,0.0,10.0,0.0,0.0,0.0,10.0
1446039173230147197,190,1446039173224364995,robocape_mag,-35.1,-21.6,53.1,10.0,0.0,0.0,0.0,10.0,0.0,0.0,0.0,10.0
1446039173264828989,191,1446039173259231090,robocape_mag,-35.1,-21.6,53.1,10.0,0.0,0.0,0.0,10.0,0.0,0.0,0.0,10.0
1446039173297776447,192,1446039173292586088,robocape_mag,-34.8,-24.9,50.4,10.0,0.0,0.0,0.0,10.0,0.0,0.0,0.0,10.0
1446039173338240989,193,1446039173325700044,robocape_mag,-34.8,-24.9,50.4,10.0,0.0,0.0,0.0,10.0,0.0,0.0,0.0,10.0
1446039173369189114,194,1446039173360307931,robocape_mag,-34.8,-24.9,50.4,10.0,0.0,0.0,0.0,10.0,0.0,0.0,0.0,10.0
1446039173400645739,195,1446039173392533063,robocape_mag,-34.8,-24.9,50.4,10.0,0.0,0.0,0.0,10.0,0.0,0.0,0.0,10.0
1446039173430488697,196,1446039173425435066,robocape_mag,-34.8,-24.9,50.4,10.0,0.0,0.0,0.0,10.0,0.0,0.0,0.0,10.0
1446039173463429489,197,1446039173458616971,robocape_mag,-35.7,-24.0,52.5,10.0,0.0,0.0,0.0,10.0,0.0,0.0,0.0,10.0
1446039173496454739,198,1446039173491458892,robocape_mag,-35.7,-24.0,52.5,10.0,0.0,0.0,0.0,10.0,0.0,0.0,0.0,10.0
1446039173528978572,199,1446039173523942947,robocape_mag,-35.7,-24.0,52.5,10.0,0.0,0.0,0.0,10.0,0.0,0.0,0.0,10.0
1446039173562368239,200,1446039173557518959,robocape_mag,-35.7,-24.0,52.5,10.0,0.0,0.0,0.0,10.0,0.0,0.0,0.0,10.0
1446039173595737073,201,1446039173590758085,robocape_mag,-35.7,-24.0,52.5,10.0,0.0,0.0,0.0,10.0,0.0,0.0,0.0,10.0
1446039173632681239,202,1446039173623907089,robocape_mag,-33.9,-24.6,54.3,10.0,0.0,0.0,0.0,10.0,0.0,0.0,0.0,10.0
1446039173662351114,203,1446039173657558917,robocape_mag,-33.9,-24.6,54.3,10.0,0.0,0.0,0.0,10.0,0.0,0.0,0.0,10.0
1446039173697137156,204,1446039173692162990,robocape_mag,-33.9,-24.6,54.3,10.0,0.0,0.0,0.0,10.0,0.0,0.0,0.0,10.0
1446039173732216906,205,1446039173723429918,robocape_mag,-33.9,-24.6,54.3,10.0,0.0,0.0,0.0,10.0,0.0,0.0,0.0,10.0
1446039173760605781,206,1446039173755433082,robocape_mag,-33.9,-24.6,54.3,10.0,0.0,0.0,0.0,10.0,0.0,0.0,0.0,10.0
1446039173793764739,207,1446039173788805961,robocape_mag,-35.1,-24.0,52.5,10.0,0.0,0.0,0.0,10.0,0.0,0.0,0.0,10.0
1446039173827743156,208,1446039173822853088,robocape_mag,-35.1,-24.0,52.5,10.0,0.0,0.0,0.0,10.0,0.0,0.0,0.0,10.0
1446039173861357656,209,1446039173856348991,robocape_mag,-35.1,-24.0,52.5,10.0,0.0,0.0,0.0,10.0,0.0,0.0,0.0,10.0
1446039173894928239,210,1446039173889947891,robocape_mag,-35.1,-24.0,52.5,10.0,0.0,0.0,0.0,10.0,0.0,0.0,0.0,10.0
1446039173927231489,211,1446039173922383069,robocape_mag,-31.8,-25.5,50.4,10.0,0.0,0.0,0.0,10.0,0.0,0.0,0.0,10.0
1446039173962408073,212,1446039173956650972,robocape_mag,-31.8,-25.5,50.4,10.0,0.0,0.0,0.0,10.0,0.0,0.0,0.0,10.0
1446039173997719531,213,1446039173988821983,robocape_mag,-31.8,-25.5,50.4,10.0,0.0,0.0,0.0,10.0,0.0,0.0,0.0,10.0
1446039174026754323,214,1446039174021938085,robocape_mag,-31.8,-25.5,50.4,10.0,0.0,0.0,0.0,10.0,0.0,0.0,0.0,10.0
1446039174064488198,215,1446039174055480957,robocape_mag,-31.8,-25.5,50.4,10.0,0.0,0.0,0.0,10.0,0.0,0.0,0.0,10.0
1446039174094112114,216,1446039174089184999,robocape_mag,-36.0,-24.9,50.4,10.0,0.0,0.0,0.0,10.0,0.0,0.0,0.0,10.0
1446039174126655864,217,1446039174121849060,robocape_mag,-36.0,-24.9,50.4,10.0,0.0,0.0,0.0,10.0,0.0,0.0,0.0,10.0
1446039174160370073,218,1446039174155369043,robocape_mag,-36.0,-24.9,50.4,10.0,0.0,0.0,0.0,10.0,0.0,0.0,0.0,10.0
1446039174194768614,219,1446039174189748048,robocape_mag,-36.0,-24.9,50.4,10.0,0.0,0.0,0.0,10.0,0.0,0.0,0.0,10.0
1446039174226805656,220,1446039174221997976,robocape_mag,-36.0,-24.9,50.4,10.0,0.0,0.0,0.0,10.0,0.0,0.0,0.0,10.0
1446039174260592781,221,1446039174255522012,robocape_mag,-35.1,-22.8,51.9,10.0,0.0,0.0,0.0,10.0,0.0,0.0,0.0,10.0
1446039174293639656,222,1446039174288707017,robocape_mag,-35.1,-22.8,51.9,10.0,0.0,0.0,0.0,10.0,0.0,0.0,0.0,10.0
1446039174332691406,223,1446039174322097063,robocape_mag,-35.1,-22.8,51.9,10.0,0.0,0.0,0.0,10.0,0.0,0.0,0.0,10.0
1446039174361407323,224,1446039174356220960,robocape_mag,-35.1,-22.8,51.9,10.0,0.0,0.0,0.0,10.0,0.0,0.0,0.0,10.0
1446039174395938406,225,1446039174390800952,robocape_mag,-35.1,-22.8,51.9,10.0,0.0,0.0,0.0,10.0,0.0,0.0,0.0,10.0
1446039174426730073,226,1446039174421916961,robocape_mag,-35.7,-22.8,51.9,10.0,0.0,0.0,0.0,10.0,0.0,0.0,0.0,10.0
1446039174460256573,227,1446039174455148935,robocape_mag,-35.7,-22.8,51.9,10.0,0.0,0.0,0.0,10.0,0.0,0.0,0.0,10.0
1446039174495686448,228,1446039174488729000,robocape_mag,-35.7,-22.8,51.9,10.0,0.0,0.0,0.0,10.0,0.0,0.0,0.0,10.0
1446039174527196365,229,1446039174521781921,robocape_mag,-35.7,-22.8,51.9,10.0,0.0,0.0,0.0,10.0,0.0,0.0,0.0,10.0
1446039174560313448,230,1446039174555119037,robocape_mag,-35.7,-22.8,51.9,10.0,0.0,0.0,0.0,10.0,0.0,0.0,0.0,10.0
1446039174593933281,231,1446039174588748931,robocape_mag,-34.5,-23.4,51.3,10.0,0.0,0.0,0.0,10.0,0.0,0.0,0.0,10.0
1446039174626959781,232,1446039174621896982,robocape_mag,-34.5,-23.4,51.3,10.0,0.0,0.0,0.0,10.0,0.0,0.0,0.0,10.0
1446039174660536406,233,1446039174655051946,robocape_mag,-34.5,-23.4,51.3,10.0,0.0,0.0,0.0,10.0,0.0,0.0,0.0,10.0
1446039174694080948,234,1446039174688796997,robocape_mag,-34.5,-23.4,51.3,10.0,0.0,0.0,0.0,10.0,0.0,0.0,0.0,10.0
1446039174726666573,235,1446039174721740007,robocape_mag,-30.9,-22.8,51.3,10.0,0.0,0.0,0.0,10.0,0.0,0.0,0.0,10.0
1446039174760123740,236,1446039174755095005,robocape_mag,-30.9,-22.8,51.3,10.0,0.0,0.0,0.0,10.0,0.0,0.0,0.0,10.0
1446039174794257698,237,1446039174789238929,robocape_mag,-30.9,-22.8,51.3,10.0,0.0,0.0,0.0,10.0,0.0,0.0,0.0,10.0
1446039174826689948,238,1446039174821851968,robocape_mag,-30.9,-22.8,51.3,10.0,0.0,0.0,0.0,10.0,0.0,0.0,0.0,10.0
1446039174860107490,239,1446039174855098962,robocape_mag,-30.9,-22.8,51.3,10.0,0.0,0.0,0.0,10.0,0.0,0.0,0.0,10.0
1446039174893852990,240,1446039174888958930,robocape_mag,-32.4,-24.3,54.6,10.0,0.0,0.0,0.0,10.0,0.0,0.0,0.0,10.0
1446039174926903115,241,1446039174922009944,robocape_mag,-32.4,-24.3,54.6,10.0,0.0,0.0,0.0,10.0,0.0,0.0,0.0,10.0
1446039174961447573,242,1446039174955265998,robocape_mag,-32.4,-24.3,54.6,10.0,0.0,0.0,0.0,10.0,0.0,0.0,0.0,10.0
1446039174995344157,243,1446039174990508079,robocape_mag,-32.4,-24.3,54.6,10.0,0.0,0.0,0.0,10.0,0.0,0.0,0.0,10.0
1446039175027663240,244,1446039175022877931,robocape_mag,-32.4,-24.3,54.6,10.0,0.0,0.0,0.0,10.0,0.0,0.0,0.0,10.0
1446039175061481198,245,1446039175056552886,robocape_mag,-28.5,-25.2,53.7,10.0,0.0,0.0,0.0,10.0,0.0,0.0,0.0,10.0
1446039175094837282,246,1446039175089802980,robocape_mag,-28.5,-25.2,53.7,10.0,0.0,0.0,0.0,10.0,0.0,0.0,0.0,10.0
1446039175128757282,247,1446039175123311042,robocape_mag,-28.5,-25.2,53.7,10.0,0.0,0.0,0.0,10.0,0.0,0.0,0.0,10.0
1446039175162248282,248,1446039175156997919,robocape_mag,-28.5,-25.2,53.7,10.0,0.0,0.0,0.0,10.0,0.0,0.0,0.0,10.0
1446039175199345740,249,1446039175190677881,robocape_mag,-28.5,-25.2,53.7,10.0,0.0,0.0,0.0,10.0,0.0,0.0,0.0,10.0
1446039175227747740,250,1446039175222846984,robocape_mag,-30.3,-26.4,56.7,10.0,0.0,0.0,0.0,10.0,0.0,0.0,0.0,10.0
1446039175263990407,251,1446039175258249998,robocape_mag,-30.3,-26.4,56.7,10.0,0.0,0.0,0.0,10.0,0.0,0.0,0.0,10.0
1446039175298066698,252,1446039175290465116,robocape_mag,-30.3,-26.4,56.7,10.0,0.0,0.0,0.0,10.0,0.0,0.0,0.0,10.0
1446039175339979490,253,1446039175325318098,robocape_mag,-30.3,-26.4,56.7,10.0,0.0,0.0,0.0,10.0,0.0,0.0,0.0,10.0
1446039175365578698,254,1446039175358876943,robocape_mag,-30.3,-26.4,54.0,10.0,0.0,0.0,0.0,10.0,0.0,0.0,0.0,10.0
1446039175398850823,255,1446039175390959024,robocape_mag,-35.4,-23.1,54.0,10.0,0.0,0.0,0.0,10.0,0.0,0.0,0.0,10.0
1446039175431259573,256,1446039175425251007,robocape_mag,-35.4,-23.1,54.0,10.0,0.0,0.0,0.0,10.0,0.0,0.0,0.0,10.0
1446039175469105657,257,1446039175459733009,robocape_mag,-35.4,-23.1,54.0,10.0,0.0,0.0,0.0,10.0,0.0,0.0,0.0,10.0
1446039175502488282,258,1446039175493098020,robocape_mag,-35.4,-23.1,54.0,10.0,0.0,0.0,0.0,10.0,0.0,0.0,0.0,10.0
1446039175530379032,259,1446039175525326967,robocape_mag,-32.1,-23.4,52.5,10.0,0.0,0.0,0.0,10.0,0.0,0.0,0.0,10.0
1446039175567867032,260,1446039175558621883,robocape_mag,-32.1,-23.4,52.5,10.0,0.0,0.0,0.0,10.0,0.0,0.0,0.0,10.0
1446039175598378073,261,1446039175592997074,robocape_mag,-32.1,-23.4,52.5,10.0,0.0,0.0,0.0,10.0,0.0,0.0,0.0,10.0
1446039175630533698,262,1446039175625251054,robocape_mag,-32.1,-23.4,52.5,10.0,0.0,0.0,0.0,10.0,0.0,0.0,0.0,10.0
1446039175664728448,263,1446039175659629106,robocape_mag,-32.1,-23.4,52.5,10.0,0.0,0.0,0.0,10.0,0.0,0.0,0.0,10.0
1446039175701460615,264,1446039175692517042,robocape_mag,-31.8,-23.7,52.8,10.0,0.0,0.0,0.0,10.0,0.0,0.0,0.0,10.0
1446039175730205449,265,1446039175725276947,robocape_mag,-31.8,-23.7,52.8,10.0,0.0,0.0,0.0,10.0,0.0,0.0,0.0,10.0
1446039175764545407,266,1446039175759519100,robocape_mag,-31.8,-23.7,52.8,10.0,0.0,0.0,0.0,10.0,0.0,0.0,0.0,10.0
1446039175798124490,267,1446039175792889118,robocape_mag,-31.8,-23.7,52.8,10.0,0.0,0.0,0.0,10.0,0.0,0.0,0.0,10.0
1446039175829601407,268,1446039175824768066,robocape_mag,-31.8,-23.7,52.8,10.0,0.0,0.0,0.0,10.0,0.0,0.0,0.0,10.0
1446039175863878574,269,1446039175858261108,robocape_mag,-27.3,-25.2,53.1,10.0,0.0,0.0,0.0,10.0,0.0,0.0,0.0,10.0
1446039175900097740,270,1446039175890929937,robocape_mag,-27.3,-25.2,53.1,10.0,0.0,0.0,0.0,10.0,0.0,0.0,0.0,10.0
1446039175930426824,271,1446039175925641059,robocape_mag,-27.3,-25.2,53.1,10.0,0.0,0.0,0.0,10.0,0.0,0.0,0.0,10.0
1446039175963601865,272,1446039175958672046,robocape_mag,-27.3,-25.2,53.1,10.0,0.0,0.0,0.0,10.0,0.0,0.0,0.0,10.0
1446039175996072115,273,1446039175990715980,robocape_mag,-27.3,-25.2,53.1,10.0,0.0,0.0,0.0,10.0,0.0,0.0,0.0,10.0
1446039176029228740,274,1446039176024364948,robocape_mag,-33.0,-21.9,54.6,10.0,0.0,0.0,0.0,10.0,0.0,0.0,0.0,10.0
1446039176061044990,275,1446039176056227922,robocape_mag,-33.0,-21.9,54.6,10.0,0.0,0.0,0.0,10.0,0.0,0.0,0.0,10.0
1446039176095513615,276,1446039176089920043,robocape_mag,-33.0,-21.9,54.6,10.0,0.0,0.0,0.0,10.0,0.0,0.0,0.0,10.0
1446039176128150032,277,1446039176123246908,robocape_mag,-33.0,-21.9,54.6,10.0,0.0,0.0,0.0,10.0,0.0,0.0,0.0,10.0
1446039176160619490,278,1446039176155817031,robocape_mag,-33.0,-21.9,54.6,10.0,0.0,0.0,0.0,10.0,0.0,0.0,0.0,10.0
1446039176194775240,279,1446039176189065933,robocape_mag,-35.1,-22.8,52.5,10.0,0.0,0.0,0.0,10.0,0.0,0.0,0.0,10.0
1446039176227167699,280,1446039176222209930,robocape_mag,-35.1,-22.8,52.5,10.0,0.0,0.0,0.0,10.0,0.0,0.0,0.0,10.0
1446039176262079824,281,1446039176255620956,robocape_mag,-35.1,-22.8,52.5,10.0,0.0,0.0,0.0,10.0,0.0,0.0,0.0,10.0
1446039176295325782,282,1446039176288862943,robocape_mag,-35.1,-22.8,52.5,10.0,0.0,0.0,0.0,10.0,0.0,0.0,0.0,10.0
1446039176332486324,283,1446039176322118043,robocape_mag,-32.4,-22.5,54.6,10.0,0.0,0.0,0.0,10.0,0.0,0.0,0.0,10.0
1446039176361563657,284,1446039176356540918,robocape_mag,-32.4,-22.5,54.6,10.0,0.0,0.0,0.0,10.0,0.0,0.0,0.0,10.0
1446039176393248032,285,1446039176388483047,robocape_mag,-32.4,-22.5,54.6,10.0,0.0,0.0,0.0,10.0,0.0,0.0,0.0,10.0
1446039176427075282,286,1446039176422032117,robocape_mag,-32.4,-22.5,54.6,10.0,0.0,0.0,0.0,10.0,0.0,0.0,0.0,10.0
1446039176460139907,287,1446039176455312967,robocape_mag,-32.4,-22.5,54.6,10.0,0.0,0.0,0.0,10.0,0.0,0.0,0.0,10.0
1446039176493253616,288,1446039176488425016,robocape_mag,-31.5,-23.4,50.7,10.0,0.0,0.0,0.0,10.0,0.0,0.0,0.0,10.0
1446039176527317532,289,1446039176521975994,robocape_mag,-31.5,-23.4,50.7,10.0,0.0,0.0,0.0,10.0,0.0,0.0,0.0,10.0
1446039176560382282,290,1446039176555433988,robocape_mag,-31.5,-23.4,50.7,10.0,0.0,0.0,0.0,10.0,0.0,0.0,0.0,10.0
1446039176593806491,291,1446039176588938951,robocape_mag,-31.5,-23.4,50.7,10.0,0.0,0.0,0.0,10.0,0.0,0.0,0.0,10.0
1446039176627748241,292,1446039176622616052,robocape_mag,-31.5,-23.4,50.7,10.0,0.0,0.0,0.0,10.0,0.0,0.0,0.0,10.0
1446039176660270907,293,1446039176655338048,robocape_mag,-25.2,-27.9,52.8,10.0,0.0,0.0,0.0,10.0,0.0,0.0,0.0,10.0
1446039176694383991,294,1446039176689511060,robocape_mag,-25.2,-27.9,52.8,10.0,0.0,0.0,0.0,10.0,0.0,0.0,0.0,10.0
1446039176726594116,295,1446039176721760988,robocape_mag,-25.2,-27.9,52.8,10.0,0.0,0.0,0.0,10.0,0.0,0.0,0.0,10.0
1446039176760102907,296,1446039176755148887,robocape_mag,-25.2,-27.9,52.8,10.0,0.0,0.0,0.0,10.0,0.0,0.0,0.0,10.0
1446039176793732949,297,1446039176788697004,robocape_mag,-25.2,-27.9,52.8,10.0,0.0,0.0,0.0,10.0,0.0,0.0,0.0,10.0
1446039176829065824,298,1446039176822010993,robocape_mag,-32.7,-22.2,54.3,10.0,0.0,0.0,0.0,10.0,0.0,0.0,0.0,10.0
1446039176862069907,299,1446039176855273962,robocape_mag,-32.7,-22.2,54.3,10.0,0.0,0.0,0.0,10.0,0.0,0.0,0.0,10.0
1446039176895185241,300,1446039176888339996,robocape_mag,-32.7,-22.2,54.3,10.0,0.0,0.0,0.0,10.0,0.0,0.0,0.0,10.0
1446039176927677991,301,1446039176922384977,robocape_mag,-32.7,-22.2,54.3,10.0,0.0,0.0,0.0,10.0,0.0,0.0,0.0,10.0
1446039176960265366,302,1446039176955228090,robocape_mag,-32.7,-22.2,54.3,10.0,0.0,0.0,0.0,10.0,0.0,0.0,0.0,10.0
1446039176993659991,303,1446039176988351106,robocape_mag,-31.8,-23.1,52.2,10.0,0.0,0.0,0.0,10.0,0.0,0.0,0.0,10.0
1446039177026909866,304,1446039177021768093,robocape_mag,-31.8,-23.1,52.2,10.0,0.0,0.0,0.0,10.0,0.0,0.0,0.0,10.0
1446039177060498699,305,1446039177055248022,robocape_mag,-31.8,-23.1,52.2,10.0,0.0,0.0,0.0,10.0,0.0,0.0,0.0,10.0
1446039177095403283,306,1446039177088566064,robocape_mag,-31.8,-23.1,52.2,10.0,0.0,0.0,0.0,10.0,0.0,0.0,0.0,10.0
1446039177126669408,307,1446039177121701955,robocape_mag,-33.3,-24.0,54.3,10.0,0.0,0.0,0.0,10.0,0.0,0.0,0.0,10.0
1446039177160168949,308,1446039177155113935,robocape_mag,-33.3,-24.0,54.3,10.0,0.0,0.0,0.0,10.0,0.0,0.0,0.0,10.0
1446039177196136199,309,1446039177188538074,robocape_mag,-33.3,-24.0,54.3,10.0,0.0,0.0,0.0,10.0,0.0,0.0,0.0,10.0
1446039177226590783,310,1446039177221832036,robocape_mag,-33.3,-24.0,54.3,10.0,0.0,0.0,0.0,10.0,0.0,0.0,0.0,10.0
1446039177260591574,311,1446039177255614995,robocape_mag,-33.3,-24.0,54.3,10.0,0.0,0.0,0.0,10.0,0.0,0.0,0.0,10.0
1446039177295070949,312,1446039177288860082,robocape_mag,-33.3,-24.6,51.9,10.0,0.0,0.0,0.0,10.0,0.0,0.0,0.0,10.0
1446039177336080949,313,1446039177322252035,robocape_mag,-33.3,-24.6,51.9,10.0,0.0,0.0,0.0,10.0,0.0,0.0,0.0,10.0
1446039177368339074,314,1446039177362979888,robocape_mag,-33.3,-24.6,51.9,10.0,0.0,0.0,0.0,10.0,0.0,0.0,0.0,10.0
1446039177395843199,315,1446039177388839960,robocape_mag,-33.3,-24.6,51.9,10.0,0.0,0.0,0.0,10.0,0.0,0.0,0.0,10.0
1446039177428884908,316,1446039177423722982,robocape_mag,-33.3,-24.6,51.9,10.0,0.0,0.0,0.0,10.0,0.0,0.0,0.0,10.0
1446039177460952199,317,1446039177456226110,robocape_mag,-34.2,-23.1,52.2,10.0,0.0,0.0,0.0,10.0,0.0,0.0,0.0,10.0
1446039177495596658,318,1446039177490418910,robocape_mag,-34.2,-23.1,52.2,10.0,0.0,0.0,0.0,10.0,0.0,0.0,0.0,10.0
1446039177528740449,319,1446039177523710966,robocape_mag,-34.2,-23.1,52.2,10.0,0.0,0.0,0.0,10.0,0.0,0.0,0.0,10.0
1446039177567912408,320,1446039177562680959,robocape_mag,-34.2,-23.1,52.2,10.0,0.0,0.0,0.0,10.0,0.0,0.0,0.0,10.0
1446039177597093283,321,1446039177591269016,robocape_mag,-34.2,-23.1,52.2,10.0,0.0,0.0,0.0,10.0,0.0,0.0,0.0,10.0
1446039177632383074,322,1446039177625276088,robocape_mag,-34.2,-22.5,51.6,10.0,0.0,0.0,0.0,10.0,0.0,0.0,0.0,10.0
1446039177665421324,323,1446039177658042907,robocape_mag,-34.2,-22.5,51.6,10.0,0.0,0.0,0.0,10.0,0.0,0.0,0.0,10.0
1446039177702277491,324,1446039177691545009,robocape_mag,-34.2,-22.5,51.6,10.0,0.0,0.0,0.0,10.0,0.0,0.0,0.0,10.0
1446039177731293116,325,1446039177725769042,robocape_mag,-34.2,-22.5,51.6,10.0,0.0,0.0,0.0,10.0,0.0,0.0,0.0,10.0
1446039177765279783,326,1446039177758100986,robocape_mag,-34.2,-22.5,55.5,10.0,0.0,0.0,0.0,10.0,0.0,0.0,0.0,10.0
1446039177801169658,327,1446039177791899919,robocape_mag,-29.1,-25.8,55.5,10.0,0.0,0.0,0.0,10.0,0.0,0.0,0.0,10.0
1446039177834011241,328,1446039177825030088,robocape_mag,-29.1,-25.8,55.5,10.0,0.0,0.0,0.0,10.0,0.0,0.0,0.0,10.0
1446039177863392825,329,1446039177858270883,robocape_mag,-29.1,-25.8,55.5,10.0,0.0,0.0,0.0,10.0,0.0,0.0,0.0,10.0
1446039177900713158,330,1446039177892036914,robocape_mag,-29.1,-25.8,55.5,10.0,0.0,0.0,0.0,10.0,0.0,0.0,0.0,10.0
1446039177931877658,331,1446039177926732063,robocape_mag,-31.2,-24.3,51.6,10.0,0.0,0.0,0.0,10.0,0.0,0.0,0.0,10.0
1446039177963585575,332,1446039177958417892,robocape_mag,-31.2,-24.3,51.6,10.0,0.0,0.0,0.0,10.0,0.0,0.0,0.0,10.0
1446039178002196366,333,1446039177992417097,robocape_mag,-31.2,-24.3,51.6,10.0,0.0,0.0,0.0,10.0,0.0,0.0,0.0,10.0
1446039178029721158,334,1446039178024779081,robocape_mag,-31.2,-24.3,51.6,10.0,0.0,0.0,0.0,10.0,0.0,0.0,0.0,10.0
1446039178062776491,335,1446039178057849884,robocape_mag,-31.2,-24.3,51.6,10.0,0.0,0.0,0.0,10.0,0.0,0.0,0.0,10.0
1446039178095985575,336,1446039178090759038,robocape_mag,-31.5,-25.2,52.5,10.0,0.0,0.0,0.0,10.0,0.0,0.0,0.0,10.0
1446039178129290700,337,1446039178124396085,robocape_mag,-31.5,-25.2,52.5,10.0,0.0,0.0,0.0,10.0,0.0,0.0,0.0,10.0
1446039178162428783,338,1446039178157356023,robocape_mag,-31.5,-25.2,52.5,10.0,0.0,0.0,0.0,10.0,0.0,0.0,0.0,10.0
1446039178195507533,339,1446039178190659999,robocape_mag,-31.5,-25.2,52.5,10.0,0.0,0.0,0.0,10.0,0.0,0.0,0.0,10.0
1446039178228469991,340,1446039178223520994,robocape_mag,-31.5,-25.2,52.5,10.0,0.0,0.0,0.0,10.0,0.0,0.0,0.0,10.0
1446039178262081991,341,1446039178257303953,robocape_mag,-29.7,-24.0,53.7,10.0,0.0,0.0,0.0,10.0,0.0,0.0,0.0,10.0
1446039178296730158,342,1446039178291801929,robocape_mag,-29.7,-24.0,53.7,10.0,0.0,0.0,0.0,10.0,0.0,0.0,0.0,10.0
1446039178333815283,343,1446039178323476076,robocape_mag,-29.7,-24.0,53.7,10.0,0.0,0.0,0.0,10.0,0.0,0.0,0.0,10.0
1446039178362922658,344,1446039178358007907,robocape_mag,-29.7,-24.0,53.7,10.0,0.0,0.0,0.0,10.0,0.0,0.0,0.0,10.0
1446039178394077700,345,1446039178389241933,robocape_mag,-29.7,-24.0,53.7,10.0,0.0,0.0,0.0,10.0,0.0,0.0,0.0,10.0
1446039178427444116,346,1446039178422533035,robocape_mag,-33.6,-23.7,53.4,10.0,0.0,0.0,0.0,10.0,0.0,0.0,0.0,10.0
1446039178460594741,347,1446039178455759048,robocape_mag,-33.6,-23.7,53.4,10.0,0.0,0.0,0.0,10.0,0.0,0.0,0.0,10.0
1446039178493670950,348,1446039178488804101,robocape_mag,-33.6,-23.7,53.4,10.0,0.0,0.0,0.0,10.0,0.0,0.0,0.0,10.0
1446039178530857950,349,1446039178522063016,robocape_mag,-33.6,-23.7,53.4,10.0,0.0,0.0,0.0,10.0,0.0,0.0,0.0,10.0
1446039178560279742,350,1446039178555371046,robocape_mag,-33.6,-23.7,53.4,10.0,0.0,0.0,0.0,10.0,0.0,0.0,0.0,10.0
1446039178593358950,351,1446039178588540077,robocape_mag,-34.5,-22.2,52.5,10.0,0.0,0.0,0.0,10.0,0.0,0.0,0.0,10.0
1446039178626692325,352,1446039178621841907,robocape_mag,-34.5,-22.2,52.5,10.0,0.0,0.0,0.0,10.0,0.0,0.0,0.0,10.0
1446039178660202575,353,1446039178655112028,robocape_mag,-34.5,-22.2,52.5,10.0,0.0,0.0,0.0,10.0,0.0,0.0,0.0,10.0
1446039178693391325,354,1446039178688615083,robocape_mag,-34.5,-22.2,52.5,10.0,0.0,0.0,0.0,10.0,0.0,0.0,0.0,10.0
1446039178726707700,355,1446039178721931934,robocape_mag,-32.4,-25.5,51.6,10.0,0.0,0.0,0.0,10.0,0.0,0.0,0.0,10.0
1446039178760979617,356,1446039178755835056,robocape_mag,-32.4,-25.5,51.6,10.0,0.0,0.0,0.0,10.0,0.0,0.0,0.0,10.0
1446039178793684408,357,1446039178788923978,robocape_mag,-32.4,-25.5,51.6,10.0,0.0,0.0,0.0,10.0,0.0,0.0,0.0,10.0
1446039178826871325,358,1446039178822105884,robocape_mag,-32.4,-25.5,51.6,10.0,0.0,0.0,0.0,10.0,0.0,0.0,0.0,10.0
1446039178860159783,359,1446039178855164051,robocape_mag,-32.4,-25.5,51.6,10.0,0.0,0.0,0.0,10.0,0.0,0.0,0.0,10.0
1446039178893630825,360,1446039178888758897,robocape_mag,-31.2,-23.1,52.8,10.0,0.0,0.0,0.0,10.0,0.0,0.0,0.0,10.0
1446039178926892867,361,1446039178921947002,robocape_mag,-31.2,-23.1,52.8,10.0,0.0,0.0,0.0,10.0,0.0,0.0,0.0,10.0
1446039178960304950,362,1446039178955261945,robocape_mag,-31.2,-23.1,52.8,10.0,0.0,0.0,0.0,10.0,0.0,0.0,0.0,10.0
1446039178997693283,363,1446039178990750074,robocape_mag,-31.2,-23.1,52.8,10.0,0.0,0.0,0.0,10.0,0.0,0.0,0.0,10.0
1446039179026617617,364,1446039179021786928,robocape_mag,-31.2,-23.1,52.8,10.0,0.0,0.0,0.0,10.0,0.0,0.0,0.0,10.0
1446039179061013825,365,1446039179055865049,robocape_mag,-31.8,-24.3,53.4,10.0,0.0,0.0,0.0,10.0,0.0,0.0,0.0,10.0
1446039179093554992,366,1446039179088718891,robocape_mag,-31.8,-24.3,53.4,10.0,0.0,0.0,0.0,10.0,0.0,0.0,0.0,10.0
1446039179126487700,367,1446039179121666908,robocape_mag,-31.8,-24.3,53.4,10.0,0.0,0.0,0.0,10.0,0.0,0.0,0.0,10.0
1446039179160990367,368,1446039179155101060,robocape_mag,-31.8,-24.3,53.4,10.0,0.0,0.0,0.0,10.0,0.0,0.0,0.0,10.0
1446039179195373617,369,1446039179188631057,robocape_mag,-31.8,-24.3,53.4,10.0,0.0,0.0,0.0,10.0,0.0,0.0,0.0,10.0
1446039179226958825,370,1446039179221981048,robocape_mag,-32.4,-21.9,54.0,10.0,0.0,0.0,0.0,10.0,0.0,0.0,0.0,10.0
1446039179260481575,371,1446039179255031108,robocape_mag,-32.4,-21.9,54.0,10.0,0.0,0.0,0.0,10.0,0.0,0.0,0.0,10.0
1446039179294199492,372,1446039179288877010,robocape_mag,-32.4,-21.9,54.0,10.0,0.0,0.0,0.0,10.0,0.0,0.0,0.0,10.0
1446039179332498909,373,1446039179322263956,robocape_mag,-32.4,-21.9,54.0,10.0,0.0,0.0,0.0,10.0,0.0,0.0,0.0,10.0
1446039179361650700,374,1446039179356261968,robocape_mag,-32.4,-21.9,54.0,10.0,0.0,0.0,0.0,10.0,0.0,0.0,0.0,10.0
1446039179395419367,375,1446039179390429019,robocape_mag,-33.0,-22.5,52.8,10.0,0.0,0.0,0.0,10.0,0.0,0.0,0.0,10.0
1446039179427070784,376,1446039179422013044,robocape_mag,-33.0,-22.5,52.8,10.0,0.0,0.0,0.0,10.0,0.0,0.0,0.0,10.0
1446039179460651450,377,1446039179455332994,robocape_mag,-33.0,-22.5,52.8,10.0,0.0,0.0,0.0,10.0,0.0,0.0,0.0,10.0
1446039179493722867,378,1446039179488641977,robocape_mag,-33.0,-22.5,52.8,10.0,0.0,0.0,0.0,10.0,0.0,0.0,0.0,10.0
1446039179526921825,379,1446039179522083044,robocape_mag,-34.2,-23.7,52.8,10.0,0.0,0.0,0.0,10.0,0.0,0.0,0.0,10.0
1446039179562470409,380,1446039179555318117,robocape_mag,-34.2,-23.7,52.8,10.0,0.0,0.0,0.0,10.0,0.0,0.0,0.0,10.0
1446039179593578367,381,1446039179588709115,robocape_mag,-34.2,-23.7,52.8,10.0,0.0,0.0,0.0,10.0,0.0,0.0,0.0,10.0
1446039179626856534,382,1446039179621984958,robocape_mag,-34.2,-23.7,52.8,10.0,0.0,0.0,0.0,10.0,0.0,0.0,0.0,10.0
1446039179662037159,383,1446039179656790971,robocape_mag,-34.2,-23.7,52.8,10.0,0.0,0.0,0.0,10.0,0.0,0.0,0.0,10.0
1446039179694818575,384,1446039179689788103,robocape_mag,-31.2,-26.7,57.6,10.0,0.0,0.0,0.0,10.0,0.0,0.0,0.0,10.0
1446039179728033825,385,1446039179723180055,robocape_mag,-31.2,-26.7,57.6,10.0,0.0,0.0,0.0,10.0,0.0,0.0,0.0,10.0
1446039179760836950,386,1446039179755510091,robocape_mag,-31.2,-26.7,57.6,10.0,0.0,0.0,0.0,10.0,0.0,0.0,0.0,10.0
1446039179795747992,387,1446039179790366888,robocape_mag,-31.2,-26.7,57.6,10.0,0.0,0.0,0.0,10.0,0.0,0.0,0.0,10.0
1446039179835044575,388,1446039179827078104,robocape_mag,-31.2,-26.7,57.6,10.0,0.0,0.0,0.0,10.0,0.0,0.0,0.0,10.0
1446039179862262575,389,1446039179856940031,robocape_mag,-32.7,-24.0,53.1,10.0,0.0,0.0,0.0,10.0,0.0,0.0,0.0,10.0
1446039179895246784,390,1446039179890156984,robocape_mag,-32.7,-24.0,53.1,10.0,0.0,0.0,0.0,10.0,0.0,0.0,0.0,10.0
1446039179937373534,391,1446039179925797939,robocape_mag,-32.7,-24.0,53.1,10.0,0.0,0.0,0.0,10.0,0.0,0.0,0.0,10.0
1446039179963965367,392,1446039179958085060,robocape_mag,-32.7,-24.0,53.1,10.0,0.0,0.0,0.0,10.0,0.0,0.0,0.0,10.0
1446039179994300909,393,1446039179989187955,robocape_mag,-32.7,-24.0,53.1,10.0,0.0,0.0,0.0,10.0,0.0,0.0,0.0,10.0
1446039180035392534,394,1446039180026531934,robocape_mag,-31.2,-23.7,54.6,10.0,0.0,0.0,0.0,10.0,0.0,0.0,0.0,10.0
1446039180068805867,395,1446039180058768987,robocape_mag,-31.2,-23.7,54.6,10.0,0.0,0.0,0.0,10.0,0.0,0.0,0.0,10.0
1446039180097841784,396,1446039180090958118,robocape_mag,-31.2,-23.7,54.6,10.0,0.0,0.0,0.0,10.0,0.0,0.0,0.0,10.0
1446039180136546617,397,1446039180124936103,robocape_mag,-31.2,-23.7,54.6,10.0,0.0,0.0,0.0,10.0,0.0,0.0,0.0,10.0
1446039180163972242,398,1446039180156987905,robocape_mag,-31.2,-23.7,54.6,10.0,0.0,0.0,0.0,10.0,0.0,0.0,0.0,10.0
1446039180197516451,399,1446039180192457914,robocape_mag,-33.9,-24.0,54.9,10.0,0.0,0.0,0.0,10.0,0.0,0.0,0.0,10.0
1446039180230494284,400,1446039180225080013,robocape_mag,-33.9,-24.0,54.9,10.0,0.0,0.0,0.0,10.0,0.0,0.0,0.0,10.0
1446039180264486117,401,1446039180259021043,robocape_mag,-33.9,-24.0,54.9,10.0,0.0,0.0,0.0,10.0,0.0,0.0,0.0,10.0
1446039180300297076,402,1446039180292376041,robocape_mag,-33.9,-24.0,54.9,10.0,0.0,0.0,0.0,10.0,0.0,0.0,0.0,10.0
1446039180336440826,403,1446039180326828002,robocape_mag,-29.4,-24.9,54.6,10.0,0.0,0.0,0.0,10.0,0.0,0.0,0.0,10.0
1446039180364947992,404,1446039180359508037,robocape_mag,-29.4,-24.9,54.6,10.0,0.0,0.0,0.0,10.0,0.0,0.0,0.0,10.0
1446039180396864076,405,1446039180391730070,robocape_mag,-29.4,-24.9,54.6,10.0,0.0,0.0,0.0,10.0,0.0,0.0,0.0,10.0
1446039180430220117,406,1446039180425254106,robocape_mag,-29.4,-24.9,54.6,10.0,0.0,0.0,0.0,10.0,0.0,0.0,0.0,10.0
1446039180466675576,407,1446039180457664966,robocape_mag,-29.4,-24.9,54.6,10.0,0.0,0.0,0.0,10.0,0.0,0.0,0.0,10.0
1446039180497651284,408,1446039180492523908,robocape_mag,-33.6,-23.7,53.4,10.0,0.0,0.0,0.0,10.0,0.0,0.0,0.0,10.0
1446039180533129659,409,1446039180524369955,robocape_mag,-33.6,-23.7,53.4,10.0,0.0,0.0,0.0,10.0,0.0,0.0,0.0,10.0
1446039180566384409,410,1446039180558011054,robocape_mag,-33.6,-23.7,53.4,10.0,0.0,0.0,0.0,10.0,0.0,0.0,0.0,10.0
1446039180596657076,411,1446039180591666936,robocape_mag,-33.6,-23.7,53.4,10.0,0.0,0.0,0.0,10.0,0.0,0.0,0.0,10.0
1446039180629426034,412,1446039180624638080,robocape_mag,-33.6,-23.7,53.4,10.0,0.0,0.0,0.0,10.0,0.0,0.0,0.0,10.0
1446039180663360493,413,1446039180657109975,robocape_mag,-32.1,-24.0,56.1,10.0,0.0,0.0,0.0,10.0,0.0,0.0,0.0,10.0
1446039180694850909,414,1446039180689764976,robocape_mag,-32.1,-24.0,56.1,10.0,0.0,0.0,0.0,10.0,0.0,0.0,0.0,10.0
1446039180728693326,415,1446039180723903894,robocape_mag,-32.1,-24.0,56.1,10.0,0.0,0.0,0.0,10.0,0.0,0.0,0.0,10.0
1446039180763265993,416,1446039180756556034,robocape_mag,-32.1,-24.0,56.1,10.0,0.0,0.0,0.0,10.0,0.0,0.0,0.0,10.0
1446039180794843451,417,1446039180789892911,robocape_mag,-32.1,-24.0,56.1,10.0,0.0,0.0,0.0,10.0,0.0,0.0,0.0,10.0
1446039180827637034,418,1446039180822791099,robocape_mag,-33.3,-24.0,53.7,10.0,0.0,0.0,0.0,10.0,0.0,0.0,0.0,10.0
1446039180860530618,419,1446039180855691909,robocape_mag,-33.3,-24.0,53.7,10.0,0.0,0.0,0.0,10.0,0.0,0.0,0.0,10.0
1446039180893716534,420,1446039180888816118,robocape_mag,-33.3,-24.0,53.7,10.0,0.0,0.0,0.0,10.0,0.0,0.0,0.0,10.0
1446039180927475659,421,1446039180922352075,robocape_mag,-33.3,-24.0,53.7,10.0,0.0,0.0,0.0,10.0,0.0,0.0,0.0,10.0
1446039180960297993,422,1446039180955454111,robocape_mag,-33.3,-24.0,53.7,10.0,0.0,0.0,0.0,10.0,0.0,0.0,0.0,10.0
1446039180993382743,423,1446039180988495111,robocape_mag,-31.5,-24.0,53.1,10.0,0.0,0.0,0.0,10.0,0.0,0.0,0.0,10.0
1446039181026894993,424,1446039181022053003,robocape_mag,-31.5,-24.0,53.1,10.0,0.0,0.0,0.0,10.0,0.0,0.0,0.0,10.0
1446039181063976451,425,1446039181055187940,robocape_mag,-31.5,-24.0,53.1,10.0,0.0,0.0,0.0,10.0,0.0,0.0,0.0,10.0
1446039181093391284,426,1446039181088531017,robocape_mag,-31.5,-24.0,53.1,10.0,0.0,0.0,0.0,10.0,0.0,0.0,0.0,10.0
1446039181127470826,427,1446039181122653007,robocape_mag,-31.2,-24.3,49.8,10.0,0.0,0.0,0.0,10.0,0.0,0.0,0.0,10.0
1446039181160194451,428,1446039181155323028,robocape_mag,-31.2,-24.3,49.8,10.0,0.0,0.0,0.0,10.0,0.0,0.0,0.0,10.0
1446039181193558659,429,1446039181188648939,robocape_mag,-31.2,-24.3,49.8,10.0,0.0,0.0,0.0,10.0,0.0,0.0,0.0,10.0
1446039181227387576,430,1446039181222575902,robocape_mag,-31.2,-24.3,49.8,10.0,0.0,0.0,0.0,10.0,0.0,0.0,0.0,10.0
1446039181260181909,431,1446039181255194902,robocape_mag,-31.2,-24.3,49.8,10.0,0.0,0.0,0.0,10.0,0.0,0.0,0.0,10.0
1446039181294227243,432,1446039181289071083,robocape_mag,-32.7,-24.6,51.9,10.0,0.0,0.0,0.0,10.0,0.0,0.0,0.0,10.0
1446039181335185826,433,1446039181322356939,robocape_mag,-32.7,-24.6,51.9,10.0,0.0,0.0,0.0,10.0,0.0,0.0,0.0,10.0
1446039181360959201,434,1446039181356143951,robocape_mag,-32.7,-24.6,51.9,10.0,0.0,0.0,0.0,10.0,0.0,0.0,0.0,10.0
1446039181394332368,435,1446039181389158010,robocape_mag,-32.7,-24.6,51.9,10.0,0.0,0.0,0.0,10.0,0.0,0.0,0.0,10.0
1446039181427225993,436,1446039181422247886,robocape_mag,-32.7,-24.6,51.9,10.0,0.0,0.0,0.0,10.0,0.0,0.0,0.0,10.0
1446039181460111785,437,1446039181455135107,robocape_mag,-34.8,-23.1,51.0,10.0,0.0,0.0,0.0,10.0,0.0,0.0,0.0,10.0
1446039181494163493,438,1446039181488325119,robocape_mag,-34.8,-23.1,51.0,10.0,0.0,0.0,0.0,10.0,0.0,0.0,0.0,10.0
1446039181528841743,439,1446039181521851062,robocape_mag,-34.8,-23.1,51.0,10.0,0.0,0.0,0.0,10.0,0.0,0.0,0.0,10.0
1446039181560420660,440,1446039181555140018,robocape_mag,-34.8,-23.1,51.0,10.0,0.0,0.0,0.0,10.0,0.0,0.0,0.0,10.0
1446039181593679618,441,1446039181588344097,robocape_mag,-34.8,-23.1,51.0,10.0,0.0,0.0,0.0,10.0,0.0,0.0,0.0,10.0
1446039181627045993,442,1446039181621792078,robocape_mag,-35.4,-21.9,54.0,10.0,0.0,0.0,0.0,10.0,0.0,0.0,0.0,10.0
1446039181662365118,443,1446039181655333995,robocape_mag,-35.4,-21.9,54.0,10.0,0.0,0.0,0.0,10.0,0.0,0.0,0.0,10.0
1446039181694170576,444,1446039181688738107,robocape_mag,-35.4,-21.9,54.0,10.0,0.0,0.0,0.0,10.0,0.0,0.0,0.0,10.0
1446039181727403993,445,1446039181721877098,robocape_mag,-35.4,-21.9,54.0,10.0,0.0,0.0,0.0,10.0,0.0,0.0,0.0,10.0
1446039181760234743,446,1446039181755132913,robocape_mag,-35.4,-21.9,54.0,10.0,0.0,0.0,0.0,10.0,0.0,0.0,0.0,10.0
1446039181794747993,447,1446039181789242029,robocape_mag,-35.4,-24.9,52.8,10.0,0.0,0.0,0.0,10.0,0.0,0.0,0.0,10.0
1446039181827526493,448,1446039181822016954,robocape_mag,-35.4,-24.9,52.8,10.0,0.0,0.0,0.0,10.0,0.0,0.0,0.0,10.0
1446039181861189993,449,1446039181856127023,robocape_mag,-35.4,-24.9,52.8,10.0,0.0,0.0,0.0,10.0,0.0,0.0,0.0,10.0
1446039181893391660,450,1446039181888395071,robocape_mag,-35.4,-24.9,52.8,10.0,0.0,0.0,0.0,10.0,0.0,0.0,0.0,10.0
1446039181927640701,451,1446039181922131061,robocape_mag,-34.2,-23.7,53.4,10.0,0.0,0.0,0.0,10.0,0.0,0.0,0.0,10.0
1446039181960292285,452,1446039181955348014,robocape_mag,-34.2,-23.7,53.4,10.0,0.0,0.0,0.0,10.0,0.0,0.0,0.0,10.0
1446039181994932118,453,1446039181989774942,robocape_mag,-34.2,-23.7,53.4,10.0,0.0,0.0,0.0,10.0,0.0,0.0,0.0,10.0
1446039182030153452,454,1446039182022511959,robocape_mag,-34.2,-23.7,53.4,10.0,0.0,0.0,0.0,10.0,0.0,0.0,0.0,10.0
1446039182062799827,455,1446039182057318925,robocape_mag,-34.2,-23.7,53.4,10.0,0.0,0.0,0.0,10.0,0.0,0.0,0.0,10.0
1446039182095501452,456,1446039182089771986,robocape_mag,-33.9,-24.0,51.3,10.0,0.0,0.0,0.0,10.0,0.0,0.0,0.0,10.0
1446039182130329285,457,1446039182123415946,robocape_mag,-33.9,-24.0,51.3,10.0,0.0,0.0,0.0,10.0,0.0,0.0,0.0,10.0
1446039182160698577,458,1446039182155563116,robocape_mag,-33.9,-24.0,51.3,10.0,0.0,0.0,0.0,10.0,0.0,0.0,0.0,10.0
1446039182198361868,459,1446039182190038919,robocape_mag,-33.9,-24.0,51.3,10.0,0.0,0.0,0.0,10.0,0.0,0.0,0.0,10.0
1446039182229300868,460,1446039182223694086,robocape_mag,-33.9,-24.0,51.3,10.0,0.0,0.0,0.0,10.0,0.0,0.0,0.0,10.0
1446039182266522285,461,1446039182259381055,robocape_mag,-34.2,-24.9,52.2,10.0,0.0,0.0,0.0,10.0,0.0,0.0,0.0,10.0
1446039182297249577,462,1446039182290515899,robocape_mag,-34.2,-24.9,52.2,10.0,0.0,0.0,0.0,10.0,0.0,0.0,0.0,10.0
1446039182341932202,463,1446039182324997901,robocape_mag,-34.2,-24.9,52.2,10.0,0.0,0.0,0.0,10.0,0.0,0.0,0.0,10.0
1446039182370197868,464,1446039182359555959,robocape_mag,-34.2,-24.9,52.2,10.0,0.0,0.0,0.0,10.0,0.0,0.0,0.0,10.0
1446039182402550910,465,1446039182391230106,robocape_mag,-34.2,-24.9,52.2,10.0,0.0,0.0,0.0,10.0,0.0,0.0,0.0,10.0
1446039182433157410,466,1446039182425218105,robocape_mag,-33.3,-24.0,51.9,10.0,0.0,0.0,0.0,10.0,0.0,0.0,0.0,10.0
1446039182466871493,467,1446039182458491086,robocape_mag,-33.3,-24.0,51.9,10.0,0.0,0.0,0.0,10.0,0.0,0.0,0.0,10.0
1446039182501605035,468,1446039182492036104,robocape_mag,-33.3,-24.0,51.9,10.0,0.0,0.0,0.0,10.0,0.0,0.0,0.0,10.0
1446039182535518785,469,1446039182525985956,robocape_mag,-33.3,-24.0,51.9,10.0,0.0,0.0,0.0,10.0,0.0,0.0,0.0,10.0
1446039182563644368,470,1446039182558410882,robocape_mag,-33.3,-24.0,51.9,10.0,0.0,0.0,0.0,10.0,0.0,0.0,0.0,10.0
1446039182597960660,471,1446039182592231988,robocape_mag,-27.3,-28.2,53.7,10.0,0.0,0.0,0.0,10.0,0.0,0.0,0.0,10.0
1446039182630060743,472,1446039182624146938,robocape_mag,-27.3,-28.2,53.7,10.0,0.0,0.0,0.0,10.0,0.0,0.0,0.0,10.0
1446039182665318785,473,1446039182660089969,robocape_mag,-27.3,-28.2,53.7,10.0,0.0,0.0,0.0,10.0,0.0,0.0,0.0,10.0
1446039182697374494,474,1446039182691101074,robocape_mag,-27.3,-28.2,53.7,10.0,0.0,0.0,0.0,10.0,0.0,0.0,0.0,10.0
1446039182731104410,475,1446039182725507974,robocape_mag,-33.6,-24.9,51.0,10.0,0.0,0.0,0.0,10.0,0.0,0.0,0.0,10.0
1446039182763210077,476,1446039182757976055,robocape_mag,-33.6,-24.9,51.0,10.0,0.0,0.0,0.0,10.0,0.0,0.0,0.0,10.0
1446039182797379077,477,1446039182792093992,robocape_mag,-33.6,-24.9,51.0,10.0,0.0,0.0,0.0,10.0,0.0,0.0,0.0,10.0
1446039182836223035,478,1446039182825433015,robocape_mag,-33.6,-24.9,51.0,10.0,0.0,0.0,0.0,10.0,0.0,0.0,0.0,10.0
1446039182862055077,479,1446039182857054948,robocape_mag,-33.6,-24.9,51.0,10.0,0.0,0.0,0.0,10.0,0.0,0.0,0.0,10.0
1446039182895707869,480,1446039182890733957,robocape_mag,-34.8,-25.5,52.8,10.0,0.0,0.0,0.0,10.0,0.0,0.0,0.0,10.0
1446039182931694660,481,1446039182924616098,robocape_mag,-34.8,-25.5,52.8,10.0,0.0,0.0,0.0,10.0,0.0,0.0,0.0,10.0
1446039182962663160,482,1446039182957459926,robocape_mag,-34.8,-25.5,52.8,10.0,0.0,0.0,0.0,10.0,0.0,0.0,0.0,10.0
1446039182997950285,483,1446039182990869045,robocape_mag,-34.8,-25.5,52.8,10.0,0.0,0.0,0.0,10.0,0.0,0.0,0.0,10.0
1446039183030219577,484,1446039183023386955,robocape_mag,-34.8,-25.5,52.8,10.0,0.0,0.0,0.0,10.0,0.0,0.0,0.0,10.0
1446039183061639535,485,1446039183056715965,robocape_mag,-34.5,-24.6,51.9,10.0,0.0,0.0,0.0,10.0,0.0,0.0,0.0,10.0
1446039183094292952,486,1446039183089472055,robocape_mag,-34.5,-24.6,51.9,10.0,0.0,0.0,0.0,10.0,0.0,0.0,0.0,10.0
1446039183127195077,487,1446039183122353076,robocape_mag,-34.5,-24.6,51.9,10.0,0.0,0.0,0.0,10.0,0.0,0.0,0.0,10.0
1446039183160406827,488,1446039183155390977,robocape_mag,-34.5,-24.6,51.9,10.0,0.0,0.0,0.0,10.0,0.0,0.0,0.0,10.0
1446039183193522660,489,1446039183188745021,robocape_mag,-34.5,-24.6,51.9,10.0,0.0,0.0,0.0,10.0,0.0,0.0,0.0,10.0
1446039183227087702,490,1446039183222337961,robocape_mag,-33.3,-24.6,51.9,10.0,0.0,0.0,0.0,10.0,0.0,0.0,0.0,10.0
1446039183259992785,491,1446039183255225896,robocape_mag,-33.3,-24.6,51.9,10.0,0.0,0.0,0.0,10.0,0.0,0.0,0.0,10.0
1446039183294154535,492,1446039183288816928,robocape_mag,-33.3,-24.6,51.9,10.0,0.0,0.0,0.0,10.0,0.0,0.0,0.0,10.0
1446039183331541327,493,1446039183321928024,robocape_mag,-33.3,-24.6,51.9,10.0,0.0,0.0,0.0,10.0,0.0,0.0,0.0,10.0
1446039183361098327,494,1446039183356264114,robocape_mag,-33.3,-24.6,51.9,10.0,0.0,0.0,0.0,10.0,0.0,0.0,0.0,10.0
1446039183394002036,495,1446039183389174938,robocape_mag,-35.4,-25.5,50.4,10.0,0.0,0.0,0.0,10.0,0.0,0.0,0.0,10.0
1446039183426909119,496,1446039183422060966,robocape_mag,-35.4,-25.5,50.4,10.0,0.0,0.0,0.0,10.0,0.0,0.0,0.0,10.0
1446039183460157036,497,1446039183455132007,robocape_mag,-35.4,-25.5,50.4,10.0,0.0,0.0,0.0,10.0,0.0,0.0,0.0,10.0
1446039183493270327,498,1446039183488389015,robocape_mag,-35.4,-25.5,50.4,10.0,0.0,0.0,0.0,10.0,0.0,0.0,0.0,10.0
1446039183527401911,499,1446039183522639036,robocape_mag,-30.6,-25.5,51.6,10.0,0.0,0.0,0.0,10.0,0.0,0.0,0.0,10.0
1446039183560128744,500,1446039183555198907,robocape_mag,-30.6,-25.5,51.6,10.0,0.0,0.0,0.0,10.0,0.0,0.0,0.0,10.0
1446039183593552952,501,1446039183588623046,robocape_mag,-30.6,-25.5,51.6,10.0,0.0,0.0,0.0,10.0,0.0,0.0,0.0,10.0
1446039183627046494,502,1446039183622313976,robocape_mag,-30.6,-25.5,51.6,10.0,0.0,0.0,0.0,10.0,0.0,0.0,0.0,10.0
1446039183660308369,503,1446039183655349969,robocape_mag,-30.6,-25.5,51.6,10.0,0.0,0.0,0.0,10.0,0.0,0.0,0.0,10.0
1446039183693529952,504,1446039183688626050,robocape_mag,-31.2,-21.9,51.6,10.0,0.0,0.0,0.0,10.0,0.0,0.0,0.0,10.0
1446039183726738619,505,1446039183721796035,robocape_mag,-31.2,-21.9,51.6,10.0,0.0,0.0,0.0,10.0,0.0,0.0,0.0,10.0
1446039183760017744,506,1446039183755135059,robocape_mag,-31.2,-21.9,51.6,10.0,0.0,0.0,0.0,10.0,0.0,0.0,0.0,10.0
1446039183793697827,507,1446039183788333892,robocape_mag,-31.2,-21.9,51.6,10.0,0.0,0.0,0.0,10.0,0.0,0.0,0.0,10.0
1446039183827637369,508,1446039183822077989,robocape_mag,-31.2,-21.9,51.6,10.0,0.0,0.0,0.0,10.0,0.0,0.0,0.0,10.0
1446039183862185286,509,1446039183855283021,robocape_mag,-35.7,-25.2,50.7,10.0,0.0,0.0,0.0,10.0,0.0,0.0,0.0,10.0
1446039183893693119,510,1446039183888674974,robocape_mag,-35.7,-25.2,50.7,10.0,0.0,0.0,0.0,10.0,0.0,0.0,0.0,10.0
1446039183927195536,511,1446039183922168016,robocape_mag,-35.7,-25.2,50.7,10.0,0.0,0.0,0.0,10.0,0.0,0.0,0.0,10.0
1446039183960317036,512,1446039183955117940,robocape_mag,-35.7,-25.2,50.7,10.0,0.0,0.0,0.0,10.0,0.0,0.0,0.0,10.0
1446039183993418994,513,1446039183988332033,robocape_mag,-35.7,-25.2,50.7,10.0,0.0,0.0,0.0,10.0,0.0,0.0,0.0,10.0
1446039184027115994,514,1446039184021915912,robocape_mag,-33.0,-24.3,54.0,10.0,0.0,0.0,0.0,10.0,0.0,0.0,0.0,10.0
1446039184062063952,515,1446039184055166959,robocape_mag,-33.0,-24.3,54.0,10.0,0.0,0.0,0.0,10.0,0.0,0.0,0.0,10.0
1446039184093431036,516,1446039184088407993,robocape_mag,-33.0,-24.3,54.0,10.0,0.0,0.0,0.0,10.0,0.0,0.0,0.0,10.0
1446039184127028994,517,1446039184121992111,robocape_mag,-33.0,-24.3,54.0,10.0,0.0,0.0,0.0,10.0,0.0,0.0,0.0,10.0
1446039184160134161,518,1446039184155091047,robocape_mag,-33.0,-24.3,54.0,10.0,0.0,0.0,0.0,10.0,0.0,0.0,0.0,10.0
1446039184193647661,519,1446039184188525915,robocape_mag,-34.8,-25.5,51.0,10.0,0.0,0.0,0.0,10.0,0.0,0.0,0.0,10.0
1446039184226793786,520,1446039184221859931,robocape_mag,-34.8,-25.5,51.0,10.0,0.0,0.0,0.0,10.0,0.0,0.0,0.0,10.0
1446039184260041161,521,1446039184255248069,robocape_mag,-34.8,-25.5,51.0,10.0,0.0,0.0,0.0,10.0,0.0,0.0,0.0,10.0
1446039184299114786,522,1446039184291627883,robocape_mag,-34.8,-25.5,51.0,10.0,0.0,0.0,0.0,10.0,0.0,0.0,0.0,10.0
1446039184335318994,523,1446039184323307037,robocape_mag,-35.1,-24.6,51.9,10.0,0.0,0.0,0.0,10.0,0.0,0.0,0.0,10.0
1446039184361827494,524,1446039184356734991,robocape_mag,-35.1,-24.6,51.9,10.0,0.0,0.0,0.0,10.0,0.0,0.0,0.0,10.0
1446039184397546703,525,1446039184392370939,robocape_mag,-35.1,-24.6,51.9,10.0,0.0,0.0,0.0,10.0,0.0,0.0,0.0,10.0
1446039184429129911,526,1446039184424052000,robocape_mag,-35.1,-24.6,51.9,10.0,0.0,0.0,0.0,10.0,0.0,0.0,0.0,10.0
1446039184462354661,527,1446039184456872940,robocape_mag,-35.1,-24.6,51.9,10.0,0.0,0.0,0.0,10.0,0.0,0.0,0.0,10.0
1446039184494815619,528,1446039184489996910,robocape_mag,-34.5,-25.8,50.7,10.0,0.0,0.0,0.0,10.0,0.0,0.0,0.0,10.0
