%time,field.header.seq,field.header.stamp,field.header.frame_id,field.magnetic_field.x,field.magnetic_field.y,field.magnetic_field.z,field.magnetic_field_covariance0,field.magnetic_field_covariance1,field.magnetic_field_covariance2,field.magnetic_field_covariance3,field.magnetic_field_covariance4,field.magnetic_field_covariance5,field.magnetic_field_covariance6,field.magnetic_field_covariance7,field.magnetic_field_covariance8
1446035887313149185,1,1446035886954495906,robocape_mag,11.7,-16.95,18.75,10.0,0.0,0.0,0.0,10.0,0.0,0.0,0.0,10.0
1446035887316134727,2,1446035886981481075,robocape_mag,12.6,-16.65,20.25,10.0,0.0,0.0,0.0,10.0,0.0,0.0,0.0,10.0
1446035887316171019,3,1446035887012852907,robocape_mag,12.6,-16.65,20.25,10.0,0.0,0.0,0.0,10.0,0.0,0.0,0.0,10.0
1446035887316271977,4,1446035887046925067,robocape_mag,12.6,-16.65,20.25,10.0,0.0,0.0,0.0,10.0,0.0,0.0,0.0,10.0
1446035887316426560,5,1446035887079576015,robocape_mag,12.6,-16.65,20.25,10.0,0.0,0.0,0.0,10.0,0.0,0.0,0.0,10.0
1446035887316567227,6,1446035887115380048,robocape_mag,12.6,-16.65,20.25,10.0,0.0,0.0,0.0,10.0,0.0,0.0,0.0,10.0
1446035887316633560,7,1446035887152237892,robocape_mag,13.2,-16.65,19.65,10.0,0.0,0.0,0.0,10.0,0.0,0.0,0.0,10.0
1446035887316694060,8,1446035887180454015,robocape_mag,13.2,-16.65,19.65,10.0,0.0,0.0,0.0,10.0,0.0,0.0,0.0,10.0
1446035887316790727,9,1446035887212956905,robocape_mag,13.2,-16.65,19.65,10.0,0.0,0.0,0.0,10.0,0.0,0.0,0.0,10.0
1446035887326876185,10,1446035887246968984,robocape_mag,13.2,-16.65,19.65,10.0,0.0,0.0,0.0,10.0,0.0,0.0,0.0,10.0
1446035887327094144,11,1446035887313397884,robocape_mag,13.2,-17.25,20.85,10.0,0.0,0.0,0.0,10.0,0.0,0.0,0.0,10.0
1446035887345967435,12,1446035887342649936,robocape_mag,13.2,-17.25,20.85,10.0,0.0,0.0,0.0,10.0,0.0,0.0,0.0,10.0
1446035887368978019,13,1446035887365678071,robocape_mag,13.2,-17.25,20.85,10.0,0.0,0.0,0.0,10.0,0.0,0.0,0.0,10.0
1446035887385622019,14,1446035887382335901,robocape_mag,13.2,-17.25,20.85,10.0,0.0,0.0,0.0,10.0,0.0,0.0,0.0,10.0
1446035887422559769,15,1446035887414184093,robocape_mag,13.2,-17.25,20.85,10.0,0.0,0.0,0.0,10.0,0.0,0.0,0.0,10.0
1446035887450441727,16,1446035887444742918,robocape_mag,13.2,-17.25,20.85,10.0,0.0,0.0,0.0,10.0,0.0,0.0,0.0,10.0
1446035887483102060,17,1446035887477936029,robocape_mag,12.3,-17.55,21.15,10.0,0.0,0.0,0.0,10.0,0.0,0.0,0.0,10.0
1446035887516905519,18,1446035887511495113,robocape_mag,12.3,-17.55,21.15,10.0,0.0,0.0,0.0,10.0,0.0,0.0,0.0,10.0
1446035887550335685,19,1446035887544590950,robocape_mag,12.3,-17.55,21.15,10.0,0.0,0.0,0.0,10.0,0.0,0.0,0.0,10.0
1446035887585093227,20,1446035887577967882,robocape_mag,12.3,-17.55,21.15,10.0,0.0,0.0,0.0,10.0,0.0,0.0,0.0,10.0
1446035887616876185,21,1446035887611449956,robocape_mag,12.3,-17.55,21.15,10.0,0.0,0.0,0.0,10.0,0.0,0.0,0.0,10.0
1446035887650039310,22,1446035887644802093,robocape_mag,13.5,-18.15,19.95,10.0,0.0,0.0,0.0,10.0,0.0,0.0,0.0,10.0
1446035887683561394,23,1446035887678098917,robocape_mag,13.5,-18.15,19.95,10.0,0.0,0.0,0.0,10.0,0.0,0.0,0.0,10.0
1446035887716502935,24,1446035887711369991,robocape_mag,13.5,-18.15,19.95,10.0,0.0,0.0,0.0,10.0,0.0,0.0,0.0,10.0
1446035887750174019,25,1446035887744770050,robocape_mag,13.5,-18.15,19.95,10.0,0.0,0.0,0.0,10.0,0.0,0.0,0.0,10.0
1446035887785281852,26,1446035887778244018,robocape_mag,13.5,-16.35,20.55,10.0,0.0,0.0,0.0,10.0,0.0,0.0,0.0,10.0
1446035887816743269,27,1446035887811778068,robocape_mag,12.9,-16.35,20.55,10.0,0.0,0.0,0.0,10.0,0.0,0.0,0.0,10.0
1446035887849814352,28,1446035887844724893,robocape_mag,12.9,-16.35,20.55,10.0,0.0,0.0,0.0,10.0,0.0,0.0,0.0,10.0
1446035887883522061,29,1446035887878166913,robocape_mag,12.9,-16.35,20.55,10.0,0.0,0.0,0.0,10.0,0.0,0.0,0.0,10.0
1446035887916704936,30,1446035887911825895,robocape_mag,12.9,-16.35,20.55,10.0,0.0,0.0,0.0,10.0,0.0,0.0,0.0,10.0
1446035887949639019,31,1446035887944674968,robocape_mag,12.3,-18.75,20.55,10.0,0.0,0.0,0.0,10.0,0.0,0.0,0.0,10.0
1446035887983429561,32,1446035887978063106,robocape_mag,12.3,-18.75,20.55,10.0,0.0,0.0,0.0,10.0,0.0,0.0,0.0,10.0
1446035888017986561,33,1446035888012748956,robocape_mag,12.3,-18.75,20.55,10.0,0.0,0.0,0.0,10.0,0.0,0.0,0.0,10.0
1446035888050596811,34,1446035888044779062,robocape_mag,12.3,-18.75,20.55,10.0,0.0,0.0,0.0,10.0,0.0,0.0,0.0,10.0
1446035888084477436,35,1446035888079256057,robocape_mag,12.3,-18.75,20.55,10.0,0.0,0.0,0.0,10.0,0.0,0.0,0.0,10.0
1446035888117517644,36,1446035888112715005,robocape_mag,11.7,-17.55,19.95,10.0,0.0,0.0,0.0,10.0,0.0,0.0,0.0,10.0
1446035888152036477,37,1446035888146559000,robocape_mag,11.7,-17.55,19.95,10.0,0.0,0.0,0.0,10.0,0.0,0.0,0.0,10.0
1446035888185537477,38,1446035888179972887,robocape_mag,11.7,-17.55,19.95,10.0,0.0,0.0,0.0,10.0,0.0,0.0,0.0,10.0
1446035888218334727,39,1446035888212920904,robocape_mag,11.7,-17.55,19.95,10.0,0.0,0.0,0.0,10.0,0.0,0.0,0.0,10.0
1446035888254316061,40,1446035888248409986,robocape_mag,11.7,-17.55,19.95,10.0,0.0,0.0,0.0,10.0,0.0,0.0,0.0,10.0
1446035888294548019,41,1446035888280034065,robocape_mag,12.9,-16.35,18.75,10.0,0.0,0.0,0.0,10.0,0.0,0.0,0.0,10.0
1446035888326092477,42,1446035888319407939,robocape_mag,12.9,-16.35,18.75,10.0,0.0,0.0,0.0,10.0,0.0,0.0,0.0,10.0
1446035888355516894,43,1446035888347866058,robocape_mag,12.9,-16.35,18.75,10.0,0.0,0.0,0.0,10.0,0.0,0.0,0.0,10.0
1446035888390144519,44,1446035888380969047,robocape_mag,12.9,-16.35,18.75,10.0,0.0,0.0,0.0,10.0,0.0,0.0,0.0,10.0
1446035888420150436,45,1446035888413448095,robocape_mag,12.9,-16.35,18.75,10.0,0.0,0.0,0.0,10.0,0.0,0.0,0.0,10.0
1446035888454846227,46,1446035888449620962,robocape_mag,12.0,-17.25,19.65,10.0,0.0,0.0,0.0,10.0,0.0,0.0,0.0,10.0
1446035888488097227,47,1446035888481504917,robocape_mag,12.0,-17.25,19.65,10.0,0.0,0.0,0.0,10.0,0.0,0.0,0.0,10.0
1446035888520675311,48,1446035888512701988,robocape_mag,12.0,-17.25,19.65,10.0,0.0,0.0,0.0,10.0,0.0,0.0,0.0,10.0
1446035888554639269,49,1446035888549273014,robocape_mag,12.0,-17.25,19.65,10.0,0.0,0.0,0.0,10.0,0.0,0.0,0.0,10.0
1446035888591568019,50,1446035888581348896,robocape_mag,12.0,-18.15,19.35,10.0,0.0,0.0,0.0,10.0,0.0,0.0,0.0,10.0
1446035888623305103,51,1446035888613953113,robocape_mag,12.3,-18.15,19.35,10.0,0.0,0.0,0.0,10.0,0.0,0.0,0.0,10.0
1446035888655031769,52,1446035888648303985,robocape_mag,12.3,-18.15,19.35,10.0,0.0,0.0,0.0,10.0,0.0,0.0,0.0,10.0
1446035888691338936,53,1446035888681770086,robocape_mag,12.3,-18.15,19.35,10.0,0.0,0.0,0.0,10.0,0.0,0.0,0.0,10.0
1446035888724437519,54,1446035888714993000,robocape_mag,12.3,-18.15,19.35,10.0,0.0,0.0,0.0,10.0,0.0,0.0,0.0,10.0
1446035888753264436,55,1446035888748220920,robocape_mag,11.4,-16.65,20.25,10.0,0.0,0.0,0.0,10.0,0.0,0.0,0.0,10.0
1446035888787862144,56,1446035888780565023,robocape_mag,11.4,-16.65,20.25,10.0,0.0,0.0,0.0,10.0,0.0,0.0,0.0,10.0
1446035888820675561,57,1446035888815112113,robocape_mag,11.4,-16.65,20.25,10.0,0.0,0.0,0.0,10.0,0.0,0.0,0.0,10.0
1446035888853043478,58,1446035888847995996,robocape_mag,11.4,-16.65,20.25,10.0,0.0,0.0,0.0,10.0,0.0,0.0,0.0,10.0
1446035888887686519,59,1446035888881478071,robocape_mag,11.4,-16.65,20.25,10.0,0.0,0.0,0.0,10.0,0.0,0.0,0.0,10.0
1446035888920235561,60,1446035888914901971,robocape_mag,12.0,-16.65,20.25,10.0,0.0,0.0,0.0,10.0,0.0,0.0,0.0,10.0
1446035888952391186,61,1446035888947534084,robocape_mag,12.0,-16.65,20.25,10.0,0.0,0.0,0.0,10.0,0.0,0.0,0.0,10.0
1446035888982926269,62,1446035888977936983,robocape_mag,12.0,-16.65,20.25,10.0,0.0,0.0,0.0,10.0,0.0,0.0,0.0,10.0
1446035889018396269,63,1446035889011756896,robocape_mag,12.0,-16.65,20.25,10.0,0.0,0.0,0.0,10.0,0.0,0.0,0.0,10.0
1446035889049993478,64,1446035889045098066,robocape_mag,12.0,-16.65,20.25,10.0,0.0,0.0,0.0,10.0,0.0,0.0,0.0,10.0
1446035889084401103,65,1446035889078144073,robocape_mag,14.4,-18.45,18.45,10.0,0.0,0.0,0.0,10.0,0.0,0.0,0.0,10.0
1446035889116580811,66,1446035889111310958,robocape_mag,14.4,-18.45,18.45,10.0,0.0,0.0,0.0,10.0,0.0,0.0,0.0,10.0
1446035889150333686,67,1446035889145514011,robocape_mag,14.4,-18.45,18.45,10.0,0.0,0.0,0.0,10.0,0.0,0.0,0.0,10.0
1446035889182924394,68,1446035889178083896,robocape_mag,14.4,-18.45,18.45,10.0,0.0,0.0,0.0,10.0,0.0,0.0,0.0,10.0
1446035889217586269,69,1446035889211816072,robocape_mag,14.4,-18.45,18.45,10.0,0.0,0.0,0.0,10.0,0.0,0.0,0.0,10.0
1446035889251172770,70,1446035889246197938,robocape_mag,13.2,-16.05,20.85,10.0,0.0,0.0,0.0,10.0,0.0,0.0,0.0,10.0
1446035889296856436,71,1446035889279613018,robocape_mag,13.2,-16.05,20.85,10.0,0.0,0.0,0.0,10.0,0.0,0.0,0.0,10.0
1446035889323294728,72,1446035889317850112,robocape_mag,13.2,-16.05,20.85,10.0,0.0,0.0,0.0,10.0,0.0,0.0,0.0,10.0
1446035889350161353,73,1446035889345299959,robocape_mag,13.2,-16.05,20.85,10.0,0.0,0.0,0.0,10.0,0.0,0.0,0.0,10.0
1446035889384837811,74,1446035889379909992,robocape_mag,13.2,-16.95,19.95,10.0,0.0,0.0,0.0,10.0,0.0,0.0,0.0,10.0
1446035889424040603,75,1446035889416949987,robocape_mag,12.3,-16.95,19.95,10.0,0.0,0.0,0.0,10.0,0.0,0.0,0.0,10.0
1446035889453678436,76,1446035889446609020,robocape_mag,12.3,-16.95,19.95,10.0,0.0,0.0,0.0,10.0,0.0,0.0,0.0,10.0
1446035889486703145,77,1446035889480828046,robocape_mag,12.3,-16.95,19.95,10.0,0.0,0.0,0.0,10.0,0.0,0.0,0.0,10.0
1446035889523448645,78,1446035889515470027,robocape_mag,12.3,-16.95,19.95,10.0,0.0,0.0,0.0,10.0,0.0,0.0,0.0,10.0
1446035889557159936,79,1446035889547740936,robocape_mag,15.9,-21.15,17.55,10.0,0.0,0.0,0.0,10.0,0.0,0.0,0.0,10.0
1446035889590158895,80,1446035889581912994,robocape_mag,15.9,-21.15,17.55,10.0,0.0,0.0,0.0,10.0,0.0,0.0,0.0,10.0
1446035889619013061,81,1446035889613500118,robocape_mag,15.9,-21.15,17.55,10.0,0.0,0.0,0.0,10.0,0.0,0.0,0.0,10.0
1446035889654973145,82,1446035889649503946,robocape_mag,15.9,-21.15,17.55,10.0,0.0,0.0,0.0,10.0,0.0,0.0,0.0,10.0
1446035889690802311,83,1446035889680984020,robocape_mag,15.9,-21.15,17.55,10.0,0.0,0.0,0.0,10.0,0.0,0.0,0.0,10.0
1446035889720620228,84,1446035889714546918,robocape_mag,13.5,-18.15,16.35,10.0,0.0,0.0,0.0,10.0,0.0,0.0,0.0,10.0
1446035889758102436,85,1446035889749069929,robocape_mag,13.5,-18.15,16.35,10.0,0.0,0.0,0.0,10.0,0.0,0.0,0.0,10.0
1446035889791152270,86,1446035889782685041,robocape_mag,13.5,-18.15,16.35,10.0,0.0,0.0,0.0,10.0,0.0,0.0,0.0,10.0
1446035889821367186,87,1446035889815937042,robocape_mag,13.5,-18.15,16.35,10.0,0.0,0.0,0.0,10.0,0.0,0.0,0.0,10.0
1446035889855251145,88,1446035889848026990,robocape_mag,13.5,-18.15,16.35,10.0,0.0,0.0,0.0,10.0,0.0,0.0,0.0,10.0
1446035889887663728,89,1446035889882723093,robocape_mag,14.1,-19.35,18.15,10.0,0.0,0.0,0.0,10.0,0.0,0.0,0.0,10.0
1446035889924173686,90,1446035889916121959,robocape_mag,14.1,-19.35,18.15,10.0,0.0,0.0,0.0,10.0,0.0,0.0,0.0,10.0
1446035889953473437,91,1446035889948293924,robocape_mag,14.1,-19.35,18.15,10.0,0.0,0.0,0.0,10.0,0.0,0.0,0.0,10.0
1446035889990095145,92,1446035889980650901,robocape_mag,14.1,-19.35,18.15,10.0,0.0,0.0,0.0,10.0,0.0,0.0,0.0,10.0
1446035890019255020,93,1446035890014175891,robocape_mag,14.1,-19.35,18.15,10.0,0.0,0.0,0.0,10.0,0.0,0.0,0.0,10.0
1446035890052689103,94,1446035890047724962,robocape_mag,12.9,-18.15,18.15,10.0,0.0,0.0,0.0,10.0,0.0,0.0,0.0,10.0
1446035890086275645,95,1446035890081316947,robocape_mag,12.9,-18.15,18.15,10.0,0.0,0.0,0.0,10.0,0.0,0.0,0.0,10.0
1446035890118805187,96,1446035890114002943,robocape_mag,12.9,-18.15,18.15,10.0,0.0,0.0,0.0,10.0,0.0,0.0,0.0,10.0
1446035890152425562,97,1446035890147407054,robocape_mag,12.9,-18.15,18.15,10.0,0.0,0.0,0.0,10.0,0.0,0.0,0.0,10.0
1446035890185341228,98,1446035890180424928,robocape_mag,14.1,-19.95,16.95,10.0,0.0,0.0,0.0,10.0,0.0,0.0,0.0,10.0
1446035890218665478,99,1446035890213650941,robocape_mag,14.1,-19.95,16.95,10.0,0.0,0.0,0.0,10.0,0.0,0.0,0.0,10.0
1446035890251377895,100,1446035890246530055,robocape_mag,14.1,-19.95,16.95,10.0,0.0,0.0,0.0,10.0,0.0,0.0,0.0,10.0
1446035890292948103,101,1446035890279597997,robocape_mag,14.1,-19.95,16.95,10.0,0.0,0.0,0.0,10.0,0.0,0.0,0.0,10.0
1446035890319048895,102,1446035890314189910,robocape_mag,14.1,-19.95,16.95,10.0,0.0,0.0,0.0,10.0,0.0,0.0,0.0,10.0
1446035890351280062,103,1446035890346358060,robocape_mag,12.3,-16.35,19.95,10.0,0.0,0.0,0.0,10.0,0.0,0.0,0.0,10.0
1446035890383632812,104,1446035890378436088,robocape_mag,12.3,-16.35,19.95,10.0,0.0,0.0,0.0,10.0,0.0,0.0,0.0,10.0
1446035890416487603,105,1446035890411652088,robocape_mag,12.3,-16.35,19.95,10.0,0.0,0.0,0.0,10.0,0.0,0.0,0.0,10.0
1446035890450559145,106,1446035890445688009,robocape_mag,12.3,-16.35,19.95,10.0,0.0,0.0,0.0,10.0,0.0,0.0,0.0,10.0
1446035890483557478,107,1446035890478303909,robocape_mag,12.3,-16.35,19.95,10.0,0.0,0.0,0.0,10.0,0.0,0.0,0.0,10.0
1446035890516525228,108,1446035890511677026,robocape_mag,13.2,-18.45,19.65,10.0,0.0,0.0,0.0,10.0,0.0,0.0,0.0,10.0
1446035890549904062,109,1446035890545066118,robocape_mag,13.2,-18.45,19.65,10.0,0.0,0.0,0.0,10.0,0.0,0.0,0.0,10.0
1446035890583201645,110,1446035890578150987,robocape_mag,13.2,-18.45,19.65,10.0,0.0,0.0,0.0,10.0,0.0,0.0,0.0,10.0
1446035890616457062,111,1446035890611500024,robocape_mag,13.2,-18.45,19.65,10.0,0.0,0.0,0.0,10.0,0.0,0.0,0.0,10.0
1446035890649744770,112,1446035890644951105,robocape_mag,13.2,-18.45,19.65,10.0,0.0,0.0,0.0,10.0,0.0,0.0,0.0,10.0
1446035890683197562,113,1446035890678200006,robocape_mag,13.5,-18.75,17.55,10.0,0.0,0.0,0.0,10.0,0.0,0.0,0.0,10.0
1446035890716358937,114,1446035890711584091,robocape_mag,13.5,-18.75,17.55,10.0,0.0,0.0,0.0,10.0,0.0,0.0,0.0,10.0
1446035890749701270,115,1446035890744810104,robocape_mag,13.5,-18.75,17.55,10.0,0.0,0.0,0.0,10.0,0.0,0.0,0.0,10.0
1446035890783355229,116,1446035890778250932,robocape_mag,13.5,-18.75,17.55,10.0,0.0,0.0,0.0,10.0,0.0,0.0,0.0,10.0
1446035890816493395,117,1446035890811662912,robocape_mag,13.5,-18.75,17.55,10.0,0.0,0.0,0.0,10.0,0.0,0.0,0.0,10.0
1446035890849857479,118,1446035890845029115,robocape_mag,13.8,-18.45,17.25,10.0,0.0,0.0,0.0,10.0,0.0,0.0,0.0,10.0
1446035890883840395,119,1446035890878777980,robocape_mag,13.8,-18.45,17.25,10.0,0.0,0.0,0.0,10.0,0.0,0.0,0.0,10.0
1446035890916224104,120,1446035890911433935,robocape_mag,13.8,-18.45,17.25,10.0,0.0,0.0,0.0,10.0,0.0,0.0,0.0,10.0
1446035890949724895,121,1446035890944963932,robocape_mag,13.8,-18.45,17.25,10.0,0.0,0.0,0.0,10.0,0.0,0.0,0.0,10.0
1446035890983479145,122,1446035890978188037,robocape_mag,13.8,-18.45,18.45,10.0,0.0,0.0,0.0,10.0,0.0,0.0,0.0,10.0
1446035891017251354,123,1446035891011394977,robocape_mag,15.0,-19.65,18.45,10.0,0.0,0.0,0.0,10.0,0.0,0.0,0.0,10.0
1446035891049368187,124,1446035891044594049,robocape_mag,15.0,-19.65,18.45,10.0,0.0,0.0,0.0,10.0,0.0,0.0,0.0,10.0
1446035891087502520,125,1446035891082446098,robocape_mag,15.0,-19.65,18.45,10.0,0.0,0.0,0.0,10.0,0.0,0.0,0.0,10.0
1446035891120062354,126,1446035891114891052,robocape_mag,15.0,-19.65,18.45,10.0,0.0,0.0,0.0,10.0,0.0,0.0,0.0,10.0
1446035891153366687,127,1446035891148185968,robocape_mag,13.2,-3.45,-3.75,10.0,0.0,0.0,0.0,10.0,0.0,0.0,0.0,10.0
1446035891189319854,128,1446035891180754899,robocape_mag,13.2,-3.45,-3.75,10.0,0.0,0.0,0.0,10.0,0.0,0.0,0.0,10.0
1446035891219579437,129,1446035891214734077,robocape_mag,13.2,-3.45,-3.75,10.0,0.0,0.0,0.0,10.0,0.0,0.0,0.0,10.0
1446035891252689062,130,1446035891247824907,robocape_mag,13.2,-3.45,-3.75,10.0,0.0,0.0,0.0,10.0,0.0,0.0,0.0,10.0
1446035891294785895,131,1446035891283590078,robocape_mag,13.2,-3.45,-3.75,10.0,0.0,0.0,0.0,10.0,0.0,0.0,0.0,10.0
1446035891319249729,132,1446035891314294099,robocape_mag,17.7,-3.75,15.75,10.0,0.0,0.0,0.0,10.0,0.0,0.0,0.0,10.0
1446035891352289646,133,1446035891347423076,robocape_mag,17.7,-3.75,15.75,10.0,0.0,0.0,0.0,10.0,0.0,0.0,0.0,10.0
1446035891385211062,134,1446035891380075931,robocape_mag,17.7,-3.75,15.75,10.0,0.0,0.0,0.0,10.0,0.0,0.0,0.0,10.0
1446035891418031437,135,1446035891413176059,robocape_mag,17.7,-3.75,15.75,10.0,0.0,0.0,0.0,10.0,0.0,0.0,0.0,10.0
1446035891451907979,136,1446035891446964979,robocape_mag,17.7,-3.75,15.75,10.0,0.0,0.0,0.0,10.0,0.0,0.0,0.0,10.0
1446035891483769229,137,1446035891478704929,robocape_mag,31.8,0.75,-7.35,10.0,0.0,0.0,0.0,10.0,0.0,0.0,0.0,10.0
1446035891517438896,138,1446035891512176036,robocape_mag,31.8,0.75,-7.35,10.0,0.0,0.0,0.0,10.0,0.0,0.0,0.0,10.0
1446035891551058771,139,1446035891546106100,robocape_mag,31.8,0.75,-7.35,10.0,0.0,0.0,0.0,10.0,0.0,0.0,0.0,10.0
1446035891583836312,140,1446035891578896999,robocape_mag,31.8,0.75,-7.35,10.0,0.0,0.0,0.0,10.0,0.0,0.0,0.0,10.0
1446035891616614937,141,1446035891611787080,robocape_mag,31.8,0.75,-7.35,10.0,0.0,0.0,0.0,10.0,0.0,0.0,0.0,10.0
1446035891650325604,142,1446035891645340919,robocape_mag,33.3,-0.15,-1.65,10.0,0.0,0.0,0.0,10.0,0.0,0.0,0.0,10.0
1446035891683274979,143,1446035891678107023,robocape_mag,33.3,-0.15,-1.65,10.0,0.0,0.0,0.0,10.0,0.0,0.0,0.0,10.0
1446035891716344937,144,1446035891711471080,robocape_mag,33.3,-0.15,-1.65,10.0,0.0,0.0,0.0,10.0,0.0,0.0,0.0,10.0
1446035891749677937,145,1446035891744906902,robocape_mag,33.3,-0.15,-1.65,10.0,0.0,0.0,0.0,10.0,0.0,0.0,0.0,10.0
1446035891783450979,146,1446035891778584957,robocape_mag,33.3,-0.15,-19.95,10.0,0.0,0.0,0.0,10.0,0.0,0.0,0.0,10.0
1446035891816800771,147,1446035891812000989,robocape_mag,42.0,-11.85,-19.95,10.0,0.0,0.0,0.0,10.0,0.0,0.0,0.0,10.0
1446035891849942271,148,1446035891845128059,robocape_mag,42.0,-11.85,-19.95,10.0,0.0,0.0,0.0,10.0,0.0,0.0,0.0,10.0
1446035891882993812,149,1446035891878179073,robocape_mag,42.0,-11.85,-19.95,10.0,0.0,0.0,0.0,10.0,0.0,0.0,0.0,10.0
1446035891916736354,150,1446035891911787986,robocape_mag,42.0,-11.85,-19.95,10.0,0.0,0.0,0.0,10.0,0.0,0.0,0.0,10.0
1446035891950178937,151,1446035891945224046,robocape_mag,39.9,-15.75,-19.05,10.0,0.0,0.0,0.0,10.0,0.0,0.0,0.0,10.0
1446035891983261854,152,1446035891978414058,robocape_mag,39.9,-15.75,-19.05,10.0,0.0,0.0,0.0,10.0,0.0,0.0,0.0,10.0
1446035892016671729,153,1446035892011662960,robocape_mag,39.9,-15.75,-19.05,10.0,0.0,0.0,0.0,10.0,0.0,0.0,0.0,10.0
1446035892050090396,154,1446035892045062065,robocape_mag,39.9,-15.75,-19.05,10.0,0.0,0.0,0.0,10.0,0.0,0.0,0.0,10.0
1446035892083337771,155,1446035892078496932,robocape_mag,39.9,-15.75,-19.05,10.0,0.0,0.0,0.0,10.0,0.0,0.0,0.0,10.0
1446035892116393521,156,1446035892111529111,robocape_mag,33.3,-13.35,-8.85,10.0,0.0,0.0,0.0,10.0,0.0,0.0,0.0,10.0
1446035892150166313,157,1446035892144892930,robocape_mag,33.3,-13.35,-8.85,10.0,0.0,0.0,0.0,10.0,0.0,0.0,0.0,10.0
1446035892183036521,158,1446035892178096055,robocape_mag,33.3,-13.35,-8.85,10.0,0.0,0.0,0.0,10.0,0.0,0.0,0.0,10.0
1446035892217256188,159,1446035892211327075,robocape_mag,33.3,-13.35,-8.85,10.0,0.0,0.0,0.0,10.0,0.0,0.0,0.0,10.0
1446035892250298146,160,1446035892244904041,robocape_mag,33.3,-13.35,-8.85,10.0,0.0,0.0,0.0,10.0,0.0,0.0,0.0,10.0
1446035892288673563,161,1446035892278325080,robocape_mag,26.4,14.55,-0.75,10.0,0.0,0.0,0.0,10.0,0.0,0.0,0.0,10.0
1446035892317956938,162,1446035892312521934,robocape_mag,26.4,14.55,-0.75,10.0,0.0,0.0,0.0,10.0,0.0,0.0,0.0,10.0
1446035892350552896,163,1446035892345144987,robocape_mag,26.4,14.55,-0.75,10.0,0.0,0.0,0.0,10.0,0.0,0.0,0.0,10.0
1446035892383354813,164,1446035892378259897,robocape_mag,26.4,14.55,-0.75,10.0,0.0,0.0,0.0,10.0,0.0,0.0,0.0,10.0
1446035892416782271,165,1446035892411493062,robocape_mag,26.4,14.55,-0.75,10.0,0.0,0.0,0.0,10.0,0.0,0.0,0.0,10.0
1446035892449906229,166,1446035892444895982,robocape_mag,31.5,24.45,-13.05,10.0,0.0,0.0,0.0,10.0,0.0,0.0,0.0,10.0
1446035892482829438,167,1446035892477937936,robocape_mag,31.5,24.45,-13.05,10.0,0.0,0.0,0.0,10.0,0.0,0.0,0.0,10.0
1446035892516442229,168,1446035892511416912,robocape_mag,31.5,24.45,-13.05,10.0,0.0,0.0,0.0,10.0,0.0,0.0,0.0,10.0
1446035892549818979,169,1446035892544658899,robocape_mag,31.5,24.45,-13.05,10.0,0.0,0.0,0.0,10.0,0.0,0.0,0.0,10.0
1446035892583626771,170,1446035892578862905,robocape_mag,31.5,76.35,-9.15,10.0,0.0,0.0,0.0,10.0,0.0,0.0,0.0,10.0
1446035892616499438,171,1446035892611555099,robocape_mag,25.8,-0.45,-9.15,10.0,0.0,0.0,0.0,10.0,0.0,0.0,0.0,10.0
1446035892650086688,172,1446035892645029067,robocape_mag,25.8,-0.45,-9.15,10.0,0.0,0.0,0.0,10.0,0.0,0.0,0.0,10.0
1446035892683152688,173,1446035892678267955,robocape_mag,25.8,-0.45,-9.15,10.0,0.0,0.0,0.0,10.0,0.0,0.0,0.0,10.0
1446035892717796396,174,1446035892712899923,robocape_mag,25.8,-0.45,-9.15,10.0,0.0,0.0,0.0,10.0,0.0,0.0,0.0,10.0
1446035892753669563,175,1446035892746613979,robocape_mag,24.0,19.95,-14.55,10.0,0.0,0.0,0.0,10.0,0.0,0.0,0.0,10.0
1446035892785662271,176,1446035892779776096,robocape_mag,24.0,19.95,-14.55,10.0,0.0,0.0,0.0,10.0,0.0,0.0,0.0,10.0
1446035892816887313,177,1446035892812045097,robocape_mag,24.0,19.95,-14.55,10.0,0.0,0.0,0.0,10.0,0.0,0.0,0.0,10.0
1446035892852389688,178,1446035892847232103,robocape_mag,24.0,19.95,-14.55,10.0,0.0,0.0,0.0,10.0,0.0,0.0,0.0,10.0
1446035892889881355,179,1446035892883492946,robocape_mag,24.0,19.95,-14.55,10.0,0.0,0.0,0.0,10.0,0.0,0.0,0.0,10.0
1446035892918127688,180,1446035892913217067,robocape_mag,15.6,2.55,-10.95,10.0,0.0,0.0,0.0,10.0,0.0,0.0,0.0,10.0
1446035892951867813,181,1446035892946991920,robocape_mag,15.6,2.55,-10.95,10.0,0.0,0.0,0.0,10.0,0.0,0.0,0.0,10.0
1446035892987237646,182,1446035892982382059,robocape_mag,15.6,2.55,-10.95,10.0,0.0,0.0,0.0,10.0,0.0,0.0,0.0,10.0
1446035893020548730,183,1446035893015541076,robocape_mag,15.6,2.55,-10.95,10.0,0.0,0.0,0.0,10.0,0.0,0.0,0.0,10.0
1446035893060246646,184,1446035893048418998,robocape_mag,15.6,2.55,-10.95,10.0,0.0,0.0,0.0,10.0,0.0,0.0,0.0,10.0
1446035893088212896,185,1446035893080852031,robocape_mag,3.9,5.25,10.35,10.0,0.0,0.0,0.0,10.0,0.0,0.0,0.0,10.0
1446035893119612355,186,1446035893114571094,robocape_mag,3.9,5.25,10.35,10.0,0.0,0.0,0.0,10.0,0.0,0.0,0.0,10.0
1446035893154099313,187,1446035893148370981,robocape_mag,3.9,5.25,10.35,10.0,0.0,0.0,0.0,10.0,0.0,0.0,0.0,10.0
1446035893187550605,188,1446035893181097030,robocape_mag,3.9,5.25,10.35,10.0,0.0,0.0,0.0,10.0,0.0,0.0,0.0,10.0
1446035893220264188,189,1446035893215040922,robocape_mag,3.9,5.25,10.35,10.0,0.0,0.0,0.0,10.0,0.0,0.0,0.0,10.0
1446035893258108646,190,1446035893249294042,robocape_mag,4.2,-7.65,2.85,10.0,0.0,0.0,0.0,10.0,0.0,0.0,0.0,10.0
1446035893294958021,191,1446035893283543109,robocape_mag,4.2,-7.65,2.85,10.0,0.0,0.0,0.0,10.0,0.0,0.0,0.0,10.0
1446035893321037105,192,1446035893315949916,robocape_mag,4.2,-7.65,2.85,10.0,0.0,0.0,0.0,10.0,0.0,0.0,0.0,10.0
1446035893353975188,193,1446035893348947048,robocape_mag,4.2,-7.65,2.85,10.0,0.0,0.0,0.0,10.0,0.0,0.0,0.0,10.0
1446035893386589980,194,1446035893381536960,robocape_mag,-5.7,-0.75,16.95,10.0,0.0,0.0,0.0,10.0,0.0,0.0,0.0,10.0
1446035893425172230,195,1446035893414932012,robocape_mag,-5.7,-0.75,16.95,10.0,0.0,0.0,0.0,10.0,0.0,0.0,0.0,10.0
1446035893453003313,196,1446035893448062896,robocape_mag,-5.7,-0.75,16.95,10.0,0.0,0.0,0.0,10.0,0.0,0.0,0.0,10.0
1446035893486351063,197,1446035893481518030,robocape_mag,-5.7,-0.75,16.95,10.0,0.0,0.0,0.0,10.0,0.0,0.0,0.0,10.0
1446035893519851313,198,1446035893514903068,robocape_mag,-5.7,-0.75,16.95,10.0,0.0,0.0,0.0,10.0,0.0,0.0,0.0,10.0
1446035893553920188,199,1446035893549021005,robocape_mag,0.0,-16.65,-0.15,10.0,0.0,0.0,0.0,10.0,0.0,0.0,0.0,10.0
1446035893586042980,200,1446035893581058025,robocape_mag,0.0,-16.65,-0.15,10.0,0.0,0.0,0.0,10.0,0.0,0.0,0.0,10.0
1446035893618808897,201,1446035893613996028,robocape_mag,0.0,-16.65,-0.15,10.0,0.0,0.0,0.0,10.0,0.0,0.0,0.0,10.0
1446035893653975147,202,1446035893648837089,robocape_mag,0.0,-16.65,-0.15,10.0,0.0,0.0,0.0,10.0,0.0,0.0,0.0,10.0
1446035893685941605,203,1446035893681138992,robocape_mag,0.0,-16.65,-0.15,10.0,0.0,0.0,0.0,10.0,0.0,0.0,0.0,10.0
1446035893718668772,204,1446035893713826894,robocape_mag,-2.4,-23.85,14.85,10.0,0.0,0.0,0.0,10.0,0.0,0.0,0.0,10.0
1446035893752014147,205,1446035893746887922,robocape_mag,-2.4,-23.85,14.85,10.0,0.0,0.0,0.0,10.0,0.0,0.0,0.0,10.0
1446035893784867980,206,1446035893779697895,robocape_mag,-2.4,-23.85,14.85,10.0,0.0,0.0,0.0,10.0,0.0,0.0,0.0,10.0
1446035893817982647,207,1446035893813193082,robocape_mag,-2.4,-23.85,14.85,10.0,0.0,0.0,0.0,10.0,0.0,0.0,0.0,10.0
1446035893854789522,208,1446035893846026897,robocape_mag,-2.4,-23.85,14.85,10.0,0.0,0.0,0.0,10.0,0.0,0.0,0.0,10.0
1446035893883569772,209,1446035893878407001,robocape_mag,9.3,-20.55,-8.85,10.0,0.0,0.0,0.0,10.0,0.0,0.0,0.0,10.0
1446035893916817730,210,1446035893911798000,robocape_mag,9.3,-20.55,-8.85,10.0,0.0,0.0,0.0,10.0,0.0,0.0,0.0,10.0
1446035893950489855,211,1446035893945420980,robocape_mag,9.3,-20.55,-8.85,10.0,0.0,0.0,0.0,10.0,0.0,0.0,0.0,10.0
1446035893983269605,212,1446035893978423118,robocape_mag,9.3,-20.55,-8.85,10.0,0.0,0.0,0.0,10.0,0.0,0.0,0.0,10.0
1446035894020808355,213,1446035894011770963,robocape_mag,9.3,-20.55,-8.85,10.0,0.0,0.0,0.0,10.0,0.0,0.0,0.0,10.0
1446035894050033355,214,1446035894045027971,robocape_mag,13.8,-31.65,-8.55,10.0,0.0,0.0,0.0,10.0,0.0,0.0,0.0,10.0
1446035894083086522,215,1446035894078272104,robocape_mag,13.8,-31.65,-8.55,10.0,0.0,0.0,0.0,10.0,0.0,0.0,0.0,10.0
1446035894116486563,216,1446035894111490011,robocape_mag,13.8,-31.65,-8.55,10.0,0.0,0.0,0.0,10.0,0.0,0.0,0.0,10.0
1446035894150527897,217,1446035894145488023,robocape_mag,13.8,-31.65,-8.55,10.0,0.0,0.0,0.0,10.0,0.0,0.0,0.0,10.0
1446035894187364147,218,1446035894178252935,robocape_mag,13.8,-31.65,-8.55,10.0,0.0,0.0,0.0,10.0,0.0,0.0,0.0,10.0
1446035894216874189,219,1446035894211445093,robocape_mag,21.0,-31.65,-8.55,10.0,0.0,0.0,0.0,10.0,0.0,0.0,0.0,10.0
1446035894250183230,220,1446035894245076894,robocape_mag,21.0,-31.65,-8.55,10.0,0.0,0.0,0.0,10.0,0.0,0.0,0.0,10.0
1446035894291357730,221,1446035894278597116,robocape_mag,21.0,-31.65,-8.55,10.0,0.0,0.0,0.0,10.0,0.0,0.0,0.0,10.0
1446035894318370022,222,1446035894313417911,robocape_mag,21.0,-31.65,-8.55,10.0,0.0,0.0,0.0,10.0,0.0,0.0,0.0,10.0
1446035894350145522,223,1446035894344969034,robocape_mag,24.6,-37.05,-6.15,10.0,0.0,0.0,0.0,10.0,0.0,0.0,0.0,10.0
1446035894383377272,224,1446035894378603935,robocape_mag,24.6,-37.05,-6.15,10.0,0.0,0.0,0.0,10.0,0.0,0.0,0.0,10.0
1446035894416812439,225,1446035894411670923,robocape_mag,24.6,-37.05,-6.15,10.0,0.0,0.0,0.0,10.0,0.0,0.0,0.0,10.0
1446035894450341897,226,1446035894444782018,robocape_mag,24.6,-37.05,-6.15,10.0,0.0,0.0,0.0,10.0,0.0,0.0,0.0,10.0
1446035894482895897,227,1446035894478045940,robocape_mag,24.6,-37.05,-6.15,10.0,0.0,0.0,0.0,10.0,0.0,0.0,0.0,10.0
1446035894516756189,228,1446035894511475086,robocape_mag,24.9,-36.75,9.15,10.0,0.0,0.0,0.0,10.0,0.0,0.0,0.0,10.0
1446035894552150439,229,1446035894544668912,robocape_mag,24.9,-36.75,9.15,10.0,0.0,0.0,0.0,10.0,0.0,0.0,0.0,10.0
1446035894584966355,230,1446035894578124046,robocape_mag,24.9,-36.75,9.15,10.0,0.0,0.0,0.0,10.0,0.0,0.0,0.0,10.0
1446035894616824272,231,1446035894611579895,robocape_mag,24.9,-36.75,9.15,10.0,0.0,0.0,0.0,10.0,0.0,0.0,0.0,10.0
1446035894650559897,232,1446035894644690990,robocape_mag,24.9,-36.75,9.15,10.0,0.0,0.0,0.0,10.0,0.0,0.0,0.0,10.0
1446035894683340689,233,1446035894678199052,robocape_mag,29.4,-31.05,11.85,10.0,0.0,0.0,0.0,10.0,0.0,0.0,0.0,10.0
1446035894718962730,234,1446035894711457967,robocape_mag,29.4,-31.05,11.85,10.0,0.0,0.0,0.0,10.0,0.0,0.0,0.0,10.0
1446035894752212314,235,1446035894744817972,robocape_mag,29.4,-31.05,11.85,10.0,0.0,0.0,0.0,10.0,0.0,0.0,0.0,10.0
1446035894784730897,236,1446035894778570890,robocape_mag,29.4,-31.05,11.85,10.0,0.0,0.0,0.0,10.0,0.0,0.0,0.0,10.0
1446035894816492230,237,1446035894811551094,robocape_mag,29.4,-31.05,11.85,10.0,0.0,0.0,0.0,10.0,0.0,0.0,0.0,10.0
1446035894850339814,238,1446035894844893932,robocape_mag,29.4,-30.45,10.65,10.0,0.0,0.0,0.0,10.0,0.0,0.0,0.0,10.0
1446035894883049439,239,1446035894878170013,robocape_mag,29.4,-30.45,10.65,10.0,0.0,0.0,0.0,10.0,0.0,0.0,0.0,10.0
1446035894916581189,240,1446035894911637067,robocape_mag,29.4,-30.45,10.65,10.0,0.0,0.0,0.0,10.0,0.0,0.0,0.0,10.0
1446035894952540064,241,1446035894944870948,robocape_mag,29.4,-30.45,10.65,10.0,0.0,0.0,0.0,10.0,0.0,0.0,0.0,10.0
1446035894982972564,242,1446035894978148937,robocape_mag,29.4,-30.45,7.95,10.0,0.0,0.0,0.0,10.0,0.0,0.0,0.0,10.0
1446035895017960106,243,1446035895011476993,robocape_mag,29.7,-33.15,7.95,10.0,0.0,0.0,0.0,10.0,0.0,0.0,0.0,10.0
1446035895052395856,244,1446035895045104026,robocape_mag,29.7,-33.15,7.95,10.0,0.0,0.0,0.0,10.0,0.0,0.0,0.0,10.0
1446035895084062231,245,1446035895079279899,robocape_mag,29.7,-33.15,7.95,10.0,0.0,0.0,0.0,10.0,0.0,0.0,0.0,10.0
1446035895118112314,246,1446035895112730026,robocape_mag,29.7,-33.15,7.95,10.0,0.0,0.0,0.0,10.0,0.0,0.0,0.0,10.0
1446035895152682356,247,1446035895146327018,robocape_mag,34.2,-33.45,-4.35,10.0,0.0,0.0,0.0,10.0,0.0,0.0,0.0,10.0
1446035895185470606,248,1446035895180593967,robocape_mag,34.2,-33.45,-4.35,10.0,0.0,0.0,0.0,10.0,0.0,0.0,0.0,10.0
1446035895218483314,249,1446035895212960958,robocape_mag,34.2,-33.45,-4.35,10.0,0.0,0.0,0.0,10.0,0.0,0.0,0.0,10.0
1446035895252144939,250,1446035895246423959,robocape_mag,34.2,-33.45,-4.35,10.0,0.0,0.0,0.0,10.0,0.0,0.0,0.0,10.0
1446035895294087939,251,1446035895281820058,robocape_mag,34.2,-33.45,-4.35,10.0,0.0,0.0,0.0,10.0,0.0,0.0,0.0,10.0
1446035895320849106,252,1446035895312352895,robocape_mag,29.7,-10.35,9.75,10.0,0.0,0.0,0.0,10.0,0.0,0.0,0.0,10.0
1446035895354429814,253,1446035895348432064,robocape_mag,29.7,-10.35,9.75,10.0,0.0,0.0,0.0,10.0,0.0,0.0,0.0,10.0
1446035895392193272,254,1446035895381309032,robocape_mag,29.7,-10.35,9.75,10.0,0.0,0.0,0.0,10.0,0.0,0.0,0.0,10.0
1446035895419796314,255,1446035895414810895,robocape_mag,29.7,-10.35,9.75,10.0,0.0,0.0,0.0,10.0,0.0,0.0,0.0,10.0
1446035895458988272,256,1446035895448843002,robocape_mag,29.7,-10.35,9.75,10.0,0.0,0.0,0.0,10.0,0.0,0.0,0.0,10.0
1446035895492306522,257,1446035895481693029,robocape_mag,32.4,-4.65,-7.35,10.0,0.0,0.0,0.0,10.0,0.0,0.0,0.0,10.0
1446035895524913648,258,1446035895513782978,robocape_mag,32.4,-4.65,-7.35,10.0,0.0,0.0,0.0,10.0,0.0,0.0,0.0,10.0
1446035895558581564,259,1446035895548782110,robocape_mag,32.4,-4.65,-7.35,10.0,0.0,0.0,0.0,10.0,0.0,0.0,0.0,10.0
1446035895587471564,260,1446035895582215070,robocape_mag,32.4,-4.65,-7.35,10.0,0.0,0.0,0.0,10.0,0.0,0.0,0.0,10.0
1446035895620345481,261,1446035895614824056,robocape_mag,32.4,-4.65,-7.35,10.0,0.0,0.0,0.0,10.0,0.0,0.0,0.0,10.0
1446035895660062689,262,1446035895649185895,robocape_mag,36.6,-20.85,-17.55,10.0,0.0,0.0,0.0,10.0,0.0,0.0,0.0,10.0
1446035895686031814,263,1446035895680922985,robocape_mag,36.6,-20.85,-17.55,10.0,0.0,0.0,0.0,10.0,0.0,0.0,0.0,10.0
1446035895726154106,264,1446035895715817928,robocape_mag,36.6,-20.85,-17.55,10.0,0.0,0.0,0.0,10.0,0.0,0.0,0.0,10.0
1446035895753998231,265,1446035895748689889,robocape_mag,36.6,-20.85,-17.55,10.0,0.0,0.0,0.0,10.0,0.0,0.0,0.0,10.0
1446035895788234773,266,1446035895782035112,robocape_mag,30.3,-24.75,2.55,10.0,0.0,0.0,0.0,10.0,0.0,0.0,0.0,10.0
1446035895821146148,267,1446035895814001083,robocape_mag,30.3,-24.75,2.55,10.0,0.0,0.0,0.0,10.0,0.0,0.0,0.0,10.0
1446035895856032189,268,1446035895847568988,robocape_mag,30.3,-24.75,2.55,10.0,0.0,0.0,0.0,10.0,0.0,0.0,0.0,10.0
1446035895885244023,269,1446035895880386114,robocape_mag,30.3,-24.75,2.55,10.0,0.0,0.0,0.0,10.0,0.0,0.0,0.0,10.0
1446035895918643939,270,1446035895913659095,robocape_mag,30.3,-24.75,2.55,10.0,0.0,0.0,0.0,10.0,0.0,0.0,0.0,10.0
1446035895953517731,271,1446035895947695970,robocape_mag,34.8,-23.25,-17.55,10.0,0.0,0.0,0.0,10.0,0.0,0.0,0.0,10.0
1446035895985454773,272,1446035895980606079,robocape_mag,34.8,-23.25,-17.55,10.0,0.0,0.0,0.0,10.0,0.0,0.0,0.0,10.0
1446035896020571189,273,1446035896014142036,robocape_mag,34.8,-23.25,-17.55,10.0,0.0,0.0,0.0,10.0,0.0,0.0,0.0,10.0
1446035896052595481,274,1446035896047195911,robocape_mag,34.8,-23.25,-17.55,10.0,0.0,0.0,0.0,10.0,0.0,0.0,0.0,10.0
1446035896084880981,275,1446035896079878091,robocape_mag,34.8,-23.25,-17.55,10.0,0.0,0.0,0.0,10.0,0.0,0.0,0.0,10.0
1446035896117101814,276,1446035896112087965,robocape_mag,33.3,-21.15,3.15,10.0,0.0,0.0,0.0,10.0,0.0,0.0,0.0,10.0
1446035896151083814,277,1446035896146049976,robocape_mag,33.3,-21.15,3.15,10.0,0.0,0.0,0.0,10.0,0.0,0.0,0.0,10.0
1446035896184465023,278,1446035896179434061,robocape_mag,33.3,-21.15,3.15,10.0,0.0,0.0,0.0,10.0,0.0,0.0,0.0,10.0
1446035896216904981,279,1446035896211735963,robocape_mag,33.3,-21.15,3.15,10.0,0.0,0.0,0.0,10.0,0.0,0.0,0.0,10.0
1446035896250437065,280,1446035896245399951,robocape_mag,33.3,-21.15,3.15,10.0,0.0,0.0,0.0,10.0,0.0,0.0,0.0,10.0
1446035896291197523,281,1446035896278819084,robocape_mag,33.6,-16.65,5.85,10.0,0.0,0.0,0.0,10.0,0.0,0.0,0.0,10.0
1446035896319271440,282,1446035896314135074,robocape_mag,33.6,-16.65,5.85,10.0,0.0,0.0,0.0,10.0,0.0,0.0,0.0,10.0
1446035896350279148,283,1446035896344912052,robocape_mag,33.6,-16.65,5.85,10.0,0.0,0.0,0.0,10.0,0.0,0.0,0.0,10.0
1446035896383099773,284,1446035896378161907,robocape_mag,33.6,-16.65,5.85,10.0,0.0,0.0,0.0,10.0,0.0,0.0,0.0,10.0
1446035896416291481,285,1446035896411429882,robocape_mag,33.6,-16.65,5.85,10.0,0.0,0.0,0.0,10.0,0.0,0.0,0.0,10.0
1446035896454582690,286,1446035896444751024,robocape_mag,37.5,-19.35,-21.45,10.0,0.0,0.0,0.0,10.0,0.0,0.0,0.0,10.0
1446035896483386023,287,1446035896478359937,robocape_mag,37.5,-19.35,-21.45,10.0,0.0,0.0,0.0,10.0,0.0,0.0,0.0,10.0
1446035896516190981,288,1446035896511399984,robocape_mag,37.5,-19.35,-21.45,10.0,0.0,0.0,0.0,10.0,0.0,0.0,0.0,10.0
1446035896554804773,289,1446035896544754028,robocape_mag,37.5,-19.35,-21.45,10.0,0.0,0.0,0.0,10.0,0.0,0.0,0.0,10.0
1446035896583364273,290,1446035896578325986,robocape_mag,37.5,-19.35,-18.75,10.0,0.0,0.0,0.0,10.0,0.0,0.0,0.0,10.0
1446035896616535190,291,1446035896611696004,robocape_mag,39.0,-21.45,-18.75,10.0,0.0,0.0,0.0,10.0,0.0,0.0,0.0,10.0
1446035896653319148,292,1446035896645015001,robocape_mag,39.0,-21.45,-18.75,10.0,0.0,0.0,0.0,10.0,0.0,0.0,0.0,10.0
1446035896685149065,293,1446035896678147077,robocape_mag,39.0,-21.45,-18.75,10.0,0.0,0.0,0.0,10.0,0.0,0.0,0.0,10.0
1446035896716710523,294,1446035896711908102,robocape_mag,39.0,-21.45,-18.75,10.0,0.0,0.0,0.0,10.0,0.0,0.0,0.0,10.0
1446035896752069565,295,1446035896746042966,robocape_mag,34.8,-22.05,-12.15,10.0,0.0,0.0,0.0,10.0,0.0,0.0,0.0,10.0
1446035896785493398,296,1446035896778326034,robocape_mag,34.8,-22.05,-12.15,10.0,0.0,0.0,0.0,10.0,0.0,0.0,0.0,10.0
1446035896816590815,297,1446035896811453104,robocape_mag,34.8,-22.05,-12.15,10.0,0.0,0.0,0.0,10.0,0.0,0.0,0.0,10.0
1446035896849870106,298,1446035896844731092,robocape_mag,34.8,-22.05,-12.15,10.0,0.0,0.0,0.0,10.0,0.0,0.0,0.0,10.0
1446035896885177356,299,1446035896878129959,robocape_mag,34.8,-22.05,-12.15,10.0,0.0,0.0,0.0,10.0,0.0,0.0,0.0,10.0
1446035896918018940,300,1446035896911298990,robocape_mag,37.8,-11.85,-28.35,10.0,0.0,0.0,0.0,10.0,0.0,0.0,0.0,10.0
1446035896949983190,301,1446035896944647073,robocape_mag,37.8,-11.85,-28.35,10.0,0.0,0.0,0.0,10.0,0.0,0.0,0.0,10.0
1446035896983361940,302,1446035896978192090,robocape_mag,37.8,-11.85,-28.35,10.0,0.0,0.0,0.0,10.0,0.0,0.0,0.0,10.0
1446035897016591732,303,1446035897011431932,robocape_mag,37.8,-11.85,-28.35,10.0,0.0,0.0,0.0,10.0,0.0,0.0,0.0,10.0
1446035897050210648,304,1446035897044684886,robocape_mag,37.8,-11.85,-28.35,10.0,0.0,0.0,0.0,10.0,0.0,0.0,0.0,10.0
1446035897083597065,305,1446035897078233957,robocape_mag,40.5,-15.75,8.55,10.0,0.0,0.0,0.0,10.0,0.0,0.0,0.0,10.0
1446035897116484940,306,1446035897111248970,robocape_mag,40.5,-15.75,8.55,10.0,0.0,0.0,0.0,10.0,0.0,0.0,0.0,10.0
1446035897150386065,307,1446035897144663095,robocape_mag,40.5,-15.75,8.55,10.0,0.0,0.0,0.0,10.0,0.0,0.0,0.0,10.0
1446035897184905190,308,1446035897178051948,robocape_mag,40.5,-15.75,8.55,10.0,0.0,0.0,0.0,10.0,0.0,0.0,0.0,10.0
1446035897216174482,309,1446035897211265087,robocape_mag,40.5,-15.75,8.55,10.0,0.0,0.0,0.0,10.0,0.0,0.0,0.0,10.0
1446035897252761815,310,1446035897244903087,robocape_mag,38.1,2.85,-19.65,10.0,0.0,0.0,0.0,10.0,0.0,0.0,0.0,10.0
1446035897292475148,311,1446035897278064966,robocape_mag,38.1,2.85,-19.65,10.0,0.0,0.0,0.0,10.0,0.0,0.0,0.0,10.0
1446035897319188148,312,1446035897314049005,robocape_mag,38.1,2.85,-19.65,10.0,0.0,0.0,0.0,10.0,0.0,0.0,0.0,10.0
1446035897351504232,313,1446035897345123052,robocape_mag,38.1,2.85,-19.65,10.0,0.0,0.0,0.0,10.0,0.0,0.0,0.0,10.0
1446035897383102690,314,1446035897378211975,robocape_mag,38.1,2.85,-27.15,10.0,0.0,0.0,0.0,10.0,0.0,0.0,0.0,10.0
1446035897419105732,315,1446035897411765098,robocape_mag,39.6,-9.45,-27.15,10.0,0.0,0.0,0.0,10.0,0.0,0.0,0.0,10.0
1446035897450973273,316,1446035897446073055,robocape_mag,39.6,-9.45,-27.15,10.0,0.0,0.0,0.0,10.0,0.0,0.0,0.0,10.0
1446035897485224023,317,1446035897478462934,robocape_mag,39.6,-9.45,-27.15,10.0,0.0,0.0,0.0,10.0,0.0,0.0,0.0,10.0
1446035897518436148,318,1446035897513149023,robocape_mag,39.6,-9.45,-27.15,10.0,0.0,0.0,0.0,10.0,0.0,0.0,0.0,10.0
1446035897551336440,319,1446035897546410083,robocape_mag,38.4,-10.65,-4.35,10.0,0.0,0.0,0.0,10.0,0.0,0.0,0.0,10.0
1446035897585665773,320,1446035897579905986,robocape_mag,38.4,-10.65,-4.35,10.0,0.0,0.0,0.0,10.0,0.0,0.0,0.0,10.0
1446035897616284982,321,1446035897611299037,robocape_mag,38.4,-10.65,-4.35,10.0,0.0,0.0,0.0,10.0,0.0,0.0,0.0,10.0
1446035897649687857,322,1446035897644682884,robocape_mag,38.4,-10.65,-4.35,10.0,0.0,0.0,0.0,10.0,0.0,0.0,0.0,10.0
1446035897683256774,323,1446035897678400993,robocape_mag,38.4,-10.65,-4.35,10.0,0.0,0.0,0.0,10.0,0.0,0.0,0.0,10.0
1446035897716471649,324,1446035897711321115,robocape_mag,37.5,2.25,-23.25,10.0,0.0,0.0,0.0,10.0,0.0,0.0,0.0,10.0
1446035897749720649,325,1446035897744816064,robocape_mag,37.5,2.25,-23.25,10.0,0.0,0.0,0.0,10.0,0.0,0.0,0.0,10.0
1446035897785975274,326,1446035897778578042,robocape_mag,37.5,2.25,-23.25,10.0,0.0,0.0,0.0,10.0,0.0,0.0,0.0,10.0
1446035897816363482,327,1446035897811310052,robocape_mag,37.5,2.25,-23.25,10.0,0.0,0.0,0.0,10.0,0.0,0.0,0.0,10.0
1446035897849973274,328,1446035897844882011,robocape_mag,37.5,2.25,-23.25,10.0,0.0,0.0,0.0,10.0,0.0,0.0,0.0,10.0
1446035897883110815,329,1446035897878087997,robocape_mag,37.8,-13.05,-4.95,10.0,0.0,0.0,0.0,10.0,0.0,0.0,0.0,10.0
1446035897916809690,330,1446035897911742925,robocape_mag,37.8,-13.05,-4.95,10.0,0.0,0.0,0.0,10.0,0.0,0.0,0.0,10.0
1446035897949766940,331,1446035897944664001,robocape_mag,37.8,-13.05,-4.95,10.0,0.0,0.0,0.0,10.0,0.0,0.0,0.0,10.0
1446035897983178065,332,1446035897978183984,robocape_mag,37.8,-13.05,-4.95,10.0,0.0,0.0,0.0,10.0,0.0,0.0,0.0,10.0
1446035898017030190,333,1446035898011481046,robocape_mag,37.8,-13.05,-4.95,10.0,0.0,0.0,0.0,10.0,0.0,0.0,0.0,10.0
1446035898050652399,334,1446035898044594049,robocape_mag,36.0,7.95,0.45,10.0,0.0,0.0,0.0,10.0,0.0,0.0,0.0,10.0
1446035898085090357,335,1446035898078023910,robocape_mag,36.0,7.95,0.45,10.0,0.0,0.0,0.0,10.0,0.0,0.0,0.0,10.0
1446035898118158815,336,1446035898111227989,robocape_mag,36.0,7.95,0.45,10.0,0.0,0.0,0.0,10.0,0.0,0.0,0.0,10.0
1446035898151697774,337,1446035898144659996,robocape_mag,36.0,7.95,0.45,10.0,0.0,0.0,0.0,10.0,0.0,0.0,0.0,10.0
1446035898184649315,338,1446035898179390907,robocape_mag,32.4,16.35,-7.95,10.0,0.0,0.0,0.0,10.0,0.0,0.0,0.0,10.0
1446035898216894774,339,1446035898211262941,robocape_mag,32.4,16.35,-7.95,10.0,0.0,0.0,0.0,10.0,0.0,0.0,0.0,10.0
1446035898251715815,340,1446035898244767904,robocape_mag,32.4,16.35,-7.95,10.0,0.0,0.0,0.0,10.0,0.0,0.0,0.0,10.0
1446035898291772274,341,1446035898279339075,robocape_mag,32.4,16.35,-7.95,10.0,0.0,0.0,0.0,10.0,0.0,0.0,0.0,10.0
1446035898322532399,342,1446035898314440965,robocape_mag,32.4,16.35,-7.95,10.0,0.0,0.0,0.0,10.0,0.0,0.0,0.0,10.0
1446035898349831024,343,1446035898344715118,robocape_mag,33.0,21.75,-10.35,10.0,0.0,0.0,0.0,10.0,0.0,0.0,0.0,10.0
1446035898384889732,344,1446035898378107070,robocape_mag,33.0,21.75,-10.35,10.0,0.0,0.0,0.0,10.0,0.0,0.0,0.0,10.0
1446035898416441399,345,1446035898411423921,robocape_mag,33.0,21.75,-10.35,10.0,0.0,0.0,0.0,10.0,0.0,0.0,0.0,10.0
1446035898449491524,346,1446035898444680929,robocape_mag,33.0,21.75,-10.35,10.0,0.0,0.0,0.0,10.0,0.0,0.0,0.0,10.0
1446035898483055232,347,1446035898477994918,robocape_mag,33.0,21.75,-10.35,10.0,0.0,0.0,0.0,10.0,0.0,0.0,0.0,10.0
1446035898516795274,348,1446035898511774063,robocape_mag,31.8,-6.45,-7.95,10.0,0.0,0.0,0.0,10.0,0.0,0.0,0.0,10.0
1446035898549634482,349,1446035898544740915,robocape_mag,31.8,-6.45,-7.95,10.0,0.0,0.0,0.0,10.0,0.0,0.0,0.0,10.0
1446035898584959732,350,1446035898579941987,robocape_mag,31.8,-6.45,-7.95,10.0,0.0,0.0,0.0,10.0,0.0,0.0,0.0,10.0
1446035898618149066,351,1446035898612786054,robocape_mag,31.8,-6.45,-7.95,10.0,0.0,0.0,0.0,10.0,0.0,0.0,0.0,10.0
1446035898655469816,352,1446035898646032094,robocape_mag,31.8,-6.45,-7.95,10.0,0.0,0.0,0.0,10.0,0.0,0.0,0.0,10.0
1446035898685047691,353,1446035898679939985,robocape_mag,43.2,5.55,-21.15,10.0,0.0,0.0,0.0,10.0,0.0,0.0,0.0,10.0
1446035898718389982,354,1446035898712040901,robocape_mag,43.2,5.55,-21.15,10.0,0.0,0.0,0.0,10.0,0.0,0.0,0.0,10.0
1446035898754471941,355,1446035898746514081,robocape_mag,43.2,5.55,-21.15,10.0,0.0,0.0,0.0,10.0,0.0,0.0,0.0,10.0
1446035898788652316,356,1446035898780050039,robocape_mag,43.2,5.55,-21.15,10.0,0.0,0.0,0.0,10.0,0.0,0.0,0.0,10.0
1446035898852696274,357,1446035898819895029,robocape_mag,43.2,6.75,-18.15,10.0,0.0,0.0,0.0,10.0,0.0,0.0,0.0,10.0
1446035898875941191,358,1446035898870925903,robocape_mag,43.2,6.75,-18.15,10.0,0.0,0.0,0.0,10.0,0.0,0.0,0.0,10.0
1446035898899128482,359,1446035898894246101,robocape_mag,43.2,6.75,-18.15,10.0,0.0,0.0,0.0,10.0,0.0,0.0,0.0,10.0
1446035898926806441,360,1446035898917679071,robocape_mag,43.2,6.75,-18.15,10.0,0.0,0.0,0.0,10.0,0.0,0.0,0.0,10.0
1446035898955800024,361,1446035898946882963,robocape_mag,43.2,6.75,-18.15,10.0,0.0,0.0,0.0,10.0,0.0,0.0,0.0,10.0
1446035898991674274,362,1446035898980446100,robocape_mag,43.2,-64.05,-10.95,10.0,0.0,0.0,0.0,10.0,0.0,0.0,0.0,10.0
1446035899018719149,363,1446035899012032032,robocape_mag,44.4,12.75,-10.95,10.0,0.0,0.0,0.0,10.0,0.0,0.0,0.0,10.0
1446035899050386149,364,1446035899045191049,robocape_mag,44.4,12.75,-10.95,10.0,0.0,0.0,0.0,10.0,0.0,0.0,0.0,10.0
1446035899083079399,365,1446035899078249931,robocape_mag,44.4,12.75,-10.95,10.0,0.0,0.0,0.0,10.0,0.0,0.0,0.0,10.0
1446035899116626274,366,1446035899111584901,robocape_mag,44.4,12.75,-10.95,10.0,0.0,0.0,0.0,10.0,0.0,0.0,0.0,10.0
1446035899149605483,367,1446035899144668102,robocape_mag,34.8,23.55,-10.95,10.0,0.0,0.0,0.0,10.0,0.0,0.0,0.0,10.0
1446035899182978816,368,1446035899177962064,robocape_mag,34.8,23.55,-10.95,10.0,0.0,0.0,0.0,10.0,0.0,0.0,0.0,10.0
1446035899218358608,369,1446035899211306095,robocape_mag,34.8,23.55,-10.95,10.0,0.0,0.0,0.0,10.0,0.0,0.0,0.0,10.0
1446035899250053774,370,1446035899244808912,robocape_mag,34.8,23.55,-10.95,10.0,0.0,0.0,0.0,10.0,0.0,0.0,0.0,10.0
1446035899289374566,371,1446035899278538942,robocape_mag,34.8,23.55,-10.95,10.0,0.0,0.0,0.0,10.0,0.0,0.0,0.0,10.0
1446035899318511233,372,1446035899313530921,robocape_mag,21.9,4.65,-7.65,10.0,0.0,0.0,0.0,10.0,0.0,0.0,0.0,10.0
1446035899349947441,373,1446035899344660043,robocape_mag,21.9,4.65,-7.65,10.0,0.0,0.0,0.0,10.0,0.0,0.0,0.0,10.0
1446035899383192649,374,1446035899378074884,robocape_mag,21.9,4.65,-7.65,10.0,0.0,0.0,0.0,10.0,0.0,0.0,0.0,10.0
1446035899418165858,375,1446035899411300897,robocape_mag,21.9,4.65,-7.65,10.0,0.0,0.0,0.0,10.0,0.0,0.0,0.0,10.0
1446035899449782358,376,1446035899444679021,robocape_mag,21.9,4.65,-7.65,10.0,0.0,0.0,0.0,10.0,0.0,0.0,0.0,10.0
1446035899483234983,377,1446035899478187084,robocape_mag,6.9,19.65,0.15,10.0,0.0,0.0,0.0,10.0,0.0,0.0,0.0,10.0
1446035899516521858,378,1446035899511370897,robocape_mag,6.9,19.65,0.15,10.0,0.0,0.0,0.0,10.0,0.0,0.0,0.0,10.0
1446035899549717399,379,1446035899544790983,robocape_mag,6.9,19.65,0.15,10.0,0.0,0.0,0.0,10.0,0.0,0.0,0.0,10.0
1446035899582943691,380,1446035899578084945,robocape_mag,6.9,19.65,0.15,10.0,0.0,0.0,0.0,10.0,0.0,0.0,0.0,10.0
1446035899616829108,381,1446035899611737966,robocape_mag,6.9,19.65,0.15,10.0,0.0,0.0,0.0,10.0,0.0,0.0,0.0,10.0
1446035899649664108,382,1446035899644784927,robocape_mag,-35.4,14.55,-5.55,10.0,0.0,0.0,0.0,10.0,0.0,0.0,0.0,10.0
1446035899684691441,383,1446035899679807901,robocape_mag,-35.4,14.55,-5.55,10.0,0.0,0.0,0.0,10.0,0.0,0.0,0.0,10.0
1446035899718863983,384,1446035899711466073,robocape_mag,-35.4,14.55,-5.55,10.0,0.0,0.0,0.0,10.0,0.0,0.0,0.0,10.0
1446035899751065816,385,1446035899746166944,robocape_mag,-35.4,14.55,-5.55,10.0,0.0,0.0,0.0,10.0,0.0,0.0,0.0,10.0
1446035899786542275,386,1446035899779512882,robocape_mag,-35.4,14.55,3.45,10.0,0.0,0.0,0.0,10.0,0.0,0.0,0.0,10.0
1446035899817809316,387,1446035899812871932,robocape_mag,-6.0,21.15,3.45,10.0,0.0,0.0,0.0,10.0,0.0,0.0,0.0,10.0
1446035899849900983,388,1446035899845128059,robocape_mag,-6.0,21.15,3.45,10.0,0.0,0.0,0.0,10.0,0.0,0.0,0.0,10.0
1446035899883545483,389,1446035899878551006,robocape_mag,-6.0,21.15,3.45,10.0,0.0,0.0,0.0,10.0,0.0,0.0,0.0,10.0
1446035899927817525,390,1446035899918678998,robocape_mag,-6.0,21.15,3.45,10.0,0.0,0.0,0.0,10.0,0.0,0.0,0.0,10.0
1446035899950173441,391,1446035899945274114,robocape_mag,27.6,6.75,-0.15,10.0,0.0,0.0,0.0,10.0,0.0,0.0,0.0,10.0
1446035899988990025,392,1446035899980942964,robocape_mag,27.6,6.75,-0.15,10.0,0.0,0.0,0.0,10.0,0.0,0.0,0.0,10.0
1446035900022324358,393,1446035900014167070,robocape_mag,27.6,6.75,-0.15,10.0,0.0,0.0,0.0,10.0,0.0,0.0,0.0,10.0
1446035900052622191,394,1446035900047868013,robocape_mag,27.6,6.75,-0.15,10.0,0.0,0.0,0.0,10.0,0.0,0.0,0.0,10.0
1446035900085719566,395,1446035900079112052,robocape_mag,27.6,6.75,-0.15,10.0,0.0,0.0,0.0,10.0,0.0,0.0,0.0,10.0
1446035900121062191,396,1446035900115617990,robocape_mag,13.8,5.55,-6.15,10.0,0.0,0.0,0.0,10.0,0.0,0.0,0.0,10.0
1446035900152210691,397,1446035900147239923,robocape_mag,13.8,5.55,-6.15,10.0,0.0,0.0,0.0,10.0,0.0,0.0,0.0,10.0
1446035900187592358,398,1446035900181602954,robocape_mag,13.8,5.55,-6.15,10.0,0.0,0.0,0.0,10.0,0.0,0.0,0.0,10.0
1446035900219815566,399,1446035900213752031,robocape_mag,13.8,5.55,-6.15,10.0,0.0,0.0,0.0,10.0,0.0,0.0,0.0,10.0
1446035900253095316,400,1446035900248030900,robocape_mag,13.8,5.55,-6.15,10.0,0.0,0.0,0.0,10.0,0.0,0.0,0.0,10.0
1446035900295246316,401,1446035900280839920,robocape_mag,11.7,5.25,0.75,10.0,0.0,0.0,0.0,10.0,0.0,0.0,0.0,10.0
1446035900320470358,402,1446035900315221071,robocape_mag,11.7,5.25,0.75,10.0,0.0,0.0,0.0,10.0,0.0,0.0,0.0,10.0
1446035900352235858,403,1446035900346971988,robocape_mag,11.7,5.25,0.75,10.0,0.0,0.0,0.0,10.0,0.0,0.0,0.0,10.0
1446035900386530608,404,1446035900381515026,robocape_mag,11.7,5.25,0.75,10.0,0.0,0.0,0.0,10.0,0.0,0.0,0.0,10.0
1446035900423721983,405,1446035900413650035,robocape_mag,11.7,5.25,0.75,10.0,0.0,0.0,0.0,10.0,0.0,0.0,0.0,10.0
1446035900452649275,406,1446035900447534084,robocape_mag,-18.6,28.95,-4.35,10.0,0.0,0.0,0.0,10.0,0.0,0.0,0.0,10.0
1446035900486357233,407,1446035900481483936,robocape_mag,-18.6,28.95,-4.35,10.0,0.0,0.0,0.0,10.0,0.0,0.0,0.0,10.0
1446035900519115150,408,1446035900514208078,robocape_mag,-18.6,28.95,-4.35,10.0,0.0,0.0,0.0,10.0,0.0,0.0,0.0,10.0
1446035900552344067,409,1446035900547442913,robocape_mag,-18.6,28.95,-4.35,10.0,0.0,0.0,0.0,10.0,0.0,0.0,0.0,10.0
1446035900585458858,410,1446035900580523014,robocape_mag,13.2,26.55,1.65,10.0,0.0,0.0,0.0,10.0,0.0,0.0,0.0,10.0
1446035900618650650,411,1446035900613797903,robocape_mag,13.2,26.55,1.65,10.0,0.0,0.0,0.0,10.0,0.0,0.0,0.0,10.0
1446035900651791192,412,1446035900646894931,robocape_mag,13.2,26.55,1.65,10.0,0.0,0.0,0.0,10.0,0.0,0.0,0.0,10.0
1446035900685218942,413,1446035900680246114,robocape_mag,13.2,26.55,1.65,10.0,0.0,0.0,0.0,10.0,0.0,0.0,0.0,10.0
1446035900717303442,414,1446035900712532997,robocape_mag,13.2,26.55,1.65,10.0,0.0,0.0,0.0,10.0,0.0,0.0,0.0,10.0
1446035900751178983,415,1446035900746267080,robocape_mag,8.1,8.85,-1.65,10.0,0.0,0.0,0.0,10.0,0.0,0.0,0.0,10.0
1446035900784731275,416,1446035900779308080,robocape_mag,8.1,8.85,-1.65,10.0,0.0,0.0,0.0,10.0,0.0,0.0,0.0,10.0
1446035900817930275,417,1446035900813002109,robocape_mag,8.1,8.85,-1.65,10.0,0.0,0.0,0.0,10.0,0.0,0.0,0.0,10.0
1446035900850360275,418,1446035900845366001,robocape_mag,8.1,8.85,-1.65,10.0,0.0,0.0,0.0,10.0,0.0,0.0,0.0,10.0
1446035900884110650,419,1446035900878855943,robocape_mag,8.1,8.85,-1.65,10.0,0.0,0.0,0.0,10.0,0.0,0.0,0.0,10.0
1446035900916485650,420,1446035900911536931,robocape_mag,-20.4,7.95,-6.15,10.0,0.0,0.0,0.0,10.0,0.0,0.0,0.0,10.0
1446035900949624108,421,1446035900944796085,robocape_mag,-20.4,7.95,-6.15,10.0,0.0,0.0,0.0,10.0,0.0,0.0,0.0,10.0
1446035900983522650,422,1446035900978182077,robocape_mag,-20.4,7.95,-6.15,10.0,0.0,0.0,0.0,10.0,0.0,0.0,0.0,10.0
1446035901017075608,423,1446035901011399984,robocape_mag,-20.4,7.95,-6.15,10.0,0.0,0.0,0.0,10.0,0.0,0.0,0.0,10.0
1446035901049651817,424,1446035901044814109,robocape_mag,-20.4,7.95,-6.15,10.0,0.0,0.0,0.0,10.0,0.0,0.0,0.0,10.0
1446035901085265275,425,1446035901078234910,robocape_mag,5.7,5.25,0.75,10.0,0.0,0.0,0.0,10.0,0.0,0.0,0.0,10.0
1446035901116606567,426,1446035901111443996,robocape_mag,5.7,5.25,0.75,10.0,0.0,0.0,0.0,10.0,0.0,0.0,0.0,10.0
1446035901149709484,427,1446035901144896030,robocape_mag,5.7,5.25,0.75,10.0,0.0,0.0,0.0,10.0,0.0,0.0,0.0,10.0
1446035901183249775,428,1446035901178131103,robocape_mag,5.7,5.25,0.75,10.0,0.0,0.0,0.0,10.0,0.0,0.0,0.0,10.0
1446035901221086984,429,1446035901213320970,robocape_mag,5.7,5.25,0.75,10.0,0.0,0.0,0.0,10.0,0.0,0.0,0.0,10.0
1446035901252376525,430,1446035901247548103,robocape_mag,15.0,27.75,-1.95,10.0,0.0,0.0,0.0,10.0,0.0,0.0,0.0,10.0
1446035901292288275,431,1446035901282980918,robocape_mag,15.0,27.75,-1.95,10.0,0.0,0.0,0.0,10.0,0.0,0.0,0.0,10.0
1446035901324193859,432,1446035901314584016,robocape_mag,15.0,27.75,-1.95,10.0,0.0,0.0,0.0,10.0,0.0,0.0,0.0,10.0
1446035901353908609,433,1446035901347861051,robocape_mag,15.0,27.75,-1.95,10.0,0.0,0.0,0.0,10.0,0.0,0.0,0.0,10.0
1446035901386779859,434,1446035901381078958,robocape_mag,28.2,19.35,-7.35,10.0,0.0,0.0,0.0,10.0,0.0,0.0,0.0,10.0
1446035901423749109,435,1446035901415330886,robocape_mag,28.2,19.35,-7.35,10.0,0.0,0.0,0.0,10.0,0.0,0.0,0.0,10.0
1446035901453434400,436,1446035901448246955,robocape_mag,28.2,19.35,-7.35,10.0,0.0,0.0,0.0,10.0,0.0,0.0,0.0,10.0
1446035901486490609,437,1446035901480952024,robocape_mag,28.2,19.35,-7.35,10.0,0.0,0.0,0.0,10.0,0.0,0.0,0.0,10.0
1446035901520473359,438,1446035901515299081,robocape_mag,28.2,19.35,-7.35,10.0,0.0,0.0,0.0,10.0,0.0,0.0,0.0,10.0
1446035901552459150,439,1446035901547244071,robocape_mag,12.6,25.95,-3.75,10.0,0.0,0.0,0.0,10.0,0.0,0.0,0.0,10.0
1446035901589014234,440,1446035901581156015,robocape_mag,12.6,25.95,-3.75,10.0,0.0,0.0,0.0,10.0,0.0,0.0,0.0,10.0
1446035901618962567,441,1446035901613812923,robocape_mag,12.6,25.95,-3.75,10.0,0.0,0.0,0.0,10.0,0.0,0.0,0.0,10.0
1446035901652725734,442,1446035901647788047,robocape_mag,12.6,25.95,-3.75,10.0,0.0,0.0,0.0,10.0,0.0,0.0,0.0,10.0
1446035901686574942,443,1446035901681240081,robocape_mag,12.6,25.95,-3.75,10.0,0.0,0.0,0.0,10.0,0.0,0.0,0.0,10.0
1446035901716661400,444,1446035901711349964,robocape_mag,33.3,16.65,-5.25,10.0,0.0,0.0,0.0,10.0,0.0,0.0,0.0,10.0
1446035901749928567,445,1446035901744967937,robocape_mag,33.3,16.65,-5.25,10.0,0.0,0.0,0.0,10.0,0.0,0.0,0.0,10.0
1446035901785533067,446,1446035901778655052,robocape_mag,33.3,16.65,-5.25,10.0,0.0,0.0,0.0,10.0,0.0,0.0,0.0,10.0
1446035901816398109,447,1446035901811500072,robocape_mag,33.3,16.65,-5.25,10.0,0.0,0.0,0.0,10.0,0.0,0.0,0.0,10.0
1446035901849796942,448,1446035901844964981,robocape_mag,33.3,16.65,-5.25,10.0,0.0,0.0,0.0,10.0,0.0,0.0,0.0,10.0
1446035901882947859,449,1446035901878140926,robocape_mag,30.6,19.95,-34.35,10.0,0.0,0.0,0.0,10.0,0.0,0.0,0.0,10.0
1446035901916205192,450,1446035901911426067,robocape_mag,30.6,19.95,-34.35,10.0,0.0,0.0,0.0,10.0,0.0,0.0,0.0,10.0
1446035901949637901,451,1446035901944823980,robocape_mag,30.6,19.95,-34.35,10.0,0.0,0.0,0.0,10.0,0.0,0.0,0.0,10.0
1446035901983216484,452,1446035901978283882,robocape_mag,30.6,19.95,-34.35,10.0,0.0,0.0,0.0,10.0,0.0,0.0,0.0,10.0
1446035902017519567,453,1446035902011528015,robocape_mag,30.6,19.95,-34.35,10.0,0.0,0.0,0.0,10.0,0.0,0.0,0.0,10.0
1446035902050737442,454,1446035902045964002,robocape_mag,37.8,9.75,-45.75,10.0,0.0,0.0,0.0,10.0,0.0,0.0,0.0,10.0
1446035902084321942,455,1446035902079485893,robocape_mag,37.8,9.75,-45.75,10.0,0.0,0.0,0.0,10.0,0.0,0.0,0.0,10.0
1446035902117479734,456,1446035902112696886,robocape_mag,37.8,9.75,-45.75,10.0,0.0,0.0,0.0,10.0,0.0,0.0,0.0,10.0
1446035902151291567,457,1446035902146301984,robocape_mag,37.8,9.75,-45.75,10.0,0.0,0.0,0.0,10.0,0.0,0.0,0.0,10.0
1446035902185750859,458,1446035902179502964,robocape_mag,37.8,9.75,-45.75,10.0,0.0,0.0,0.0,10.0,0.0,0.0,0.0,10.0
1446035902219040942,459,1446035902214123964,robocape_mag,37.2,7.95,-45.75,10.0,0.0,0.0,0.0,10.0,0.0,0.0,0.0,10.0
1446035902251094109,460,1446035902246218919,robocape_mag,37.2,7.95,-45.75,10.0,0.0,0.0,0.0,10.0,0.0,0.0,0.0,10.0
1446035902293637609,461,1446035902281341075,robocape_mag,37.2,7.95,-45.75,10.0,0.0,0.0,0.0,10.0,0.0,0.0,0.0,10.0
1446035902322785192,462,1446035902316049098,robocape_mag,37.2,7.95,-45.75,10.0,0.0,0.0,0.0,10.0,0.0,0.0,0.0,10.0
1446035902350501901,463,1446035902345587968,robocape_mag,40.5,12.45,-42.45,10.0,0.0,0.0,0.0,10.0,0.0,0.0,0.0,10.0
1446035902390687859,464,1446035902381663084,robocape_mag,40.5,12.45,-42.45,10.0,0.0,0.0,0.0,10.0,0.0,0.0,0.0,10.0
1446035902418889609,465,1446035902414069890,robocape_mag,40.5,12.45,-42.45,10.0,0.0,0.0,0.0,10.0,0.0,0.0,0.0,10.0
1446035902452237526,466,1446035902447316884,robocape_mag,40.5,12.45,-42.45,10.0,0.0,0.0,0.0,10.0,0.0,0.0,0.0,10.0
1446035902487174276,467,1446035902480775117,robocape_mag,40.5,12.45,-42.45,10.0,0.0,0.0,0.0,10.0,0.0,0.0,0.0,10.0
1446035902518630401,468,1446035902513530015,robocape_mag,38.7,12.45,-42.45,10.0,0.0,0.0,0.0,10.0,0.0,0.0,0.0,10.0
1446035902553179443,469,1446035902547652959,robocape_mag,38.7,12.45,-42.45,10.0,0.0,0.0,0.0,10.0,0.0,0.0,0.0,10.0
1446035902586594526,470,1446035902581403017,robocape_mag,38.7,12.45,-42.45,10.0,0.0,0.0,0.0,10.0,0.0,0.0,0.0,10.0
1446035902619695859,471,1446035902614624023,robocape_mag,38.7,12.45,-42.45,10.0,0.0,0.0,0.0,10.0,0.0,0.0,0.0,10.0
1446035902654101984,472,1446035902648797035,robocape_mag,38.7,12.45,-42.45,10.0,0.0,0.0,0.0,10.0,0.0,0.0,0.0,10.0
1446035902688771984,473,1446035902681919097,robocape_mag,36.6,11.55,-42.75,10.0,0.0,0.0,0.0,10.0,0.0,0.0,0.0,10.0
1446035902719891401,474,1446035902714510917,robocape_mag,36.6,11.55,-42.75,10.0,0.0,0.0,0.0,10.0,0.0,0.0,0.0,10.0
1446035902752832276,475,1446035902747770071,robocape_mag,36.6,11.55,-42.75,10.0,0.0,0.0,0.0,10.0,0.0,0.0,0.0,10.0
1446035902784635276,476,1446035902778002977,robocape_mag,36.6,11.55,-42.75,10.0,0.0,0.0,0.0,10.0,0.0,0.0,0.0,10.0
1446035902817183943,477,1446035902811739921,robocape_mag,36.6,11.55,-42.75,10.0,0.0,0.0,0.0,10.0,0.0,0.0,0.0,10.0
1446035902850284318,478,1446035902844893932,robocape_mag,37.5,12.45,-43.65,10.0,0.0,0.0,0.0,10.0,0.0,0.0,0.0,10.0
1446035902882971484,479,1446035902878135919,robocape_mag,37.5,12.45,-43.65,10.0,0.0,0.0,0.0,10.0,0.0,0.0,0.0,10.0
1446035902919083859,480,1446035902914079904,robocape_mag,37.5,12.45,-43.65,10.0,0.0,0.0,0.0,10.0,0.0,0.0,0.0,10.0
1446035902952228609,481,1446035902947249889,robocape_mag,37.5,12.45,-43.65,10.0,0.0,0.0,0.0,10.0,0.0,0.0,0.0,10.0
1446035902982883693,482,1446035902978027105,robocape_mag,37.5,12.45,-43.95,10.0,0.0,0.0,0.0,10.0,0.0,0.0,0.0,10.0
1446035903017234359,483,1446035903011405944,robocape_mag,37.8,13.35,-43.95,10.0,0.0,0.0,0.0,10.0,0.0,0.0,0.0,10.0
1446035903050910609,484,1446035903044631958,robocape_mag,37.8,13.35,-43.95,10.0,0.0,0.0,0.0,10.0,0.0,0.0,0.0,10.0
1446035903083391693,485,1446035903078464031,robocape_mag,37.8,13.35,-43.95,10.0,0.0,0.0,0.0,10.0,0.0,0.0,0.0,10.0
1446035903116386276,486,1446035903111550092,robocape_mag,37.8,13.35,-43.95,10.0,0.0,0.0,0.0,10.0,0.0,0.0,0.0,10.0
1446035903151287068,487,1446035903144737958,robocape_mag,37.8,13.35,-42.15,10.0,0.0,0.0,0.0,10.0,0.0,0.0,0.0,10.0
1446035903183339068,488,1446035903178085088,robocape_mag,37.8,13.35,-42.15,10.0,0.0,0.0,0.0,10.0,0.0,0.0,0.0,10.0
1446035903217512943,489,1446035903212554931,robocape_mag,37.8,13.35,-42.15,10.0,0.0,0.0,0.0,10.0,0.0,0.0,0.0,10.0
1446035903251930651,490,1446035903244988918,robocape_mag,37.8,13.35,-42.15,10.0,0.0,0.0,0.0,10.0,0.0,0.0,0.0,10.0
1446035903288448026,491,1446035903278794050,robocape_mag,37.8,13.35,-42.15,10.0,0.0,0.0,0.0,10.0,0.0,0.0,0.0,10.0
1446035903319526276,492,1446035903314325094,robocape_mag,38.4,12.15,-42.75,10.0,0.0,0.0,0.0,10.0,0.0,0.0,0.0,10.0
1446035903349972943,493,1446035903345185041,robocape_mag,38.4,12.15,-42.75,10.0,0.0,0.0,0.0,10.0,0.0,0.0,0.0,10.0
1446035903383143485,494,1446035903378328084,robocape_mag,38.4,12.15,-42.75,10.0,0.0,0.0,0.0,10.0,0.0,0.0,0.0,10.0
1446035903416228110,495,1446035903411412954,robocape_mag,38.4,12.15,-42.75,10.0,0.0,0.0,0.0,10.0,0.0,0.0,0.0,10.0
1446035903449464901,496,1446035903444700002,robocape_mag,38.4,12.15,-42.75,10.0,0.0,0.0,0.0,10.0,0.0,0.0,0.0,10.0
1446035903482947568,497,1446035903477957963,robocape_mag,39.3,12.45,-44.25,10.0,0.0,0.0,0.0,10.0,0.0,0.0,0.0,10.0
1446035903516394151,498,1446035903511457920,robocape_mag,39.3,12.45,-44.25,10.0,0.0,0.0,0.0,10.0,0.0,0.0,0.0,10.0
1446035903549551276,499,1446035903544711112,robocape_mag,39.3,12.45,-44.25,10.0,0.0,0.0,0.0,10.0,0.0,0.0,0.0,10.0
1446035903583294485,500,1446035903578111886,robocape_mag,39.3,12.45,-44.25,10.0,0.0,0.0,0.0,10.0,0.0,0.0,0.0,10.0
1446035903616354651,501,1446035903611469030,robocape_mag,39.3,12.45,-44.25,10.0,0.0,0.0,0.0,10.0,0.0,0.0,0.0,10.0
1446035903649983860,502,1446035903645015954,robocape_mag,38.1,11.25,-43.05,10.0,0.0,0.0,0.0,10.0,0.0,0.0,0.0,10.0
1446035903683307985,503,1446035903678111076,robocape_mag,38.1,11.25,-43.05,10.0,0.0,0.0,0.0,10.0,0.0,0.0,0.0,10.0
1446035903719105318,504,1446035903711582899,robocape_mag,38.1,11.25,-43.05,10.0,0.0,0.0,0.0,10.0,0.0,0.0,0.0,10.0
1446035903750122068,505,1446035903744757890,robocape_mag,38.1,11.25,-43.05,10.0,0.0,0.0,0.0,10.0,0.0,0.0,0.0,10.0
1446035903785440318,506,1446035903778013944,robocape_mag,38.1,11.25,-43.05,10.0,0.0,0.0,0.0,10.0,0.0,0.0,0.0,10.0
1446035903816355276,507,1446035903811541080,robocape_mag,36.9,12.45,-43.05,10.0,0.0,0.0,0.0,10.0,0.0,0.0,0.0,10.0
1446035903850590860,508,1446035903844898939,robocape_mag,36.9,12.45,-43.05,10.0,0.0,0.0,0.0,10.0,0.0,0.0,0.0,10.0
1446035903883915901,509,1446035903878338098,robocape_mag,36.9,12.45,-43.05,10.0,0.0,0.0,0.0,10.0,0.0,0.0,0.0,10.0
1446035903916757693,510,1446035903911287069,robocape_mag,36.9,12.45,-43.05,10.0,0.0,0.0,0.0,10.0,0.0,0.0,0.0,10.0
1446035903949715027,511,1446035903944598913,robocape_mag,39.3,14.25,-43.65,10.0,0.0,0.0,0.0,10.0,0.0,0.0,0.0,10.0
1446035903983250443,512,1446035903978081941,robocape_mag,39.3,14.25,-43.65,10.0,0.0,0.0,0.0,10.0,0.0,0.0,0.0,10.0
1446035904017132318,513,1446035904011353015,robocape_mag,39.3,14.25,-43.65,10.0,0.0,0.0,0.0,10.0,0.0,0.0,0.0,10.0
1446035904049912693,514,1446035904044644117,robocape_mag,39.3,14.25,-43.65,10.0,0.0,0.0,0.0,10.0,0.0,0.0,0.0,10.0
1446035904085318568,515,1446035904078286886,robocape_mag,39.3,14.25,-43.65,10.0,0.0,0.0,0.0,10.0,0.0,0.0,0.0,10.0
1446035904116200985,516,1446035904111284017,robocape_mag,39.6,12.15,-43.35,10.0,0.0,0.0,0.0,10.0,0.0,0.0,0.0,10.0
1446035904151920818,517,1446035904146922111,robocape_mag,39.6,12.15,-43.35,10.0,0.0,0.0,0.0,10.0,0.0,0.0,0.0,10.0
1446035904185664652,518,1446035904180694103,robocape_mag,39.6,12.15,-43.35,10.0,0.0,0.0,0.0,10.0,0.0,0.0,0.0,10.0
1446035904218149318,519,1446035904213181018,robocape_mag,39.6,12.15,-43.35,10.0,0.0,0.0,0.0,10.0,0.0,0.0,0.0,10.0
1446035904250466152,520,1446035904245526075,robocape_mag,39.6,12.15,-43.35,10.0,0.0,0.0,0.0,10.0,0.0,0.0,0.0,10.0
1446035904293996235,521,1446035904278616905,robocape_mag,37.8,10.95,-43.35,10.0,0.0,0.0,0.0,10.0,0.0,0.0,0.0,10.0
1446035904320963027,522,1446035904315773963,robocape_mag,37.8,10.95,-43.35,10.0,0.0,0.0,0.0,10.0,0.0,0.0,0.0,10.0
1446035904351611068,523,1446035904346621990,robocape_mag,37.8,10.95,-43.35,10.0,0.0,0.0,0.0,10.0,0.0,0.0,0.0,10.0
1446035904383315277,524,1446035904378433942,robocape_mag,37.8,10.95,-43.35,10.0,0.0,0.0,0.0,10.0,0.0,0.0,0.0,10.0
1446035904416747235,525,1446035904411845922,robocape_mag,37.8,10.95,-43.35,10.0,0.0,0.0,0.0,10.0,0.0,0.0,0.0,10.0
