%time,field.header.seq,field.header.stamp,field.header.frame_id,field.orientation.x,field.orientation.y,field.orientation.z,field.orientation.w,field.orientation_covariance0,field.orientation_covariance1,field.orientation_covariance2,field.orientation_covariance3,field.orientation_covariance4,field.orientation_covariance5,field.orientation_covariance6,field.orientation_covariance7,field.orientation_covariance8,field.angular_velocity.x,field.angular_velocity.y,field.angular_velocity.z,field.angular_velocity_covariance0,field.angular_velocity_covariance1,field.angular_velocity_covariance2,field.angular_velocity_covariance3,field.angular_velocity_covariance4,field.angular_velocity_covariance5,field.angular_velocity_covariance6,field.angular_velocity_covariance7,field.angular_velocity_covariance8,field.linear_acceleration.x,field.linear_acceleration.y,field.linear_acceleration.z,field.linear_acceleration_covariance0,field.linear_acceleration_covariance1,field.linear_acceleration_covariance2,field.linear_acceleration_covariance3,field.linear_acceleration_covariance4,field.linear_acceleration_covariance5,field.linear_acceleration_covariance6,field.linear_acceleration_covariance7,field.linear_acceleration_covariance8
1446038655452629909,1,1446038655441489934,robocape,5.23557224939,3.65201308968,31.4998919077,0.0,10.0,0.0,0.0,0.0,10.0,0.0,0.0,0.0,10.0,-0.000133158054504,0.0117179087963,0.00692421883421,1.0,0.0,0.0,0.0,1.0,0.0,0.0,0.0,1.0,0.0335302734375,0.413140869141,10.0063916016,0.1,0.0,0.0,0.0,0.1,0.0,0.0,0.0,0.1
1446038655478534409,2,1446038655475182056,robocape,5.23400535747,3.66822795503,31.4341054469,0.0,10.0,0.0,0.0,0.0,10.0,0.0,0.0,0.0,10.0,0.00705737688871,0.0122505410144,0.00825579937925,1.0,0.0,0.0,0.0,1.0,0.0,0.0,0.0,1.0,0.0311352539063,0.0299377441406,10.0459094238,0.1,0.0,0.0,0.0,0.1,0.0,0.0,0.0,0.1
1446038655511087825,3,1446038655507778882,robocape,5.29975167093,3.6799373811,31.3619625584,0.0,10.0,0.0,0.0,0.0,10.0,0.0,0.0,0.0,10.0,0.0426105774413,0.00958737992429,0.00506000607115,1.0,0.0,0.0,0.0,1.0,0.0,0.0,0.0,1.0,-0.0227526855469,-0.0179626464844,10.0075891113,0.1,0.0,0.0,0.0,0.1,0.0,0.0,0.0,0.1
1446038655548123492,4,1446038655542972087,robocape,5.46736456607,3.69091572987,31.2888744167,0.0,10.0,0.0,0.0,0.0,10.0,0.0,0.0,0.0,10.0,0.0962732734064,0.00918790576077,0.00492684801665,1.0,0.0,0.0,0.0,1.0,0.0,0.0,0.0,1.0,0.00838256835938,-0.240699462891,9.99561401367,0.1,0.0,0.0,0.0,0.1,0.0,0.0,0.0,0.1
1446038655579363659,5,1446038655576086997,robocape,5.79072274458,3.69557076651,31.2191561252,0.0,10.0,0.0,0.0,0.0,10.0,0.0,0.0,0.0,10.0,0.178298634981,0.00612527050718,0.00785632521573,1.0,0.0,0.0,0.0,1.0,0.0,0.0,0.0,1.0,-0.0634680175781,-0.308957519531,9.98363891602,0.1,0.0,0.0,0.0,0.1,0.0,0.0,0.0,0.1
1446038655612492451,6,1446038655609309911,robocape,6.21550987284,3.69181600306,31.1795843968,0.0,10.0,0.0,0.0,0.0,10.0,0.0,0.0,0.0,10.0,0.231295540673,0.00359526747161,0.0258326625738,1.0,0.0,0.0,0.0,1.0,0.0,0.0,0.0,1.0,0.0203576660156,0.286204833984,10.0423168945,0.1,0.0,0.0,0.0,0.1,0.0,0.0,0.0,0.1
1446038655647046701,7,1446038655643942117,robocape,6.5926292091,3.68757551122,31.1681427365,0.0,10.0,0.0,0.0,0.0,10.0,0.0,0.0,0.0,10.0,0.206128668372,0.00519316412565,0.0415453130052,1.0,0.0,0.0,0.0,1.0,0.0,0.0,0.0,1.0,0.0443078613281,0.714913330078,9.95729370117,0.1,0.0,0.0,0.0,0.1,0.0,0.0,0.0,0.1
1446038655677817284,8,1446038655674338102,robocape,6.83446354026,3.68089845035,31.1909806829,0.0,10.0,0.0,0.0,0.0,10.0,0.0,0.0,0.0,10.0,0.134622793104,0.00625842856169,0.0601874406358,1.0,0.0,0.0,0.0,1.0,0.0,0.0,0.0,1.0,0.0395178222656,0.937650146484,9.90340576172,0.1,0.0,0.0,0.0,0.1,0.0,0.0,0.0,0.1
1446038655710362826,9,1446038655706999063,robocape,6.95998828531,3.68234563469,31.2196778838,0.0,10.0,0.0,0.0,0.0,10.0,0.0,0.0,0.0,10.0,0.0736364041407,0.0109189604693,0.0623179695079,1.0,0.0,0.0,0.0,1.0,0.0,0.0,0.0,1.0,0.00718505859375,1.15439941406,9.93094848633,0.1,0.0,0.0,0.0,0.1,0.0,0.0,0.0,0.1
1446038655744796826,10,1446038655741821050,robocape,6.94021194528,3.69343516798,31.2333365833,0.0,10.0,0.0,0.0,0.0,10.0,0.0,0.0,0.0,10.0,-0.00226368692657,0.0147805440499,0.0523311154201,1.0,0.0,0.0,0.0,1.0,0.0,0.0,0.0,1.0,0.0658630371094,1.13164672852,9.93334350586,0.1,0.0,0.0,0.0,0.1,0.0,0.0,0.0,0.1
1446038655777957201,11,1446038655774605989,robocape,6.83481417,3.7103732774,31.2182899129,0.0,10.0,0.0,0.0,0.0,10.0,0.0,0.0,0.0,10.0,-0.0466053190764,0.0157126504315,0.0352868844435,1.0,0.0,0.0,0.0,1.0,0.0,0.0,0.0,1.0,0.067060546875,1.00351318359,9.95489868164,0.1,0.0,0.0,0.0,0.1,0.0,0.0,0.0,0.1
1446038655809875076,12,1446038655806385993,robocape,6.56577652231,3.73329459251,31.1742316984,0.0,10.0,0.0,0.0,0.0,10.0,0.0,0.0,0.0,10.0,-0.132092790068,0.016644756813,0.01744370514,1.0,0.0,0.0,0.0,1.0,0.0,0.0,0.0,1.0,0.110170898438,0.865799560547,9.96926879883,0.1,0.0,0.0,0.0,0.1,0.0,0.0,0.0,0.1
1446038655844229367,13,1446038655841070890,robocape,6.22952908602,3.75995668245,31.1293009153,0.0,10.0,0.0,0.0,0.0,10.0,0.0,0.0,0.0,10.0,-0.167779148675,0.0185089695761,0.0162452826495,1.0,0.0,0.0,0.0,1.0,0.0,0.0,0.0,1.0,0.0886157226563,0.529299316406,9.95250366211,0.1,0.0,0.0,0.0,0.1,0.0,0.0,0.0,0.1
1446038655877427409,14,1446038655874106884,robocape,5.92498394063,3.7842359026,31.0794528549,0.0,10.0,0.0,0.0,0.0,10.0,0.0,0.0,0.0,10.0,-0.151400707971,0.0170442309765,0.0138484376684,1.0,0.0,0.0,0.0,1.0,0.0,0.0,0.0,1.0,0.0143701171875,-0.0131726074219,9.97166381836,0.1,0.0,0.0,0.0,0.1,0.0,0.0,0.0,0.1
1446038655910352242,15,1446038655907087087,robocape,5.74866960732,3.80396064088,31.0221341165,0.0,10.0,0.0,0.0,0.0,10.0,0.0,0.0,0.0,10.0,-0.0841558904465,0.0143810698864,0.0106526443603,1.0,0.0,0.0,0.0,1.0,0.0,0.0,0.0,1.0,-0.0562829589844,-0.304167480469,10.0027990723,0.1,0.0,0.0,0.0,0.1,0.0,0.0,0.0,0.1
1446038655944477326,16,1446038655941232919,robocape,5.72872130556,3.81976496512,30.958541416,0.0,10.0,0.0,0.0,0.0,10.0,0.0,0.0,0.0,10.0,-0.00199737081756,0.0121173829599,0.00812264132474,1.0,0.0,0.0,0.0,1.0,0.0,0.0,0.0,1.0,0.00119750976563,-0.245489501953,10.0147741699,0.1,0.0,0.0,0.0,0.1,0.0,0.0,0.0,0.1
1446038655976276451,17,1446038655973172903,robocape,5.84507414048,3.83234295495,30.8902272498,0.0,10.0,0.0,0.0,0.0,10.0,0.0,0.0,0.0,10.0,0.0697748205601,0.0102531701968,0.00625842856169,1.0,0.0,0.0,0.0,1.0,0.0,0.0,0.0,1.0,0.0143701171875,-0.0718505859375,10.019564209,0.1,0.0,0.0,0.0,0.1,0.0,0.0,0.0,0.1
1446038656008946951,18,1446038656005619049,robocape,6.03725243794,3.84251632101,30.8202115233,0.0,10.0,0.0,0.0,0.0,10.0,0.0,0.0,0.0,10.0,0.109855394966,0.00892158965177,0.00572579634367,1.0,0.0,0.0,0.0,1.0,0.0,0.0,0.0,1.0,-0.0251477050781,0.307760009766,10.0063916016,0.1,0.0,0.0,0.0,0.1,0.0,0.0,0.0,0.1
1446038656042688451,19,1446038656039418935,robocape,6.19218135544,3.85238981506,30.7496019433,0.0,10.0,0.0,0.0,0.0,10.0,0.0,0.0,0.0,10.0,0.0905474770627,0.00865527354276,0.00506000607115,1.0,0.0,0.0,0.0,1.0,0.0,0.0,0.0,1.0,0.0682580566406,0.620310058594,10.100994873,0.1,0.0,0.0,0.0,0.1,0.0,0.0,0.0,0.1
1446038656075679784,20,1446038656072585105,robocape,6.25510506731,3.86463616711,30.6843256363,0.0,10.0,0.0,0.0,0.0,10.0,0.0,0.0,0.0,10.0,0.0422111032778,0.0101200121423,0.00719053494321,1.0,0.0,0.0,0.0,1.0,0.0,0.0,0.0,1.0,0.118553466797,0.890947265625,9.96807128906,0.1,0.0,0.0,0.0,0.1,0.0,0.0,0.0,0.1
1446038656109341034,21,1446038656106070995,robocape,6.18093553629,3.88259799665,30.628611087,0.0,10.0,0.0,0.0,0.0,10.0,0.0,0.0,0.0,10.0,-0.0300937203179,0.0135821215594,0.0111852765783,1.0,0.0,0.0,0.0,1.0,0.0,0.0,0.0,1.0,0.0323327636719,0.859812011719,9.97525634766,0.1,0.0,0.0,0.0,0.1,0.0,0.0,0.0,0.1
1446038656142294201,22,1446038656139014959,robocape,6.01137239933,3.90273924443,30.5749141098,0.0,10.0,0.0,0.0,0.0,10.0,0.0,0.0,0.0,10.0,-0.0804274649204,0.0147805440499,0.0114515926873,1.0,0.0,0.0,0.0,1.0,0.0,0.0,0.0,1.0,0.0969982910156,0.583187255859,9.96328125,0.1,0.0,0.0,0.0,0.1,0.0,0.0,0.0,0.1
1446038656175350784,23,1446038656172230005,robocape,5.81828288723,3.92137217969,30.5229594682,0.0,10.0,0.0,0.0,0.0,10.0,0.0,0.0,0.0,10.0,-0.0930774800983,0.0141147537774,0.0122505410144,1.0,0.0,0.0,0.0,1.0,0.0,0.0,0.0,1.0,0.0107775878906,0.275427246094,9.97525634766,0.1,0.0,0.0,0.0,0.1,0.0,0.0,0.0,0.1
1446038656208128117,24,1446038656204842090,robocape,5.66842992065,3.94046194414,30.4657697523,0.0,10.0,0.0,0.0,0.0,10.0,0.0,0.0,0.0,10.0,-0.0704406108326,0.0141147537774,0.00945422186978,1.0,0.0,0.0,0.0,1.0,0.0,0.0,0.0,1.0,-0.0335302734375,0.0922082519531,10.0075891113,0.1,0.0,0.0,0.0,0.1,0.0,0.0,0.0,0.1
1446038656241685201,25,1446038656238423109,robocape,5.60451886601,3.95587092258,30.4033371291,0.0,10.0,0.0,0.0,0.0,10.0,0.0,0.0,0.0,10.0,-0.0253000303558,0.0119842249054,0.00705737688871,1.0,0.0,0.0,0.0,1.0,0.0,0.0,0.0,1.0,0.0047900390625,0.00359252929688,10.0147741699,0.1,0.0,0.0,0.0,0.1,0.0,0.0,0.0,0.1
1446038656274714659,26,1446038656271595001,robocape,5.64215416922,3.96868167809,30.3375822002,0.0,10.0,0.0,0.0,0.0,10.0,0.0,0.0,0.0,10.0,0.0280963495003,0.0105194863058,0.00572579634367,1.0,0.0,0.0,0.0,1.0,0.0,0.0,0.0,1.0,-0.0107775878906,-0.128133544922,10.0435144043,0.1,0.0,0.0,0.0,0.1,0.0,0.0,0.0,0.1
1446038656307808659,27,1446038656304718971,robocape,5.78719269278,3.98012810122,30.2692658153,0.0,10.0,0.0,0.0,0.0,10.0,0.0,0.0,0.0,10.0,0.0846885226645,0.00972053797879,0.00479368996214,1.0,0.0,0.0,0.0,1.0,0.0,0.0,0.0,1.0,-0.0311352539063,0.0131726074219,10.0363293457,0.1,0.0,0.0,0.0,0.1,0.0,0.0,0.0,0.1
1446038656341291284,28,1446038656338165998,robocape,6.01795487564,3.98974040086,30.1877519061,0.0,10.0,0.0,0.0,0.0,10.0,0.0,0.0,0.0,10.0,0.130361735359,0.00798948327024,-0.00213052887206,1.0,0.0,0.0,0.0,1.0,0.0,0.0,0.0,1.0,0.0335302734375,0.164058837891,10.039921875,0.1,0.0,0.0,0.0,0.1,0.0,0.0,0.0,0.1
1446038656378838243,29,1446038656372762918,robocape,6.22656360608,3.99729448275,30.1100631064,0.0,10.0,0.0,0.0,0.0,10.0,0.0,0.0,0.0,10.0,0.118910142672,0.00705737688871,-0.000133158054504,1.0,0.0,0.0,0.0,1.0,0.0,0.0,0.0,1.0,0.0562829589844,0.811911621094,9.99202148437,0.1,0.0,0.0,0.0,0.1,0.0,0.0,0.0,0.1
1446038656408672118,30,1446038656405630111,robocape,6.27328291596,4.01064199861,30.0485716365,0.0,10.0,0.0,0.0,0.0,10.0,0.0,0.0,0.0,10.0,0.033555829735,0.0109189604693,0.00745685105222,1.0,0.0,0.0,0.0,1.0,0.0,0.0,0.0,1.0,0.149688720703,0.974772949219,9.96926879883,0.1,0.0,0.0,0.0,0.1,0.0,0.0,0.0,0.1
1446038656441444659,31,1446038656438163042,robocape,6.13661281307,4.02677491273,30.0004365497,0.0,10.0,0.0,0.0,0.0,10.0,0.0,0.0,0.0,10.0,-0.0632500758894,0.0130494893414,0.0134489635049,1.0,0.0,0.0,0.0,1.0,0.0,0.0,0.0,1.0,0.112565917969,0.801134033203,9.98723144531,0.1,0.0,0.0,0.0,0.1,0.0,0.0,0.0,0.1
1446038656474409618,32,1446038656471344947,robocape,5.91974452201,4.04534908257,29.9605269593,0.0,10.0,0.0,0.0,0.0,10.0,0.0,0.0,0.0,10.0,-0.105860653331,0.0147805440499,0.0173105470855,1.0,0.0,0.0,0.0,1.0,0.0,0.0,0.0,1.0,0.0455053710938,0.522114257812,9.94771362305,0.1,0.0,0.0,0.0,0.1,0.0,0.0,0.0,0.1
1446038656507845243,33,1446038656504806995,robocape,5.68320167676,4.06607772219,29.9172847383,0.0,10.0,0.0,0.0,0.0,10.0,0.0,0.0,0.0,10.0,-0.116380139636,0.0157126504315,0.0151800182135,1.0,0.0,0.0,0.0,1.0,0.0,0.0,0.0,1.0,0.01916015625,0.180823974609,9.96567626953,0.1,0.0,0.0,0.0,0.1,0.0,0.0,0.0,0.1
1446038656541537993,34,1446038656538189888,robocape,5.53524588214,4.08451793167,29.8675542931,0.0,10.0,0.0,0.0,0.0,10.0,0.0,0.0,0.0,10.0,-0.0699079786146,0.0142479118319,0.0121173829599,1.0,0.0,0.0,0.0,1.0,0.0,0.0,0.0,1.0,-0.0227526855469,-0.179626464844,9.98842895508,0.1,0.0,0.0,0.0,0.1,0.0,0.0,0.0,0.1
1446038656574446201,35,1446038656571444988,robocape,5.52283673335,4.09926050543,29.8121034216,0.0,10.0,0.0,0.0,0.0,10.0,0.0,0.0,0.0,10.0,0.00133158054504,0.0121173829599,0.00972053797879,1.0,0.0,0.0,0.0,1.0,0.0,0.0,0.0,1.0,-0.0538879394531,-0.155676269531,10.0219592285,0.1,0.0,0.0,0.0,0.1,0.0,0.0,0.0,0.1
1446038656607999868,36,1446038656604963064,robocape,5.6171656325,4.11078650691,29.7451103503,0.0,10.0,0.0,0.0,0.0,10.0,0.0,0.0,0.0,10.0,0.0577905956547,0.00985369603329,0.00386158358061,1.0,0.0,0.0,0.0,1.0,0.0,0.0,0.0,1.0,0.00119750976563,0.0646655273438,9.99202148437,0.1,0.0,0.0,0.0,0.1,0.0,0.0,0.0,0.1
1446038656641265159,37,1446038656638190031,robocape,5.75119131933,4.12124389086,29.6807755738,0.0,10.0,0.0,0.0,0.0,10.0,0.0,0.0,0.0,10.0,0.0786964102118,0.00945422186978,0.00545948023466,1.0,0.0,0.0,0.0,1.0,0.0,0.0,0.0,1.0,0.0538879394531,0.308957519531,9.98723144531,0.1,0.0,0.0,0.0,0.1,0.0,0.0,0.0,0.1
1446038656675868743,38,1446038656672759056,robocape,5.85419532072,4.13267531631,29.619938631,0.0,10.0,0.0,0.0,0.0,10.0,0.0,0.0,0.0,10.0,0.0624511275624,0.0101200121423,0.00705737688871,1.0,0.0,0.0,0.0,1.0,0.0,0.0,0.0,1.0,0.0886157226563,0.578397216797,9.98004638672,0.1,0.0,0.0,0.0,0.1,0.0,0.0,0.0,0.1
1446038656707577909,39,1446038656704582929,robocape,5.87376172682,4.14630389856,29.5613473441,0.0,10.0,0.0,0.0,0.0,10.0,0.0,0.0,0.0,10.0,0.0186421276306,0.0113184346328,0.00759000910673,1.0,0.0,0.0,0.0,1.0,0.0,0.0,0.0,1.0,0.0634680175781,0.765208740234,9.94891113281,0.1,0.0,0.0,0.0,0.1,0.0,0.0,0.0,0.1
1446038656741298451,40,1446038656738176107,robocape,5.7824144481,4.16309921006,29.50778492,0.0,10.0,0.0,0.0,0.0,10.0,0.0,0.0,0.0,10.0,-0.0398142582967,0.0131826473959,0.00945422186978,1.0,0.0,0.0,0.0,1.0,0.0,0.0,0.0,1.0,0.0742456054688,0.692160644531,9.98363891602,0.1,0.0,0.0,0.0,0.1,0.0,0.0,0.0,0.1
1446038656774365326,41,1446038656771327018,robocape,5.59864489138,4.18174203954,29.4591219483,0.0,10.0,0.0,0.0,0.0,10.0,0.0,0.0,0.0,10.0,-0.0886832642996,0.0143810698864,0.0114515926873,1.0,0.0,0.0,0.0,1.0,0.0,0.0,0.0,1.0,0.0586779785156,0.556842041016,9.97884887695,0.1,0.0,0.0,0.0,0.1,0.0,0.0,0.0,0.1
1446038656807724826,42,1446038656804636955,robocape,5.38070396358,4.1999641947,29.4118525409,0.0,10.0,0.0,0.0,0.0,10.0,0.0,0.0,0.0,10.0,-0.106925917767,0.0142479118319,0.0119842249054,1.0,0.0,0.0,0.0,1.0,0.0,0.0,0.0,1.0,0.00359252929688,0.192799072266,10.0004040527,0.1,0.0,0.0,0.0,0.1,0.0,0.0,0.0,0.1
1446038656841173076,43,1446038656838104009,robocape,5.18321488008,4.21651444094,29.3552836297,0.0,10.0,0.0,0.0,0.0,10.0,0.0,0.0,0.0,10.0,-0.0961401153519,0.0129163312869,0.00692421883421,1.0,0.0,0.0,0.0,1.0,0.0,0.0,0.0,1.0,0.01916015625,-0.1149609375,10.0231567383,0.1,0.0,0.0,0.0,0.1,0.0,0.0,0.0,0.1
1446038656874378451,44,1446038656871274948,robocape,5.15226331427,4.23109239482,29.3001668252,0.0,10.0,0.0,0.0,0.0,10.0,0.0,0.0,0.0,10.0,-0.00892158965177,0.0121173829599,0.00852211548825,1.0,0.0,0.0,0.0,1.0,0.0,0.0,0.0,1.0,-0.0299377441406,-0.165256347656,10.0614770508,0.1,0.0,0.0,0.0,0.1,0.0,0.0,0.0,0.1
1446038656907614451,45,1446038656904521942,robocape,5.21439372606,4.24389545601,29.2412501625,0.0,10.0,0.0,0.0,0.0,10.0,0.0,0.0,0.0,10.0,0.0400805744057,0.0110521185238,0.0067910607797,1.0,0.0,0.0,0.0,1.0,0.0,0.0,0.0,1.0,-0.00119750976563,-0.0754431152344,10.024354248,0.1,0.0,0.0,0.0,0.1,0.0,0.0,0.0,0.1
1446038656941394368,46,1446038656937954902,robocape,5.34455314985,4.25497401627,29.1787430203,0.0,10.0,0.0,0.0,0.0,10.0,0.0,0.0,0.0,10.0,0.0760332491218,0.0099868540878,0.00506000607115,1.0,0.0,0.0,0.0,1.0,0.0,0.0,0.0,1.0,0.01916015625,0.0706530761719,9.99561401367,0.1,0.0,0.0,0.0,0.1,0.0,0.0,0.0,0.1
1446038656974793618,47,1446038656971446990,robocape,5.49994052259,4.26460812284,29.1156379382,0.0,10.0,0.0,0.0,0.0,10.0,0.0,0.0,0.0,10.0,0.0894822126267,0.00918790576077,0.00479368996214,1.0,0.0,0.0,0.0,1.0,0.0,0.0,0.0,1.0,0.0275427246094,0.324525146484,10.0004040527,0.1,0.0,0.0,0.0,0.1,0.0,0.0,0.0,0.1
1446038657008326201,48,1446038657004853963,robocape,5.62157273589,4.27550215404,29.0536381016,0.0,10.0,0.0,0.0,0.0,10.0,0.0,0.0,0.0,10.0,0.0719053494321,0.00985369603329,0.00506000607115,1.0,0.0,0.0,0.0,1.0,0.0,0.0,0.0,1.0,0.0407153320313,0.51732421875,10.0171691895,0.1,0.0,0.0,0.0,0.1,0.0,0.0,0.0,0.1
1446038657041779243,49,1446038657038120985,robocape,5.64540072268,4.28840766355,28.9958448152,0.0,10.0,0.0,0.0,0.0,10.0,0.0,0.0,0.0,10.0,0.0205063403936,0.0110521185238,0.0066579027252,1.0,0.0,0.0,0.0,1.0,0.0,0.0,0.0,1.0,0.0682580566406,0.640667724609,9.99681152344,0.1,0.0,0.0,0.0,0.1,0.0,0.0,0.0,0.1
1446038657074522868,50,1446038657071365118,robocape,5.57218147584,4.3040445329,28.9423393624,0.0,10.0,0.0,0.0,0.0,10.0,0.0,0.0,0.0,10.0,-0.0306263525359,0.0126500151779,0.00825579937925,1.0,0.0,0.0,0.0,1.0,0.0,0.0,0.0,1.0,0.0443078613281,0.635877685547,9.98603393555,0.1,0.0,0.0,0.0,0.1,0.0,0.0,0.0,0.1
1446038657107870576,51,1446038657104706048,robocape,5.44094819934,4.32038357433,28.889900685,0.0,10.0,0.0,0.0,0.0,10.0,0.0,0.0,0.0,10.0,-0.0612527050718,0.0130494893414,0.00838895743375,1.0,0.0,0.0,0.0,1.0,0.0,0.0,0.0,1.0,0.0467028808594,0.340092773437,9.98962646484,0.1,0.0,0.0,0.0,0.1,0.0,0.0,0.0,0.1
1446038657141774243,52,1446038657138206958,robocape,5.31401488268,4.33611629687,28.8402074576,0.0,10.0,0.0,0.0,0.0,10.0,0.0,0.0,0.0,10.0,-0.0592553342543,0.0129163312869,0.00985369603329,1.0,0.0,0.0,0.0,1.0,0.0,0.0,0.0,1.0,0.0143701171875,0.119750976563,10.0063916016,0.1,0.0,0.0,0.0,0.1,0.0,0.0,0.0,0.1
1446038657174593285,53,1446038657171561956,robocape,5.22022596215,4.35191798179,28.7889775588,0.0,10.0,0.0,0.0,0.0,10.0,0.0,0.0,0.0,10.0,-0.0419447871687,0.0129163312869,0.00905474770627,1.0,0.0,0.0,0.0,1.0,0.0,0.0,0.0,1.0,0.0263452148438,0.100590820313,10.0063916016,0.1,0.0,0.0,0.0,0.1,0.0,0.0,0.0,0.1
1446038657207719910,54,1446038657204699039,robocape,5.16446926427,4.36642464892,28.734649168,0.0,10.0,0.0,0.0,0.0,10.0,0.0,0.0,0.0,10.0,-0.0219710789932,0.0121173829599,0.00745685105222,1.0,0.0,0.0,0.0,1.0,0.0,0.0,0.0,1.0,0.0443078613281,0.0634680175781,10.0087866211,0.1,0.0,0.0,0.0,0.1,0.0,0.0,0.0,0.1
1446038657241505493,55,1446038657238389968,robocape,5.0967229512,4.37985475114,28.680808304,0.0,10.0,0.0,0.0,0.0,10.0,0.0,0.0,0.0,10.0,-0.0283626656093,0.0115847507418,0.00759000910673,1.0,0.0,0.0,0.0,1.0,0.0,0.0,0.0,1.0,0.0251477050781,0.0490979003906,10.0111816406,0.1,0.0,0.0,0.0,0.1,0.0,0.0,0.0,0.1
1446038657274600910,56,1446038657271425008,robocape,5.13358413312,4.39332489143,28.6275354531,0.0,10.0,0.0,0.0,0.0,10.0,0.0,0.0,0.0,10.0,0.0264984528463,0.0117179087963,0.00825579937925,1.0,0.0,0.0,0.0,1.0,0.0,0.0,0.0,1.0,0.00718505859375,0.0898132324219,10.0219592285,0.1,0.0,0.0,0.0,0.1,0.0,0.0,0.0,0.1
1446038657308908076,57,1446038657305886030,robocape,5.20422707782,4.40612732675,28.5729566369,0.0,10.0,0.0,0.0,0.0,10.0,0.0,0.0,0.0,10.0,0.0443416321498,0.0113184346328,0.00759000910673,1.0,0.0,0.0,0.0,1.0,0.0,0.0,0.0,1.0,-0.00239501953125,0.158071289063,9.9980090332,0.1,0.0,0.0,0.0,0.1,0.0,0.0,0.0,0.1
1446038657342025201,58,1446038657338351011,robocape,5.2782661265,4.41752646417,28.5148573609,0.0,10.0,0.0,0.0,0.0,10.0,0.0,0.0,0.0,10.0,0.0463390029674,0.0103863282513,0.00559263828917,1.0,0.0,0.0,0.0,1.0,0.0,0.0,0.0,1.0,0.0263452148438,0.40236328125,9.99202148437,0.1,0.0,0.0,0.0,0.1,0.0,0.0,0.0,0.1
1446038657378828410,59,1446038657373219966,robocape,5.29301287823,4.43079587121,28.459331948,0.0,10.0,0.0,0.0,0.0,10.0,0.0,0.0,0.0,10.0,0.0151800182135,0.0114515926873,0.00652474467069,1.0,0.0,0.0,0.0,1.0,0.0,0.0,0.0,1.0,0.0467028808594,0.584384765625,10.0183666992,0.1,0.0,0.0,0.0,0.1,0.0,0.0,0.0,0.1
1446038657411106701,60,1446038657407831907,robocape,5.2130720446,4.43462506817,28.4980192865,0.0,10.0,0.0,0.0,0.0,10.0,0.0,0.0,0.0,10.0,-0.0379500455336,0.0115847507418,0.0585895439817,1.0,0.0,0.0,0.0,1.0,0.0,0.0,0.0,1.0,0.076640625,0.889749755859,9.97645385742,0.1,0.0,0.0,0.0,0.1,0.0,0.0,0.0,0.1
1446038657443488035,61,1446038657440287113,robocape,4.90837591319,4.4274687074,28.6510929298,0.0,10.0,0.0,0.0,0.0,10.0,0.0,0.0,0.0,10.0,-0.160322297623,0.0115847507418,0.121573303762,1.0,0.0,0.0,0.0,1.0,0.0,0.0,0.0,1.0,0.110170898438,0.267044677734,9.9668737793,0.1,0.0,0.0,0.0,0.1,0.0,0.0,0.0,0.1
1446038657476133618,62,1446038657472985982,robocape,4.63931739419,4.40785878324,28.8578491741,0.0,10.0,0.0,0.0,0.0,10.0,0.0,0.0,0.0,10.0,-0.143943856919,0.00732369299772,0.152599130462,1.0,0.0,0.0,0.0,1.0,0.0,0.0,0.0,1.0,0.102985839844,-0.13412109375,9.99082397461,0.1,0.0,0.0,0.0,0.1,0.0,0.0,0.0,0.1
1446038657509520660,63,1446038657506402015,robocape,4.46163059682,4.38025241346,29.0688324223,0.0,10.0,0.0,0.0,0.0,10.0,0.0,0.0,0.0,10.0,-0.0964064314609,0.00292947719909,0.156327555988,1.0,0.0,0.0,0.0,1.0,0.0,0.0,0.0,1.0,0.0934057617188,-0.245489501953,9.98842895508,0.1,0.0,0.0,0.0,0.1,0.0,0.0,0.0,0.1
1446038657543186868,64,1446038657539877891,robocape,4.38024609701,4.34957802448,29.2676818215,0.0,10.0,0.0,0.0,0.0,10.0,0.0,0.0,0.0,10.0,-0.0455400546404,0.000532632218016,0.150734917698,1.0,0.0,0.0,0.0,1.0,0.0,0.0,0.0,1.0,-0.197589111328,-0.123343505859,10.0435144043,0.1,0.0,0.0,0.0,0.1,0.0,0.0,0.0,0.1
1446038657578645451,65,1446038657575536966,robocape,4.36047655728,4.3128937656,29.5070841008,0.0,10.0,0.0,0.0,0.0,10.0,0.0,0.0,0.0,10.0,-0.0146473859954,-0.000798948327024,0.1744370514,1.0,0.0,0.0,0.0,1.0,0.0,0.0,0.0,1.0,-0.0538879394531,-0.396375732422,10.0435144043,0.1,0.0,0.0,0.0,0.1,0.0,0.0,0.0,0.1
1446038657611444743,66,1446038657608340024,robocape,4.50061937269,4.28402209723,29.6481037628,0.0,10.0,0.0,0.0,0.0,10.0,0.0,0.0,0.0,10.0,0.0729706138682,-0.00106526443603,0.120641197381,1.0,0.0,0.0,0.0,1.0,0.0,0.0,0.0,1.0,0.160466308594,-0.889749755859,10.1405126953,0.1,0.0,0.0,0.0,0.1,0.0,0.0,0.0,0.1
1446038657645444285,67,1446038657640065908,robocape,4.90758521911,4.27656712108,29.625330888,0.0,10.0,0.0,0.0,0.0,10.0,0.0,0.0,0.0,10.0,0.219178157714,0.00266316109008,0.0299605622634,1.0,0.0,0.0,0.0,1.0,0.0,0.0,0.0,1.0,-0.124541015625,-0.347277832031,10.0075891113,0.1,0.0,0.0,0.0,0.1,0.0,0.0,0.0,0.1
1446038657676062993,68,1446038657673032999,robocape,5.37914960436,4.28798901485,29.5422228703,0.0,10.0,0.0,0.0,0.0,10.0,0.0,0.0,0.0,10.0,0.255796622702,0.00945422186978,-0.00399474163512,1.0,0.0,0.0,0.0,1.0,0.0,0.0,0.0,1.0,-0.137713623047,0.372425537109,9.83275268555,0.1,0.0,0.0,0.0,0.1,0.0,0.0,0.0,0.1
1446038657710299452,69,1446038657706793069,robocape,5.91072041459,4.31330760466,29.3088984344,0.0,10.0,0.0,0.0,0.0,10.0,0.0,0.0,0.0,10.0,0.293080877963,0.00785632521573,-0.0878843159726,1.0,0.0,0.0,0.0,1.0,0.0,0.0,0.0,1.0,0.361647949219,0.781973876953,9.94292358398,0.1,0.0,0.0,0.0,0.1,0.0,0.0,0.0,0.1
1446038657745676410,70,1446038657741319894,robocape,6.16588281766,4.33515872315,29.1391102956,0.0,10.0,0.0,0.0,0.0,10.0,0.0,0.0,0.0,10.0,0.1463407019,0.00905474770627,-0.0540621701286,1.0,0.0,0.0,0.0,1.0,0.0,0.0,0.0,1.0,0.359252929688,1.69687133789,9.89143066406,0.1,0.0,0.0,0.0,0.1,0.0,0.0,0.0,0.1
1446038657778047785,71,1446038657774183988,robocape,5.98706482425,4.36215887399,29.0514382424,0.0,10.0,0.0,0.0,0.0,10.0,0.0,0.0,0.0,10.0,-0.084289048501,0.016378440704,-0.0115847507418,1.0,0.0,0.0,0.0,1.0,0.0,0.0,0.0,1.0,-0.0371228027344,1.6058605957,9.90340576172,0.1,0.0,0.0,0.0,0.1,0.0,0.0,0.0,0.1
1446038657811948535,72,1446038657808388948,robocape,5.6105599865,4.41422639133,28.8612796353,0.0,10.0,0.0,0.0,0.0,10.0,0.0,0.0,0.0,10.0,-0.184823379651,0.0233026595382,-0.0709732430506,1.0,0.0,0.0,0.0,1.0,0.0,0.0,0.0,1.0,0.274229736328,0.586779785156,10.0267492676,0.1,0.0,0.0,0.0,0.1,0.0,0.0,0.0,0.1
1446038657845716535,73,1446038657842226028,robocape,5.26551739396,4.47705672736,28.5701828625,0.0,10.0,0.0,0.0,0.0,10.0,0.0,0.0,0.0,10.0,-0.16498282953,0.0238352917562,-0.12743225816,1.0,0.0,0.0,0.0,1.0,0.0,0.0,0.0,1.0,0.192799072266,0.21076171875,10.0387243652,0.1,0.0,0.0,0.0,0.1,0.0,0.0,0.0,0.1
1446038657879280410,74,1446038657875819921,robocape,5.02792163206,4.55028135741,28.1326200315,0.0,10.0,0.0,0.0,0.0,10.0,0.0,0.0,0.0,10.0,-0.103330650295,0.0222373951022,-0.208791829462,1.0,0.0,0.0,0.0,1.0,0.0,0.0,0.0,1.0,-0.131726074219,0.0826281738281,9.99082397461,0.1,0.0,0.0,0.0,0.1,0.0,0.0,0.0,0.1
1446038657911325910,75,1446038657907895088,robocape,4.85843035682,4.62503274255,27.5964659174,0.0,10.0,0.0,0.0,0.0,10.0,0.0,0.0,0.0,10.0,-0.0637827081074,0.0187752856851,-0.263519789863,1.0,0.0,0.0,0.0,1.0,0.0,0.0,0.0,1.0,-0.00598754882813,-0.0383203125,9.99321899414,0.1,0.0,0.0,0.0,0.1,0.0,0.0,0.0,0.1
1446038657945274910,76,1446038657941973924,robocape,4.77257528697,4.69125645704,26.9638762719,0.0,10.0,0.0,0.0,0.0,10.0,0.0,0.0,0.0,10.0,-0.0159789665405,0.0101200121423,-0.316516695556,1.0,0.0,0.0,0.0,1.0,0.0,0.0,0.0,1.0,0.132923583984,0.251477050781,9.93933105469,0.1,0.0,0.0,0.0,0.1,0.0,0.0,0.0,0.1
1446038657978285618,77,1446038657975019931,robocape,4.64971156685,4.73647953576,26.2837396443,0.0,10.0,0.0,0.0,0.0,10.0,0.0,0.0,0.0,10.0,-0.033289513626,-0.00266316109008,-0.342482516184,1.0,0.0,0.0,0.0,1.0,0.0,0.0,0.0,1.0,-0.102985839844,0.912502441406,9.93334350586,0.1,0.0,0.0,0.0,0.1,0.0,0.0,0.0,0.1
1446038658011429910,78,1446038658008183956,robocape,4.12128338981,4.75362855329,25.8865484118,0.0,10.0,0.0,0.0,0.0,10.0,0.0,0.0,0.0,10.0,-0.257261361302,-0.00266316109008,-0.188285489069,1.0,0.0,0.0,0.0,1.0,0.0,0.0,0.0,1.0,0.180823974609,1.09811645508,9.90340576172,0.1,0.0,0.0,0.0,0.1,0.0,0.0,0.0,0.1
1446038658044154118,79,1446038658040689945,robocape,3.31708810311,4.74227992307,25.6635852407,0.0,10.0,0.0,0.0,0.0,10.0,0.0,0.0,0.0,10.0,-0.4094610176,-0.00852211548825,-0.0930774800983,1.0,0.0,0.0,0.0,1.0,0.0,0.0,0.0,1.0,0.302969970703,0.09580078125,9.9980090332,0.1,0.0,0.0,0.0,0.1,0.0,0.0,0.0,0.1
1446038658078411368,80,1446038658075139999,robocape,2.37810149359,4.70938661127,25.6840297905,0.0,10.0,0.0,0.0,0.0,10.0,0.0,0.0,0.0,10.0,-0.491086905011,-0.0105194863058,0.0407463646782,1.0,0.0,0.0,0.0,1.0,0.0,0.0,0.0,1.0,0.0203576660156,0.0119750976563,10.1297351074,0.1,0.0,0.0,0.0,0.1,0.0,0.0,0.0,0.1
1446038658110305827,81,1446038658107160091,robocape,1.48665725198,4.67634681755,25.6907921411,0.0,10.0,0.0,0.0,0.0,10.0,0.0,0.0,0.0,10.0,-0.466585822982,-0.0111852765783,0.0339553038985,1.0,0.0,0.0,0.0,1.0,0.0,0.0,0.0,1.0,-0.300574951172,-0.340092773437,10.0207617188,0.1,0.0,0.0,0.0,0.1,0.0,0.0,0.0,0.1
1446038658144450410,82,1446038658141017913,robocape,0.603902117656,4.63928416267,25.717766703,0.0,10.0,0.0,0.0,0.0,10.0,0.0,0.0,0.0,10.0,-0.463922661892,-0.0131826473959,0.0456732126949,1.0,0.0,0.0,0.0,1.0,0.0,0.0,0.0,1.0,-0.293389892578,-0.714913330078,9.96807128906,0.1,0.0,0.0,0.0,0.1,0.0,0.0,0.0,0.1
1446038658177528660,83,1446038658174242019,robocape,-0.211474498918,4.59954311933,25.7492547913,0.0,10.0,0.0,0.0,0.0,10.0,0.0,0.0,0.0,10.0,-0.429834199939,-0.0149137021044,0.0487358479485,1.0,0.0,0.0,0.0,1.0,0.0,0.0,0.0,1.0,-0.174836425781,-0.744851074219,10.0782421875,0.1,0.0,0.0,0.0,0.1,0.0,0.0,0.0,0.1
1446038658209734952,84,1446038658206676959,robocape,-0.804918719979,4.56438768288,25.6657537496,0.0,10.0,0.0,0.0,0.0,10.0,0.0,0.0,0.0,10.0,-0.309326160613,-0.0129163312869,-0.0142479118319,1.0,0.0,0.0,0.0,1.0,0.0,0.0,0.0,1.0,0.0622705078125,-1.93397827148,10.0997973633,0.1,0.0,0.0,0.0,0.1,0.0,0.0,0.0,0.1
1446038658244129035,85,1446038658241065979,robocape,-1.05908850689,4.54942329299,25.6582455057,0.0,10.0,0.0,0.0,0.0,10.0,0.0,0.0,0.0,10.0,-0.135288583376,-0.00253000303558,0.0272974011733,1.0,0.0,0.0,0.0,1.0,0.0,0.0,0.0,1.0,0.251477050781,-2.11959228516,10.0626745605,0.1,0.0,0.0,0.0,0.1,0.0,0.0,0.0,0.1
1446038658277078827,86,1446038658273757934,robocape,-0.987624017429,4.56958967231,25.6853510262,0.0,10.0,0.0,0.0,0.0,10.0,0.0,0.0,0.0,10.0,0.033822145844,0.015579492377,0.0462058449129,1.0,0.0,0.0,0.0,1.0,0.0,0.0,0.0,1.0,0.198786621094,-2.11240722656,10.0207617188,0.1,0.0,0.0,0.0,0.1,0.0,0.0,0.0,0.1
1446038658309337660,87,1446038658306283950,robocape,-0.605392395639,4.61540960794,25.7234548003,0.0,10.0,0.0,0.0,0.0,10.0,0.0,0.0,0.0,10.0,0.196541288448,0.0290284558819,0.0519316412565,1.0,0.0,0.0,0.0,1.0,0.0,0.0,0.0,1.0,0.235909423828,-1.71124145508,9.9980090332,0.1,0.0,0.0,0.0,0.1,0.0,0.0,0.0,0.1
1446038658343242660,88,1446038658340141057,robocape,-0.0401405574326,4.6692428442,25.7695297371,0.0,10.0,0.0,0.0,0.0,10.0,0.0,0.0,0.0,10.0,0.2926814038,0.033555829735,0.0560595409462,1.0,0.0,0.0,0.0,1.0,0.0,0.0,0.0,1.0,-0.0826281738281,-1.04782104492,10.1944006348,0.1,0.0,0.0,0.0,0.1,0.0,0.0,0.0,0.1
1446038658377301910,89,1446038658374227046,robocape,0.51705174692,4.71532374586,25.809638175,0.0,10.0,0.0,0.0,0.0,10.0,0.0,0.0,0.0,10.0,0.289352452437,0.0299605622634,0.0528637476381,1.0,0.0,0.0,0.0,1.0,0.0,0.0,0.0,1.0,-0.262254638672,-0.819096679688,9.98962646484,0.1,0.0,0.0,0.0,0.1,0.0,0.0,0.0,0.1
1446038658411458994,90,1446038658408340930,robocape,1.17656081703,4.75608797666,25.7393232343,0.0,10.0,0.0,0.0,0.0,10.0,0.0,0.0,0.0,10.0,0.348474628637,0.0262321367373,-0.00785632521573,1.0,0.0,0.0,0.0,1.0,0.0,0.0,0.0,1.0,-0.00838256835938,-0.707728271484,9.97405883789,0.1,0.0,0.0,0.0,0.1,0.0,0.0,0.0,0.1
1446038658442199827,91,1446038658439172029,robocape,1.93400511795,4.7957895564,25.5902395624,0.0,10.0,0.0,0.0,0.0,10.0,0.0,0.0,0.0,10.0,0.404001537365,0.0239684498107,-0.0511326929295,1.0,0.0,0.0,0.0,1.0,0.0,0.0,0.0,1.0,0.111368408203,-0.817899169922,9.97166381836,0.1,0.0,0.0,0.0,0.1,0.0,0.0,0.0,0.1
1446038658475006369,92,1446038658471869945,robocape,2.8828847418,4.83768796225,25.2201198038,0.0,10.0,0.0,0.0,0.0,10.0,0.0,0.0,0.0,10.0,0.514655880658,0.018242653467,-0.172306522528,1.0,0.0,0.0,0.0,1.0,0.0,0.0,0.0,1.0,-0.00119750976563,0.280217285156,9.99082397461,0.1,0.0,0.0,0.0,0.1,0.0,0.0,0.0,0.1
1446038658508252410,93,1446038658505214929,robocape,3.45352015148,4.86100744836,24.9457272596,0.0,10.0,0.0,0.0,0.0,10.0,0.0,0.0,0.0,10.0,0.313187744193,0.00945422186978,-0.119842249054,1.0,0.0,0.0,0.0,1.0,0.0,0.0,0.0,1.0,-0.131726074219,2.02858154297,9.97166381836,0.1,0.0,0.0,0.0,0.1,0.0,0.0,0.0,0.1
1446038658541659452,94,1446038658538403034,robocape,3.47711353228,4.87748010232,24.7906379652,0.0,10.0,0.0,0.0,0.0,10.0,0.0,0.0,0.0,10.0,0.0217047628841,0.00945422186978,-0.0557932248372,1.0,0.0,0.0,0.0,1.0,0.0,0.0,0.0,1.0,0.269439697266,1.45377685547,9.93693603516,0.1,0.0,0.0,0.0,0.1,0.0,0.0,0.0,0.1
1446038658575068035,95,1446038658572020053,robocape,3.2076358115,4.88396705008,24.5074427032,0.0,10.0,0.0,0.0,0.0,10.0,0.0,0.0,0.0,10.0,-0.126633309833,-0.000399474163512,-0.126500151779,1.0,0.0,0.0,0.0,1.0,0.0,0.0,0.0,1.0,-0.0718505859375,1.09212890625,9.94292358398,0.1,0.0,0.0,0.0,0.1,0.0,0.0,0.0,0.1
1446038658608131869,96,1446038658605093002,robocape,2.57536464739,4.8686518313,24.2579014318,0.0,10.0,0.0,0.0,0.0,10.0,0.0,0.0,0.0,10.0,-0.318647224428,-0.00985369603329,-0.10879013053,1.0,0.0,0.0,0.0,1.0,0.0,0.0,0.0,1.0,0.147293701172,1.25379272461,9.90939331055,0.1,0.0,0.0,0.0,0.1,0.0,0.0,0.0,0.1
1446038658641448660,97,1446038658638428926,robocape,1.54755136807,4.80860817292,24.207356288,0.0,10.0,0.0,0.0,0.0,10.0,0.0,0.0,0.0,10.0,-0.53542853716,-0.0268979270098,-0.000266316109008,1.0,0.0,0.0,0.0,1.0,0.0,0.0,0.0,1.0,0.0526904296875,0.573607177734,10.1021923828,0.1,0.0,0.0,0.0,0.1,0.0,0.0,0.0,0.1
1446038658674934160,98,1446038658671827077,robocape,0.250298766198,4.73367922575,24.2862849701,0.0,10.0,0.0,0.0,0.0,10.0,0.0,0.0,0.0,10.0,-0.683633451823,-0.0326237233535,0.0707069269416,1.0,0.0,0.0,0.0,1.0,0.0,0.0,0.0,1.0,-0.207169189453,-0.0227526855469,10.0734521484,0.1,0.0,0.0,0.0,0.1,0.0,0.0,0.0,0.1
1446038658707721785,99,1446038658704701900,robocape,-1.12337735612,4.62528378417,24.3648743453,0.0,10.0,0.0,0.0,0.0,10.0,0.0,0.0,0.0,10.0,-0.725311922883,-0.051265850984,0.0712395591596,1.0,0.0,0.0,0.0,1.0,0.0,0.0,0.0,1.0,-0.477806396484,-2.13635742188,10.0051940918,0.1,0.0,0.0,0.0,0.1,0.0,0.0,0.0,0.1
1446038658741171077,100,1446038658738142967,robocape,-2.01125879046,4.54612030504,24.3096583688,0.0,10.0,0.0,0.0,0.0,10.0,0.0,0.0,0.0,10.0,-0.466053190764,-0.0356863586071,-0.00146473859954,1.0,0.0,0.0,0.0,1.0,0.0,0.0,0.0,1.0,0.329315185547,-2.25610839844,9.95729370117,0.1,0.0,0.0,0.0,0.1,0.0,0.0,0.0,0.1
1446038658774355577,101,1446038658771316051,robocape,-2.54883297139,4.51448887921,24.3310155904,0.0,10.0,0.0,0.0,0.0,10.0,0.0,0.0,0.0,10.0,-0.286689291347,-0.0119842249054,0.0408795227327,1.0,0.0,0.0,0.0,1.0,0.0,0.0,0.0,1.0,0.547261962891,-3.00694702148,10.0339343262,0.1,0.0,0.0,0.0,0.1,0.0,0.0,0.0,0.1
1446038658807891744,102,1446038658804784059,robocape,-2.45254667065,4.5397574461,24.2781751599,0.0,10.0,0.0,0.0,0.0,10.0,0.0,0.0,0.0,10.0,0.048869006003,0.0187752856851,0.0,1.0,0.0,0.0,0.0,1.0,0.0,0.0,0.0,1.0,0.276624755859,-3.34823730469,10.0375268555,0.1,0.0,0.0,0.0,0.1,0.0,0.0,0.0,0.1
1446038658841524535,103,1446038658838447093,robocape,-1.83831206441,4.62212283501,24.2258510395,0.0,10.0,0.0,0.0,0.0,10.0,0.0,0.0,0.0,10.0,0.320910911355,0.0483363737849,-0.000266316109008,1.0,0.0,0.0,0.0,1.0,0.0,0.0,0.0,1.0,0.362845458984,-2.23814575195,9.97765136719,0.1,0.0,0.0,0.0,0.1,0.0,0.0,0.0,0.1
1446038658875090369,104,1446038658871707916,robocape,-1.02604968558,4.71588627102,24.2162057835,0.0,10.0,0.0,0.0,0.0,10.0,0.0,0.0,0.0,10.0,0.423575771377,0.0537958540196,0.0223705531567,1.0,0.0,0.0,0.0,1.0,0.0,0.0,0.0,1.0,0.128133544922,-1.16158447266,10.0387243652,0.1,0.0,0.0,0.0,0.1,0.0,0.0,0.0,0.1
1446038658907978619,105,1446038658904891967,robocape,-0.208825681616,4.78548987303,24.220749279,0.0,10.0,0.0,0.0,0.0,10.0,0.0,0.0,0.0,10.0,0.426372090522,0.0414121549507,0.0296942461544,1.0,0.0,0.0,0.0,1.0,0.0,0.0,0.0,1.0,-0.17244140625,-0.528101806641,10.1979931641,0.1,0.0,0.0,0.0,0.1,0.0,0.0,0.0,0.1
1446038658941462077,106,1446038658938343048,robocape,0.580479328447,4.84616576994,24.1428841497,0.0,10.0,0.0,0.0,0.0,10.0,0.0,0.0,0.0,10.0,0.416252078379,0.0366184649886,-0.015313176268,1.0,0.0,0.0,0.0,1.0,0.0,0.0,0.0,1.0,-0.123343505859,-0.323327636719,10.0818347168,0.1,0.0,0.0,0.0,0.1,0.0,0.0,0.0,0.1
1446038658975019285,107,1446038658972006082,robocape,1.2839653973,4.90230177294,24.0478614082,0.0,10.0,0.0,0.0,0.0,10.0,0.0,0.0,0.0,10.0,0.372842552611,0.033822145844,-0.0246342400832,1.0,0.0,0.0,0.0,1.0,0.0,0.0,0.0,1.0,-0.0131726074219,-0.258662109375,10.0087866211,0.1,0.0,0.0,0.0,0.1,0.0,0.0,0.0,0.1
1446038659009260869,108,1446038659006160974,robocape,1.86490872404,4.9481873463,23.9559429314,0.0,10.0,0.0,0.0,0.0,10.0,0.0,0.0,0.0,10.0,0.309193002558,0.0282295075548,-0.0229031853747,1.0,0.0,0.0,0.0,1.0,0.0,0.0,0.0,1.0,0.0934057617188,-0.0179626464844,9.98962646484,0.1,0.0,0.0,0.0,0.1,0.0,0.0,0.0,0.1
1446038659041402577,109,1446038659038131952,robocape,2.24269656963,4.97626046564,23.946377245,0.0,10.0,0.0,0.0,0.0,10.0,0.0,0.0,0.0,10.0,0.199603923701,0.0206394984481,0.0221042370477,1.0,0.0,0.0,0.0,1.0,0.0,0.0,0.0,1.0,0.0179626464844,0.70892578125,9.98842895508,0.1,0.0,0.0,0.0,0.1,0.0,0.0,0.0,0.1
1446038659074851827,110,1446038659071691989,robocape,2.32572049462,4.99160853154,23.9203492808,0.0,10.0,0.0,0.0,0.0,10.0,0.0,0.0,0.0,10.0,0.0460726868584,0.0135821215594,0.0130494893414,1.0,0.0,0.0,0.0,1.0,0.0,0.0,0.0,1.0,0.0047900390625,0.863404541016,10.0004040527,0.1,0.0,0.0,0.0,0.1,0.0,0.0,0.0,0.1
1446038659108016827,111,1446038659105000019,robocape,2.16608789564,4.99667179863,23.8775431744,0.0,10.0,0.0,0.0,0.0,10.0,0.0,0.0,0.0,10.0,-0.0804274649204,0.00772316716123,0.00372842552611,1.0,0.0,0.0,0.0,1.0,0.0,0.0,0.0,1.0,-0.0251477050781,0.445473632813,10.0123791504,0.1,0.0,0.0,0.0,0.1,0.0,0.0,0.0,0.1
1446038659145130994,112,1446038659141680002,robocape,1.84510471476,4.98740936714,23.8877305066,0.0,10.0,0.0,0.0,0.0,10.0,0.0,0.0,0.0,10.0,-0.16764599062,0.00146473859954,0.0326237233535,1.0,0.0,0.0,0.0,1.0,0.0,0.0,0.0,1.0,0.0490979003906,0.197589111328,10.055489502,0.1,0.0,0.0,0.0,0.1,0.0,0.0,0.0,0.1
1446038659177594619,113,1446038659174107074,robocape,1.39284707876,4.97507370359,23.8449325395,0.0,10.0,0.0,0.0,0.0,10.0,0.0,0.0,0.0,10.0,-0.234491333981,-0.00133158054504,0.00372842552611,1.0,0.0,0.0,0.0,1.0,0.0,0.0,0.0,1.0,0.0047900390625,0.0814306640625,10.0578845215,0.1,0.0,0.0,0.0,0.1,0.0,0.0,0.0,0.1
1446038659210552411,114,1446038659207278966,robocape,0.820945898327,4.94726467014,23.866092982,0.0,10.0,0.0,0.0,0.0,10.0,0.0,0.0,0.0,10.0,-0.30067088707,-0.00838895743375,0.0387489938607,1.0,0.0,0.0,0.0,1.0,0.0,0.0,0.0,1.0,-0.0215551757813,-0.0814306640625,10.0027990723,0.1,0.0,0.0,0.0,0.1,0.0,0.0,0.0,0.1
1446038659244471994,115,1446038659241373062,robocape,0.135279973473,4.90878657032,23.898271607,0.0,10.0,0.0,0.0,0.0,10.0,0.0,0.0,0.0,10.0,-0.361524117978,-0.0141147537774,0.0450074224223,1.0,0.0,0.0,0.0,1.0,0.0,0.0,0.0,1.0,-0.0431103515625,-0.219144287109,10.039921875,0.1,0.0,0.0,0.0,0.1,0.0,0.0,0.0,0.1
1446038659277765494,116,1446038659274688959,robocape,-0.470043414733,4.87486781662,23.8226620229,0.0,10.0,0.0,0.0,0.0,10.0,0.0,0.0,0.0,10.0,-0.315185115011,-0.0123836990689,-0.0135821215594,1.0,0.0,0.0,0.0,1.0,0.0,0.0,0.0,1.0,-0.174836425781,-1.31845825195,10.0542919922,0.1,0.0,0.0,0.0,0.1,0.0,0.0,0.0,0.1
1446038659310966661,117,1446038659307737112,robocape,-0.930313229103,4.83566725012,23.8032266945,0.0,10.0,0.0,0.0,0.0,10.0,0.0,0.0,0.0,10.0,-0.242347659197,-0.0150468601589,0.016911072922,1.0,0.0,0.0,0.0,1.0,0.0,0.0,0.0,1.0,-0.137713623047,-1.82859741211,10.0746496582,0.1,0.0,0.0,0.0,0.1,0.0,0.0,0.0,0.1
1446038659343751244,118,1446038659340570926,robocape,-1.12066985964,4.86373057298,23.7659756231,0.0,10.0,0.0,0.0,0.0,10.0,0.0,0.0,0.0,10.0,-0.100401173096,0.0202400242846,0.00772316716123,1.0,0.0,0.0,0.0,1.0,0.0,0.0,0.0,1.0,-0.486188964844,-1.96391601563,10.2171533203,0.1,0.0,0.0,0.0,0.1,0.0,0.0,0.0,0.1
1446038659382271536,119,1446038659375866889,robocape,-1.10333381247,4.95644742854,23.7457416008,0.0,10.0,0.0,0.0,0.0,10.0,0.0,0.0,0.0,10.0,0.00759000910673,0.0540621701286,0.0175768631945,1.0,0.0,0.0,0.0,1.0,0.0,0.0,0.0,1.0,-3.29434936523,-1.56873779297,10.6650219727,0.1,0.0,0.0,0.0,0.1,0.0,0.0,0.0,0.1
1446038659410794952,120,1446038659407557010,robocape,-0.951886327307,5.09845350352,23.6077723703,0.0,10.0,0.0,0.0,0.0,10.0,0.0,0.0,0.0,10.0,0.0836232582285,0.0805606229749,-0.0463390029674,1.0,0.0,0.0,0.0,1.0,0.0,0.0,0.0,1.0,-7.39821533203,-1.52323242188,11.8960620117,0.1,0.0,0.0,0.0,0.1,0.0,0.0,0.0,0.1
1446038659444096994,121,1446038659440965890,robocape,-0.540351855049,5.11232348149,23.4117688311,0.0,10.0,0.0,0.0,0.0,10.0,0.0,0.0,0.0,10.0,0.223172899349,0.0130494893414,-0.0805606229749,1.0,0.0,0.0,0.0,1.0,0.0,0.0,0.0,1.0,-9.53577026367,-2.76385253906,11.0338549805,0.1,0.0,0.0,0.0,0.1,0.0,0.0,0.0,0.1
1446038659477041994,122,1446038659473956108,robocape,0.0195933074858,5.12731189316,23.1452307988,0.0,10.0,0.0,0.0,0.0,10.0,0.0,0.0,0.0,10.0,0.30479878676,0.0126500151779,-0.11944277489,1.0,0.0,0.0,0.0,1.0,0.0,0.0,0.0,1.0,-7.50599121094,-1.19990478516,10.745255127,0.1,0.0,0.0,0.0,0.1,0.0,0.0,0.0,0.1
1446038659509504869,123,1446038659506225109,robocape,0.174021969836,5.17246199581,22.3854352348,0.0,10.0,0.0,0.0,0.0,10.0,0.0,0.0,0.0,10.0,0.116246981582,0.0250337142467,-0.387223622498,1.0,0.0,0.0,0.0,1.0,0.0,0.0,0.0,1.0,-7.67484008789,-1.97948364258,11.2601843262,0.1,0.0,0.0,0.0,0.1,0.0,0.0,0.0,0.1
1446038659542478327,124,1446038659539154052,robocape,0.856969715557,5.14853580685,21.6480837222,0.0,10.0,0.0,0.0,0.0,10.0,0.0,0.0,0.0,10.0,0.392283628569,-0.0139815957229,-0.375905187865,1.0,0.0,0.0,0.0,1.0,0.0,0.0,0.0,1.0,-6.821015625,-1.30408813477,10.8326733398,0.1,0.0,0.0,0.0,0.1,0.0,0.0,0.0,0.1
1446038659577298411,125,1446038659574191093,robocape,1.99696660065,5.2323491612,20.93527957,0.0,10.0,0.0,0.0,0.0,10.0,0.0,0.0,0.0,10.0,0.631169178349,0.0370179391521,-0.363255172687,1.0,0.0,0.0,0.0,1.0,0.0,0.0,0.0,1.0,-7.15272583008,-1.20349731445,11.4936987305,0.1,0.0,0.0,0.0,0.1,0.0,0.0,0.0,0.1
1446038659609387244,126,1446038659605801105,robocape,3.59450866903,5.50564179854,20.241603369,0.0,10.0,0.0,0.0,0.0,10.0,0.0,0.0,0.0,10.0,0.872052098946,0.128630680651,-0.356597269962,1.0,0.0,0.0,0.0,1.0,0.0,0.0,0.0,1.0,-6.27734619141,-1.51963989258,10.3967797852,0.1,0.0,0.0,0.0,0.1,0.0,0.0,0.0,0.1
1446038659641895119,127,1446038659638786077,robocape,5.81493431335,5.83123805091,19.4625619235,0.0,10.0,0.0,0.0,0.0,10.0,0.0,0.0,0.0,10.0,1.20641197381,0.14101437972,-0.40533311791,1.0,0.0,0.0,0.0,1.0,0.0,0.0,0.0,1.0,-6.41865234375,-0.911304931641,11.1116931152,0.1,0.0,0.0,0.0,0.1,0.0,0.0,0.0,0.1
1446038659677739619,128,1446038659672713994,robocape,8.65907728327,5.8983729382,18.671227458,0.0,10.0,0.0,0.0,0.0,10.0,0.0,0.0,0.0,10.0,1.53930711007,-0.0105194863058,-0.395612579931,1.0,0.0,0.0,0.0,1.0,0.0,0.0,0.0,1.0,-6.00431396484,-2.08007446289,10.2231408691,0.1,0.0,0.0,0.0,0.1,0.0,0.0,0.0,0.1
1446038659708348369,129,1446038659705250024,robocape,12.0214974264,6.0374887484,17.8318616753,0.0,10.0,0.0,0.0,0.0,10.0,0.0,0.0,0.0,10.0,1.82306692421,0.00386158358061,-0.417716816979,1.0,0.0,0.0,0.0,1.0,0.0,0.0,0.0,1.0,-10.3416943359,-1.14841186523,9.87825805664,0.1,0.0,0.0,0.0,0.1,0.0,0.0,0.0,0.1
1446038659741785202,130,1446038659738677024,robocape,16.2070939068,6.09983846951,17.2102575049,0.0,10.0,0.0,0.0,0.0,10.0,0.0,0.0,0.0,10.0,2.26515166517,-0.0278300333913,-0.28056402084,1.0,0.0,0.0,0.0,1.0,0.0,0.0,0.0,1.0,-2.56027587891,-1.42503662109,9.84592529297,0.1,0.0,0.0,0.0,0.1,0.0,0.0,0.0,0.1
1446038659775114077,131,1446038659772016048,robocape,20.6291201992,6.06311085261,16.6209546121,0.0,10.0,0.0,0.0,0.0,10.0,0.0,0.0,0.0,10.0,2.41761763757,-0.0865527354276,-0.230496592346,1.0,0.0,0.0,0.0,1.0,0.0,0.0,0.0,1.0,-1.87051025391,-1.4214440918,7.87242919922,0.1,0.0,0.0,0.0,0.1,0.0,0.0,0.0,0.1
1446038659808196703,132,1446038659805109977,robocape,25.6987275707,6.12347481668,16.6142077514,0.0,10.0,0.0,0.0,0.0,10.0,0.0,0.0,0.0,10.0,2.78859597742,0.0760332491218,0.066579027252,1.0,0.0,0.0,0.0,1.0,0.0,0.0,0.0,1.0,-2.45968505859,0.271834716797,10.4159399414,0.1,0.0,0.0,0.0,0.1,0.0,0.0,0.0,0.1
1446038659841592453,133,1446038659838512897,robocape,30.9550030216,6.30363798134,17.215024147,0.0,10.0,0.0,0.0,0.0,10.0,0.0,0.0,0.0,10.0,2.9358687857,0.305331418978,0.342615674239,1.0,0.0,0.0,0.0,1.0,0.0,0.0,0.0,1.0,-5.50016235352,0.6514453125,7.99577270508,0.1,0.0,0.0,0.0,0.1,0.0,0.0,0.0,0.1
1446038659875146286,134,1446038659871825933,robocape,35.9899160258,6.9171284616,18.9727959595,0.0,10.0,0.0,0.0,0.0,10.0,0.0,0.0,0.0,10.0,2.85064763082,0.885634220506,0.735698251134,1.0,0.0,0.0,0.0,1.0,0.0,0.0,0.0,1.0,-2.70637207031,2.75427246094,12.0708984375,0.1,0.0,0.0,0.0,0.1,0.0,0.0,0.0,0.1
1446038659907927578,135,1446038659904844999,robocape,38.3461067141,6.70839688814,22.5680634025,0.0,10.0,0.0,0.0,0.0,10.0,0.0,0.0,0.0,10.0,1.30361735359,1.15954033862,1.70961626178,1.0,0.0,0.0,0.0,1.0,0.0,0.0,0.0,1.0,-3.92304199219,15.7077355957,14.6479394531,0.1,0.0,0.0,0.0,0.1,0.0,0.0,0.0,0.1
1446038659941317869,136,1446038659938157081,robocape,36.8527031336,6.94873587295,28.4659143142,0.0,10.0,0.0,0.0,0.0,10.0,0.0,0.0,0.0,10.0,-0.983505390566,2.05689246792,2.46968243688,1.0,0.0,0.0,0.0,1.0,0.0,0.0,0.0,1.0,2.09803710938,10.4303100586,14.1042700195,0.1,0.0,0.0,0.0,0.1,0.0,0.0,0.0,0.1
1446038659974511078,137,1446038659971445083,robocape,33.3339483807,6.99925496986,33.5322415048,0.0,10.0,0.0,0.0,0.0,10.0,0.0,0.0,0.0,10.0,-2.08578776575,1.58591242914,2.21841318804,1.0,0.0,0.0,0.0,1.0,0.0,0.0,0.0,1.0,-6.25579101563,1.58071289063,10.7668103027,0.1,0.0,0.0,0.0,0.1,0.0,0.0,0.0,0.1
1446038660007953578,138,1446038660004940986,robocape,29.58057889,7.00397869334,37.3544474376,0.0,10.0,0.0,0.0,0.0,10.0,0.0,0.0,0.0,10.0,-2.14464362584,1.08523814421,1.77872529206,1.0,0.0,0.0,0.0,1.0,0.0,0.0,0.0,1.0,-8.6256628418,0.661025390625,8.8939050293,0.1,0.0,0.0,0.0,0.1,0.0,0.0,0.0,0.1
1446038660041499661,139,1446038660038275003,robocape,25.6816965522,6.46420264761,39.9864932771,0.0,10.0,0.0,0.0,0.0,10.0,0.0,0.0,0.0,10.0,-2.16048943433,0.417849975033,1.41746749019,1.0,0.0,0.0,0.0,1.0,0.0,0.0,0.0,1.0,-3.53145629883,0.540076904297,10.8530310059,0.1,0.0,0.0,0.0,0.1,0.0,0.0,0.0,0.1
1446038660074704786,140,1446038660071624994,robocape,21.7284212098,5.99484640467,42.2394994856,0.0,10.0,0.0,0.0,0.0,10.0,0.0,0.0,0.0,10.0,-2.1567610088,0.282161917494,1.26513467584,1.0,0.0,0.0,0.0,1.0,0.0,0.0,0.0,1.0,-3.62605957031,-1.18673217773,7.61855712891,0.1,0.0,0.0,0.0,0.1,0.0,0.0,0.0,0.1
1446038660108209994,141,1446038660105168104,robocape,17.7635009997,5.83732679296,44.2279278505,0.0,10.0,0.0,0.0,0.0,10.0,0.0,0.0,0.0,10.0,-2.14437730973,0.311190373376,1.11945976421,1.0,0.0,0.0,0.0,1.0,0.0,0.0,0.0,1.0,-2.43453735352,-0.221539306641,10.8027355957,0.1,0.0,0.0,0.0,0.1,0.0,0.0,0.0,0.1
1446038660141662619,142,1446038660138544082,robocape,13.6818104944,5.4298990011,45.8586066354,0.0,10.0,0.0,0.0,0.0,10.0,0.0,0.0,0.0,10.0,-2.19124894492,0.0608532309083,1.00547646956,1.0,0.0,0.0,0.0,1.0,0.0,0.0,0.0,1.0,-1.05740112305,-0.775986328125,8.44004882813,0.1,0.0,0.0,0.0,0.1,0.0,0.0,0.0,0.1
1446038660174562994,143,1446038660171506881,robocape,9.5408022399,5.4384726844,47.3333338609,0.0,10.0,0.0,0.0,0.0,10.0,0.0,0.0,0.0,10.0,-2.21921213636,0.196674446502,0.912265831407,1.0,0.0,0.0,0.0,1.0,0.0,0.0,0.0,1.0,-7.01501220703,-0.86220703125,10.4782104492,0.1,0.0,0.0,0.0,0.1,0.0,0.0,0.0,0.1
1446038660209411244,144,1446038660206357955,robocape,5.37127484143,5.46367334751,48.5204382326,0.0,10.0,0.0,0.0,0.0,10.0,0.0,0.0,0.0,10.0,-2.23306057403,0.128098048433,0.792157266244,1.0,0.0,0.0,0.0,1.0,0.0,0.0,0.0,1.0,-3.08718017578,-1.32205078125,10.3895947266,0.1,0.0,0.0,0.0,0.1,0.0,0.0,0.0,0.1
1446038660241272994,145,1446038660238177061,robocape,1.01131635251,5.58232305108,49.4566895592,0.0,10.0,0.0,0.0,0.0,10.0,0.0,0.0,0.0,10.0,-2.33719017265,0.120374881272,0.686030296804,1.0,0.0,0.0,0.0,1.0,0.0,0.0,0.0,1.0,-3.60091186523,-1.11847412109,10.6267016602,0.1,0.0,0.0,0.0,0.1,0.0,0.0,0.0,0.1
1446038660274646411,146,1446038660271532058,robocape,-3.36666491227,5.5169071923,50.1120151318,0.0,10.0,0.0,0.0,0.0,10.0,0.0,0.0,0.0,10.0,-2.35143808449,-0.016644756813,0.561261199734,1.0,0.0,0.0,0.0,1.0,0.0,0.0,0.0,1.0,-2.02858154297,-1.44659179688,9.07712402344,0.1,0.0,0.0,0.0,0.1,0.0,0.0,0.0,0.1
1446038660307841744,147,1446038660304745912,robocape,-7.83214734209,5.41336347367,50.5239044698,0.0,10.0,0.0,0.0,0.0,10.0,0.0,0.0,0.0,10.0,-2.4066986771,-0.0579237537092,0.451006330605,1.0,0.0,0.0,0.0,1.0,0.0,0.0,0.0,1.0,2.09803710938,-1.50886230469,9.56570800781,0.1,0.0,0.0,0.0,0.1,0.0,0.0,0.0,0.1
1446038660341322744,148,1446038660338196039,robocape,-12.4526328148,4.9696355573,50.7062080201,0.0,10.0,0.0,0.0,0.0,10.0,0.0,0.0,0.0,10.0,-2.50110773775,-0.239684498107,0.313454060302,1.0,0.0,0.0,0.0,1.0,0.0,0.0,0.0,1.0,0.129331054688,-1.7208215332,6.05580688477,0.1,0.0,0.0,0.0,0.1,0.0,0.0,0.0,0.1
1446038660379454953,149,1446038660372950077,robocape,-17.1809933095,4.50887397933,50.5459580777,0.0,10.0,0.0,0.0,0.0,10.0,0.0,0.0,0.0,10.0,-2.567686765,-0.21877868355,0.129163312869,1.0,0.0,0.0,0.0,1.0,0.0,0.0,0.0,1.0,-0.548459472656,-2.08366699219,9.35734130859,0.1,0.0,0.0,0.0,0.1,0.0,0.0,0.0,0.1
1446038660408363369,150,1446038660405137062,robocape,-21.8757947199,4.26198948227,49.9776051645,0.0,10.0,0.0,0.0,0.0,10.0,0.0,0.0,0.0,10.0,-2.560363072,-0.0416784710597,-0.0451405804768,1.0,0.0,0.0,0.0,1.0,0.0,0.0,0.0,1.0,-4.45713134766,-2.4872277832,8.49154174805,0.1,0.0,0.0,0.0,0.1,0.0,0.0,0.0,0.1
1446038660441556953,151,1446038660438298940,robocape,-26.5860526259,4.20030992004,49.0376384355,0.0,10.0,0.0,0.0,0.0,10.0,0.0,0.0,0.0,10.0,-2.58819310539,0.140881221665,-0.170175993656,1.0,0.0,0.0,0.0,1.0,0.0,0.0,0.0,1.0,-0.912502441406,-2.82492553711,9.27471313477,0.1,0.0,0.0,0.0,0.1,0.0,0.0,0.0,0.1
1446038660475220536,152,1446038660471877098,robocape,-30.9793016079,4.06833004643,47.7015320425,0.0,10.0,0.0,0.0,0.0,10.0,0.0,0.0,0.0,10.0,-2.4257402789,0.235556598418,-0.37191044623,1.0,0.0,0.0,0.0,1.0,0.0,0.0,0.0,1.0,-1.97948364258,-4.47509399414,10.362052002,0.1,0.0,0.0,0.0,0.1,0.0,0.0,0.0,0.1
1446038660508475495,153,1446038660504976034,robocape,-32.3875581898,4.44343817268,44.9192227984,0.0,10.0,0.0,0.0,0.0,10.0,0.0,0.0,0.0,10.0,-0.612926524882,0.9342369104,-1.15674401948,1.0,0.0,0.0,0.0,1.0,0.0,0.0,0.0,1.0,3.64282470703,-16.1077038574,12.8025769043,0.1,0.0,0.0,0.0,0.1,0.0,0.0,0.0,0.1
1446038660541490703,154,1446038660538175106,robocape,-30.7730456652,4.5266368267,41.9755684293,0.0,10.0,0.0,0.0,0.0,10.0,0.0,0.0,0.0,10.0,1.13037872468,0.880174740271,-1.51493918609,1.0,0.0,0.0,0.0,1.0,0.0,0.0,0.0,1.0,-2.0273840332,-5.99353637695,10.1189575195,0.1,0.0,0.0,0.0,0.1,0.0,0.0,0.0,0.1
1446038660574972870,155,1446038660571675062,robocape,-28.3132910712,4.91456073527,39.6078233382,0.0,10.0,0.0,0.0,0.0,10.0,0.0,0.0,0.0,10.0,1.53091815263,0.814128345237,-1.17432088267,1.0,0.0,0.0,0.0,1.0,0.0,0.0,0.0,1.0,2.22018310547,-4.35893554688,11.5894995117,0.1,0.0,0.0,0.0,0.1,0.0,0.0,0.0,0.1
1446038660608270995,156,1446038660605156898,robocape,-25.2711973546,4.99460804952,38.0362185219,0.0,10.0,0.0,0.0,0.0,10.0,0.0,0.0,0.0,10.0,1.77113528296,0.42543998414,-0.872984205328,1.0,0.0,0.0,0.0,1.0,0.0,0.0,0.0,1.0,-0.461041259766,-2.27167602539,5.28700561523,0.1,0.0,0.0,0.0,0.1,0.0,0.0,0.0,0.1
1446038660641431078,157,1446038660638364076,robocape,-21.9189569166,5.01897982871,36.365887831,0.0,10.0,0.0,0.0,0.0,10.0,0.0,0.0,0.0,10.0,1.93039231614,0.373641500938,-0.95434377663,1.0,0.0,0.0,0.0,1.0,0.0,0.0,0.0,1.0,-0.118553466797,-4.74692871094,12.7235412598,0.1,0.0,0.0,0.0,0.1,0.0,0.0,0.0,0.1
1446038660674559703,158,1446038660671531915,robocape,-17.8481990752,5.73250082521,34.5191601195,0.0,10.0,0.0,0.0,0.0,10.0,0.0,0.0,0.0,10.0,2.30869434899,0.683500293769,-0.941027971179,1.0,0.0,0.0,0.0,1.0,0.0,0.0,0.0,1.0,0.204774169922,-3.89909179688,8.82804199219,0.1,0.0,0.0,0.0,0.1,0.0,0.0,0.0,0.1
1446038660707958495,159,1446038660704912900,robocape,-13.2863149085,6.0324216844,33.1883262147,0.0,10.0,0.0,0.0,0.0,10.0,0.0,0.0,0.0,10.0,2.51548880763,0.334759349023,-0.752742482111,1.0,0.0,0.0,0.0,1.0,0.0,0.0,0.0,1.0,0.795146484375,-3.32668212891,10.5799987793,0.1,0.0,0.0,0.0,0.1,0.0,0.0,0.0,0.1
1446038660741644578,160,1446038660738507986,robocape,-8.0857059625,5.75435251947,32.1136269569,0.0,10.0,0.0,0.0,0.0,10.0,0.0,0.0,0.0,10.0,2.8129639014,-0.0454068965859,-0.681103448788,1.0,0.0,0.0,0.0,1.0,0.0,0.0,0.0,1.0,-0.856219482422,-1.69567382813,6.39110961914,0.1,0.0,0.0,0.0,0.1,0.0,0.0,0.0,0.1
1446038660775928078,161,1446038660771941900,robocape,-3.01312896588,6.15129089791,31.2411255785,0.0,10.0,0.0,0.0,0.0,10.0,0.0,0.0,0.0,10.0,2.71216325414,0.245143978342,-0.48189899925,1.0,0.0,0.0,0.0,1.0,0.0,0.0,0.0,1.0,1.99385375977,-0.329315185547,9.24238037109,0.1,0.0,0.0,0.0,0.1,0.0,0.0,0.0,0.1
1446038660808066453,162,1446038660804941892,robocape,1.89975043372,6.17004507711,30.4870125841,0.0,10.0,0.0,0.0,0.0,10.0,0.0,0.0,0.0,10.0,2.61628945489,0.0111852765783,-0.407330488728,1.0,0.0,0.0,0.0,1.0,0.0,0.0,0.0,1.0,0.556842041016,-0.482596435547,7.05932006836,0.1,0.0,0.0,0.0,0.1,0.0,0.0,0.0,0.1
1446038660842429161,163,1446038660839272975,robocape,6.72591275589,5.87106987477,30.0306620867,0.0,10.0,0.0,0.0,0.0,10.0,0.0,0.0,0.0,10.0,2.55769991091,-0.168977571166,-0.200536030083,1.0,0.0,0.0,0.0,1.0,0.0,0.0,0.0,1.0,-4.19367919922,-0.890947265625,9.53217773438,0.1,0.0,0.0,0.0,0.1,0.0,0.0,0.0,0.1
1446038660875469203,164,1446038660871989011,robocape,11.198512621,6.12883506676,29.8957888984,0.0,10.0,0.0,0.0,0.0,10.0,0.0,0.0,0.0,10.0,2.37141179266,0.139682799175,-0.0247673981377,1.0,0.0,0.0,0.0,1.0,0.0,0.0,0.0,1.0,-4.81159423828,0.865799560547,10.3536694336,0.1,0.0,0.0,0.0,0.1,0.0,0.0,0.0,0.1
1446038660909006953,165,1446038660905950069,robocape,15.0397473033,6.37501624611,30.235148592,0.0,10.0,0.0,0.0,0.0,10.0,0.0,0.0,0.0,10.0,2.03731823391,0.19720707872,0.243679239742,1.0,0.0,0.0,0.0,1.0,0.0,0.0,0.0,1.0,-1.80225219727,1.14481933594,7.45330078125,0.1,0.0,0.0,0.0,0.1,0.0,0.0,0.0,0.1
1446038660943368328,166,1446038660939939975,robocape,17.9455453325,6.28244350371,30.9856710434,0.0,10.0,0.0,0.0,0.0,10.0,0.0,0.0,0.0,10.0,1.54276921948,0.106393285549,0.510661139023,1.0,0.0,0.0,0.0,1.0,0.0,0.0,0.0,1.0,-2.15192504883,0.365240478516,10.6853796387,0.1,0.0,0.0,0.0,0.1,0.0,0.0,0.0,0.1
1446038660975340495,167,1446038660972281932,robocape,20.3980778259,6.81064555328,32.1968149154,0.0,10.0,0.0,0.0,0.0,10.0,0.0,0.0,0.0,10.0,1.29975577001,0.525574841127,0.653539731505,1.0,0.0,0.0,0.0,1.0,0.0,0.0,0.0,1.0,-2.65847167969,1.44778930664,12.0469482422,0.1,0.0,0.0,0.0,0.1,0.0,0.0,0.0,0.1
1446038661009884120,168,1446038661006362915,robocape,22.3342906567,7.057987712,33.3561694821,0.0,10.0,0.0,0.0,0.0,10.0,0.0,0.0,0.0,10.0,1.03517071571,0.402270482656,0.665923430574,1.0,0.0,0.0,0.0,1.0,0.0,0.0,0.0,1.0,-1.07177124023,0.0814306640625,10.0267492676,0.1,0.0,0.0,0.0,0.1,0.0,0.0,0.0,0.1
1446038661043476453,169,1446038661039860010,robocape,23.851584013,7.15587032149,34.6324483729,0.0,10.0,0.0,0.0,0.0,10.0,0.0,0.0,0.0,10.0,0.815193609673,0.375505713701,0.751011427402,1.0,0.0,0.0,0.0,1.0,0.0,0.0,0.0,1.0,-1.59149047852,0.543669433594,11.9056420898,0.1,0.0,0.0,0.0,0.1,0.0,0.0,0.0,0.1
1446038661076159786,170,1446038661072767972,robocape,25.1686653956,7.25782690922,36.0390065037,0.0,10.0,0.0,0.0,0.0,10.0,0.0,0.0,0.0,10.0,0.712395591596,0.428369461339,0.819321509363,1.0,0.0,0.0,0.0,1.0,0.0,0.0,0.0,1.0,3.9889050293,-0.499361572266,9.58726318359,0.1,0.0,0.0,0.0,0.1,0.0,0.0,0.0,0.1
1446038661107998786,171,1446038661104850053,robocape,26.5439530864,7.56211230139,37.4059540908,0.0,10.0,0.0,0.0,0.0,10.0,0.0,0.0,0.0,10.0,0.755139327092,0.538757488523,0.760865123436,1.0,0.0,0.0,0.0,1.0,0.0,0.0,0.0,1.0,1.26936035156,-1.05141357422,10.6638244629,0.1,0.0,0.0,0.0,0.1,0.0,0.0,0.0,0.1
1446038661141774786,172,1446038661138489961,robocape,28.1860106149,7.7824852968,38.5943405583,0.0,10.0,0.0,0.0,0.0,10.0,0.0,0.0,0.0,10.0,0.918524259968,0.481366367032,0.702009263345,1.0,0.0,0.0,0.0,1.0,0.0,0.0,0.0,1.0,0.494571533203,-1.14481933594,9.79682739258,0.1,0.0,0.0,0.0,0.1,0.0,0.0,0.0,0.1
1446038661174580453,173,1446038661171545028,robocape,30.1161681349,8.13444115411,39.6637928349,0.0,10.0,0.0,0.0,0.0,10.0,0.0,0.0,0.0,10.0,1.09535815635,0.540089069068,0.62144864037,1.0,0.0,0.0,0.0,1.0,0.0,0.0,0.0,1.0,-1.17475708008,-0.581989746094,10.5931713867,0.1,0.0,0.0,0.0,0.1,0.0,0.0,0.0,0.1
1446038661208328287,174,1446038661204924106,robocape,32.4649896999,8.10179286855,40.4430259184,0.0,10.0,0.0,0.0,0.0,10.0,0.0,0.0,0.0,10.0,1.35914426232,0.316916169719,0.600809141922,1.0,0.0,0.0,0.0,1.0,0.0,0.0,0.0,1.0,5.16366210938,-1.29570556641,8.05804321289,0.1,0.0,0.0,0.0,0.1,0.0,0.0,0.0,0.1
1446038661241700787,175,1446038661238332033,robocape,35.2442790569,8.2638091121,40.9979763323,0.0,10.0,0.0,0.0,0.0,10.0,0.0,0.0,0.0,10.0,1.63611301569,0.370578865685,0.461392658856,1.0,0.0,0.0,0.0,1.0,0.0,0.0,0.0,1.0,-0.653840332031,-0.789158935547,12.0625158691,0.1,0.0,0.0,0.0,0.1,0.0,0.0,0.0,0.1
1446038661274977495,176,1446038661271867990,robocape,38.5717671578,8.9650969423,41.8915754261,0.0,10.0,0.0,0.0,0.0,10.0,0.0,0.0,0.0,10.0,1.97579921273,0.76246302009,0.485627424776,1.0,0.0,0.0,0.0,1.0,0.0,0.0,0.0,1.0,3.77335327148,-0.342487792969,9.76090209961,0.1,0.0,0.0,0.0,0.1,0.0,0.0,0.0,0.1
1446038661308353870,177,1446038661304969072,robocape,39.6246795108,9.16586928942,44.1183453595,0.0,10.0,0.0,0.0,0.0,10.0,0.0,0.0,0.0,10.0,0.663260269484,1.0126670045,1.16220349971,1.0,0.0,0.0,0.0,1.0,0.0,0.0,0.0,1.0,-0.591569824219,12.7858117676,15.0742529297,0.1,0.0,0.0,0.0,0.1,0.0,0.0,0.0,0.1
1446038661342738620,178,1446038661339442014,robocape,38.0276064699,8.85688798751,47.0750056594,0.0,10.0,0.0,0.0,0.0,10.0,0.0,0.0,0.0,10.0,-0.873117363382,0.992560138273,1.55768292159,1.0,0.0,0.0,0.0,1.0,0.0,0.0,0.0,1.0,3.25004150391,1.57233032227,10.1465002441,0.1,0.0,0.0,0.0,0.1,0.0,0.0,0.0,0.1
1446038661378300745,179,1446038661373033046,robocape,36.4699023889,8.94979712062,49.262925208,0.0,10.0,0.0,0.0,0.0,10.0,0.0,0.0,0.0,10.0,-0.825713095979,0.86033419015,1.11266870344,1.0,0.0,0.0,0.0,1.0,0.0,0.0,0.0,1.0,-0.162861328125,-0.719703369141,9.59085571289,0.1,0.0,0.0,0.0,0.1,0.0,0.0,0.0,0.1
1446038661408942370,180,1446038661405584096,robocape,35.4301514962,9.25072543418,50.6514587219,0.0,10.0,0.0,0.0,0.0,10.0,0.0,0.0,0.0,10.0,-0.515721145094,0.670450804427,0.713061381869,1.0,0.0,0.0,0.0,1.0,0.0,0.0,0.0,1.0,-0.934057617188,-1.05141357422,10.1033898926,0.1,0.0,0.0,0.0,0.1,0.0,0.0,0.0,0.1
1446038661441530328,181,1446038661438296079,robocape,35.2564790525,9.48054232106,51.6177300567,0.0,10.0,0.0,0.0,0.0,10.0,0.0,0.0,0.0,10.0,-0.0170442309765,0.520914309219,0.592020710325,1.0,0.0,0.0,0.0,1.0,0.0,0.0,0.0,1.0,-0.902922363281,-1.49928222656,9.55493041992,0.1,0.0,0.0,0.0,0.1,0.0,0.0,0.0,0.1
1446038661474778995,182,1446038661471751928,robocape,36.0451701368,9.68674169963,52.4536775044,0.0,10.0,0.0,0.0,0.0,10.0,0.0,0.0,0.0,10.0,0.533031692179,0.504269552407,0.602407038576,1.0,0.0,0.0,0.0,1.0,0.0,0.0,0.0,1.0,-0.398770751953,-1.4142590332,12.512779541,0.1,0.0,0.0,0.0,0.1,0.0,0.0,0.0,0.1
1446038661507860578,183,1446038661504673957,robocape,37.4200090269,9.39170322876,53.0151050415,0.0,10.0,0.0,0.0,0.0,10.0,0.0,0.0,0.0,10.0,0.888696855759,0.23089606651,0.671782384972,1.0,0.0,0.0,0.0,1.0,0.0,0.0,0.0,1.0,-1.43940673828,-0.581989746094,6.56834106445,0.1,0.0,0.0,0.0,0.1,0.0,0.0,0.0,0.1
1446038661541377287,184,1446038661538212060,robocape,37.8154260707,10.8169159124,55.4790468174,0.0,10.0,0.0,0.0,0.0,10.0,0.0,0.0,0.0,10.0,0.275504014769,1.63837670262,1.02691491633,1.0,0.0,0.0,0.0,1.0,0.0,0.0,0.0,1.0,9.94531860352,7.0473449707,19.6194012451,0.1,0.0,0.0,0.0,0.1,0.0,0.0,0.0,0.1
1446038661574868370,185,1446038661571626901,robocape,36.1622710044,11.3162466809,58.7545162786,0.0,10.0,0.0,0.0,0.0,10.0,0.0,0.0,0.0,10.0,-0.927046375457,1.51267549917,1.69283834691,1.0,0.0,0.0,0.0,1.0,0.0,0.0,0.0,1.0,-1.02506835938,3.48954345703,12.6121728516,0.1,0.0,0.0,0.0,0.1,0.0,0.0,0.0,0.1
1446038661608481703,186,1446038661605020046,robocape,32.9751173702,12.0606131158,62.3649230049,0.0,10.0,0.0,0.0,0.0,10.0,0.0,0.0,0.0,10.0,-1.8271948239,1.66514147157,1.83292062025,1.0,0.0,0.0,0.0,1.0,0.0,0.0,0.0,1.0,-2.70038452148,4.2882824707,15.2969897461,0.1,0.0,0.0,0.0,0.1,0.0,0.0,0.0,0.1
1446038661641749995,187,1446038661638330936,robocape,28.5722011657,10.7207890098,64.345348563,0.0,10.0,0.0,0.0,0.0,10.0,0.0,0.0,0.0,10.0,-2.40550025461,0.0761664071763,1.5670039854,1.0,0.0,0.0,0.0,1.0,0.0,0.0,0.0,1.0,-3.76976074219,-0.665815429688,11.2338391113,0.1,0.0,0.0,0.0,0.1,0.0,0.0,0.0,0.1
1446038661675006703,188,1446038661671561002,robocape,24.4549687262,10.1534044829,65.8438171052,0.0,10.0,0.0,0.0,0.0,10.0,0.0,0.0,0.0,10.0,-2.21495107862,0.215716048296,1.15594507115,1.0,0.0,0.0,0.0,1.0,0.0,0.0,0.0,1.0,-5.14450195313,-1.87649780273,8.14546142578,0.1,0.0,0.0,0.0,0.1,0.0,0.0,0.0,0.1
1446038661708117037,189,1446038661704649925,robocape,20.9819542558,9.70009127691,66.791808696,0.0,10.0,0.0,0.0,0.0,10.0,0.0,0.0,0.0,10.0,-1.84051062935,0.085354312937,0.864861564003,1.0,0.0,0.0,0.0,1.0,0.0,0.0,0.0,1.0,-4.22361694336,-2.38184692383,8.89151000977,0.1,0.0,0.0,0.0,0.1,0.0,0.0,0.0,0.1
1446038661741556287,190,1446038661738306045,robocape,18.1951429388,9.36674379154,67.322903249,0.0,10.0,0.0,0.0,0.0,10.0,0.0,0.0,0.0,10.0,-1.45648280016,0.0246342400832,0.623446011188,1.0,0.0,0.0,0.0,1.0,0.0,0.0,0.0,1.0,-2.83450561523,-2.0345690918,9.93094848633,0.1,0.0,0.0,0.0,0.1,0.0,0.0,0.0,0.1
1446038661774938662,191,1446038661771727085,robocape,16.1079851408,9.00369635036,67.6161414501,0.0,10.0,0.0,0.0,0.0,10.0,0.0,0.0,0.0,10.0,-1.07698234483,-0.0500674284935,0.507065871551,1.0,0.0,0.0,0.0,1.0,0.0,0.0,0.0,1.0,-2.23694824219,-1.39988891602,9.34297119141,0.1,0.0,0.0,0.0,0.1,0.0,0.0,0.0,0.1
1446038661808028120,192,1446038661804832935,robocape,14.4295677577,9.25496669866,67.9482061143,0.0,10.0,0.0,0.0,0.0,10.0,0.0,0.0,0.0,10.0,-0.868589989529,0.262987157645,0.47124635489,1.0,0.0,0.0,0.0,1.0,0.0,0.0,0.0,1.0,-4.28588745117,-1.13523925781,10.8362658691,0.1,0.0,0.0,0.0,0.1,0.0,0.0,0.0,0.1
1446038661841464953,193,1446038661838059902,robocape,13.0044161405,9.25246112663,68.2771223474,0.0,10.0,0.0,0.0,0.0,10.0,0.0,0.0,0.0,10.0,-0.741956679696,0.129429628978,0.526373789454,1.0,0.0,0.0,0.0,1.0,0.0,0.0,0.0,1.0,-2.4908203125,-0.922082519531,9.63396606445,0.1,0.0,0.0,0.0,0.1,0.0,0.0,0.0,0.1
1446038661874671662,194,1446038661871555089,robocape,11.5059253374,9.44416885316,68.6524202702,0.0,10.0,0.0,0.0,0.0,10.0,0.0,0.0,0.0,10.0,-0.790692527645,0.230762908455,0.551008029537,1.0,0.0,0.0,0.0,1.0,0.0,0.0,0.0,1.0,0.177231445313,-0.564027099609,12.395423584,0.1,0.0,0.0,0.0,0.1,0.0,0.0,0.0,0.1
1446038661907826620,195,1446038661904711008,robocape,9.86132171958,9.53145194973,69.0050344909,0.0,10.0,0.0,0.0,0.0,10.0,0.0,0.0,0.0,10.0,-0.874715260037,0.16644756813,0.559796461135,1.0,0.0,0.0,0.0,1.0,0.0,0.0,0.0,1.0,-6.06059692383,-0.888552246094,8.76217895508,0.1,0.0,0.0,0.0,0.1,0.0,0.0,0.0,0.1
