%time,field.header.seq,field.header.stamp,field.header.frame_id,field.orientation.x,field.orientation.y,field.orientation.z,field.orientation.w,field.orientation_covariance0,field.orientation_covariance1,field.orientation_covariance2,field.orientation_covariance3,field.orientation_covariance4,field.orientation_covariance5,field.orientation_covariance6,field.orientation_covariance7,field.orientation_covariance8,field.angular_velocity.x,field.angular_velocity.y,field.angular_velocity.z,field.angular_velocity_covariance0,field.angular_velocity_covariance1,field.angular_velocity_covariance2,field.angular_velocity_covariance3,field.angular_velocity_covariance4,field.angular_velocity_covariance5,field.angular_velocity_covariance6,field.angular_velocity_covariance7,field.angular_velocity_covariance8,field.linear_acceleration.x,field.linear_acceleration.y,field.linear_acceleration.z,field.linear_acceleration_covariance0,field.linear_acceleration_covariance1,field.linear_acceleration_covariance2,field.linear_acceleration_covariance3,field.linear_acceleration_covariance4,field.linear_acceleration_covariance5,field.linear_acceleration_covariance6,field.linear_acceleration_covariance7,field.linear_acceleration_covariance8
1446036228199020010,1,1446036227837923049,robocape,2.02615207273,9.14141790499,2.02615207273,0.0,10.0,0.0,0.0,0.0,10.0,0.0,0.0,0.0,10.0,0.00199737081756,0.0256995045193,0.00692421883421,1.0,0.0,0.0,0.0,1.0,0.0,0.0,0.0,1.0,0.0658630371094,0.658630371094,10.0267492676,0.1,0.0,0.0,0.0,0.1,0.0,0.0,0.0,0.1
1446036228223827301,2,1446036227872811079,robocape,2.03195679512,9.16869863967,2.03195679512,0.0,10.0,0.0,0.0,0.0,10.0,0.0,0.0,0.0,10.0,0.00732369299772,0.0256995045193,0.00772316716123,1.0,0.0,0.0,0.0,1.0,0.0,0.0,0.0,1.0,0.0634680175781,0.643062744141,10.0363293457,0.1,0.0,0.0,0.0,0.1,0.0,0.0,0.0,0.1
1446036228228319468,3,1446036227900473117,robocape,2.04233110474,9.19669552074,2.04233110474,0.0,10.0,0.0,0.0,0.0,10.0,0.0,0.0,0.0,10.0,0.00972053797879,0.0260989786828,0.00772316716123,1.0,0.0,0.0,0.0,1.0,0.0,0.0,0.0,1.0,0.0694555664063,0.665815429688,10.024354248,0.1,0.0,0.0,0.0,0.1,0.0,0.0,0.0,0.1
1446036228233548010,4,1446036227932101011,robocape,2.05376647276,9.22320572011,2.05376647276,0.0,10.0,0.0,0.0,0.0,10.0,0.0,0.0,0.0,10.0,0.0103863282513,0.0253000303558,0.00705737688871,1.0,0.0,0.0,0.0,1.0,0.0,0.0,0.0,1.0,0.0562829589844,0.669407958984,10.024354248,0.1,0.0,0.0,0.0,0.1,0.0,0.0,0.0,0.1
1446036228254933260,5,1446036227964754104,robocape,2.06327964958,9.25089531727,2.06327964958,0.0,10.0,0.0,0.0,0.0,10.0,0.0,0.0,0.0,10.0,0.00932106381528,0.0259658206283,0.00745685105222,1.0,0.0,0.0,0.0,1.0,0.0,0.0,0.0,1.0,0.0550854492188,0.70892578125,10.0063916016,0.1,0.0,0.0,0.0,0.1,0.0,0.0,0.0,0.1
1446036228262864885,6,1446036228001638889,robocape,2.06016210145,9.28087028722,2.06016210145,0.0,10.0,0.0,0.0,0.0,10.0,0.0,0.0,0.0,10.0,0.00279631914458,0.0271642431188,0.0067910607797,1.0,0.0,0.0,0.0,1.0,0.0,0.0,0.0,1.0,0.0634680175781,0.702938232422,10.0506994629,0.1,0.0,0.0,0.0,0.1,0.0,0.0,0.0,0.1
1446036228267963177,7,1446036228030194997,robocape,2.05167518983,9.3092091709,2.05167518983,0.0,10.0,0.0,0.0,0.0,10.0,0.0,0.0,0.0,10.0,-0.000133158054504,0.0263652947918,0.00745685105222,1.0,0.0,0.0,0.0,1.0,0.0,0.0,0.0,1.0,0.0622705078125,0.682580566406,10.0459094238,0.1,0.0,0.0,0.0,0.1,0.0,0.0,0.0,0.1
1446036228268600635,8,1446036228064676046,robocape,2.04451027263,9.33858822805,2.04451027263,0.0,10.0,0.0,0.0,0.0,10.0,0.0,0.0,0.0,10.0,0.00066579027252,0.0268979270098,0.0066579027252,1.0,0.0,0.0,0.0,1.0,0.0,0.0,0.0,1.0,0.05748046875,0.640667724609,10.0219592285,0.1,0.0,0.0,0.0,0.1,0.0,0.0,0.0,0.1
1446036228269074343,9,1446036228097970962,robocape,2.04881020555,9.36555982518,2.04881020555,0.0,10.0,0.0,0.0,0.0,10.0,0.0,0.0,0.0,10.0,0.00652474467069,0.0256995045193,0.00759000910673,1.0,0.0,0.0,0.0,1.0,0.0,0.0,0.0,1.0,0.0490979003906,0.616717529297,10.0147741699,0.1,0.0,0.0,0.0,0.1,0.0,0.0,0.0,0.1
1446036228269117885,10,1446036228135117053,robocape,2.06017807165,9.39200319334,2.06017807165,0.0,10.0,0.0,0.0,0.0,10.0,0.0,0.0,0.0,10.0,0.0102531701968,0.0254331884103,0.00745685105222,1.0,0.0,0.0,0.0,1.0,0.0,0.0,0.0,1.0,0.0526904296875,0.637075195313,10.0135766602,0.1,0.0,0.0,0.0,0.1,0.0,0.0,0.0,0.1
1446036228282623385,11,1446036228176490068,robocape,2.07737096927,9.41891528776,2.07737096927,0.0,10.0,0.0,0.0,0.0,10.0,0.0,0.0,0.0,10.0,0.0133158054504,0.0256995045193,0.00745685105222,1.0,0.0,0.0,0.0,1.0,0.0,0.0,0.0,1.0,0.0526904296875,0.680185546875,10.024354248,0.1,0.0,0.0,0.0,0.1,0.0,0.0,0.0,0.1
1446036228282709177,12,1446036228206219911,robocape,2.0917091562,9.44655663901,2.0917091562,0.0,10.0,0.0,0.0,0.0,10.0,0.0,0.0,0.0,10.0,0.0118510668509,0.0260989786828,0.00732369299772,1.0,0.0,0.0,0.0,1.0,0.0,0.0,0.0,1.0,0.0455053710938,0.695753173828,10.0231567383,0.1,0.0,0.0,0.0,0.1,0.0,0.0,0.0,0.1
1446036228282813593,13,1446036228233787059,robocape,2.10036422411,9.47342519968,2.10036422411,0.0,10.0,0.0,0.0,0.0,10.0,0.0,0.0,0.0,10.0,0.00892158965177,0.0256995045193,0.00705737688871,1.0,0.0,0.0,0.0,1.0,0.0,0.0,0.0,1.0,0.0598754882813,0.699345703125,10.0207617188,0.1,0.0,0.0,0.0,0.1,0.0,0.0,0.0,0.1
1446036228292698802,14,1446036228272579908,robocape,2.10085457854,9.50051377753,2.10085457854,0.0,10.0,0.0,0.0,0.0,10.0,0.0,0.0,0.0,10.0,0.00466053190764,0.0258326625738,0.00692421883421,1.0,0.0,0.0,0.0,1.0,0.0,0.0,0.0,1.0,0.0658630371094,0.690963134766,10.0219592285,0.1,0.0,0.0,0.0,0.1,0.0,0.0,0.0,0.1
1446036228301731218,15,1446036228298353910,robocape,2.09966568585,9.52904106784,2.09966568585,0.0,10.0,0.0,0.0,0.0,10.0,0.0,0.0,0.0,10.0,0.00372842552611,0.0266316109008,0.00719053494321,1.0,0.0,0.0,0.0,1.0,0.0,0.0,0.0,1.0,0.0550854492188,0.67060546875,10.0231567383,0.1,0.0,0.0,0.0,0.1,0.0,0.0,0.0,0.1
1446036228333920927,16,1446036228330687999,robocape,2.10153690123,9.55726997444,2.10153690123,0.0,10.0,0.0,0.0,0.0,10.0,0.0,0.0,0.0,10.0,0.00532632218016,0.0264984528463,0.00719053494321,1.0,0.0,0.0,0.0,1.0,0.0,0.0,0.0,1.0,0.0550854492188,0.657432861328,10.0542919922,0.1,0.0,0.0,0.0,0.1,0.0,0.0,0.0,0.1
1446036228373646385,17,1446036228364459991,robocape,2.10861128184,9.58465804592,2.10861128184,0.0,10.0,0.0,0.0,0.0,10.0,0.0,0.0,0.0,10.0,0.00798948327024,0.0260989786828,0.00759000910673,1.0,0.0,0.0,0.0,1.0,0.0,0.0,0.0,1.0,0.0514929199219,0.649050292969,10.0387243652,0.1,0.0,0.0,0.0,0.1,0.0,0.0,0.0,0.1
1446036228402730010,18,1446036228399431943,robocape,2.11809932585,9.61229808024,2.11809932585,0.0,10.0,0.0,0.0,0.0,10.0,0.0,0.0,0.0,10.0,0.00932106381528,0.0262321367373,0.00719053494321,1.0,0.0,0.0,0.0,1.0,0.0,0.0,0.0,1.0,0.0598754882813,0.693358154297,10.0315393066,0.1,0.0,0.0,0.0,0.1,0.0,0.0,0.0,0.1
1446036228433337593,19,1446036228430041074,robocape,2.12195372895,9.638898406,2.12195372895,0.0,10.0,0.0,0.0,0.0,10.0,0.0,0.0,0.0,10.0,0.00639158661619,0.0256995045193,0.00705737688871,1.0,0.0,0.0,0.0,1.0,0.0,0.0,0.0,1.0,0.0562829589844,0.706530761719,10.0135766602,0.1,0.0,0.0,0.0,0.1,0.0,0.0,0.0,0.1
1446036228465402760,20,1446036228462460994,robocape,2.117401065,9.66622139116,2.117401065,0.0,10.0,0.0,0.0,0.0,10.0,0.0,0.0,0.0,10.0,0.00199737081756,0.0260989786828,0.00692421883421,1.0,0.0,0.0,0.0,1.0,0.0,0.0,0.0,1.0,0.0514929199219,0.70892578125,10.0099841309,0.1,0.0,0.0,0.0,0.1,0.0,0.0,0.0,0.1
1446036228499116260,21,1446036228495889902,robocape,2.10902526749,9.69350979338,2.10902526749,0.0,10.0,0.0,0.0,0.0,10.0,0.0,0.0,0.0,10.0,0.0,0.0260989786828,0.0067910607797,1.0,0.0,0.0,0.0,1.0,0.0,0.0,0.0,1.0,0.0610729980469,0.671802978516,10.0387243652,0.1,0.0,0.0,0.0,0.1,0.0,0.0,0.0,0.1
1446036228532121802,22,1446036228529040098,robocape,2.10118287536,9.72091927826,2.10118287536,0.0,10.0,0.0,0.0,0.0,10.0,0.0,0.0,0.0,10.0,0.000133158054504,0.0262321367373,0.00759000910673,1.0,0.0,0.0,0.0,1.0,0.0,0.0,0.0,1.0,0.0550854492188,0.659827880859,10.0291442871,0.1,0.0,0.0,0.0,0.1,0.0,0.0,0.0,0.1
1446036228565605302,23,1446036228562536001,robocape,2.09848700364,9.74801820929,2.09848700364,0.0,10.0,0.0,0.0,0.0,10.0,0.0,0.0,0.0,10.0,0.00279631914458,0.0260989786828,0.00772316716123,1.0,0.0,0.0,0.0,1.0,0.0,0.0,0.0,1.0,0.0526904296875,0.637075195313,10.0099841309,0.1,0.0,0.0,0.0,0.1,0.0,0.0,0.0,0.1
1446036228598792677,24,1446036228595685005,robocape,2.10604987098,9.77563726723,2.10604987098,0.0,10.0,0.0,0.0,0.0,10.0,0.0,0.0,0.0,10.0,0.00825579937925,0.0263652947918,0.00719053494321,1.0,0.0,0.0,0.0,1.0,0.0,0.0,0.0,1.0,0.0407153320313,0.643062744141,10.0471069336,0.1,0.0,0.0,0.0,0.1,0.0,0.0,0.0,0.1
1446036228632184052,25,1446036228629100084,robocape,2.12303096815,9.8021132804,2.12303096815,0.0,10.0,0.0,0.0,0.0,10.0,0.0,0.0,0.0,10.0,0.0130494893414,0.0258326625738,0.00812264132474,1.0,0.0,0.0,0.0,1.0,0.0,0.0,0.0,1.0,0.0562829589844,0.653840332031,10.0183666992,0.1,0.0,0.0,0.0,0.1,0.0,0.0,0.0,0.1
1446036228665985302,26,1446036228662910938,robocape,2.13795577951,9.82804517249,2.13795577951,0.0,10.0,0.0,0.0,0.0,10.0,0.0,0.0,0.0,10.0,0.0119842249054,0.0255663464648,0.00812264132474,1.0,0.0,0.0,0.0,1.0,0.0,0.0,0.0,1.0,0.0610729980469,0.696950683594,10.0435144043,0.1,0.0,0.0,0.0,0.1,0.0,0.0,0.0,0.1
1446036228699207177,27,1446036228696233034,robocape,2.14512589975,9.85498354986,2.14512589975,0.0,10.0,0.0,0.0,0.0,10.0,0.0,0.0,0.0,10.0,0.00798948327024,0.0260989786828,0.00772316716123,1.0,0.0,0.0,0.0,1.0,0.0,0.0,0.0,1.0,0.0526904296875,0.688568115234,10.0315393066,0.1,0.0,0.0,0.0,0.1,0.0,0.0,0.0,0.1
1446036228732420718,28,1446036228729433059,robocape,2.14751458154,9.88211394814,2.14751458154,0.0,10.0,0.0,0.0,0.0,10.0,0.0,0.0,0.0,10.0,0.00545948023466,0.0262321367373,0.00785632521573,1.0,0.0,0.0,0.0,1.0,0.0,0.0,0.0,1.0,0.0502954101563,0.667012939453,10.0231567383,0.1,0.0,0.0,0.0,0.1,0.0,0.0,0.0,0.1
1446036228765722385,29,1446036228762540102,robocape,2.15084079674,9.90872503782,2.15084079674,0.0,10.0,0.0,0.0,0.0,10.0,0.0,0.0,0.0,10.0,0.00599211245268,0.0259658206283,0.00759000910673,1.0,0.0,0.0,0.0,1.0,0.0,0.0,0.0,1.0,0.0682580566406,0.680185546875,10.0351318359,0.1,0.0,0.0,0.0,0.1,0.0,0.0,0.0,0.1
1446036228798691593,30,1446036228795732021,robocape,2.15366808115,9.93588173957,2.15366808115,0.0,10.0,0.0,0.0,0.0,10.0,0.0,0.0,0.0,10.0,0.00585895439817,0.0262321367373,0.0067910607797,1.0,0.0,0.0,0.0,1.0,0.0,0.0,0.0,1.0,0.0634680175781,0.701740722656,10.0171691895,0.1,0.0,0.0,0.0,0.1,0.0,0.0,0.0,0.1
1446036228832225593,31,1446036228829221010,robocape,2.14863676311,9.9632418164,2.14863676311,0.0,10.0,0.0,0.0,0.0,10.0,0.0,0.0,0.0,10.0,0.00173105470855,0.0263652947918,0.0067910607797,1.0,0.0,0.0,0.0,1.0,0.0,0.0,0.0,1.0,0.0634680175781,0.702938232422,10.0459094238,0.1,0.0,0.0,0.0,0.1,0.0,0.0,0.0,0.1
1446036228865975802,32,1446036228862709045,robocape,2.13897857661,9.99074744575,2.13897857661,0.0,10.0,0.0,0.0,0.0,10.0,0.0,0.0,0.0,10.0,-0.000798948327024,0.0264984528463,0.00732369299772,1.0,0.0,0.0,0.0,1.0,0.0,0.0,0.0,1.0,0.0550854492188,0.658630371094,10.0087866211,0.1,0.0,0.0,0.0,0.1,0.0,0.0,0.0,0.1
1446036228900762843,33,1446036228897639989,robocape,2.14001278334,10.0184624113,2.14001278334,0.0,10.0,0.0,0.0,0.0,10.0,0.0,0.0,0.0,10.0,0.00479368996214,0.0266316109008,0.00732369299772,1.0,0.0,0.0,0.0,1.0,0.0,0.0,0.0,1.0,0.0502954101563,0.613125,10.0267492676,0.1,0.0,0.0,0.0,0.1,0.0,0.0,0.0,0.1
1446036228932116760,34,1446036228929088115,robocape,2.15196284934,10.0441240282,2.15196284934,0.0,10.0,0.0,0.0,0.0,10.0,0.0,0.0,0.0,10.0,0.0105194863058,0.0255663464648,0.00732369299772,1.0,0.0,0.0,0.0,1.0,0.0,0.0,0.0,1.0,0.0526904296875,0.635877685547,10.019564209,0.1,0.0,0.0,0.0,0.1,0.0,0.0,0.0,0.1
1446036228967437260,35,1446036228964345932,robocape,2.17138755249,10.0702127399,2.17138755249,0.0,10.0,0.0,0.0,0.0,10.0,0.0,0.0,0.0,10.0,0.0143810698864,0.0258326625738,0.00772316716123,1.0,0.0,0.0,0.0,1.0,0.0,0.0,0.0,1.0,0.0562829589844,0.6514453125,10.0375268555,0.1,0.0,0.0,0.0,0.1,0.0,0.0,0.0,0.1
1446036228998512135,36,1446036228995528936,robocape,2.19137064861,10.0947251324,2.19137064861,0.0,10.0,0.0,0.0,0.0,10.0,0.0,0.0,0.0,10.0,0.0146473859954,0.0250337142467,0.00798948327024,1.0,0.0,0.0,0.0,1.0,0.0,0.0,0.0,1.0,0.0550854492188,0.696950683594,10.0327368164,0.1,0.0,0.0,0.0,0.1,0.0,0.0,0.0,0.1
1446036229032106260,37,1446036229029017925,robocape,2.20091839647,10.1202909859,2.20091839647,0.0,10.0,0.0,0.0,0.0,10.0,0.0,0.0,0.0,10.0,0.00932106381528,0.0255663464648,0.00719053494321,1.0,0.0,0.0,0.0,1.0,0.0,0.0,0.0,1.0,0.0706530761719,0.738863525391,10.0435144043,0.1,0.0,0.0,0.0,0.1,0.0,0.0,0.0,0.1
1446036229065746427,38,1446036229062525987,robocape,2.19058458594,10.1473461446,2.19058458594,0.0,10.0,0.0,0.0,0.0,10.0,0.0,0.0,0.0,10.0,-0.00106526443603,0.0263652947918,0.00692421883421,1.0,0.0,0.0,0.0,1.0,0.0,0.0,0.0,1.0,0.0514929199219,0.724493408203,10.0267492676,0.1,0.0,0.0,0.0,0.1,0.0,0.0,0.0,0.1
1446036229098686219,39,1446036229095598936,robocape,2.17576307332,10.1745882401,2.17576307332,0.0,10.0,0.0,0.0,0.0,10.0,0.0,0.0,0.0,10.0,-0.0034621094171,0.0264984528463,0.00705737688871,1.0,0.0,0.0,0.0,1.0,0.0,0.0,0.0,1.0,0.067060546875,0.686173095703,10.0123791504,0.1,0.0,0.0,0.0,0.1,0.0,0.0,0.0,0.1
1446036229131952927,40,1446036229128875017,robocape,2.17198411201,10.2015067174,2.17198411201,0.0,10.0,0.0,0.0,0.0,10.0,0.0,0.0,0.0,10.0,0.00226368692657,0.0263652947918,0.00732369299772,1.0,0.0,0.0,0.0,1.0,0.0,0.0,0.0,1.0,0.0694555664063,0.599952392578,10.0483044434,0.1,0.0,0.0,0.0,0.1,0.0,0.0,0.0,0.1
1446036229166073010,41,1446036229162595033,robocape,2.18501695574,10.2283747526,2.18501695574,0.0,10.0,0.0,0.0,0.0,10.0,0.0,0.0,0.0,10.0,0.0110521185238,0.0263652947918,0.00745685105222,1.0,0.0,0.0,0.0,1.0,0.0,0.0,0.0,1.0,0.0634680175781,0.607137451172,10.0459094238,0.1,0.0,0.0,0.0,0.1,0.0,0.0,0.0,0.1
1446036229203773802,42,1446036229195511102,robocape,2.20793477099,10.2543652972,2.20793477099,0.0,10.0,0.0,0.0,0.0,10.0,0.0,0.0,0.0,10.0,0.016112124595,0.0259658206283,0.00825579937925,1.0,0.0,0.0,0.0,1.0,0.0,0.0,0.0,1.0,0.0658630371094,0.680185546875,10.0279467773,0.1,0.0,0.0,0.0,0.1,0.0,0.0,0.0,0.1
1446036229233570302,43,1446036229230318069,robocape,2.21837194008,10.2801465032,2.21837194008,0.0,10.0,0.0,0.0,0.0,10.0,0.0,0.0,0.0,10.0,0.00972053797879,0.0258326625738,0.00745685105222,1.0,0.0,0.0,0.0,1.0,0.0,0.0,0.0,1.0,0.0514929199219,0.732875976563,10.0303417969,0.1,0.0,0.0,0.0,0.1,0.0,0.0,0.0,0.1
1446036229266137760,44,1446036229262558937,robocape,2.21209330191,10.3051098375,2.21209330191,0.0,10.0,0.0,0.0,0.0,10.0,0.0,0.0,0.0,10.0,0.000932106381528,0.0254331884103,0.00759000910673,1.0,0.0,0.0,0.0,1.0,0.0,0.0,0.0,1.0,0.0694555664063,0.732875976563,10.0291442871,0.1,0.0,0.0,0.0,0.1,0.0,0.0,0.0,0.1
1446036229299023885,45,1446036229295687913,robocape,2.20004827388,10.3328683798,2.20004827388,0.0,10.0,0.0,0.0,0.0,10.0,0.0,0.0,0.0,10.0,-0.00199737081756,0.0268979270098,0.00692421883421,1.0,0.0,0.0,0.0,1.0,0.0,0.0,0.0,1.0,0.0598754882813,0.684975585938,10.0387243652,0.1,0.0,0.0,0.0,0.1,0.0,0.0,0.0,0.1
1446036229332117135,46,1446036229328962087,robocape,2.19260572485,10.3593213667,2.19260572485,0.0,10.0,0.0,0.0,0.0,10.0,0.0,0.0,0.0,10.0,0.000399474163512,0.0262321367373,0.00692421883421,1.0,0.0,0.0,0.0,1.0,0.0,0.0,0.0,1.0,0.0526904296875,0.619112548828,10.0435144043,0.1,0.0,0.0,0.0,0.1,0.0,0.0,0.0,0.1
1446036229365763302,47,1446036229362440109,robocape,2.19700762299,10.3853537184,2.19700762299,0.0,10.0,0.0,0.0,0.0,10.0,0.0,0.0,0.0,10.0,0.00639158661619,0.0260989786828,0.00812264132474,1.0,0.0,0.0,0.0,1.0,0.0,0.0,0.0,1.0,0.0467028808594,0.629890136719,10.0231567383,0.1,0.0,0.0,0.0,0.1,0.0,0.0,0.0,0.1
1446036229398781510,48,1446036229395705938,robocape,2.20982006802,10.4119239487,2.20982006802,0.0,10.0,0.0,0.0,0.0,10.0,0.0,0.0,0.0,10.0,0.0109189604693,0.0263652947918,0.00745685105222,1.0,0.0,0.0,0.0,1.0,0.0,0.0,0.0,1.0,0.0658630371094,0.650247802734,10.0207617188,0.1,0.0,0.0,0.0,0.1,0.0,0.0,0.0,0.1
1446036229432011469,49,1446036229428998947,robocape,2.22265566021,10.4366775859,2.22265566021,0.0,10.0,0.0,0.0,0.0,10.0,0.0,0.0,0.0,10.0,0.0109189604693,0.0254331884103,0.00759000910673,1.0,0.0,0.0,0.0,1.0,0.0,0.0,0.0,1.0,0.0443078613281,0.687370605469,10.0183666992,0.1,0.0,0.0,0.0,0.1,0.0,0.0,0.0,0.1
1446036229465771260,50,1446036229462527036,robocape,2.22604660549,10.4626617932,2.22604660549,0.0,10.0,0.0,0.0,0.0,10.0,0.0,0.0,0.0,10.0,0.00599211245268,0.0260989786828,0.00745685105222,1.0,0.0,0.0,0.0,1.0,0.0,0.0,0.0,1.0,0.0634680175781,0.713715820313,10.0363293457,0.1,0.0,0.0,0.0,0.1,0.0,0.0,0.0,0.1
1446036229501928510,51,1446036229498766899,robocape,2.22296354265,10.4881412837,2.22296354265,0.0,10.0,0.0,0.0,0.0,10.0,0.0,0.0,0.0,10.0,0.00266316109008,0.0258326625738,0.00705737688871,1.0,0.0,0.0,0.0,1.0,0.0,0.0,0.0,1.0,0.0682580566406,0.684975585938,10.0063916016,0.1,0.0,0.0,0.0,0.1,0.0,0.0,0.0,0.1
1446036229532299885,52,1446036229529201030,robocape,2.22134857703,10.513772578,2.22134857703,0.0,10.0,0.0,0.0,0.0,10.0,0.0,0.0,0.0,10.0,0.0033289513626,0.0259658206283,0.00759000910673,1.0,0.0,0.0,0.0,1.0,0.0,0.0,0.0,1.0,0.0550854492188,0.647852783203,10.0303417969,0.1,0.0,0.0,0.0,0.1,0.0,0.0,0.0,0.1
1446036229566750719,53,1446036229563518047,robocape,2.22588780419,10.5403560277,2.22588780419,0.0,10.0,0.0,0.0,0.0,10.0,0.0,0.0,0.0,10.0,0.00652474467069,0.0264984528463,0.00772316716123,1.0,0.0,0.0,0.0,1.0,0.0,0.0,0.0,1.0,0.0646655273438,0.639470214844,10.0303417969,0.1,0.0,0.0,0.0,0.1,0.0,0.0,0.0,0.1
1446036229599930344,54,1446036229596878051,robocape,2.23702288123,10.5656417229,2.23702288123,0.0,10.0,0.0,0.0,0.0,10.0,0.0,0.0,0.0,10.0,0.0099868540878,0.0258326625738,0.00772316716123,1.0,0.0,0.0,0.0,1.0,0.0,0.0,0.0,1.0,0.0514929199219,0.664617919922,10.0279467773,0.1,0.0,0.0,0.0,0.1,0.0,0.0,0.0,0.1
1446036229633228260,55,1446036229630223989,robocape,2.24949295565,10.5924570074,2.24949295565,0.0,10.0,0.0,0.0,0.0,10.0,0.0,0.0,0.0,10.0,0.0107858024148,0.0266316109008,0.00719053494321,1.0,0.0,0.0,0.0,1.0,0.0,0.0,0.0,1.0,0.0610729980469,0.677790527344,10.0375268555,0.1,0.0,0.0,0.0,0.1,0.0,0.0,0.0,0.1
1446036229666250802,56,1446036229663074016,robocape,2.25357390482,10.6192258413,2.25357390482,0.0,10.0,0.0,0.0,0.0,10.0,0.0,0.0,0.0,10.0,0.00639158661619,0.0266316109008,0.00719053494321,1.0,0.0,0.0,0.0,1.0,0.0,0.0,0.0,1.0,0.0502954101563,0.70892578125,10.0423168945,0.1,0.0,0.0,0.0,0.1,0.0,0.0,0.0,0.1
1446036229706848927,57,1446036229703501939,robocape,2.24987755995,10.6444082862,2.24987755995,0.0,10.0,0.0,0.0,0.0,10.0,0.0,0.0,0.0,10.0,0.00226368692657,0.0258326625738,0.00745685105222,1.0,0.0,0.0,0.0,1.0,0.0,0.0,0.0,1.0,0.0634680175781,0.693358154297,10.019564209,0.1,0.0,0.0,0.0,0.1,0.0,0.0,0.0,0.1
1446036229733743386,58,1446036229730433940,robocape,2.24217470384,10.6716320229,2.24217470384,0.0,10.0,0.0,0.0,0.0,10.0,0.0,0.0,0.0,10.0,0.000266316109008,0.0268979270098,0.0067910607797,1.0,0.0,0.0,0.0,1.0,0.0,0.0,0.0,1.0,0.0586779785156,0.655037841797,9.99920654297,0.1,0.0,0.0,0.0,0.1,0.0,0.0,0.0,0.1
1446036229767405261,59,1446036229764096021,robocape,2.23834671157,10.6970350846,2.23834671157,0.0,10.0,0.0,0.0,0.0,10.0,0.0,0.0,0.0,10.0,0.00226368692657,0.0259658206283,0.00692421883421,1.0,0.0,0.0,0.0,1.0,0.0,0.0,0.0,1.0,0.0730480957031,0.649050292969,10.0435144043,0.1,0.0,0.0,0.0,0.1,0.0,0.0,0.0,0.1
1446036229800176719,60,1446036229797077894,robocape,2.2411119635,10.7223258091,2.2411119635,0.0,10.0,0.0,0.0,0.0,10.0,0.0,0.0,0.0,10.0,0.00559263828917,0.0259658206283,0.00759000910673,1.0,0.0,0.0,0.0,1.0,0.0,0.0,0.0,1.0,0.067060546875,0.647852783203,10.0207617188,0.1,0.0,0.0,0.0,0.1,0.0,0.0,0.0,0.1
1446036229836250094,61,1446036229832248926,robocape,2.24845113845,10.7475779342,2.24845113845,0.0,10.0,0.0,0.0,0.0,10.0,0.0,0.0,0.0,10.0,0.00798948327024,0.0259658206283,0.00759000910673,1.0,0.0,0.0,0.0,1.0,0.0,0.0,0.0,1.0,0.0610729980469,0.664617919922,10.0183666992,0.1,0.0,0.0,0.0,0.1,0.0,0.0,0.0,0.1
1446036229866451302,62,1446036229863277912,robocape,2.25876334696,10.7732352859,2.25876334696,0.0,10.0,0.0,0.0,0.0,10.0,0.0,0.0,0.0,10.0,0.00945422186978,0.0262321367373,0.00812264132474,1.0,0.0,0.0,0.0,1.0,0.0,0.0,0.0,1.0,0.0538879394531,0.665815429688,10.024354248,0.1,0.0,0.0,0.0,0.1,0.0,0.0,0.0,0.1
1446036229904257844,63,1446036229901004076,robocape,2.27150728646,10.7978768183,2.27150728646,0.0,10.0,0.0,0.0,0.0,10.0,0.0,0.0,0.0,10.0,0.0107858024148,0.0256995045193,0.00785632521573,1.0,0.0,0.0,0.0,1.0,0.0,0.0,0.0,1.0,0.0526904296875,0.67060546875,10.0267492676,0.1,0.0,0.0,0.0,0.1,0.0,0.0,0.0,0.1
1446036229933121427,64,1446036229930052042,robocape,2.28419137533,10.8229983152,2.28419137533,0.0,10.0,0.0,0.0,0.0,10.0,0.0,0.0,0.0,10.0,0.0107858024148,0.0259658206283,0.00772316716123,1.0,0.0,0.0,0.0,1.0,0.0,0.0,0.0,1.0,0.0682580566406,0.665815429688,10.024354248,0.1,0.0,0.0,0.0,0.1,0.0,0.0,0.0,0.1
1446036229970287136,65,1446036229966931104,robocape,2.29392827283,10.8476216213,2.29392827283,0.0,10.0,0.0,0.0,0.0,10.0,0.0,0.0,0.0,10.0,0.00932106381528,0.0256995045193,0.00732369299772,1.0,0.0,0.0,0.0,1.0,0.0,0.0,0.0,1.0,0.0658630371094,0.675395507813,10.0207617188,0.1,0.0,0.0,0.0,0.1,0.0,0.0,0.0,0.1
1446036230004306469,66,1446036230000927925,robocape,2.29819013394,10.8727522486,2.29819013394,0.0,10.0,0.0,0.0,0.0,10.0,0.0,0.0,0.0,10.0,0.00652474467069,0.0259658206283,0.00692421883421,1.0,0.0,0.0,0.0,1.0,0.0,0.0,0.0,1.0,0.0538879394531,0.695753173828,10.0279467773,0.1,0.0,0.0,0.0,0.1,0.0,0.0,0.0,0.1
1446036230036725261,67,1446036230033457994,robocape,2.29640974513,10.8973222762,2.29640974513,0.0,10.0,0.0,0.0,0.0,10.0,0.0,0.0,0.0,10.0,0.0033289513626,0.0256995045193,0.00705737688871,1.0,0.0,0.0,0.0,1.0,0.0,0.0,0.0,1.0,0.0562829589844,0.689765625,10.0063916016,0.1,0.0,0.0,0.0,0.1,0.0,0.0,0.0,0.1
1446036230070334511,68,1446036230066801071,robocape,2.28983115076,10.9238606702,2.28983115076,0.0,10.0,0.0,0.0,0.0,10.0,0.0,0.0,0.0,10.0,0.000798948327024,0.0267647689553,0.00705737688871,1.0,0.0,0.0,0.0,1.0,0.0,0.0,0.0,1.0,0.0694555664063,0.682580566406,10.0171691895,0.1,0.0,0.0,0.0,0.1,0.0,0.0,0.0,0.1
1446036230102114677,69,1446036230098995923,robocape,2.28257955585,10.949155488,2.28257955585,0.0,10.0,0.0,0.0,0.0,10.0,0.0,0.0,0.0,10.0,0.000532632218016,0.0260989786828,0.00652474467069,1.0,0.0,0.0,0.0,1.0,0.0,0.0,0.0,1.0,0.0586779785156,0.655037841797,10.0423168945,0.1,0.0,0.0,0.0,0.1,0.0,0.0,0.0,0.1
1446036230137021719,70,1446036230133776903,robocape,2.28152030046,10.9743058454,2.28152030046,0.0,10.0,0.0,0.0,0.0,10.0,0.0,0.0,0.0,10.0,0.00359526747161,0.0260989786828,0.00745685105222,1.0,0.0,0.0,0.0,1.0,0.0,0.0,0.0,1.0,0.0490979003906,0.637075195313,10.024354248,0.1,0.0,0.0,0.0,0.1,0.0,0.0,0.0,0.1
1446036230170376177,71,1446036230167087078,robocape,2.28836225869,10.9999957406,2.28836225869,0.0,10.0,0.0,0.0,0.0,10.0,0.0,0.0,0.0,10.0,0.00785632521573,0.0263652947918,0.0067910607797,1.0,0.0,0.0,0.0,1.0,0.0,0.0,0.0,1.0,0.05748046875,0.639470214844,10.039921875,0.1,0.0,0.0,0.0,0.1,0.0,0.0,0.0,0.1
1446036230205421094,72,1446036230202234983,robocape,2.29898852977,11.0253203238,2.29898852977,0.0,10.0,0.0,0.0,0.0,10.0,0.0,0.0,0.0,10.0,0.00972053797879,0.0262321367373,0.00745685105222,1.0,0.0,0.0,0.0,1.0,0.0,0.0,0.0,1.0,0.0622705078125,0.6514453125,10.0267492676,0.1,0.0,0.0,0.0,0.1,0.0,0.0,0.0,0.1
1446036230236373511,73,1446036230233216047,robocape,2.30833487699,11.0506042892,2.30833487699,0.0,10.0,0.0,0.0,0.0,10.0,0.0,0.0,0.0,10.0,0.00905474770627,0.0262321367373,0.00745685105222,1.0,0.0,0.0,0.0,1.0,0.0,0.0,0.0,1.0,0.0622705078125,0.681383056641,10.0423168945,0.1,0.0,0.0,0.0,0.1,0.0,0.0,0.0,0.1
1446036230269951927,74,1446036230266906976,robocape,2.31031217709,11.0753419337,2.31031217709,0.0,10.0,0.0,0.0,0.0,10.0,0.0,0.0,0.0,10.0,0.00519316412565,0.0259658206283,0.00745685105222,1.0,0.0,0.0,0.0,1.0,0.0,0.0,0.0,1.0,0.0514929199219,0.688568115234,10.039921875,0.1,0.0,0.0,0.0,0.1,0.0,0.0,0.0,0.1
1446036230301376261,75,1446036230298187971,robocape,2.30738354632,11.100820853,2.30738354632,0.0,10.0,0.0,0.0,0.0,10.0,0.0,0.0,0.0,10.0,0.00266316109008,0.0263652947918,0.00719053494321,1.0,0.0,0.0,0.0,1.0,0.0,0.0,0.0,1.0,0.0490979003906,0.678988037109,10.0147741699,0.1,0.0,0.0,0.0,0.1,0.0,0.0,0.0,0.1
1446036230335395344,76,1446036230331892013,robocape,2.30553113909,11.1249856828,2.30553113909,0.0,10.0,0.0,0.0,0.0,10.0,0.0,0.0,0.0,10.0,0.0031957933081,0.0256995045193,0.00732369299772,1.0,0.0,0.0,0.0,1.0,0.0,0.0,0.0,1.0,0.0550854492188,0.655037841797,10.0590820312,0.1,0.0,0.0,0.0,0.1,0.0,0.0,0.0,0.1
1446036230369281011,77,1446036230366096019,robocape,2.29124801381,11.1460434771,2.29124801381,0.0,10.0,0.0,0.0,0.0,10.0,0.0,0.0,0.0,10.0,-0.00759000910673,0.0254331884103,0.0299605622634,1.0,0.0,0.0,0.0,1.0,0.0,0.0,0.0,1.0,0.067060546875,0.817899169922,10.0255517578,0.1,0.0,0.0,0.0,0.1,0.0,0.0,0.0,0.1
1446036230400902761,78,1446036230397737026,robocape,2.26846693783,11.161322989,2.26846693783,0.0,10.0,0.0,0.0,0.0,10.0,0.0,0.0,0.0,10.0,-0.0225037112112,0.0256995045193,0.085354312937,1.0,0.0,0.0,0.0,1.0,0.0,0.0,0.0,1.0,0.100590820313,1.10410400391,10.0506994629,0.1,0.0,0.0,0.0,0.1,0.0,0.0,0.0,0.1
1446036230435779678,79,1446036230432730913,robocape,2.22996574059,11.1541146118,2.22996574059,0.0,10.0,0.0,0.0,0.0,10.0,0.0,0.0,0.0,10.0,-0.0516653251475,0.0203731823391,0.196408130393,1.0,0.0,0.0,0.0,1.0,0.0,0.0,0.0,1.0,0.270637207031,-0.137713623047,10.1081799316,0.1,0.0,0.0,0.0,0.1,0.0,0.0,0.0,0.1
1446036230468435594,80,1446036230465262889,robocape,2.46502051329,11.1330375117,2.46502051329,0.0,10.0,0.0,0.0,0.0,10.0,0.0,0.0,0.0,10.0,0.0930774800983,0.0130494893414,0.191214966268,1.0,0.0,0.0,0.0,1.0,0.0,0.0,0.0,1.0,0.292192382813,-0.650247802734,9.98723144531,0.1,0.0,0.0,0.0,0.1,0.0,0.0,0.0,0.1
1446036230501103011,81,1446036230498038053,robocape,3.07948191454,11.0979716899,3.07948191454,0.0,10.0,0.0,0.0,0.0,10.0,0.0,0.0,0.0,10.0,0.30599720925,0.00213052887206,0.12090751349,1.0,0.0,0.0,0.0,1.0,0.0,0.0,0.0,1.0,-0.461041259766,0.616717529297,10.0219592285,0.1,0.0,0.0,0.0,0.1,0.0,0.0,0.0,0.1
1446036230532568636,82,1446036230529177904,robocape,3.68662531753,11.0578634639,3.68662531753,0.0,10.0,0.0,0.0,0.0,10.0,0.0,0.0,0.0,10.0,0.291482981309,0.00572579634367,0.184823379651,1.0,0.0,0.0,0.0,1.0,0.0,0.0,0.0,1.0,-0.255069580078,0.505349121094,10.1189575195,0.1,0.0,0.0,0.0,0.1,0.0,0.0,0.0,0.1
1446036230565672511,83,1446036230562556028,robocape,4.42349445688,11.0220812539,4.42349445688,0.0,10.0,0.0,0.0,0.0,10.0,0.0,0.0,0.0,10.0,0.391351522187,-0.00492684801665,0.017710021249,1.0,0.0,0.0,0.0,1.0,0.0,0.0,0.0,1.0,-0.0371228027344,1.88248535156,9.94292358398,0.1,0.0,0.0,0.0,0.1,0.0,0.0,0.0,0.1
1446036230600389136,84,1446036230597295999,robocape,4.92674976461,11.0282155388,4.92674976461,0.0,10.0,0.0,0.0,0.0,10.0,0.0,0.0,0.0,10.0,0.28589034302,0.00825579937925,-0.0727042977592,1.0,0.0,0.0,0.0,1.0,0.0,0.0,0.0,1.0,0.395178222656,2.09923461914,10.0590820312,0.1,0.0,0.0,0.0,0.1,0.0,0.0,0.0,0.1
1446036230633429261,85,1446036230630247116,robocape,5.03979701635,11.0706361156,5.03979701635,0.0,10.0,0.0,0.0,0.0,10.0,0.0,0.0,0.0,10.0,0.0757669330128,0.0300937203179,-0.0422111032778,1.0,0.0,0.0,0.0,1.0,0.0,0.0,0.0,1.0,0.208366699219,3.01053955078,9.8447277832,0.1,0.0,0.0,0.0,0.1,0.0,0.0,0.0,0.1
1446036230666572511,86,1446036230663525104,robocape,4.67294250829,11.1523190693,4.67294250829,0.0,10.0,0.0,0.0,0.0,10.0,0.0,0.0,0.0,10.0,-0.167779148675,0.0458063707494,-0.0893490545722,1.0,0.0,0.0,0.0,1.0,0.0,0.0,0.0,1.0,0.324525146484,2.13036987305,9.97286132813,0.1,0.0,0.0,0.0,0.1,0.0,0.0,0.0,0.1
1446036230699699428,87,1446036230696418046,robocape,4.15069839009,11.2559181651,4.15069839009,0.0,10.0,0.0,0.0,0.0,10.0,0.0,0.0,0.0,10.0,-0.23888554978,0.0525974315291,-0.147272808281,1.0,0.0,0.0,0.0,1.0,0.0,0.0,0.0,1.0,0.24908203125,1.24062011719,10.0087866211,0.1,0.0,0.0,0.0,0.1,0.0,0.0,0.0,0.1
1446036230733212136,88,1446036230730086088,robocape,3.59679635844,11.365347781,3.59679635844,0.0,10.0,0.0,0.0,0.0,10.0,0.0,0.0,0.0,10.0,-0.244345030015,0.052064799311,-0.206927616699,1.0,0.0,0.0,0.0,1.0,0.0,0.0,0.0,1.0,0.0179626464844,0.767603759766,9.98842895508,0.1,0.0,0.0,0.0,0.1,0.0,0.0,0.0,0.1
1446036230766088053,89,1446036230762950897,robocape,3.10360708484,11.4665501867,3.10360708484,0.0,10.0,0.0,0.0,0.0,10.0,0.0,0.0,0.0,10.0,-0.197340236775,0.0436758418773,-0.285490868856,1.0,0.0,0.0,0.0,1.0,0.0,0.0,0.0,1.0,0.0490979003906,0.716110839844,9.96088623047,0.1,0.0,0.0,0.0,0.1,0.0,0.0,0.0,0.1
1446036230798980428,90,1446036230795969009,robocape,2.64694452481,11.5556019776,2.64694452481,0.0,10.0,0.0,0.0,0.0,10.0,0.0,0.0,0.0,10.0,-0.164317039258,0.03488741028,-0.355398847471,1.0,0.0,0.0,0.0,1.0,0.0,0.0,0.0,1.0,-0.105380859375,1.09811645508,9.95609619141,0.1,0.0,0.0,0.0,0.1,0.0,0.0,0.0,0.1
1446036230832564219,91,1446036230829539060,robocape,2.07225324563,11.6121579657,2.07225324563,0.0,10.0,0.0,0.0,0.0,10.0,0.0,0.0,0.0,10.0,-0.232360805109,0.0230363434292,-0.322375649954,1.0,0.0,0.0,0.0,1.0,0.0,0.0,0.0,1.0,0.0586779785156,1.28971801758,9.94771362305,0.1,0.0,0.0,0.0,0.1,0.0,0.0,0.0,0.1
1446036230865774928,92,1446036230862377882,robocape,1.17643422076,11.6270820467,1.17643422076,0.0,10.0,0.0,0.0,0.0,10.0,0.0,0.0,0.0,10.0,-0.433828941574,0.0133158054504,-0.156593872097,1.0,0.0,0.0,0.0,1.0,0.0,0.0,0.0,1.0,0.120948486328,1.31127319336,10.0051940918,0.1,0.0,0.0,0.0,0.1,0.0,0.0,0.0,0.1
1446036230898819261,93,1446036230895817995,robocape,-0.0776493472814,11.6143797182,-0.0776493472814,0.0,10.0,0.0,0.0,0.0,10.0,0.0,0.0,0.0,10.0,-0.67377975579,0.00972053797879,0.0977380120059,1.0,0.0,0.0,0.0,1.0,0.0,0.0,0.0,1.0,0.0946032714844,1.01309326172,9.98723144531,0.1,0.0,0.0,0.0,0.1,0.0,0.0,0.0,0.1
1446036230932614803,94,1446036230929027080,robocape,-1.27473807392,11.6189172352,-1.27473807392,0.0,10.0,0.0,0.0,0.0,10.0,0.0,0.0,0.0,10.0,-0.658732895631,0.0183758115215,0.163251774822,1.0,0.0,0.0,0.0,1.0,0.0,0.0,0.0,1.0,0.0203576660156,-0.270637207031,10.024354248,0.1,0.0,0.0,0.0,0.1,0.0,0.0,0.0,0.1
1446036230966033428,95,1446036230962587118,robocape,-1.92838482392,11.6252768964,-1.92838482392,0.0,10.0,0.0,0.0,0.0,10.0,0.0,0.0,0.0,10.0,-0.343814096729,0.017976337358,0.0106526443603,1.0,0.0,0.0,0.0,1.0,0.0,0.0,0.0,1.0,-0.232316894531,-2.40819213867,10.0099841309,0.1,0.0,0.0,0.0,0.1,0.0,0.0,0.0,0.1
1446036230999024886,96,1446036230995960950,robocape,-2.06967104922,11.6339304889,-2.06967104922,0.0,10.0,0.0,0.0,0.0,10.0,0.0,0.0,0.0,10.0,-0.0737695621952,0.0185089695761,0.00119842249054,1.0,0.0,0.0,0.0,1.0,0.0,0.0,0.0,1.0,0.474213867188,-1.42383911133,10.1165625,0.1,0.0,0.0,0.0,0.1,0.0,0.0,0.0,0.1
1446036231032090636,97,1446036231029019117,robocape,-1.79375742058,11.6771348755,-1.79375742058,0.0,10.0,0.0,0.0,0.0,10.0,0.0,0.0,0.0,10.0,0.162585984549,0.0370179391521,-0.084022732392,1.0,0.0,0.0,0.0,1.0,0.0,0.0,0.0,1.0,0.123343505859,-1.55317016602,9.97645385742,0.1,0.0,0.0,0.0,0.1,0.0,0.0,0.0,0.1
1446036231065954345,98,1446036231062581062,robocape,-1.18043767997,11.7135343904,-1.18043767997,0.0,10.0,0.0,0.0,0.0,10.0,0.0,0.0,0.0,10.0,0.358062008561,0.032490565299,-0.173371786964,1.0,0.0,0.0,0.0,1.0,0.0,0.0,0.0,1.0,0.188009033203,0.324525146484,10.0650695801,0.1,0.0,0.0,0.0,0.1,0.0,0.0,0.0,0.1
1446036231098868386,99,1446036231095810890,robocape,-0.693230888801,11.7376722674,-0.693230888801,0.0,10.0,0.0,0.0,0.0,10.0,0.0,0.0,0.0,10.0,0.296942461544,0.0245010820287,-0.195476024012,1.0,0.0,0.0,0.0,1.0,0.0,0.0,0.0,1.0,-0.135318603516,1.00710571289,9.99202148437,0.1,0.0,0.0,0.0,0.1,0.0,0.0,0.0,0.1
1446036231132301011,100,1446036231129239082,robocape,-0.47208472471,11.7536032677,-0.47208472471,0.0,10.0,0.0,0.0,0.0,10.0,0.0,0.0,0.0,10.0,0.158591242914,0.0193079179031,-0.199071291483,1.0,0.0,0.0,0.0,1.0,0.0,0.0,0.0,1.0,-0.0898132324219,1.31845825195,9.99561401367,0.1,0.0,0.0,0.0,0.1,0.0,0.0,0.0,0.1
1446036231167761095,101,1446036231164594888,robocape,-0.555968754598,11.7644365625,-0.555968754598,0.0,10.0,0.0,0.0,0.0,10.0,0.0,0.0,0.0,10.0,-0.0258326625738,0.017976337358,-0.0788295682663,1.0,0.0,0.0,0.0,1.0,0.0,0.0,0.0,1.0,0.149688720703,1.58670043945,10.0339343262,0.1,0.0,0.0,0.0,0.1,0.0,0.0,0.0,0.1
1446036231203713345,102,1446036231195749044,robocape,-1.02320492187,11.7642662928,-1.02320492187,0.0,10.0,0.0,0.0,0.0,10.0,0.0,0.0,0.0,10.0,-0.241415552816,0.0134489635049,-0.00892158965177,1.0,0.0,0.0,0.0,1.0,0.0,0.0,0.0,1.0,-0.0455053710938,1.28133544922,9.9980090332,0.1,0.0,0.0,0.0,0.1,0.0,0.0,0.0,0.1
1446036231232526720,103,1446036231229507923,robocape,-1.68116686383,11.752124266,-1.68116686383,0.0,10.0,0.0,0.0,0.0,10.0,0.0,0.0,0.0,10.0,-0.335158823186,0.00785632521573,-0.0420779452233,1.0,0.0,0.0,0.0,1.0,0.0,0.0,0.0,1.0,-0.0251477050781,-0.0155676269531,10.1045874023,0.1,0.0,0.0,0.0,0.1,0.0,0.0,0.0,0.1
1446036231266076553,104,1446036231262718915,robocape,-2.1039906495,11.7400420841,-2.1039906495,0.0,10.0,0.0,0.0,0.0,10.0,0.0,0.0,0.0,10.0,-0.200402872028,0.00892158965177,-0.100401173096,1.0,0.0,0.0,0.0,1.0,0.0,0.0,0.0,1.0,0.0347277832031,-0.530496826172,9.99202148437,0.1,0.0,0.0,0.0,0.1,0.0,0.0,0.0,0.1
1446036231298738886,105,1446036231295749902,robocape,-2.39230035817,11.7277884463,-2.39230035817,0.0,10.0,0.0,0.0,0.0,10.0,0.0,0.0,0.0,10.0,-0.140881221665,0.00825579937925,-0.0495347962755,1.0,0.0,0.0,0.0,1.0,0.0,0.0,0.0,1.0,0.0,-0.704135742188,10.0363293457,0.1,0.0,0.0,0.0,0.1,0.0,0.0,0.0,0.1
1446036231332202261,106,1446036231329217910,robocape,-2.50973120141,11.72579829,-2.50973120141,0.0,10.0,0.0,0.0,0.0,10.0,0.0,0.0,0.0,10.0,-0.0557932248372,0.0130494893414,-0.0288952978274,1.0,0.0,0.0,0.0,1.0,0.0,0.0,0.0,1.0,0.192799072266,-0.280217285156,10.0866247559,0.1,0.0,0.0,0.0,0.1,0.0,0.0,0.0,0.1
1446036231366087511,107,1446036231362677097,robocape,-2.77164408292,11.7418619436,-2.77164408292,0.0,10.0,0.0,0.0,0.0,10.0,0.0,0.0,0.0,10.0,-0.159922823459,0.0194410759576,0.106526443603,1.0,0.0,0.0,0.0,1.0,0.0,0.0,0.0,1.0,0.119750976563,-0.599952392578,10.0926123047,0.1,0.0,0.0,0.0,0.1,0.0,0.0,0.0,0.1
1446036231398756178,108,1446036231395755052,robocape,-2.84020671755,11.7727777228,-2.84020671755,0.0,10.0,0.0,0.0,0.0,10.0,0.0,0.0,0.0,10.0,-0.066046395034,0.0256995045193,0.141680169992,1.0,0.0,0.0,0.0,1.0,0.0,0.0,0.0,1.0,0.183218994141,-1.43341918945,9.98363891602,0.1,0.0,0.0,0.0,0.1,0.0,0.0,0.0,0.1
1446036231431923970,109,1446036231428919076,robocape,-2.57831682135,11.836424129,-2.57831682135,0.0,10.0,0.0,0.0,0.0,10.0,0.0,0.0,0.0,10.0,0.115448033255,0.0436758418773,0.10346380835,1.0,0.0,0.0,0.0,1.0,0.0,0.0,0.0,1.0,0.335302734375,-0.844244384766,10.019564209,0.1,0.0,0.0,0.0,0.1,0.0,0.0,0.0,0.1
1446036231468300553,110,1446036231464843034,robocape,-2.05942585953,11.9077511632,-2.05942585953,0.0,10.0,0.0,0.0,0.0,10.0,0.0,0.0,0.0,10.0,0.253532935776,0.0482032157304,0.0892158965177,1.0,0.0,0.0,0.0,1.0,0.0,0.0,0.0,1.0,0.0730480957031,-0.47900390625,10.0411193848,0.1,0.0,0.0,0.0,0.1,0.0,0.0,0.0,0.1
1446036231498669053,111,1446036231495605945,robocape,-1.44008179499,11.9688366539,-1.44008179499,0.0,10.0,0.0,0.0,0.0,10.0,0.0,0.0,0.0,10.0,0.314652482793,0.0439421579863,0.0511326929295,1.0,0.0,0.0,0.0,1.0,0.0,0.0,0.0,1.0,0.0981958007813,0.00119750976563,10.0830322266,0.1,0.0,0.0,0.0,0.1,0.0,0.0,0.0,0.1
1446036231532222095,112,1446036231529010057,robocape,-1.01650663065,12.0138646334,-1.01650663065,0.0,10.0,0.0,0.0,0.0,10.0,0.0,0.0,0.0,10.0,0.209990251953,0.0363521488796,0.0631169178349,1.0,0.0,0.0,0.0,1.0,0.0,0.0,0.0,1.0,-0.201181640625,0.929267578125,9.98244140625,0.1,0.0,0.0,0.0,0.1,0.0,0.0,0.0,0.1
1446036231568405720,113,1446036231564981937,robocape,-0.771271596191,12.1142606087,-0.771271596191,0.0,10.0,0.0,0.0,0.0,10.0,0.0,0.0,0.0,10.0,0.124103306798,0.066312711143,0.0294279300454,1.0,0.0,0.0,0.0,1.0,0.0,0.0,0.0,1.0,-0.0119750976563,0.861009521484,9.99561401367,0.1,0.0,0.0,0.0,0.1,0.0,0.0,0.0,0.1
1446036231599079928,114,1446036231595701932,robocape,-0.712819197973,12.1407046998,-0.712819197973,0.0,10.0,0.0,0.0,0.0,10.0,0.0,0.0,0.0,10.0,0.0264984528463,0.0275637172823,0.0279631914458,1.0,0.0,0.0,0.0,1.0,0.0,0.0,0.0,1.0,0.142503662109,1.05141357422,10.0027990723,0.1,0.0,0.0,0.0,0.1,0.0,0.0,0.0,0.1
1446036231632309720,115,1446036231629113912,robocape,-0.86997695941,12.1582911683,-0.86997695941,0.0,10.0,0.0,0.0,0.0,10.0,0.0,0.0,0.0,10.0,-0.0894822126267,0.0233026595382,0.0416784710597,1.0,0.0,0.0,0.0,1.0,0.0,0.0,0.0,1.0,0.0227526855469,0.792751464844,10.0411193848,0.1,0.0,0.0,0.0,0.1,0.0,0.0,0.0,0.1
1446036231665656053,116,1446036231662441015,robocape,-1.19509822317,12.1671001433,-1.19509822317,0.0,10.0,0.0,0.0,0.0,10.0,0.0,0.0,0.0,10.0,-0.169776519493,0.0187752856851,0.00412789968962,1.0,0.0,0.0,0.0,1.0,0.0,0.0,0.0,1.0,-0.00598754882813,0.537681884766,10.0231567383,0.1,0.0,0.0,0.0,0.1,0.0,0.0,0.0,0.1
1446036231698752345,117,1446036231695559024,robocape,-1.48767503677,12.1741830292,-1.48767503677,0.0,10.0,0.0,0.0,0.0,10.0,0.0,0.0,0.0,10.0,-0.148870704935,0.017976337358,-0.0154463343225,1.0,0.0,0.0,0.0,1.0,0.0,0.0,0.0,1.0,0.0227526855469,-0.188009033203,10.0614770508,0.1,0.0,0.0,0.0,0.1,0.0,0.0,0.0,0.1
1446036231732243886,118,1446036231729202985,robocape,-1.63763947693,12.1875297228,-1.63763947693,0.0,10.0,0.0,0.0,0.0,10.0,0.0,0.0,0.0,10.0,-0.0744353524677,0.0211721306661,-0.0150468601589,1.0,0.0,0.0,0.0,1.0,0.0,0.0,0.0,1.0,0.108973388672,-0.707728271484,10.0578845215,0.1,0.0,0.0,0.0,0.1,0.0,0.0,0.0,0.1
1446036231766000595,119,1446036231762783050,robocape,-1.62490854011,12.2106854769,-1.62490854011,0.0,10.0,0.0,0.0,0.0,10.0,0.0,0.0,0.0,10.0,0.00732369299772,0.0259658206283,0.00106526443603,1.0,0.0,0.0,0.0,1.0,0.0,0.0,0.0,1.0,0.102985839844,-0.599952392578,10.0578845215,0.1,0.0,0.0,0.0,0.1,0.0,0.0,0.0,0.1
1446036231798717678,120,1446036231795727968,robocape,-1.47951544856,12.2419457843,-1.47951544856,0.0,10.0,0.0,0.0,0.0,10.0,0.0,0.0,0.0,10.0,0.0756337749583,0.0299605622634,0.00719053494321,1.0,0.0,0.0,0.0,1.0,0.0,0.0,0.0,1.0,0.102985839844,-0.324525146484,10.0495019531,0.1,0.0,0.0,0.0,0.1,0.0,0.0,0.0,0.1
1446036231832190345,121,1446036231829171895,robocape,-1.27800357892,12.2744047372,-1.27800357892,0.0,10.0,0.0,0.0,0.0,10.0,0.0,0.0,0.0,10.0,0.104529072786,0.0304931944814,0.0103863282513,1.0,0.0,0.0,0.0,1.0,0.0,0.0,0.0,1.0,0.0502954101563,0.0514929199219,10.0411193848,0.1,0.0,0.0,0.0,0.1,0.0,0.0,0.0,0.1
1446036231865384553,122,1446036231862382888,robocape,-1.08865627789,12.3007336293,-1.08865627789,0.0,10.0,0.0,0.0,0.0,10.0,0.0,0.0,0.0,10.0,0.0978711700604,0.0272974011733,0.0125168571234,1.0,0.0,0.0,0.0,1.0,0.0,0.0,0.0,1.0,0.0203576660156,0.449066162109,10.0339343262,0.1,0.0,0.0,0.0,0.1,0.0,0.0,0.0,0.1
1446036231898876637,123,1446036231895855903,robocape,-1.09511509274,12.3258651014,-1.09511509274,0.0,10.0,0.0,0.0,0.0,10.0,0.0,0.0,0.0,10.0,-0.0034621094171,0.0270310850643,0.00705737688871,1.0,0.0,0.0,0.0,1.0,0.0,0.0,0.0,1.0,0.0359252929688,0.609532470703,10.0662670898,0.1,0.0,0.0,0.0,0.1,0.0,0.0,0.0,0.1
1446036231933266512,124,1446036231930197000,robocape,-1.21403508453,12.3525787628,-1.21403508453,0.0,10.0,0.0,0.0,0.0,10.0,0.0,0.0,0.0,10.0,-0.0620516533988,0.0280963495003,0.00519316412565,1.0,0.0,0.0,0.0,1.0,0.0,0.0,0.0,1.0,-0.150886230469,0.355660400391,10.0542919922,0.1,0.0,0.0,0.0,0.1,0.0,0.0,0.0,0.1
1446036231966661262,125,1446036231963623046,robocape,-1.37726451016,12.3827789096,-1.37726451016,0.0,10.0,0.0,0.0,0.0,10.0,0.0,0.0,0.0,10.0,-0.0844222065555,0.0300937203179,0.00066579027252,1.0,0.0,0.0,0.0,1.0,0.0,0.0,0.0,1.0,-0.28740234375,0.009580078125,10.0518969727,0.1,0.0,0.0,0.0,0.1,0.0,0.0,0.0,0.1
1446036231999960220,126,1446036231996953010,robocape,-1.55213256498,12.4006452344,-1.55213256498,0.0,10.0,0.0,0.0,0.0,10.0,0.0,0.0,0.0,10.0,-0.0941427445343,0.0235689756472,0.0162452826495,1.0,0.0,0.0,0.0,1.0,0.0,0.0,0.0,1.0,0.188009033203,0.0634680175781,10.0662670898,0.1,0.0,0.0,0.0,0.1,0.0,0.0,0.0,0.1
1446036232034032762,127,1446036232030699968,robocape,-1.77744852176,12.4086759282,-1.77744852176,0.0,10.0,0.0,0.0,0.0,10.0,0.0,0.0,0.0,10.0,-0.120108565163,0.0185089695761,0.0129163312869,1.0,0.0,0.0,0.0,1.0,0.0,0.0,0.0,1.0,0.434696044922,0.0598754882813,10.0303417969,0.1,0.0,0.0,0.0,0.1,0.0,0.0,0.0,0.1
1446036232066096053,128,1446036232063028097,robocape,-2.03477153519,12.4210906661,-2.03477153519,0.0,10.0,0.0,0.0,0.0,10.0,0.0,0.0,0.0,10.0,-0.135554899485,0.0210389726116,0.00572579634367,1.0,0.0,0.0,0.0,1.0,0.0,0.0,0.0,1.0,-0.0706530761719,-0.340092773437,10.1225500488,0.1,0.0,0.0,0.0,0.1,0.0,0.0,0.0,0.1
1446036232099714512,129,1446036232096151113,robocape,-2.13554307097,12.4320902017,-2.13554307097,0.0,10.0,0.0,0.0,0.0,10.0,0.0,0.0,0.0,10.0,-0.0579237537092,0.0197073920666,0.0249005561922,1.0,0.0,0.0,0.0,1.0,0.0,0.0,0.0,1.0,0.0826281738281,-0.496966552734,10.0375268555,0.1,0.0,0.0,0.0,0.1,0.0,0.0,0.0,0.1
1446036232134021720,130,1446036232130774974,robocape,-2.15514432525,12.459487208,-2.15514432525,0.0,10.0,0.0,0.0,0.0,10.0,0.0,0.0,0.0,10.0,-0.015579492377,0.0282295075548,0.0258326625738,1.0,0.0,0.0,0.0,1.0,0.0,0.0,0.0,1.0,0.211959228516,-0.470621337891,10.0566870117,0.1,0.0,0.0,0.0,0.1,0.0,0.0,0.0,0.1
1446036232170277387,131,1446036232166600942,robocape,-2.06121449968,12.4893952934,-2.06121449968,0.0,10.0,0.0,0.0,0.0,10.0,0.0,0.0,0.0,10.0,0.0414121549507,0.0291616139364,0.0374174133156,1.0,0.0,0.0,0.0,1.0,0.0,0.0,0.0,1.0,0.0371228027344,-0.605939941406,10.0375268555,0.1,0.0,0.0,0.0,0.1,0.0,0.0,0.0,0.1
1446036232204725345,132,1446036232198921918,robocape,-1.85235489858,12.5289039595,-1.85235489858,0.0,10.0,0.0,0.0,0.0,10.0,0.0,0.0,0.0,10.0,0.107991182203,0.0344879361165,0.00958737992429,1.0,0.0,0.0,0.0,1.0,0.0,0.0,0.0,1.0,0.15328125,-0.1916015625,10.003996582,0.1,0.0,0.0,0.0,0.1,0.0,0.0,0.0,0.1
1446036232235755595,133,1446036232231384038,robocape,-1.62515790291,12.5524411065,-1.62515790291,0.0,10.0,0.0,0.0,0.0,10.0,0.0,0.0,0.0,10.0,0.119842249054,0.0260989786828,0.000133158054504,1.0,0.0,0.0,0.0,1.0,0.0,0.0,0.0,1.0,-0.537681884766,0.0431103515625,10.1153649902,0.1,0.0,0.0,0.0,0.1,0.0,0.0,0.0,0.1
1446036232270754053,134,1446036232266392946,robocape,-1.51684336478,12.5963455518,-1.51684336478,0.0,10.0,0.0,0.0,0.0,10.0,0.0,0.0,0.0,10.0,0.0577905956547,0.0371510972066,0.000133158054504,1.0,0.0,0.0,0.0,1.0,0.0,0.0,0.0,1.0,-0.902922363281,0.174836425781,10.2183508301,0.1,0.0,0.0,0.0,0.1,0.0,0.0,0.0,0.1
1446036232304010845,135,1446036232300842046,robocape,-1.5385255699,12.6386379859,-1.5385255699,0.0,10.0,0.0,0.0,0.0,10.0,0.0,0.0,0.0,10.0,-0.0141147537774,0.0364853069341,0.0173105470855,1.0,0.0,0.0,0.0,1.0,0.0,0.0,0.0,1.0,-0.653840332031,0.571212158203,10.3381018066,0.1,0.0,0.0,0.0,0.1,0.0,0.0,0.0,0.1
1446036232336781553,136,1446036232333597898,robocape,-1.64002853878,12.6615887805,-1.64002853878,0.0,10.0,0.0,0.0,0.0,10.0,0.0,0.0,0.0,10.0,-0.0537958540196,0.0264984528463,0.00705737688871,1.0,0.0,0.0,0.0,1.0,0.0,0.0,0.0,1.0,-0.607137451172,0.240699462891,10.0123791504,0.1,0.0,0.0,0.0,0.1,0.0,0.0,0.0,0.1
1446036232370446720,137,1446036232365659952,robocape,-1.79241264806,12.6976681834,-1.79241264806,0.0,10.0,0.0,0.0,0.0,10.0,0.0,0.0,0.0,10.0,-0.0789627263208,0.0336889877895,0.0,1.0,0.0,0.0,0.0,1.0,0.0,0.0,0.0,1.0,-0.718505859375,0.233514404297,10.1033898926,0.1,0.0,0.0,0.0,0.1,0.0,0.0,0.0,0.1
1446036232403123095,138,1446036232399818897,robocape,-1.99674721899,12.7299044309,-1.99674721899,0.0,10.0,0.0,0.0,0.0,10.0,0.0,0.0,0.0,10.0,-0.104529072786,0.031957933081,-0.00825579937925,1.0,0.0,0.0,0.0,1.0,0.0,0.0,0.0,1.0,0.0419128417969,0.0886157226563,9.89861572266,0.1,0.0,0.0,0.0,0.1,0.0,0.0,0.0,0.1
1446036232436681637,139,1446036232433247089,robocape,-2.2349757213,12.7311937207,-2.2349757213,0.0,10.0,0.0,0.0,0.0,10.0,0.0,0.0,0.0,10.0,-0.122904884307,0.0157126504315,-0.00719053494321,1.0,0.0,0.0,0.0,1.0,0.0,0.0,0.0,1.0,0.749641113281,0.468226318359,9.81718505859,0.1,0.0,0.0,0.0,0.1,0.0,0.0,0.0,0.1
1446036232469021595,140,1446036232465691089,robocape,-2.59571977666,12.7144923469,-2.59571977666,0.0,10.0,0.0,0.0,0.0,10.0,0.0,0.0,0.0,10.0,-0.179630215526,0.00732369299772,-0.0422111032778,1.0,0.0,0.0,0.0,1.0,0.0,0.0,0.0,1.0,1.32564331055,0.289797363281,9.9213684082,0.1,0.0,0.0,0.0,0.1,0.0,0.0,0.0,0.1
1446036232503282887,141,1446036232499965906,robocape,-3.1190797865,12.6856149386,-3.1190797865,0.0,10.0,0.0,0.0,0.0,10.0,0.0,0.0,0.0,10.0,-0.265384002626,0.00173105470855,-0.0426105774413,1.0,0.0,0.0,0.0,1.0,0.0,0.0,0.0,1.0,0.729283447266,0.298179931641,9.87227050781,0.1,0.0,0.0,0.0,0.1,0.0,0.0,0.0,0.1
1446036232534833429,142,1446036232531449079,robocape,-3.81473368124,12.6676629218,-3.81473368124,0.0,10.0,0.0,0.0,0.0,10.0,0.0,0.0,0.0,10.0,-0.369779917358,0.00639158661619,0.016112124595,1.0,0.0,0.0,0.0,1.0,0.0,0.0,0.0,1.0,0.984353027344,-0.108973388672,10.0004040527,0.1,0.0,0.0,0.0,0.1,0.0,0.0,0.0,0.1
1446036232569555679,143,1446036232566108942,robocape,-4.43693762018,12.6556574967,-4.43693762018,0.0,10.0,0.0,0.0,0.0,10.0,0.0,0.0,0.0,10.0,-0.325438285208,0.0110521185238,-0.0129163312869,1.0,0.0,0.0,0.0,1.0,0.0,0.0,0.0,1.0,-0.24908203125,-1.76153686523,10.0974023437,0.1,0.0,0.0,0.0,0.1,0.0,0.0,0.0,0.1
1446036232602546929,144,1446036232599277973,robocape,-4.73175633321,12.6564143372,-4.73175633321,0.0,10.0,0.0,0.0,0.0,10.0,0.0,0.0,0.0,10.0,-0.158990717078,0.015845808486,0.00838895743375,1.0,0.0,0.0,0.0,1.0,0.0,0.0,0.0,1.0,-0.445473632813,-1.17475708008,9.98723144531,0.1,0.0,0.0,0.0,0.1,0.0,0.0,0.0,0.1
1446036232635250345,145,1446036232632046937,robocape,-4.79753894339,12.6537404742,-4.79753894339,0.0,10.0,0.0,0.0,0.0,10.0,0.0,0.0,0.0,10.0,-0.0323574072445,0.0150468601589,-0.0207726565026,1.0,0.0,0.0,0.0,1.0,0.0,0.0,0.0,1.0,-0.202379150391,-1.6477734375,10.0435144043,0.1,0.0,0.0,0.0,0.1,0.0,0.0,0.0,0.1
1446036232669441554,146,1446036232666368961,robocape,-4.60792526688,12.6562763531,-4.60792526688,0.0,10.0,0.0,0.0,0.0,10.0,0.0,0.0,0.0,10.0,0.0892158965177,0.0134489635049,0.034088461953,1.0,0.0,0.0,0.0,1.0,0.0,0.0,0.0,1.0,-2.39382202148,-1.1076965332,10.3249291992,0.1,0.0,0.0,0.0,0.1,0.0,0.0,0.0,0.1
1446036232701806095,147,1446036232698365926,robocape,-4.23060942191,12.6584627636,-4.23060942191,0.0,10.0,0.0,0.0,0.0,10.0,0.0,0.0,0.0,10.0,0.207859723081,0.0175768631945,-0.0529969056926,1.0,0.0,0.0,0.0,1.0,0.0,0.0,0.0,1.0,-2.10522216797,-1.55676269531,10.3141516113,0.1,0.0,0.0,0.0,0.1,0.0,0.0,0.0,0.1
1446036232735762804,148,1446036232732705116,robocape,-3.74134541538,12.6794336274,-3.74134541538,0.0,10.0,0.0,0.0,0.0,10.0,0.0,0.0,0.0,10.0,0.241948185034,0.0213052887206,0.0575242795457,1.0,0.0,0.0,0.0,1.0,0.0,0.0,0.0,1.0,-1.4980847168,-0.607137451172,10.0423168945,0.1,0.0,0.0,0.0,0.1,0.0,0.0,0.0,0.1
1446036232768385220,149,1446036232765252113,robocape,-3.3260245976,12.7163027138,-3.3260245976,0.0,10.0,0.0,0.0,0.0,10.0,0.0,0.0,0.0,10.0,0.240749762543,0.0371510972066,-0.105461179167,1.0,0.0,0.0,0.0,1.0,0.0,0.0,0.0,1.0,-2.56865844727,-1.81542480469,10.039921875,0.1,0.0,0.0,0.0,0.1,0.0,0.0,0.0,0.1
1446036232802110637,150,1446036232798860073,robocape,-2.81618757474,12.931531426,-2.81618757474,0.0,10.0,0.0,0.0,0.0,10.0,0.0,0.0,0.0,10.0,0.272441379515,0.127964890378,-0.0199737081756,1.0,0.0,0.0,0.0,1.0,0.0,0.0,0.0,1.0,-1.5711328125,-0.0874182128906,10.4195324707,0.1,0.0,0.0,0.0,0.1,0.0,0.0,0.0,0.1
1446036232834321762,151,1446036232831299066,robocape,-2.60180893786,13.0548729867,-2.60180893786,0.0,10.0,0.0,0.0,0.0,10.0,0.0,0.0,0.0,10.0,0.120641197381,0.0804274649204,-0.0342216200075,1.0,0.0,0.0,0.0,1.0,0.0,0.0,0.0,1.0,-1.63220581055,0.911304931641,10.7320825195,0.1,0.0,0.0,0.0,0.1,0.0,0.0,0.0,0.1
1446036232868791304,152,1446036232865735054,robocape,-2.76920463439,13.0980116699,-2.76920463439,0.0,10.0,0.0,0.0,0.0,10.0,0.0,0.0,0.0,10.0,-0.0812264132474,0.0387489938607,-0.0283626656093,1.0,0.0,0.0,0.0,1.0,0.0,0.0,0.0,1.0,-2.4489074707,0.817899169922,10.1476977539,0.1,0.0,0.0,0.0,0.1,0.0,0.0,0.0,0.1
1446036232901304845,153,1446036232897864103,robocape,-3.31020526558,13.0792407263,-3.31020526558,0.0,10.0,0.0,0.0,0.0,10.0,0.0,0.0,0.0,10.0,-0.277501385586,0.00719053494321,-0.0298274042089,1.0,0.0,0.0,0.0,1.0,0.0,0.0,0.0,1.0,-1.9579284668,0.158071289063,10.0099841309,0.1,0.0,0.0,0.0,0.1,0.0,0.0,0.0,0.1
1446036232934710679,154,1446036232931477069,robocape,-4.34919402013,12.9968748706,-4.34919402013,0.0,10.0,0.0,0.0,0.0,10.0,0.0,0.0,0.0,10.0,-0.592553342543,-0.0347542522255,0.192946020976,1.0,0.0,0.0,0.0,1.0,0.0,0.0,0.0,1.0,-0.405955810547,2.77463012695,9.63636108398,0.1,0.0,0.0,0.0,0.1,0.0,0.0,0.0,0.1
1446036232966955845,155,1446036232963658094,robocape,-5.94150767421,13.0752087808,-5.94150767421,0.0,10.0,0.0,0.0,0.0,10.0,0.0,0.0,0.0,10.0,-0.951813773594,0.0303600364269,0.477371625397,1.0,0.0,0.0,0.0,1.0,0.0,0.0,0.0,1.0,-2.13635742188,2.84648071289,10.6973547363,0.1,0.0,0.0,0.0,0.1,0.0,0.0,0.0,0.1
1446036232999865470,156,1446036232996431112,robocape,-8.73361847168,13.1969599124,-8.73361847168,0.0,10.0,0.0,0.0,0.0,10.0,0.0,0.0,0.0,10.0,-1.72173364474,-0.0110521185238,1.01479753337,1.0,0.0,0.0,0.0,1.0,0.0,0.0,0.0,1.0,-1.58071289063,1.43820922852,9.63636108398,0.1,0.0,0.0,0.0,0.1,0.0,0.0,0.0,0.1
1446036233032962470,157,1446036233029874086,robocape,-12.5099764162,13.187863661,-12.5099764162,0.0,10.0,0.0,0.0,0.0,10.0,0.0,0.0,0.0,10.0,-2.26794798431,-0.123038042362,1.02758070661,1.0,0.0,0.0,0.0,1.0,0.0,0.0,0.0,1.0,-2.04893920898,0.700543212891,8.07121582031,0.1,0.0,0.0,0.0,0.1,0.0,0.0,0.0,0.1
1446036233066123970,158,1446036233063009977,robocape,-17.5059675188,13.2109519774,-17.5059675188,0.0,10.0,0.0,0.0,0.0,10.0,0.0,0.0,0.0,10.0,-2.93160772796,-0.132225948122,0.940229022852,1.0,0.0,0.0,0.0,1.0,0.0,0.0,0.0,1.0,-1.69687133789,1.17355957031,8.47956665039,0.1,0.0,0.0,0.0,0.1,0.0,0.0,0.0,0.1
1446036233099187637,159,1446036233095942020,robocape,-23.2873722362,13.2536225572,-23.2873722362,0.0,10.0,0.0,0.0,0.0,10.0,0.0,0.0,0.0,10.0,-3.3511887577,-0.0873516837546,0.702142421399,1.0,0.0,0.0,0.0,1.0,0.0,0.0,0.0,1.0,-1.22026245117,1.7591418457,7.0473449707,0.1,0.0,0.0,0.0,0.1,0.0,0.0,0.0,0.1
1446036233132333095,160,1446036233129291057,robocape,-30.2225181392,13.0391053054,-30.2225181392,0.0,10.0,0.0,0.0,0.0,10.0,0.0,0.0,0.0,10.0,-4.08102805444,-0.21611552246,0.636495500529,1.0,0.0,0.0,0.0,1.0,0.0,0.0,0.0,1.0,-0.558039550781,2.00702636719,5.03073852539,0.1,0.0,0.0,0.0,0.1,0.0,0.0,0.0,0.1
1446036233165999721,161,1446036233163007974,robocape,-34.676025814,11.2707828584,-34.676025814,0.0,10.0,0.0,0.0,0.0,10.0,0.0,0.0,0.0,10.0,-2.33918754347,-0.315318273065,-1.05314705307,1.0,0.0,0.0,0.0,1.0,0.0,0.0,0.0,1.0,1.18313964844,-19.62,10.8099206543,0.1,0.0,0.0,0.0,0.1,0.0,0.0,0.0,0.1
1446036233204768762,162,1446036233197659969,robocape,-33.9376448584,10.5998367292,-33.9376448584,0.0,10.0,0.0,0.0,0.0,10.0,0.0,0.0,0.0,10.0,0.649012357652,0.27643612115,-1.08710235697,1.0,0.0,0.0,0.0,1.0,0.0,0.0,0.0,1.0,4.75171875,-9.71060668945,7.30241455078,0.1,0.0,0.0,0.0,0.1,0.0,0.0,0.0,0.1
1446036233235362262,163,1446036233232270956,robocape,-33.2755566876,11.2574781153,-33.2755566876,0.0,10.0,0.0,0.0,0.0,10.0,0.0,0.0,0.0,10.0,0.533697482452,0.784300941028,-0.569916473277,1.0,0.0,0.0,0.0,1.0,0.0,0.0,0.0,1.0,-3.45840820313,-1.82021484375,6.99225952148,0.1,0.0,0.0,0.0,0.1,0.0,0.0,0.0,0.1
1446036233266146887,164,1446036233263123035,robocape,-33.1998553579,11.4143454646,-33.1998553579,0.0,10.0,0.0,0.0,0.0,10.0,0.0,0.0,0.0,10.0,0.235822914527,0.609730731574,-0.779107776903,1.0,0.0,0.0,0.0,1.0,0.0,0.0,0.0,1.0,0.01916015625,-4.20206176758,11.2541967773,0.1,0.0,0.0,0.0,0.1,0.0,0.0,0.0,0.1
1446036233298623596,165,1446036233295639038,robocape,-34.0999038297,11.4300302027,-34.0999038297,0.0,10.0,0.0,0.0,0.0,10.0,0.0,0.0,0.0,10.0,-0.397609950749,0.418515765306,-0.551540661755,1.0,0.0,0.0,0.0,1.0,0.0,0.0,0.0,1.0,-0.608334960938,-1.50526977539,8.40651855469,0.1,0.0,0.0,0.0,0.1,0.0,0.0,0.0,0.1
1446036233332223804,166,1446036233329232931,robocape,-34.7275293366,11.4801739259,-34.7275293366,0.0,10.0,0.0,0.0,0.0,10.0,0.0,0.0,0.0,10.0,-0.187220224633,0.559929619189,-0.730904561172,1.0,0.0,0.0,0.0,1.0,0.0,0.0,0.0,1.0,2.59021362305,-4.04518798828,9.55972045898,0.1,0.0,0.0,0.0,0.1,0.0,0.0,0.0,0.1
1446036233365588304,167,1446036233362585067,robocape,-35.3610384818,11.3683125418,-35.3610384818,0.0,10.0,0.0,0.0,0.0,10.0,0.0,0.0,0.0,10.0,-0.222507109076,0.435027364064,-0.678173971589,1.0,0.0,0.0,0.0,1.0,0.0,0.0,0.0,1.0,0.580792236328,-6.74677001953,8.15025146484,0.1,0.0,0.0,0.0,0.1,0.0,0.0,0.0,0.1
1446036233398825471,168,1446036233395814895,robocape,-35.5152147616,11.2274870933,-35.5152147616,0.0,10.0,0.0,0.0,0.0,10.0,0.0,0.0,0.0,10.0,0.0814927293564,0.490554272793,-0.797483588424,1.0,0.0,0.0,0.0,1.0,0.0,0.0,0.0,1.0,0.609532470703,-6.44739257813,8.09277099609,0.1,0.0,0.0,0.0,0.1,0.0,0.0,0.0,0.1
1446036233432183929,169,1446036233429169893,robocape,-35.8754410808,11.4192078398,-35.8754410808,0.0,10.0,0.0,0.0,0.0,10.0,0.0,0.0,0.0,10.0,-0.0812264132474,0.56911752495,-0.580302801528,1.0,0.0,0.0,0.0,1.0,0.0,0.0,0.0,1.0,1.87530029297,-6.55516845703,9.13939453125,0.1,0.0,0.0,0.0,0.1,0.0,0.0,0.0,0.1
1446036233465718346,170,1446036233462656021,robocape,-36.4819992195,11.3060313804,-36.4819992195,0.0,10.0,0.0,0.0,0.0,10.0,0.0,0.0,0.0,10.0,-0.269245586207,0.336090929568,-0.508663768205,1.0,0.0,0.0,0.0,1.0,0.0,0.0,0.0,1.0,0.559237060547,-1.86212768555,7.6257421875,0.1,0.0,0.0,0.0,0.1,0.0,0.0,0.0,0.1
1446036233498889721,171,1446036233495820999,robocape,-36.9438712019,11.119692273,-36.9438712019,0.0,10.0,0.0,0.0,0.0,10.0,0.0,0.0,0.0,10.0,-0.141280695829,0.423975245541,-0.692954515639,1.0,0.0,0.0,0.0,1.0,0.0,0.0,0.0,1.0,0.868194580078,-6.57073608398,8.58854003906,0.1,0.0,0.0,0.0,0.1,0.0,0.0,0.0,0.1
1446036233532352721,172,1446036233529107093,robocape,-37.2148543391,11.0981416184,-37.2148543391,0.0,10.0,0.0,0.0,0.0,10.0,0.0,0.0,0.0,10.0,-0.0545948023466,0.45766423333,-0.588159126744,1.0,0.0,0.0,0.0,1.0,0.0,0.0,0.0,1.0,-1.25139770508,-3.92304199219,8.32868041992,0.1,0.0,0.0,0.0,0.1,0.0,0.0,0.0,0.1
1446036233565458221,173,1446036233562393903,robocape,-37.3880401924,10.6751295122,-37.3880401924,0.0,10.0,0.0,0.0,0.0,10.0,0.0,0.0,0.0,10.0,0.0175768631945,0.323840388554,-0.764327232853,1.0,0.0,0.0,0.0,1.0,0.0,0.0,0.0,1.0,3.4907409668,-6.54199584961,6.09053466797,0.1,0.0,0.0,0.0,0.1,0.0,0.0,0.0,0.1
1446036233598722762,174,1446036233595678091,robocape,-37.675125187,10.6609130676,-37.675125187,0.0,10.0,0.0,0.0,0.0,10.0,0.0,0.0,0.0,10.0,-0.108656972475,0.379500455336,-0.467917403527,1.0,0.0,0.0,0.0,1.0,0.0,0.0,0.0,1.0,1.58670043945,-7.32756225586,8.82205444336,0.1,0.0,0.0,0.0,0.1,0.0,0.0,0.0,0.1
1446036233633974762,175,1446036233630883932,robocape,-37.920833361,10.3539076817,-37.920833361,0.0,10.0,0.0,0.0,0.0,10.0,0.0,0.0,0.0,10.0,-0.0788295682663,0.271908747297,-0.580036485419,1.0,0.0,0.0,0.0,1.0,0.0,0.0,0.0,1.0,0.987945556641,-6.51205810547,8.59213256836,0.1,0.0,0.0,0.0,0.1,0.0,0.0,0.0,0.1
1446036233665499012,176,1446036233662457942,robocape,-37.8974242467,10.4095958446,-37.8974242467,0.0,10.0,0.0,0.0,0.0,10.0,0.0,0.0,0.0,10.0,0.0209058145571,0.279898230567,-0.281496127221,1.0,0.0,0.0,0.0,1.0,0.0,0.0,0.0,1.0,-0.841849365234,-3.5637890625,8.15384399414,0.1,0.0,0.0,0.0,0.1,0.0,0.0,0.0,0.1
1446036233698683429,177,1446036233695657968,robocape,-37.9804973541,10.4063384331,-37.9804973541,0.0,10.0,0.0,0.0,0.0,10.0,0.0,0.0,0.0,10.0,-0.0448742643678,0.245809768614,-0.285224552747,1.0,0.0,0.0,0.0,1.0,0.0,0.0,0.0,1.0,-0.536484375,-5.73726928711,7.35031494141,0.1,0.0,0.0,0.0,0.1,0.0,0.0,0.0,0.1
1446036233732352721,178,1446036233729372024,robocape,-38.0920589259,10.5457158971,-38.0920589259,0.0,10.0,0.0,0.0,0.0,10.0,0.0,0.0,0.0,10.0,-0.0790958843754,0.262853999591,-0.182160218561,1.0,0.0,0.0,0.0,1.0,0.0,0.0,0.0,1.0,1.47054199219,-4.80800170898,8.6987109375,0.1,0.0,0.0,0.0,0.1,0.0,0.0,0.0,0.1
1446036233765566929,179,1446036233762480020,robocape,-38.5154619604,10.5809112742,-38.5154619604,0.0,10.0,0.0,0.0,0.0,10.0,0.0,0.0,0.0,10.0,-0.270577166752,0.198272343156,-0.177899160817,1.0,0.0,0.0,0.0,1.0,0.0,0.0,0.0,1.0,1.95912597656,-9.76688964844,9.30704589844,0.1,0.0,0.0,0.0,0.1,0.0,0.0,0.0,0.1
1446036233798595887,180,1446036233795612096,robocape,-38.5771105292,10.8236112247,-38.5771105292,0.0,10.0,0.0,0.0,0.0,10.0,0.0,0.0,0.0,10.0,-0.105461179167,0.149270179099,0.0532632218016,1.0,0.0,0.0,0.0,1.0,0.0,0.0,0.0,1.0,0.147293701172,-5.52531005859,7.18984863281,0.1,0.0,0.0,0.0,0.1,0.0,0.0,0.0,0.1
1446036233832137804,181,1446036233829138040,robocape,-38.8304034614,10.9895736898,-38.8304034614,0.0,10.0,0.0,0.0,0.0,10.0,0.0,0.0,0.0,10.0,-0.227034482929,0.0930774800983,0.0652474467069,1.0,0.0,0.0,0.0,1.0,0.0,0.0,0.0,1.0,-0.974772949219,-4.57448730469,8.90827514648,0.1,0.0,0.0,0.0,0.1,0.0,0.0,0.0,0.1
1446036233865253429,182,1446036233862205028,robocape,-39.1096646872,11.0158353048,-39.1096646872,0.0,10.0,0.0,0.0,0.0,10.0,0.0,0.0,0.0,10.0,-0.195609182066,0.172306522528,-0.150335443535,1.0,0.0,0.0,0.0,1.0,0.0,0.0,0.0,1.0,2.1495300293,-8.18258422852,5.80672485352,0.1,0.0,0.0,0.0,0.1,0.0,0.0,0.0,0.1
1446036233898632971,183,1446036233895457983,robocape,-39.0573466707,11.1681211019,-39.0573466707,0.0,10.0,0.0,0.0,0.0,10.0,0.0,0.0,0.0,10.0,-0.00745685105222,0.205063403936,-0.0934769542618,1.0,0.0,0.0,0.0,1.0,0.0,0.0,0.0,1.0,-1.87649780273,-7.53233642578,8.047265625,0.1,0.0,0.0,0.0,0.1,0.0,0.0,0.0,0.1
1446036233932698179,184,1446036233929251909,robocape,-38.8019477991,11.3717190075,-38.8019477991,0.0,10.0,0.0,0.0,0.0,10.0,0.0,0.0,0.0,10.0,0.050466902657,0.0408795227327,0.148071756608,1.0,0.0,0.0,0.0,1.0,0.0,0.0,0.0,1.0,-2.42735229492,-4.5601171875,8.88791748047,0.1,0.0,0.0,0.0,0.1,0.0,0.0,0.0,0.1
1446036233965658304,185,1446036233962243080,robocape,-38.7110032737,11.1298741199,-38.7110032737,0.0,10.0,0.0,0.0,0.0,10.0,0.0,0.0,0.0,10.0,0.0280963495003,0.0524642734746,-0.239817656162,1.0,0.0,0.0,0.0,1.0,0.0,0.0,0.0,1.0,-1.73519165039,-6.53002075195,7.93469970703,0.1,0.0,0.0,0.0,0.1,0.0,0.0,0.0,0.1
1446036233998655346,186,1446036233995527029,robocape,-38.4555722626,10.9328887583,-38.4555722626,0.0,10.0,0.0,0.0,0.0,10.0,0.0,0.0,0.0,10.0,0.137685428357,0.109589078857,-0.280297704731,1.0,0.0,0.0,0.0,1.0,0.0,0.0,0.0,1.0,-1.55197265625,-6.35039428711,9.23040527344,0.1,0.0,0.0,0.0,0.1,0.0,0.0,0.0,0.1
1446036234032238888,187,1446036234029014110,robocape,-37.9583921842,10.5176914649,-37.9583921842,0.0,10.0,0.0,0.0,0.0,10.0,0.0,0.0,0.0,10.0,0.335425139295,0.177233370545,-0.564323834988,1.0,0.0,0.0,0.0,1.0,0.0,0.0,0.0,1.0,-0.446671142578,-2.86923339844,8.72146362305,0.1,0.0,0.0,0.0,0.1,0.0,0.0,0.0,0.1
1446036234065509846,188,1446036234062258958,robocape,-37.8234162283,10.0529682892,-37.8234162283,0.0,10.0,0.0,0.0,0.0,10.0,0.0,0.0,0.0,10.0,0.171374416147,0.333427768478,-0.804674123367,1.0,0.0,0.0,0.0,1.0,0.0,0.0,0.0,1.0,0.680185546875,-4.40444091797,8.20773193359,0.1,0.0,0.0,0.0,0.1,0.0,0.0,0.0,0.1
1446036234098622054,189,1446036234095547914,robocape,-38.4374367369,9.57589995248,-38.4374367369,0.0,10.0,0.0,0.0,0.0,10.0,0.0,0.0,0.0,10.0,-0.30866037034,0.241149236707,-0.676576074935,1.0,0.0,0.0,0.0,1.0,0.0,0.0,0.0,1.0,-0.0299377441406,-4.30504760742,10.4770129395,0.1,0.0,0.0,0.0,0.1,0.0,0.0,0.0,0.1
1446036234132251513,190,1446036234129189014,robocape,-39.165783367,9.39997975612,-39.165783367,0.0,10.0,0.0,0.0,0.0,10.0,0.0,0.0,0.0,10.0,-0.300404570961,0.724113500393,-1.00987068536,1.0,0.0,0.0,0.0,1.0,0.0,0.0,0.0,1.0,3.45721069336,-8.74182128906,8.13228881836,0.1,0.0,0.0,0.0,0.1,0.0,0.0,0.0,0.1
1446036234165692096,191,1446036234162532091,robocape,-39.351137829,9.57872722657,-39.351137829,0.0,10.0,0.0,0.0,0.0,10.0,0.0,0.0,0.0,10.0,-0.083756416283,0.515854303148,-0.45646581084,1.0,0.0,0.0,0.0,1.0,0.0,0.0,0.0,1.0,1.65974853516,-5.93366088867,10.5596411133,0.1,0.0,0.0,0.0,0.1,0.0,0.0,0.0,0.1
1446036234205659429,192,1446036234195749044,robocape,-39.4128736403,9.47080501419,-39.4128736403,0.0,10.0,0.0,0.0,0.0,10.0,0.0,0.0,0.0,10.0,-0.0107858024148,0.399207847403,-0.552739084246,1.0,0.0,0.0,0.0,1.0,0.0,0.0,0.0,1.0,0.3065625,-0.147293701172,6.22585327148,0.1,0.0,0.0,0.0,0.1,0.0,0.0,0.0,0.1
1446036234232780679,193,1446036234229307889,robocape,-39.6042310293,9.02496721485,-39.6042310293,0.0,10.0,0.0,0.0,0.0,10.0,0.0,0.0,0.0,10.0,-0.0525974315291,0.437291050991,-0.874848418091,1.0,0.0,0.0,0.0,1.0,0.0,0.0,0.0,1.0,-0.758023681641,-5.28940063477,10.0662670898,0.1,0.0,0.0,0.0,0.1,0.0,0.0,0.0,0.1
1446036234266913721,194,1446036234263649940,robocape,-39.9742095739,8.99545137656,-39.9742095739,0.0,10.0,0.0,0.0,0.0,10.0,0.0,0.0,0.0,10.0,-0.191481282377,0.526640105563,-0.63356602333,1.0,0.0,0.0,0.0,1.0,0.0,0.0,0.0,1.0,-0.741258544922,-7.88440429688,9.6183984375,0.1,0.0,0.0,0.0,0.1,0.0,0.0,0.0,0.1
