%time,field.header.seq,field.header.stamp,field.header.frame_id,field.magnetic_field.x,field.magnetic_field.y,field.magnetic_field.z,field.magnetic_field_covariance0,field.magnetic_field_covariance1,field.magnetic_field_covariance2,field.magnetic_field_covariance3,field.magnetic_field_covariance4,field.magnetic_field_covariance5,field.magnetic_field_covariance6,field.magnetic_field_covariance7,field.magnetic_field_covariance8
1446036639188184489,1,1446036638837661027,robocape_mag,14.85,-8.4,-1.5,10.0,0.0,0.0,0.0,10.0,0.0,0.0,0.0,10.0
1446036639211715822,2,1446036638872533082,robocape_mag,14.85,-8.4,-1.5,10.0,0.0,0.0,0.0,10.0,0.0,0.0,0.0,10.0
1446036639212605531,3,1446036638904333114,robocape_mag,14.85,-8.4,-0.9,10.0,0.0,0.0,0.0,10.0,0.0,0.0,0.0,10.0
1446036639212650156,4,1446036638933782100,robocape_mag,13.05,-8.4,-0.9,10.0,0.0,0.0,0.0,10.0,0.0,0.0,0.0,10.0
1446036639217437697,5,1446036638975820064,robocape_mag,13.05,-8.4,-0.9,10.0,0.0,0.0,0.0,10.0,0.0,0.0,0.0,10.0
1446036639218341947,6,1446036639000879049,robocape_mag,13.05,-8.4,-0.9,10.0,0.0,0.0,0.0,10.0,0.0,0.0,0.0,10.0
1446036639218424406,7,1446036639035309076,robocape_mag,13.05,-8.4,-0.9,10.0,0.0,0.0,0.0,10.0,0.0,0.0,0.0,10.0
1446036639235480447,8,1446036639068054914,robocape_mag,11.85,-9.0,-0.3,10.0,0.0,0.0,0.0,10.0,0.0,0.0,0.0,10.0
1446036639235542447,9,1446036639099706888,robocape_mag,11.85,-9.0,-0.3,10.0,0.0,0.0,0.0,10.0,0.0,0.0,0.0,10.0
1446036639235594781,10,1446036639138197898,robocape_mag,11.85,-9.0,-0.3,10.0,0.0,0.0,0.0,10.0,0.0,0.0,0.0,10.0
1446036639236353697,11,1446036639199801921,robocape_mag,11.85,-9.0,-0.3,10.0,0.0,0.0,0.0,10.0,0.0,0.0,0.0,10.0
1446036639236425697,12,1446036639222444057,robocape_mag,11.85,-9.0,-0.3,10.0,0.0,0.0,0.0,10.0,0.0,0.0,0.0,10.0
1446036639247693864,13,1446036639243772029,robocape_mag,12.75,-8.1,-0.6,10.0,0.0,0.0,0.0,10.0,0.0,0.0,0.0,10.0
1446036639268935822,14,1446036639265841960,robocape_mag,12.75,-8.1,-0.6,10.0,0.0,0.0,0.0,10.0,0.0,0.0,0.0,10.0
1446036639314482989,15,1446036639301992893,robocape_mag,12.75,-8.1,-0.6,10.0,0.0,0.0,0.0,10.0,0.0,0.0,0.0,10.0
1446036639339214614,16,1446036639332438945,robocape_mag,12.75,-8.1,-0.6,10.0,0.0,0.0,0.0,10.0,0.0,0.0,0.0,10.0
1446036639370933406,17,1446036639365381002,robocape_mag,12.75,-8.1,-0.6,10.0,0.0,0.0,0.0,10.0,0.0,0.0,0.0,10.0
1446036639407234239,18,1446036639402275085,robocape_mag,11.55,-7.5,-0.6,10.0,0.0,0.0,0.0,10.0,0.0,0.0,0.0,10.0
1446036639437187281,19,1446036639432167053,robocape_mag,11.55,-7.5,-0.6,10.0,0.0,0.0,0.0,10.0,0.0,0.0,0.0,10.0
1446036639470320197,20,1446036639465394973,robocape_mag,11.55,-7.5,-0.6,10.0,0.0,0.0,0.0,10.0,0.0,0.0,0.0,10.0
1446036639503993322,21,1446036639498869895,robocape_mag,11.55,-7.5,-0.6,10.0,0.0,0.0,0.0,10.0,0.0,0.0,0.0,10.0
1446036639539056406,22,1446036639532129049,robocape_mag,11.55,-7.5,-0.6,10.0,0.0,0.0,0.0,10.0,0.0,0.0,0.0,10.0
1446036639570548572,23,1446036639565448045,robocape_mag,14.85,-7.8,-2.1,10.0,0.0,0.0,0.0,10.0,0.0,0.0,0.0,10.0
1446036639604291697,24,1446036639599286079,robocape_mag,14.85,-7.8,-2.1,10.0,0.0,0.0,0.0,10.0,0.0,0.0,0.0,10.0
1446036639637309948,25,1446036639632225990,robocape_mag,14.85,-7.8,-2.1,10.0,0.0,0.0,0.0,10.0,0.0,0.0,0.0,10.0
1446036639670615198,26,1446036639665419101,robocape_mag,14.85,-7.8,-2.1,10.0,0.0,0.0,0.0,10.0,0.0,0.0,0.0,10.0
1446036639703983489,27,1446036639699112892,robocape_mag,14.85,-7.8,-2.1,10.0,0.0,0.0,0.0,10.0,0.0,0.0,0.0,10.0
1446036639737063864,28,1446036639732126951,robocape_mag,11.55,-8.7,-1.2,10.0,0.0,0.0,0.0,10.0,0.0,0.0,0.0,10.0
1446036639770732656,29,1446036639765614986,robocape_mag,11.55,-8.7,-1.2,10.0,0.0,0.0,0.0,10.0,0.0,0.0,0.0,10.0
1446036639803938448,30,1446036639799091100,robocape_mag,11.55,-8.7,-1.2,10.0,0.0,0.0,0.0,10.0,0.0,0.0,0.0,10.0
1446036639838316406,31,1446036639833403110,robocape_mag,11.55,-8.7,-1.2,10.0,0.0,0.0,0.0,10.0,0.0,0.0,0.0,10.0
1446036639871385239,32,1446036639866569042,robocape_mag,11.55,-9.9,1.8,10.0,0.0,0.0,0.0,10.0,0.0,0.0,0.0,10.0
1446036639904706573,33,1446036639899358987,robocape_mag,15.75,-9.9,1.8,10.0,0.0,0.0,0.0,10.0,0.0,0.0,0.0,10.0
1446036639937557323,34,1446036639932853937,robocape_mag,15.75,-9.9,1.8,10.0,0.0,0.0,0.0,10.0,0.0,0.0,0.0,10.0
1446036639979049989,35,1446036639973134994,robocape_mag,15.75,-9.9,1.8,10.0,0.0,0.0,0.0,10.0,0.0,0.0,0.0,10.0
1446036640005580156,36,1446036640000528097,robocape_mag,15.75,-9.9,1.8,10.0,0.0,0.0,0.0,10.0,0.0,0.0,0.0,10.0
1446036640039236739,37,1446036640034163951,robocape_mag,11.55,-7.5,-1.2,10.0,0.0,0.0,0.0,10.0,0.0,0.0,0.0,10.0
1446036640073184989,38,1446036640068095922,robocape_mag,11.55,-7.5,-1.2,10.0,0.0,0.0,0.0,10.0,0.0,0.0,0.0,10.0
1446036640107880448,39,1446036640102159023,robocape_mag,11.55,-7.5,-1.2,10.0,0.0,0.0,0.0,10.0,0.0,0.0,0.0,10.0
1446036640141400489,40,1446036640136265993,robocape_mag,11.55,-7.5,-1.2,10.0,0.0,0.0,0.0,10.0,0.0,0.0,0.0,10.0
1446036640177254531,41,1446036640169488906,robocape_mag,11.55,-7.5,-1.2,10.0,0.0,0.0,0.0,10.0,0.0,0.0,0.0,10.0
1446036640206848406,42,1446036640202081918,robocape_mag,13.05,-8.4,0.3,10.0,0.0,0.0,0.0,10.0,0.0,0.0,0.0,10.0
1446036640241862989,43,1446036640235045909,robocape_mag,13.05,-8.4,0.3,10.0,0.0,0.0,0.0,10.0,0.0,0.0,0.0,10.0
1446036640276740114,44,1446036640268927097,robocape_mag,13.05,-8.4,0.3,10.0,0.0,0.0,0.0,10.0,0.0,0.0,0.0,10.0
1446036640312971615,45,1446036640302438974,robocape_mag,13.05,-8.4,0.3,10.0,0.0,0.0,0.0,10.0,0.0,0.0,0.0,10.0
1446036640343509448,46,1446036640335773944,robocape_mag,13.05,-8.4,0.3,10.0,0.0,0.0,0.0,10.0,0.0,0.0,0.0,10.0
1446036640374419365,47,1446036640369081020,robocape_mag,14.25,-7.8,-0.9,10.0,0.0,0.0,0.0,10.0,0.0,0.0,0.0,10.0
1446036640410514656,48,1446036640402771949,robocape_mag,14.25,-7.8,-0.9,10.0,0.0,0.0,0.0,10.0,0.0,0.0,0.0,10.0
1446036640441958031,49,1446036640437045097,robocape_mag,14.25,-7.8,-0.9,10.0,0.0,0.0,0.0,10.0,0.0,0.0,0.0,10.0
1446036640477208406,50,1446036640468250989,robocape_mag,14.25,-7.8,-0.9,10.0,0.0,0.0,0.0,10.0,0.0,0.0,0.0,10.0
1446036640508513531,51,1446036640503684043,robocape_mag,14.25,-7.8,-0.9,10.0,0.0,0.0,0.0,10.0,0.0,0.0,0.0,10.0
1446036640544085865,52,1446036640534964084,robocape_mag,16.05,-11.4,-0.3,10.0,0.0,0.0,0.0,10.0,0.0,0.0,0.0,10.0
1446036640573748990,53,1446036640568748950,robocape_mag,16.05,-11.4,-0.3,10.0,0.0,0.0,0.0,10.0,0.0,0.0,0.0,10.0
1446036640608099698,54,1446036640603307008,robocape_mag,16.05,-11.4,-0.3,10.0,0.0,0.0,0.0,10.0,0.0,0.0,0.0,10.0
1446036640640789781,55,1446036640635652065,robocape_mag,16.05,-11.4,-0.3,10.0,0.0,0.0,0.0,10.0,0.0,0.0,0.0,10.0
1446036640673819240,56,1446036640669029951,robocape_mag,18.15,-8.7,-0.6,10.0,0.0,0.0,0.0,10.0,0.0,0.0,0.0,10.0
1446036640707398573,57,1446036640702368974,robocape_mag,18.15,-8.7,-0.6,10.0,0.0,0.0,0.0,10.0,0.0,0.0,0.0,10.0
1446036640739494448,58,1446036640734366893,robocape_mag,18.15,-8.7,-0.6,10.0,0.0,0.0,0.0,10.0,0.0,0.0,0.0,10.0
1446036640772948698,59,1446036640768086910,robocape_mag,18.15,-8.7,-0.6,10.0,0.0,0.0,0.0,10.0,0.0,0.0,0.0,10.0
1446036640806572781,60,1446036640801501989,robocape_mag,18.15,-8.7,-0.6,10.0,0.0,0.0,0.0,10.0,0.0,0.0,0.0,10.0
1446036640839565823,61,1446036640834434032,robocape_mag,12.45,-7.8,-0.9,10.0,0.0,0.0,0.0,10.0,0.0,0.0,0.0,10.0
1446036640873569323,62,1446036640868783950,robocape_mag,12.45,-7.8,-0.9,10.0,0.0,0.0,0.0,10.0,0.0,0.0,0.0,10.0
1446036640905774448,63,1446036640900554895,robocape_mag,12.45,-7.8,-0.9,10.0,0.0,0.0,0.0,10.0,0.0,0.0,0.0,10.0
1446036640938631031,64,1446036640933623075,robocape_mag,12.45,-7.8,-0.9,10.0,0.0,0.0,0.0,10.0,0.0,0.0,0.0,10.0
1446036640971873531,65,1446036640966975927,robocape_mag,12.45,-7.8,-0.9,10.0,0.0,0.0,0.0,10.0,0.0,0.0,0.0,10.0
1446036641004285948,66,1446036640999435901,robocape_mag,12.45,-7.8,-0.3,10.0,0.0,0.0,0.0,10.0,0.0,0.0,0.0,10.0
1446036641041173782,67,1446036641032463073,robocape_mag,12.45,-7.8,-0.3,10.0,0.0,0.0,0.0,10.0,0.0,0.0,0.0,10.0
1446036641070938032,68,1446036641066111087,robocape_mag,12.45,-7.8,-0.3,10.0,0.0,0.0,0.0,10.0,0.0,0.0,0.0,10.0
1446036641104499948,69,1446036641099596977,robocape_mag,12.45,-7.8,-0.3,10.0,0.0,0.0,0.0,10.0,0.0,0.0,0.0,10.0
1446036641137228323,70,1446036641132283926,robocape_mag,12.45,-7.8,-0.3,10.0,0.0,0.0,0.0,10.0,0.0,0.0,0.0,10.0
1446036641175795115,71,1446036641165668010,robocape_mag,12.15,-8.7,-0.6,10.0,0.0,0.0,0.0,10.0,0.0,0.0,0.0,10.0
1446036641205069615,72,1446036641200251102,robocape_mag,12.15,-8.7,-0.6,10.0,0.0,0.0,0.0,10.0,0.0,0.0,0.0,10.0
1446036641238624073,73,1446036641233599901,robocape_mag,12.15,-8.7,-0.6,10.0,0.0,0.0,0.0,10.0,0.0,0.0,0.0,10.0
1446036641270669490,74,1446036641265849113,robocape_mag,12.15,-8.7,-0.6,10.0,0.0,0.0,0.0,10.0,0.0,0.0,0.0,10.0
1446036641304136698,75,1446036641299154043,robocape_mag,12.15,-8.7,-0.6,10.0,0.0,0.0,0.0,10.0,0.0,0.0,0.0,10.0
1446036641337095573,76,1446036641332096099,robocape_mag,10.95,-8.7,0.6,10.0,0.0,0.0,0.0,10.0,0.0,0.0,0.0,10.0
1446036641370632990,77,1446036641365756034,robocape_mag,10.95,-8.7,0.6,10.0,0.0,0.0,0.0,10.0,0.0,0.0,0.0,10.0
1446036641404090698,78,1446036641399004936,robocape_mag,10.95,-8.7,0.6,10.0,0.0,0.0,0.0,10.0,0.0,0.0,0.0,10.0
1446036641437438948,79,1446036641432584047,robocape_mag,10.95,-8.7,0.6,10.0,0.0,0.0,0.0,10.0,0.0,0.0,0.0,10.0
1446036641470646532,80,1446036641465686082,robocape_mag,10.95,-9.3,0.6,10.0,0.0,0.0,0.0,10.0,0.0,0.0,0.0,10.0
1446036641504195323,81,1446036641499164104,robocape_mag,13.95,-9.3,0.6,10.0,0.0,0.0,0.0,10.0,0.0,0.0,0.0,10.0
1446036641538032073,82,1446036641533062934,robocape_mag,13.95,-9.3,0.6,10.0,0.0,0.0,0.0,10.0,0.0,0.0,0.0,10.0
1446036641570333740,83,1446036641565576076,robocape_mag,13.95,-9.3,0.6,10.0,0.0,0.0,0.0,10.0,0.0,0.0,0.0,10.0
1446036641605158948,84,1446036641599005937,robocape_mag,13.95,-9.3,0.6,10.0,0.0,0.0,0.0,10.0,0.0,0.0,0.0,10.0
1446036641638279615,85,1446036641632699966,robocape_mag,12.75,-6.9,0.6,10.0,0.0,0.0,0.0,10.0,0.0,0.0,0.0,10.0
1446036641671074740,86,1446036641665491104,robocape_mag,12.75,-6.9,0.6,10.0,0.0,0.0,0.0,10.0,0.0,0.0,0.0,10.0
1446036641706111532,87,1446036641699140071,robocape_mag,12.75,-6.9,0.6,10.0,0.0,0.0,0.0,10.0,0.0,0.0,0.0,10.0
1446036641737621990,88,1446036641732446908,robocape_mag,12.75,-6.9,0.6,10.0,0.0,0.0,0.0,10.0,0.0,0.0,0.0,10.0
1446036641770459199,89,1446036641765496969,robocape_mag,12.75,-6.9,0.6,10.0,0.0,0.0,0.0,10.0,0.0,0.0,0.0,10.0
1446036641806421532,90,1446036641799226999,robocape_mag,13.35,-9.3,-1.2,10.0,0.0,0.0,0.0,10.0,0.0,0.0,0.0,10.0
1446036641837390699,91,1446036641832169055,robocape_mag,13.35,-9.3,-1.2,10.0,0.0,0.0,0.0,10.0,0.0,0.0,0.0,10.0
1446036641870774615,92,1446036641865575075,robocape_mag,13.35,-9.3,-1.2,10.0,0.0,0.0,0.0,10.0,0.0,0.0,0.0,10.0
1446036641905936782,93,1446036641899000883,robocape_mag,13.35,-9.3,-1.2,10.0,0.0,0.0,0.0,10.0,0.0,0.0,0.0,10.0
1446036641937395657,94,1446036641932317972,robocape_mag,13.35,-9.3,-1.2,10.0,0.0,0.0,0.0,10.0,0.0,0.0,0.0,10.0
1446036641970364282,95,1446036641965420007,robocape_mag,14.85,-10.2,-2.1,10.0,0.0,0.0,0.0,10.0,0.0,0.0,0.0,10.0
1446036642003865157,96,1446036641998749017,robocape_mag,14.85,-10.2,-2.1,10.0,0.0,0.0,0.0,10.0,0.0,0.0,0.0,10.0
1446036642037304032,97,1446036642032407045,robocape_mag,14.85,-10.2,-2.1,10.0,0.0,0.0,0.0,10.0,0.0,0.0,0.0,10.0
1446036642071335324,98,1446036642065650939,robocape_mag,14.85,-10.2,-2.1,10.0,0.0,0.0,0.0,10.0,0.0,0.0,0.0,10.0
1446036642103807574,99,1446036642098944902,robocape_mag,14.85,-10.2,-2.1,10.0,0.0,0.0,0.0,10.0,0.0,0.0,0.0,10.0
1446036642137342199,100,1446036642132441997,robocape_mag,11.85,-9.6,-0.9,10.0,0.0,0.0,0.0,10.0,0.0,0.0,0.0,10.0
1446036642171214532,101,1446036642165610074,robocape_mag,11.85,-9.6,-0.9,10.0,0.0,0.0,0.0,10.0,0.0,0.0,0.0,10.0
1446036642205957074,102,1446036642200666904,robocape_mag,11.85,-9.6,-0.9,10.0,0.0,0.0,0.0,10.0,0.0,0.0,0.0,10.0
1446036642238796824,103,1446036642233525037,robocape_mag,11.85,-9.6,-0.9,10.0,0.0,0.0,0.0,10.0,0.0,0.0,0.0,10.0
1446036642271340532,104,1446036642266607046,robocape_mag,11.85,-9.6,-2.1,10.0,0.0,0.0,0.0,10.0,0.0,0.0,0.0,10.0
1446036642307211115,105,1446036642300565004,robocape_mag,15.45,-9.6,-2.1,10.0,0.0,0.0,0.0,10.0,0.0,0.0,0.0,10.0
1446036642338819824,106,1446036642332923889,robocape_mag,15.45,-9.6,-2.1,10.0,0.0,0.0,0.0,10.0,0.0,0.0,0.0,10.0
1446036642371443907,107,1446036642366569042,robocape_mag,15.45,-9.6,-2.1,10.0,0.0,0.0,0.0,10.0,0.0,0.0,0.0,10.0
1446036642410753657,108,1446036642402137994,robocape_mag,15.45,-9.6,-2.1,10.0,0.0,0.0,0.0,10.0,0.0,0.0,0.0,10.0
1446036642438800866,109,1446036642433753013,robocape_mag,12.45,-9.0,-1.5,10.0,0.0,0.0,0.0,10.0,0.0,0.0,0.0,10.0
1446036642476320782,110,1446036642468944072,robocape_mag,12.45,-9.0,-1.5,10.0,0.0,0.0,0.0,10.0,0.0,0.0,0.0,10.0
1446036642509394324,111,1446036642502223014,robocape_mag,12.45,-9.0,-1.5,10.0,0.0,0.0,0.0,10.0,0.0,0.0,0.0,10.0
1446036642546485657,112,1446036642535919904,robocape_mag,12.45,-9.0,-1.5,10.0,0.0,0.0,0.0,10.0,0.0,0.0,0.0,10.0
1446036642575407574,113,1446036642569833993,robocape_mag,12.45,-9.0,-1.5,10.0,0.0,0.0,0.0,10.0,0.0,0.0,0.0,10.0
1446036642611926991,114,1446036642602993011,robocape_mag,14.25,-9.6,0.3,10.0,0.0,0.0,0.0,10.0,0.0,0.0,0.0,10.0
1446036642646608199,115,1446036642636262893,robocape_mag,14.25,-9.6,0.3,10.0,0.0,0.0,0.0,10.0,0.0,0.0,0.0,10.0
1446036642678127324,116,1446036642669967889,robocape_mag,14.25,-9.6,0.3,10.0,0.0,0.0,0.0,10.0,0.0,0.0,0.0,10.0
1446036642711289699,117,1446036642702644109,robocape_mag,14.25,-9.6,0.3,10.0,0.0,0.0,0.0,10.0,0.0,0.0,0.0,10.0
1446036642744284866,118,1446036642735419034,robocape_mag,14.25,-9.6,0.3,10.0,0.0,0.0,0.0,10.0,0.0,0.0,0.0,10.0
1446036642779365116,119,1446036642769067049,robocape_mag,14.55,-8.7,-1.2,10.0,0.0,0.0,0.0,10.0,0.0,0.0,0.0,10.0
1446036642808029824,120,1446036642802310943,robocape_mag,14.55,-8.7,-1.2,10.0,0.0,0.0,0.0,10.0,0.0,0.0,0.0,10.0
1446036642841733241,121,1446036642836716890,robocape_mag,14.55,-8.7,-1.2,10.0,0.0,0.0,0.0,10.0,0.0,0.0,0.0,10.0
1446036642874184074,122,1446036642869226932,robocape_mag,14.55,-8.7,-1.2,10.0,0.0,0.0,0.0,10.0,0.0,0.0,0.0,10.0
1446036642908166241,123,1446036642902570009,robocape_mag,14.55,-8.7,-1.2,10.0,0.0,0.0,0.0,10.0,0.0,0.0,0.0,10.0
1446036642940616949,124,1446036642935739040,robocape_mag,16.65,-10.8,0.3,10.0,0.0,0.0,0.0,10.0,0.0,0.0,0.0,10.0
1446036642973838032,125,1446036642969022989,robocape_mag,16.65,-10.8,0.3,10.0,0.0,0.0,0.0,10.0,0.0,0.0,0.0,10.0
1446036643011081449,126,1446036643002145051,robocape_mag,16.65,-10.8,0.3,10.0,0.0,0.0,0.0,10.0,0.0,0.0,0.0,10.0
1446036643039596907,127,1446036643034833908,robocape_mag,16.65,-10.8,0.3,10.0,0.0,0.0,0.0,10.0,0.0,0.0,0.0,10.0
1446036643073327074,128,1446036643068510055,robocape_mag,17.85,-11.4,-1.5,10.0,0.0,0.0,0.0,10.0,0.0,0.0,0.0,10.0
1446036643107572408,129,1446036643102207899,robocape_mag,17.85,-11.4,-1.5,10.0,0.0,0.0,0.0,10.0,0.0,0.0,0.0,10.0
1446036643140123658,130,1446036643135222911,robocape_mag,17.85,-11.4,-1.5,10.0,0.0,0.0,0.0,10.0,0.0,0.0,0.0,10.0
1446036643172758116,131,1446036643167872905,robocape_mag,17.85,-11.4,-1.5,10.0,0.0,0.0,0.0,10.0,0.0,0.0,0.0,10.0
1446036643208709366,132,1446036643203308105,robocape_mag,17.85,-11.4,-1.5,10.0,0.0,0.0,0.0,10.0,0.0,0.0,0.0,10.0
1446036643239825741,133,1446036643234814882,robocape_mag,13.35,-8.7,0.6,10.0,0.0,0.0,0.0,10.0,0.0,0.0,0.0,10.0
1446036643271359116,134,1446036643266537904,robocape_mag,13.35,-8.7,0.6,10.0,0.0,0.0,0.0,10.0,0.0,0.0,0.0,10.0
1446036643305255116,135,1446036643300317049,robocape_mag,13.35,-8.7,0.6,10.0,0.0,0.0,0.0,10.0,0.0,0.0,0.0,10.0
1446036643338121033,136,1446036643333236932,robocape_mag,13.35,-8.7,0.6,10.0,0.0,0.0,0.0,10.0,0.0,0.0,0.0,10.0
1446036643370804616,137,1446036643365983009,robocape_mag,13.35,-8.7,0.6,10.0,0.0,0.0,0.0,10.0,0.0,0.0,0.0,10.0
1446036643404055449,138,1446036643399039983,robocape_mag,16.05,-9.6,2.1,10.0,0.0,0.0,0.0,10.0,0.0,0.0,0.0,10.0
1446036643438155199,139,1446036643432893991,robocape_mag,16.05,-9.6,2.1,10.0,0.0,0.0,0.0,10.0,0.0,0.0,0.0,10.0
1446036643470477449,140,1446036643465702056,robocape_mag,16.05,-9.6,2.1,10.0,0.0,0.0,0.0,10.0,0.0,0.0,0.0,10.0
1446036643507595158,141,1446036643499017953,robocape_mag,16.05,-9.6,2.1,10.0,0.0,0.0,0.0,10.0,0.0,0.0,0.0,10.0
1446036643537503283,142,1446036643532373905,robocape_mag,16.05,-9.6,2.1,10.0,0.0,0.0,0.0,10.0,0.0,0.0,0.0,10.0
1446036643570526283,143,1446036643565735101,robocape_mag,16.05,-8.4,-0.9,10.0,0.0,0.0,0.0,10.0,0.0,0.0,0.0,10.0
1446036643607680658,144,1446036643599005937,robocape_mag,16.05,-8.4,-0.9,10.0,0.0,0.0,0.0,10.0,0.0,0.0,0.0,10.0
1446036643642613116,145,1446036643632498025,robocape_mag,16.05,-8.4,-0.9,10.0,0.0,0.0,0.0,10.0,0.0,0.0,0.0,10.0
1446036643670533658,146,1446036643665545940,robocape_mag,16.05,-8.4,-0.9,10.0,0.0,0.0,0.0,10.0,0.0,0.0,0.0,10.0
1446036643707785574,147,1446036643699006080,robocape_mag,16.05,-8.4,-0.9,10.0,0.0,0.0,0.0,10.0,0.0,0.0,0.0,10.0
1446036643737594991,148,1446036643732351064,robocape_mag,12.45,-8.4,-0.3,10.0,0.0,0.0,0.0,10.0,0.0,0.0,0.0,10.0
1446036643770612991,149,1446036643765655040,robocape_mag,12.45,-8.4,-0.3,10.0,0.0,0.0,0.0,10.0,0.0,0.0,0.0,10.0
1446036643806907116,150,1446036643798944950,robocape_mag,12.45,-8.4,-0.3,10.0,0.0,0.0,0.0,10.0,0.0,0.0,0.0,10.0
1446036643837015575,151,1446036643832176923,robocape_mag,12.45,-8.4,-0.3,10.0,0.0,0.0,0.0,10.0,0.0,0.0,0.0,10.0
1446036643870545741,152,1446036643865747928,robocape_mag,12.45,-8.1,1.2,10.0,0.0,0.0,0.0,10.0,0.0,0.0,0.0,10.0
1446036643903873491,153,1446036643898791074,robocape_mag,15.15,-8.1,1.2,10.0,0.0,0.0,0.0,10.0,0.0,0.0,0.0,10.0
1446036643937144741,154,1446036643932172060,robocape_mag,15.15,-8.1,1.2,10.0,0.0,0.0,0.0,10.0,0.0,0.0,0.0,10.0
1446036643970274908,155,1446036643965387105,robocape_mag,15.15,-8.1,1.2,10.0,0.0,0.0,0.0,10.0,0.0,0.0,0.0,10.0
1446036644004625283,156,1446036643998878002,robocape_mag,15.15,-8.1,1.2,10.0,0.0,0.0,0.0,10.0,0.0,0.0,0.0,10.0
1446036644037855616,157,1446036644032872915,robocape_mag,15.45,-10.2,0.9,10.0,0.0,0.0,0.0,10.0,0.0,0.0,0.0,10.0
1446036644072042450,158,1446036644065448045,robocape_mag,15.45,-10.2,0.9,10.0,0.0,0.0,0.0,10.0,0.0,0.0,0.0,10.0
1446036644105763658,159,1446036644100471019,robocape_mag,15.45,-10.2,0.9,10.0,0.0,0.0,0.0,10.0,0.0,0.0,0.0,10.0
1446036644137576491,160,1446036644132196903,robocape_mag,15.45,-10.2,0.9,10.0,0.0,0.0,0.0,10.0,0.0,0.0,0.0,10.0
1446036644170528491,161,1446036644165397882,robocape_mag,15.45,-10.2,0.9,10.0,0.0,0.0,0.0,10.0,0.0,0.0,0.0,10.0
1446036644207294783,162,1446036644202389001,robocape_mag,16.05,-12.0,-0.3,10.0,0.0,0.0,0.0,10.0,0.0,0.0,0.0,10.0
1446036644237569450,163,1446036644232287883,robocape_mag,16.05,-12.0,-0.3,10.0,0.0,0.0,0.0,10.0,0.0,0.0,0.0,10.0
1446036644270671825,164,1446036644265456914,robocape_mag,16.05,-12.0,-0.3,10.0,0.0,0.0,0.0,10.0,0.0,0.0,0.0,10.0
1446036644303691950,165,1446036644298724889,robocape_mag,16.05,-12.0,-0.3,10.0,0.0,0.0,0.0,10.0,0.0,0.0,0.0,10.0
1446036644337267491,166,1446036644332222938,robocape_mag,16.05,-12.0,-0.3,10.0,0.0,0.0,0.0,10.0,0.0,0.0,0.0,10.0
1446036644370485908,167,1446036644365432977,robocape_mag,16.35,-8.7,-3.6,10.0,0.0,0.0,0.0,10.0,0.0,0.0,0.0,10.0
1446036644403732283,168,1446036644398859977,robocape_mag,16.35,-8.7,-3.6,10.0,0.0,0.0,0.0,10.0,0.0,0.0,0.0,10.0
1446036644437291116,169,1446036644432329893,robocape_mag,16.35,-8.7,-3.6,10.0,0.0,0.0,0.0,10.0,0.0,0.0,0.0,10.0
1446036644470551200,170,1446036644465477943,robocape_mag,16.35,-8.7,-3.6,10.0,0.0,0.0,0.0,10.0,0.0,0.0,0.0,10.0
1446036644504982658,171,1446036644500176906,robocape_mag,16.35,-8.7,-3.6,10.0,0.0,0.0,0.0,10.0,0.0,0.0,0.0,10.0
1446036644539639117,172,1446036644532464027,robocape_mag,13.05,-8.4,-0.3,10.0,0.0,0.0,0.0,10.0,0.0,0.0,0.0,10.0
1446036644571901325,173,1446036644566848993,robocape_mag,13.05,-8.4,-0.3,10.0,0.0,0.0,0.0,10.0,0.0,0.0,0.0,10.0
1446036644605919658,174,1446036644601104974,robocape_mag,13.05,-8.4,-0.3,10.0,0.0,0.0,0.0,10.0,0.0,0.0,0.0,10.0
1446036644639222617,175,1446036644634162902,robocape_mag,13.05,-8.4,-0.3,10.0,0.0,0.0,0.0,10.0,0.0,0.0,0.0,10.0
1446036644676794367,176,1446036644671643018,robocape_mag,13.35,-9.9,-1.8,10.0,0.0,0.0,0.0,10.0,0.0,0.0,0.0,10.0
1446036644704834450,177,1446036644699626922,robocape_mag,13.35,-9.9,-1.8,10.0,0.0,0.0,0.0,10.0,0.0,0.0,0.0,10.0
1446036644738467700,178,1446036644733169078,robocape_mag,13.35,-9.9,-1.8,10.0,0.0,0.0,0.0,10.0,0.0,0.0,0.0,10.0
1446036644776976950,179,1446036644770282030,robocape_mag,13.35,-9.9,-1.8,10.0,0.0,0.0,0.0,10.0,0.0,0.0,0.0,10.0
1446036644811994867,180,1446036644801727056,robocape_mag,13.35,-9.9,-1.8,10.0,0.0,0.0,0.0,10.0,0.0,0.0,0.0,10.0
1446036644842881367,181,1446036644836530923,robocape_mag,12.15,-9.3,0.0,10.0,0.0,0.0,0.0,10.0,0.0,0.0,0.0,10.0
1446036644875902117,182,1446036644868422985,robocape_mag,12.15,-9.3,0.0,10.0,0.0,0.0,0.0,10.0,0.0,0.0,0.0,10.0
1446036644906647950,183,1446036644900465965,robocape_mag,12.15,-9.3,0.0,10.0,0.0,0.0,0.0,10.0,0.0,0.0,0.0,10.0
1446036644941793242,184,1446036644935663938,robocape_mag,12.15,-9.3,0.0,10.0,0.0,0.0,0.0,10.0,0.0,0.0,0.0,10.0
1446036644975600908,185,1446036644970292091,robocape_mag,12.15,-9.3,0.0,10.0,0.0,0.0,0.0,10.0,0.0,0.0,0.0,10.0
1446036645007886367,186,1446036645002919912,robocape_mag,11.55,-9.9,0.0,10.0,0.0,0.0,0.0,10.0,0.0,0.0,0.0,10.0
1446036645041305075,187,1446036645036178112,robocape_mag,11.55,-9.9,0.0,10.0,0.0,0.0,0.0,10.0,0.0,0.0,0.0,10.0
1446036645079441283,188,1446036645069837093,robocape_mag,11.55,-9.9,0.0,10.0,0.0,0.0,0.0,10.0,0.0,0.0,0.0,10.0
1446036645108135783,189,1446036645103060007,robocape_mag,11.55,-9.9,0.0,10.0,0.0,0.0,0.0,10.0,0.0,0.0,0.0,10.0
1446036645145458908,190,1446036645137120962,robocape_mag,11.55,-9.9,0.0,10.0,0.0,0.0,0.0,10.0,0.0,0.0,0.0,10.0
1446036645177580533,191,1446036645169054031,robocape_mag,16.95,-8.1,-1.8,10.0,0.0,0.0,0.0,10.0,0.0,0.0,0.0,10.0
1446036645207315117,192,1446036645202088117,robocape_mag,16.95,-8.1,-1.8,10.0,0.0,0.0,0.0,10.0,0.0,0.0,0.0,10.0
1446036645240997534,193,1446036645235995054,robocape_mag,16.95,-8.1,-1.8,10.0,0.0,0.0,0.0,10.0,0.0,0.0,0.0,10.0
1446036645278630909,194,1446036645268835067,robocape_mag,16.95,-8.1,-1.8,10.0,0.0,0.0,0.0,10.0,0.0,0.0,0.0,10.0
1446036645307037492,195,1446036645302061080,robocape_mag,16.95,-8.1,-1.8,10.0,0.0,0.0,0.0,10.0,0.0,0.0,0.0,10.0
1446036645340582034,196,1446036645335665941,robocape_mag,13.05,-7.2,-0.9,10.0,0.0,0.0,0.0,10.0,0.0,0.0,0.0,10.0
1446036645377274700,197,1446036645368803977,robocape_mag,13.05,-7.2,-0.9,10.0,0.0,0.0,0.0,10.0,0.0,0.0,0.0,10.0
1446036645407226700,198,1446036645402393102,robocape_mag,13.05,-7.2,-0.9,10.0,0.0,0.0,0.0,10.0,0.0,0.0,0.0,10.0
1446036645440505950,199,1446036645435518980,robocape_mag,13.05,-7.2,-0.9,10.0,0.0,0.0,0.0,10.0,0.0,0.0,0.0,10.0
1446036645473432450,200,1446036645468435049,robocape_mag,16.35,-7.5,0.6,10.0,0.0,0.0,0.0,10.0,0.0,0.0,0.0,10.0
1446036645505698700,201,1446036645500847101,robocape_mag,16.35,-7.5,0.6,10.0,0.0,0.0,0.0,10.0,0.0,0.0,0.0,10.0
1446036645538823075,202,1446036645533898115,robocape_mag,16.35,-7.5,0.6,10.0,0.0,0.0,0.0,10.0,0.0,0.0,0.0,10.0
1446036645571707950,203,1446036645566673994,robocape_mag,16.35,-7.5,0.6,10.0,0.0,0.0,0.0,10.0,0.0,0.0,0.0,10.0
1446036645604624742,204,1446036645599772930,robocape_mag,16.35,-7.5,0.6,10.0,0.0,0.0,0.0,10.0,0.0,0.0,0.0,10.0
1446036645638170784,205,1446036645633076906,robocape_mag,11.55,11.7,17.4,10.0,0.0,0.0,0.0,10.0,0.0,0.0,0.0,10.0
1446036645671325200,206,1446036645666239023,robocape_mag,11.55,11.7,17.4,10.0,0.0,0.0,0.0,10.0,0.0,0.0,0.0,10.0
1446036645704271909,207,1446036645699472904,robocape_mag,11.55,11.7,17.4,10.0,0.0,0.0,0.0,10.0,0.0,0.0,0.0,10.0
1446036645737629409,208,1446036645732805967,robocape_mag,11.55,11.7,17.4,10.0,0.0,0.0,0.0,10.0,0.0,0.0,0.0,10.0
1446036645770984450,209,1446036645765878915,robocape_mag,11.55,11.7,17.4,10.0,0.0,0.0,0.0,10.0,0.0,0.0,0.0,10.0
1446036645803982534,210,1446036645799180030,robocape_mag,13.95,-3.9,24.6,10.0,0.0,0.0,0.0,10.0,0.0,0.0,0.0,10.0
1446036645837240325,211,1446036645832454919,robocape_mag,13.95,-3.9,24.6,10.0,0.0,0.0,0.0,10.0,0.0,0.0,0.0,10.0
1446036645870717700,212,1446036645865833044,robocape_mag,13.95,-3.9,24.6,10.0,0.0,0.0,0.0,10.0,0.0,0.0,0.0,10.0
1446036645903818117,213,1446036645898912906,robocape_mag,13.95,-3.9,24.6,10.0,0.0,0.0,0.0,10.0,0.0,0.0,0.0,10.0
1446036645937577076,214,1446036645932759046,robocape_mag,13.95,-3.9,24.6,10.0,0.0,0.0,0.0,10.0,0.0,0.0,0.0,10.0
1446036645970451284,215,1446036645965729951,robocape_mag,10.95,-2.7,16.2,10.0,0.0,0.0,0.0,10.0,0.0,0.0,0.0,10.0
1446036646004031326,216,1446036645999296903,robocape_mag,10.95,-2.7,16.2,10.0,0.0,0.0,0.0,10.0,0.0,0.0,0.0,10.0
1446036646038405867,217,1446036646033332109,robocape_mag,10.95,-2.7,16.2,10.0,0.0,0.0,0.0,10.0,0.0,0.0,0.0,10.0
1446036646070598117,218,1446036646065840959,robocape_mag,10.95,-2.7,16.2,10.0,0.0,0.0,0.0,10.0,0.0,0.0,0.0,10.0
1446036646104983076,219,1446036646100069999,robocape_mag,10.95,-2.7,16.2,10.0,0.0,0.0,0.0,10.0,0.0,0.0,0.0,10.0
1446036646138719076,220,1446036646133953094,robocape_mag,28.95,-29.1,4.2,10.0,0.0,0.0,0.0,10.0,0.0,0.0,0.0,10.0
1446036646170445784,221,1446036646165657997,robocape_mag,28.95,-29.1,4.2,10.0,0.0,0.0,0.0,10.0,0.0,0.0,0.0,10.0
1446036646209450576,222,1446036646200799942,robocape_mag,28.95,-29.1,4.2,10.0,0.0,0.0,0.0,10.0,0.0,0.0,0.0,10.0
1446036646237097367,223,1446036646232316970,robocape_mag,28.95,-29.1,4.2,10.0,0.0,0.0,0.0,10.0,0.0,0.0,0.0,10.0
1446036646270447742,224,1446036646265610933,robocape_mag,28.95,-3.3,10.8,10.0,0.0,0.0,0.0,10.0,0.0,0.0,0.0,10.0
1446036646303730367,225,1446036646298836946,robocape_mag,17.55,-3.3,10.8,10.0,0.0,0.0,0.0,10.0,0.0,0.0,0.0,10.0
1446036646339170409,226,1446036646332287073,robocape_mag,17.55,-3.3,10.8,10.0,0.0,0.0,0.0,10.0,0.0,0.0,0.0,10.0
1446036646372337992,227,1446036646365456104,robocape_mag,17.55,-3.3,10.8,10.0,0.0,0.0,0.0,10.0,0.0,0.0,0.0,10.0
1446036646405733117,228,1446036646398940086,robocape_mag,17.55,-3.3,10.8,10.0,0.0,0.0,0.0,10.0,0.0,0.0,0.0,10.0
1446036646437441159,229,1446036646432261943,robocape_mag,4.65,-7.2,9.9,10.0,0.0,0.0,0.0,10.0,0.0,0.0,0.0,10.0
1446036646470725992,230,1446036646465672969,robocape_mag,4.65,-7.2,9.9,10.0,0.0,0.0,0.0,10.0,0.0,0.0,0.0,10.0
1446036646504043784,231,1446036646498960971,robocape_mag,4.65,-7.2,9.9,10.0,0.0,0.0,0.0,10.0,0.0,0.0,0.0,10.0
1446036646537381201,232,1446036646532150983,robocape_mag,4.65,-7.2,9.9,10.0,0.0,0.0,0.0,10.0,0.0,0.0,0.0,10.0
1446036646570754701,233,1446036646565815925,robocape_mag,4.65,-7.2,9.9,10.0,0.0,0.0,0.0,10.0,0.0,0.0,0.0,10.0
1446036646604217576,234,1446036646599001884,robocape_mag,42.75,-17.7,11.4,10.0,0.0,0.0,0.0,10.0,0.0,0.0,0.0,10.0
1446036646637135451,235,1446036646632230997,robocape_mag,42.75,-17.7,11.4,10.0,0.0,0.0,0.0,10.0,0.0,0.0,0.0,10.0
1446036646670375201,236,1446036646665446996,robocape_mag,42.75,-17.7,11.4,10.0,0.0,0.0,0.0,10.0,0.0,0.0,0.0,10.0
1446036646704165243,237,1446036646698957920,robocape_mag,42.75,-17.7,11.4,10.0,0.0,0.0,0.0,10.0,0.0,0.0,0.0,10.0
1446036646737055743,238,1446036646732223033,robocape_mag,42.75,-17.7,11.4,10.0,0.0,0.0,0.0,10.0,0.0,0.0,0.0,10.0
1446036646770591326,239,1446036646765651941,robocape_mag,46.65,-2.4,6.3,10.0,0.0,0.0,0.0,10.0,0.0,0.0,0.0,10.0
1446036646804168576,240,1446036646798880100,robocape_mag,46.65,-2.4,6.3,10.0,0.0,0.0,0.0,10.0,0.0,0.0,0.0,10.0
1446036646838144368,241,1446036646832535028,robocape_mag,46.65,-2.4,6.3,10.0,0.0,0.0,0.0,10.0,0.0,0.0,0.0,10.0
1446036646871668159,242,1446036646866781949,robocape_mag,46.65,-2.4,6.3,10.0,0.0,0.0,0.0,10.0,0.0,0.0,0.0,10.0
1446036646905245493,243,1446036646900181055,robocape_mag,46.65,-2.4,6.3,10.0,0.0,0.0,0.0,10.0,0.0,0.0,0.0,10.0
1446036646939395951,244,1446036646933792114,robocape_mag,34.05,-12.6,5.1,10.0,0.0,0.0,0.0,10.0,0.0,0.0,0.0,10.0
1446036646972642868,245,1446036646967437982,robocape_mag,34.05,-12.6,5.1,10.0,0.0,0.0,0.0,10.0,0.0,0.0,0.0,10.0
1446036647006126284,246,1446036647000757932,robocape_mag,34.05,-12.6,5.1,10.0,0.0,0.0,0.0,10.0,0.0,0.0,0.0,10.0
1446036647042322743,247,1446036647036263942,robocape_mag,34.05,-12.6,5.1,10.0,0.0,0.0,0.0,10.0,0.0,0.0,0.0,10.0
1446036647072505284,248,1446036647067604064,robocape_mag,12.45,-1.2,5.1,10.0,0.0,0.0,0.0,10.0,0.0,0.0,0.0,10.0
1446036647105809368,249,1446036647100588083,robocape_mag,12.45,-1.2,5.1,10.0,0.0,0.0,0.0,10.0,0.0,0.0,0.0,10.0
1446036647138949243,250,1446036647134143114,robocape_mag,12.45,-1.2,5.1,10.0,0.0,0.0,0.0,10.0,0.0,0.0,0.0,10.0
1446036647176383118,251,1446036647168698072,robocape_mag,12.45,-1.2,5.1,10.0,0.0,0.0,0.0,10.0,0.0,0.0,0.0,10.0
1446036647210715201,252,1446036647201468944,robocape_mag,12.45,-1.2,5.1,10.0,0.0,0.0,0.0,10.0,0.0,0.0,0.0,10.0
1446036647246140159,253,1446036647235934972,robocape_mag,-5.85,12.3,18.6,10.0,0.0,0.0,0.0,10.0,0.0,0.0,0.0,10.0
1446036647275059784,254,1446036647269479036,robocape_mag,-5.85,12.3,18.6,10.0,0.0,0.0,0.0,10.0,0.0,0.0,0.0,10.0
1446036647308374660,255,1446036647303042888,robocape_mag,-5.85,12.3,18.6,10.0,0.0,0.0,0.0,10.0,0.0,0.0,0.0,10.0
1446036647341232535,256,1446036647334716081,robocape_mag,-5.85,12.3,18.6,10.0,0.0,0.0,0.0,10.0,0.0,0.0,0.0,10.0
1446036647379249660,257,1446036647368789911,robocape_mag,-5.85,12.3,18.6,10.0,0.0,0.0,0.0,10.0,0.0,0.0,0.0,10.0
1446036647412221535,258,1446036647401869058,robocape_mag,-14.85,-9.3,14.4,10.0,0.0,0.0,0.0,10.0,0.0,0.0,0.0,10.0
1446036647441904160,259,1446036647437118053,robocape_mag,-14.85,-9.3,14.4,10.0,0.0,0.0,0.0,10.0,0.0,0.0,0.0,10.0
1446036647470547243,260,1446036647465761899,robocape_mag,-14.85,-9.3,14.4,10.0,0.0,0.0,0.0,10.0,0.0,0.0,0.0,10.0
1446036647505811368,261,1446036647498895883,robocape_mag,-14.85,-9.3,14.4,10.0,0.0,0.0,0.0,10.0,0.0,0.0,0.0,10.0
1446036647541101993,262,1446036647536345958,robocape_mag,-14.85,-9.3,14.4,10.0,0.0,0.0,0.0,10.0,0.0,0.0,0.0,10.0
1446036647570791285,263,1446036647565516948,robocape_mag,22.95,-3.9,22.2,10.0,0.0,0.0,0.0,10.0,0.0,0.0,0.0,10.0
1446036647603992993,264,1446036647598819017,robocape_mag,22.95,-3.9,22.2,10.0,0.0,0.0,0.0,10.0,0.0,0.0,0.0,10.0
1446036647639270993,265,1446036647634550094,robocape_mag,22.95,-3.9,22.2,10.0,0.0,0.0,0.0,10.0,0.0,0.0,0.0,10.0
1446036647670344493,266,1446036647665396928,robocape_mag,22.95,-3.9,22.2,10.0,0.0,0.0,0.0,10.0,0.0,0.0,0.0,10.0
1446036647706066451,267,1446036647699100017,robocape_mag,22.95,-3.9,22.2,10.0,0.0,0.0,0.0,10.0,0.0,0.0,0.0,10.0
1446036647737438243,268,1446036647732095956,robocape_mag,24.15,2.7,23.4,10.0,0.0,0.0,0.0,10.0,0.0,0.0,0.0,10.0
1446036647770470410,269,1446036647765505075,robocape_mag,24.15,2.7,23.4,10.0,0.0,0.0,0.0,10.0,0.0,0.0,0.0,10.0
1446036647803861743,270,1446036647798722028,robocape_mag,24.15,2.7,23.4,10.0,0.0,0.0,0.0,10.0,0.0,0.0,0.0,10.0
1446036647837633243,271,1446036647832603931,robocape_mag,24.15,2.7,23.4,10.0,0.0,0.0,0.0,10.0,0.0,0.0,0.0,10.0
1446036647870556160,272,1446036647865719079,robocape_mag,24.15,-6.0,18.9,10.0,0.0,0.0,0.0,10.0,0.0,0.0,0.0,10.0
1446036647903886493,273,1446036647898747920,robocape_mag,23.25,-6.0,18.9,10.0,0.0,0.0,0.0,10.0,0.0,0.0,0.0,10.0
1446036647937812035,274,1446036647932594060,robocape_mag,23.25,-6.0,18.9,10.0,0.0,0.0,0.0,10.0,0.0,0.0,0.0,10.0
1446036647971898576,275,1446036647967091083,robocape_mag,23.25,-6.0,18.9,10.0,0.0,0.0,0.0,10.0,0.0,0.0,0.0,10.0
1446036648005026077,276,1446036648000201940,robocape_mag,23.25,-6.0,18.9,10.0,0.0,0.0,0.0,10.0,0.0,0.0,0.0,10.0
1446036648040228910,277,1446036648033452033,robocape_mag,22.35,-8.1,11.4,10.0,0.0,0.0,0.0,10.0,0.0,0.0,0.0,10.0
1446036648072957618,278,1446036648067034006,robocape_mag,22.35,-8.1,11.4,10.0,0.0,0.0,0.0,10.0,0.0,0.0,0.0,10.0
1446036648105101077,279,1446036648100207090,robocape_mag,22.35,-8.1,11.4,10.0,0.0,0.0,0.0,10.0,0.0,0.0,0.0,10.0
1446036648138326993,280,1446036648133096933,robocape_mag,22.35,-8.1,11.4,10.0,0.0,0.0,0.0,10.0,0.0,0.0,0.0,10.0
1446036648172902118,281,1446036648167987108,robocape_mag,22.35,-8.1,11.4,10.0,0.0,0.0,0.0,10.0,0.0,0.0,0.0,10.0
1446036648207786702,282,1446036648202925920,robocape_mag,22.65,-7.8,3.9,10.0,0.0,0.0,0.0,10.0,0.0,0.0,0.0,10.0
1446036648239866327,283,1446036648234633922,robocape_mag,22.65,-7.8,3.9,10.0,0.0,0.0,0.0,10.0,0.0,0.0,0.0,10.0
1446036648271916535,284,1446036648267101049,robocape_mag,22.65,-7.8,3.9,10.0,0.0,0.0,0.0,10.0,0.0,0.0,0.0,10.0
1446036648310386702,285,1446036648305003881,robocape_mag,22.65,-7.8,3.9,10.0,0.0,0.0,0.0,10.0,0.0,0.0,0.0,10.0
1446036648347681160,286,1446036648336451053,robocape_mag,22.65,-7.8,3.9,10.0,0.0,0.0,0.0,10.0,0.0,0.0,0.0,10.0
1446036648374342993,287,1446036648369364976,robocape_mag,22.35,0.9,0.6,10.0,0.0,0.0,0.0,10.0,0.0,0.0,0.0,10.0
1446036648407120952,288,1446036648401360034,robocape_mag,22.35,0.9,0.6,10.0,0.0,0.0,0.0,10.0,0.0,0.0,0.0,10.0
1446036648446763910,289,1446036648436511993,robocape_mag,22.35,0.9,0.6,10.0,0.0,0.0,0.0,10.0,0.0,0.0,0.0,10.0
1446036648475054327,290,1446036648469012022,robocape_mag,22.35,0.9,0.6,10.0,0.0,0.0,0.0,10.0,0.0,0.0,0.0,10.0
1446036648507577577,291,1446036648502476930,robocape_mag,22.35,0.9,0.6,10.0,0.0,0.0,0.0,10.0,0.0,0.0,0.0,10.0
1446036648546949327,292,1446036648537226915,robocape_mag,11.55,6.3,9.6,10.0,0.0,0.0,0.0,10.0,0.0,0.0,0.0,10.0
1446036648575866493,293,1446036648570843935,robocape_mag,11.55,6.3,9.6,10.0,0.0,0.0,0.0,10.0,0.0,0.0,0.0,10.0
1446036648608572118,294,1446036648603266000,robocape_mag,11.55,6.3,9.6,10.0,0.0,0.0,0.0,10.0,0.0,0.0,0.0,10.0
1446036648641107993,295,1446036648635667085,robocape_mag,11.55,6.3,9.6,10.0,0.0,0.0,0.0,10.0,0.0,0.0,0.0,10.0
1446036648675227702,296,1446036648670312881,robocape_mag,-0.45,0.9,10.8,10.0,0.0,0.0,0.0,10.0,0.0,0.0,0.0,10.0
1446036648707399994,297,1446036648702166080,robocape_mag,-0.45,0.9,10.8,10.0,0.0,0.0,0.0,10.0,0.0,0.0,0.0,10.0
1446036648740619702,298,1446036648735228061,robocape_mag,-0.45,0.9,10.8,10.0,0.0,0.0,0.0,10.0,0.0,0.0,0.0,10.0
1446036648773731119,299,1446036648768893003,robocape_mag,-0.45,0.9,10.8,10.0,0.0,0.0,0.0,10.0,0.0,0.0,0.0,10.0
1446036648807191119,300,1446036648801953077,robocape_mag,-0.45,0.9,10.8,10.0,0.0,0.0,0.0,10.0,0.0,0.0,0.0,10.0
1446036648840017369,301,1446036648834825038,robocape_mag,2.55,5.1,15.0,10.0,0.0,0.0,0.0,10.0,0.0,0.0,0.0,10.0
1446036648872706869,302,1446036648867727994,robocape_mag,2.55,5.1,15.0,10.0,0.0,0.0,0.0,10.0,0.0,0.0,0.0,10.0
1446036648906527702,303,1446036648901463031,robocape_mag,2.55,5.1,15.0,10.0,0.0,0.0,0.0,10.0,0.0,0.0,0.0,10.0
1446036648945179952,304,1446036648935585975,robocape_mag,2.55,5.1,15.0,10.0,0.0,0.0,0.0,10.0,0.0,0.0,0.0,10.0
1446036648972547160,305,1446036648967777013,robocape_mag,2.55,5.1,15.0,10.0,0.0,0.0,0.0,10.0,0.0,0.0,0.0,10.0
1446036649005370535,306,1446036649000544071,robocape_mag,11.85,4.8,20.1,10.0,0.0,0.0,0.0,10.0,0.0,0.0,0.0,10.0
1446036649038241619,307,1446036649033431053,robocape_mag,11.85,4.8,20.1,10.0,0.0,0.0,0.0,10.0,0.0,0.0,0.0,10.0
1446036649071942077,308,1446036649066849946,robocape_mag,11.85,4.8,20.1,10.0,0.0,0.0,0.0,10.0,0.0,0.0,0.0,10.0
1446036649105049369,309,1446036649100123882,robocape_mag,11.85,4.8,20.1,10.0,0.0,0.0,0.0,10.0,0.0,0.0,0.0,10.0
1446036649138090702,310,1446036649133212089,robocape_mag,11.85,4.8,20.1,10.0,0.0,0.0,0.0,10.0,0.0,0.0,0.0,10.0
1446036649171564702,311,1446036649166388988,robocape_mag,22.35,2.7,16.8,10.0,0.0,0.0,0.0,10.0,0.0,0.0,0.0,10.0
1446036649211550327,312,1446036649200941085,robocape_mag,22.35,2.7,16.8,10.0,0.0,0.0,0.0,10.0,0.0,0.0,0.0,10.0
1446036649241220952,313,1446036649233042955,robocape_mag,22.35,2.7,16.8,10.0,0.0,0.0,0.0,10.0,0.0,0.0,0.0,10.0
1446036649270871369,314,1446036649265634059,robocape_mag,22.35,2.7,16.8,10.0,0.0,0.0,0.0,10.0,0.0,0.0,0.0,10.0
1446036649304119744,315,1446036649298934936,robocape_mag,22.35,2.7,16.8,10.0,0.0,0.0,0.0,10.0,0.0,0.0,0.0,10.0
1446036649337191452,316,1446036649332293987,robocape_mag,-0.45,4.5,11.4,10.0,0.0,0.0,0.0,10.0,0.0,0.0,0.0,10.0
1446036649374366869,317,1446036649365479946,robocape_mag,-0.45,4.5,11.4,10.0,0.0,0.0,0.0,10.0,0.0,0.0,0.0,10.0
1446036649403564036,318,1446036649398775100,robocape_mag,-0.45,4.5,11.4,10.0,0.0,0.0,0.0,10.0,0.0,0.0,0.0,10.0
1446036649467954119,319,1446036649433069944,robocape_mag,-0.45,4.5,11.4,10.0,0.0,0.0,0.0,10.0,0.0,0.0,0.0,10.0
1446036649484375244,320,1446036649479398965,robocape_mag,-12.45,0.9,10.8,10.0,0.0,0.0,0.0,10.0,0.0,0.0,0.0,10.0
1446036649507841952,321,1446036649502250909,robocape_mag,-12.45,0.9,10.8,10.0,0.0,0.0,0.0,10.0,0.0,0.0,0.0,10.0
1446036649536925286,322,1446036649532166004,robocape_mag,-12.45,0.9,10.8,10.0,0.0,0.0,0.0,10.0,0.0,0.0,0.0,10.0
1446036649570198619,323,1446036649565445899,robocape_mag,-12.45,0.9,10.8,10.0,0.0,0.0,0.0,10.0,0.0,0.0,0.0,10.0
1446036649604222452,324,1446036649598763942,robocape_mag,-12.45,0.9,10.8,10.0,0.0,0.0,0.0,10.0,0.0,0.0,0.0,10.0
1446036649636972077,325,1446036649632199048,robocape_mag,-15.75,-0.6,15.3,10.0,0.0,0.0,0.0,10.0,0.0,0.0,0.0,10.0
1446036649670434786,326,1446036649665560007,robocape_mag,-15.75,-0.6,15.3,10.0,0.0,0.0,0.0,10.0,0.0,0.0,0.0,10.0
1446036649703316577,327,1446036649698657035,robocape_mag,-15.75,-0.6,15.3,10.0,0.0,0.0,0.0,10.0,0.0,0.0,0.0,10.0
1446036649736837119,328,1446036649732060909,robocape_mag,-15.75,-0.6,15.3,10.0,0.0,0.0,0.0,10.0,0.0,0.0,0.0,10.0
1446036649770476702,329,1446036649765572071,robocape_mag,-15.75,-0.6,15.3,10.0,0.0,0.0,0.0,10.0,0.0,0.0,0.0,10.0
1446036649803369327,330,1446036649798702955,robocape_mag,-12.75,2.4,20.1,10.0,0.0,0.0,0.0,10.0,0.0,0.0,0.0,10.0
1446036649837208161,331,1446036649832216978,robocape_mag,-12.75,2.4,20.1,10.0,0.0,0.0,0.0,10.0,0.0,0.0,0.0,10.0
1446036649870389869,332,1446036649865427017,robocape_mag,-12.75,2.4,20.1,10.0,0.0,0.0,0.0,10.0,0.0,0.0,0.0,10.0
1446036649903438244,333,1446036649898719072,robocape_mag,-12.75,2.4,20.1,10.0,0.0,0.0,0.0,10.0,0.0,0.0,0.0,10.0
1446036649937792786,334,1446036649932610034,robocape_mag,-12.75,2.4,20.1,10.0,0.0,0.0,0.0,10.0,0.0,0.0,0.0,10.0
1446036649970398661,335,1446036649965675115,robocape_mag,-18.45,-2.7,10.8,10.0,0.0,0.0,0.0,10.0,0.0,0.0,0.0,10.0
1446036650003521702,336,1446036649998722076,robocape_mag,-18.45,-2.7,10.8,10.0,0.0,0.0,0.0,10.0,0.0,0.0,0.0,10.0
1446036650036901911,337,1446036650032133102,robocape_mag,-18.45,-2.7,10.8,10.0,0.0,0.0,0.0,10.0,0.0,0.0,0.0,10.0
1446036650070298911,338,1446036650065505981,robocape_mag,-18.45,-2.7,10.8,10.0,0.0,0.0,0.0,10.0,0.0,0.0,0.0,10.0
1446036650103827953,339,1446036650098725080,robocape_mag,-18.45,-2.7,10.8,10.0,0.0,0.0,0.0,10.0,0.0,0.0,0.0,10.0
1446036650136785744,340,1446036650132044076,robocape_mag,-20.55,-4.8,12.3,10.0,0.0,0.0,0.0,10.0,0.0,0.0,0.0,10.0
1446036650170544578,341,1446036650165721893,robocape_mag,-20.55,-4.8,12.3,10.0,0.0,0.0,0.0,10.0,0.0,0.0,0.0,10.0
1446036650206303328,342,1446036650201153993,robocape_mag,-20.55,-4.8,12.3,10.0,0.0,0.0,0.0,10.0,0.0,0.0,0.0,10.0
1446036650238157911,343,1446036650233304977,robocape_mag,-20.55,-4.8,12.3,10.0,0.0,0.0,0.0,10.0,0.0,0.0,0.0,10.0
1446036650270225244,344,1446036650265492916,robocape_mag,-20.55,-4.8,16.8,10.0,0.0,0.0,0.0,10.0,0.0,0.0,0.0,10.0
1446036650303601369,345,1446036650298700094,robocape_mag,-11.85,-2.7,16.8,10.0,0.0,0.0,0.0,10.0,0.0,0.0,0.0,10.0
1446036650339307078,346,1446036650332184076,robocape_mag,-11.85,-2.7,16.8,10.0,0.0,0.0,0.0,10.0,0.0,0.0,0.0,10.0
1446036650370099994,347,1446036650365328073,robocape_mag,-11.85,-2.7,16.8,10.0,0.0,0.0,0.0,10.0,0.0,0.0,0.0,10.0
1446036650403902869,348,1446036650398978948,robocape_mag,-11.85,-2.7,16.8,10.0,0.0,0.0,0.0,10.0,0.0,0.0,0.0,10.0
1446036650439919328,349,1446036650433953046,robocape_mag,-10.95,-9.6,22.5,10.0,0.0,0.0,0.0,10.0,0.0,0.0,0.0,10.0
1446036650470275661,350,1446036650465352058,robocape_mag,-10.95,-9.6,22.5,10.0,0.0,0.0,0.0,10.0,0.0,0.0,0.0,10.0
1446036650503692411,351,1446036650498784065,robocape_mag,-10.95,-9.6,22.5,10.0,0.0,0.0,0.0,10.0,0.0,0.0,0.0,10.0
1446036650537013828,352,1446036650532156944,robocape_mag,-10.95,-9.6,22.5,10.0,0.0,0.0,0.0,10.0,0.0,0.0,0.0,10.0
1446036650570173703,353,1446036650565406084,robocape_mag,-10.95,-9.6,22.5,10.0,0.0,0.0,0.0,10.0,0.0,0.0,0.0,10.0
1446036650603740078,354,1446036650598665952,robocape_mag,-18.45,-11.7,13.2,10.0,0.0,0.0,0.0,10.0,0.0,0.0,0.0,10.0
1446036650637211786,355,1446036650632352113,robocape_mag,-18.45,-11.7,13.2,10.0,0.0,0.0,0.0,10.0,0.0,0.0,0.0,10.0
1446036650670055744,356,1446036650665365934,robocape_mag,-18.45,-11.7,13.2,10.0,0.0,0.0,0.0,10.0,0.0,0.0,0.0,10.0
1446036650703724786,357,1446036650698854923,robocape_mag,-18.45,-11.7,13.2,10.0,0.0,0.0,0.0,10.0,0.0,0.0,0.0,10.0
1446036650737501828,358,1446036650732547998,robocape_mag,-18.45,-11.7,13.2,10.0,0.0,0.0,0.0,10.0,0.0,0.0,0.0,10.0
1446036650774796744,359,1446036650769944906,robocape_mag,-8.25,-12.3,23.4,10.0,0.0,0.0,0.0,10.0,0.0,0.0,0.0,10.0
1446036650803454578,360,1446036650798683881,robocape_mag,-8.25,-12.3,23.4,10.0,0.0,0.0,0.0,10.0,0.0,0.0,0.0,10.0
1446036650837114661,361,1446036650832179069,robocape_mag,-8.25,-12.3,23.4,10.0,0.0,0.0,0.0,10.0,0.0,0.0,0.0,10.0
1446036650871319536,362,1446036650865670919,robocape_mag,-8.25,-12.3,23.4,10.0,0.0,0.0,0.0,10.0,0.0,0.0,0.0,10.0
1446036650906716911,363,1446036650901909112,robocape_mag,-8.25,-12.3,23.4,10.0,0.0,0.0,0.0,10.0,0.0,0.0,0.0,10.0
1446036650937397120,364,1446036650932548999,robocape_mag,-7.65,-14.7,25.2,10.0,0.0,0.0,0.0,10.0,0.0,0.0,0.0,10.0
1446036650970740120,365,1446036650965320110,robocape_mag,-7.65,-14.7,25.2,10.0,0.0,0.0,0.0,10.0,0.0,0.0,0.0,10.0
1446036651003782578,366,1446036650998920917,robocape_mag,-7.65,-14.7,25.2,10.0,0.0,0.0,0.0,10.0,0.0,0.0,0.0,10.0
1446036651036868661,367,1446036651032144069,robocape_mag,-7.65,-14.7,25.2,10.0,0.0,0.0,0.0,10.0,0.0,0.0,0.0,10.0
1446036651070304745,368,1446036651065327882,robocape_mag,-7.65,-14.7,12.9,10.0,0.0,0.0,0.0,10.0,0.0,0.0,0.0,10.0
1446036651104187161,369,1446036651098730087,robocape_mag,-21.15,-15.6,12.9,10.0,0.0,0.0,0.0,10.0,0.0,0.0,0.0,10.0
1446036651137025911,370,1446036651132306098,robocape_mag,-21.15,-15.6,12.9,10.0,0.0,0.0,0.0,10.0,0.0,0.0,0.0,10.0
1446036651170460411,371,1446036651165326118,robocape_mag,-21.15,-15.6,12.9,10.0,0.0,0.0,0.0,10.0,0.0,0.0,0.0,10.0
1446036651206407411,372,1446036651200961112,robocape_mag,-21.15,-15.6,12.9,10.0,0.0,0.0,0.0,10.0,0.0,0.0,0.0,10.0
1446036651237030078,373,1446036651232300996,robocape_mag,-7.95,-16.2,24.9,10.0,0.0,0.0,0.0,10.0,0.0,0.0,0.0,10.0
1446036651271011661,374,1446036651265495061,robocape_mag,-7.95,-16.2,24.9,10.0,0.0,0.0,0.0,10.0,0.0,0.0,0.0,10.0
1446036651304700078,375,1446036651298804998,robocape_mag,-7.95,-16.2,24.9,10.0,0.0,0.0,0.0,10.0,0.0,0.0,0.0,10.0
1446036651337360495,376,1446036651332289934,robocape_mag,-7.95,-16.2,24.9,10.0,0.0,0.0,0.0,10.0,0.0,0.0,0.0,10.0
1446036651371359120,377,1446036651366413116,robocape_mag,-7.95,-16.2,24.9,10.0,0.0,0.0,0.0,10.0,0.0,0.0,0.0,10.0
1446036651403560161,378,1446036651398760080,robocape_mag,-10.35,-14.4,23.7,10.0,0.0,0.0,0.0,10.0,0.0,0.0,0.0,10.0
1446036651438722870,379,1446036651433751106,robocape_mag,-10.35,-14.4,23.7,10.0,0.0,0.0,0.0,10.0,0.0,0.0,0.0,10.0
1446036651470465995,380,1446036651465403079,robocape_mag,-10.35,-14.4,23.7,10.0,0.0,0.0,0.0,10.0,0.0,0.0,0.0,10.0
1446036651503566495,381,1446036651498817920,robocape_mag,-10.35,-14.4,23.7,10.0,0.0,0.0,0.0,10.0,0.0,0.0,0.0,10.0
1446036651538434870,382,1446036651533504962,robocape_mag,-10.35,-14.4,23.7,10.0,0.0,0.0,0.0,10.0,0.0,0.0,0.0,10.0
1446036651570415578,383,1446036651565522909,robocape_mag,-10.95,-15.6,20.7,10.0,0.0,0.0,0.0,10.0,0.0,0.0,0.0,10.0
1446036651604070453,384,1446036651598928928,robocape_mag,-10.95,-15.6,20.7,10.0,0.0,0.0,0.0,10.0,0.0,0.0,0.0,10.0
1446036651638284953,385,1446036651633421897,robocape_mag,-10.95,-15.6,20.7,10.0,0.0,0.0,0.0,10.0,0.0,0.0,0.0,10.0
1446036651671496578,386,1446036651665396928,robocape_mag,-10.95,-15.6,20.7,10.0,0.0,0.0,0.0,10.0,0.0,0.0,0.0,10.0
1446036651704010620,387,1446036651698935031,robocape_mag,-10.95,-15.6,20.7,10.0,0.0,0.0,0.0,10.0,0.0,0.0,0.0,10.0
1446036651738674037,388,1446036651733901023,robocape_mag,-3.75,-27.6,16.5,10.0,0.0,0.0,0.0,10.0,0.0,0.0,0.0,10.0
1446036651770589162,389,1446036651765512943,robocape_mag,-3.75,-27.6,16.5,10.0,0.0,0.0,0.0,10.0,0.0,0.0,0.0,10.0
1446036651803885537,390,1446036651798932075,robocape_mag,-3.75,-27.6,16.5,10.0,0.0,0.0,0.0,10.0,0.0,0.0,0.0,10.0
1446036651837294870,391,1446036651832179069,robocape_mag,-3.75,-27.6,16.5,10.0,0.0,0.0,0.0,10.0,0.0,0.0,0.0,10.0
1446036651871334870,392,1446036651865489959,robocape_mag,-3.75,-27.6,26.1,10.0,0.0,0.0,0.0,10.0,0.0,0.0,0.0,10.0
1446036651903814370,393,1446036651898761987,robocape_mag,8.85,-22.2,26.1,10.0,0.0,0.0,0.0,10.0,0.0,0.0,0.0,10.0
1446036651938740245,394,1446036651932068109,robocape_mag,8.85,-22.2,26.1,10.0,0.0,0.0,0.0,10.0,0.0,0.0,0.0,10.0
1446036651970346745,395,1446036651965327978,robocape_mag,8.85,-22.2,26.1,10.0,0.0,0.0,0.0,10.0,0.0,0.0,0.0,10.0
1446036652003691162,396,1446036651998960971,robocape_mag,8.85,-22.2,26.1,10.0,0.0,0.0,0.0,10.0,0.0,0.0,0.0,10.0
1446036652037094995,397,1446036652032139062,robocape_mag,8.85,-22.8,25.5,10.0,0.0,0.0,0.0,10.0,0.0,0.0,0.0,10.0
1446036652070011245,398,1446036652065326929,robocape_mag,8.85,-22.8,25.5,10.0,0.0,0.0,0.0,10.0,0.0,0.0,0.0,10.0
1446036652103682203,399,1446036652098757982,robocape_mag,8.85,-22.8,25.5,10.0,0.0,0.0,0.0,10.0,0.0,0.0,0.0,10.0
1446036652137181120,400,1446036652132203102,robocape_mag,8.85,-22.8,25.5,10.0,0.0,0.0,0.0,10.0,0.0,0.0,0.0,10.0
1446036652170140953,401,1446036652165381908,robocape_mag,8.85,-22.8,25.5,10.0,0.0,0.0,0.0,10.0,0.0,0.0,0.0,10.0
1446036652205952870,402,1446036652200881958,robocape_mag,8.25,-18.0,12.9,10.0,0.0,0.0,0.0,10.0,0.0,0.0,0.0,10.0
1446036652237399954,403,1446036652232073068,robocape_mag,8.25,-18.0,12.9,10.0,0.0,0.0,0.0,10.0,0.0,0.0,0.0,10.0
1446036652270201079,404,1446036652265453100,robocape_mag,8.25,-18.0,12.9,10.0,0.0,0.0,0.0,10.0,0.0,0.0,0.0,10.0
1446036652303604787,405,1446036652298712968,robocape_mag,8.25,-18.0,12.9,10.0,0.0,0.0,0.0,10.0,0.0,0.0,0.0,10.0
1446036652338362120,406,1446036652332228899,robocape_mag,8.25,-18.0,12.9,10.0,0.0,0.0,0.0,10.0,0.0,0.0,0.0,10.0
1446036652370033662,407,1446036652365298032,robocape_mag,28.05,-21.0,20.1,10.0,0.0,0.0,0.0,10.0,0.0,0.0,0.0,10.0
1446036652404253495,408,1446036652398768901,robocape_mag,28.05,-21.0,20.1,10.0,0.0,0.0,0.0,10.0,0.0,0.0,0.0,10.0
1446036652437956662,409,1446036652432058095,robocape_mag,28.05,-21.0,20.1,10.0,0.0,0.0,0.0,10.0,0.0,0.0,0.0,10.0
1446036652470146245,410,1446036652465392112,robocape_mag,28.05,-21.0,20.1,10.0,0.0,0.0,0.0,10.0,0.0,0.0,0.0,10.0
1446036652503840204,411,1446036652498991966,robocape_mag,28.05,-21.0,20.1,10.0,0.0,0.0,0.0,10.0,0.0,0.0,0.0,10.0
1446036652537197620,412,1446036652532138109,robocape_mag,20.25,-17.4,4.5,10.0,0.0,0.0,0.0,10.0,0.0,0.0,0.0,10.0
1446036652570016995,413,1446036652565325975,robocape_mag,20.25,-17.4,4.5,10.0,0.0,0.0,0.0,10.0,0.0,0.0,0.0,10.0
1446036652603808829,414,1446036652598922014,robocape_mag,20.25,-17.4,4.5,10.0,0.0,0.0,0.0,10.0,0.0,0.0,0.0,10.0
1446036652637200037,415,1446036652632198095,robocape_mag,20.25,-17.4,4.5,10.0,0.0,0.0,0.0,10.0,0.0,0.0,0.0,10.0
1446036652669960204,416,1446036652665298938,robocape_mag,20.25,-17.4,14.7,10.0,0.0,0.0,0.0,10.0,0.0,0.0,0.0,10.0
1446036652704909995,417,1446036652699937105,robocape_mag,14.85,-24.0,14.7,10.0,0.0,0.0,0.0,10.0,0.0,0.0,0.0,10.0
1446036652737044995,418,1446036652732314109,robocape_mag,14.85,-24.0,14.7,10.0,0.0,0.0,0.0,10.0,0.0,0.0,0.0,10.0
1446036652770173079,419,1446036652765459060,robocape_mag,14.85,-24.0,14.7,10.0,0.0,0.0,0.0,10.0,0.0,0.0,0.0,10.0
1446036652803935787,420,1446036652798711061,robocape_mag,14.85,-24.0,14.7,10.0,0.0,0.0,0.0,10.0,0.0,0.0,0.0,10.0
1446036652837042287,421,1446036652832153081,robocape_mag,6.75,-23.1,16.2,10.0,0.0,0.0,0.0,10.0,0.0,0.0,0.0,10.0
1446036652871720495,422,1446036652866755962,robocape_mag,6.75,-23.1,16.2,10.0,0.0,0.0,0.0,10.0,0.0,0.0,0.0,10.0
1446036652903750912,423,1446036652898782968,robocape_mag,6.75,-23.1,16.2,10.0,0.0,0.0,0.0,10.0,0.0,0.0,0.0,10.0
1446036652939136662,424,1446036652932182073,robocape_mag,6.75,-23.1,16.2,10.0,0.0,0.0,0.0,10.0,0.0,0.0,0.0,10.0
1446036652974074662,425,1446036652968956947,robocape_mag,6.75,-23.1,16.2,10.0,0.0,0.0,0.0,10.0,0.0,0.0,0.0,10.0
1446036653003748954,426,1446036652998902082,robocape_mag,-0.45,-16.5,18.0,10.0,0.0,0.0,0.0,10.0,0.0,0.0,0.0,10.0
1446036653037054621,427,1446036653032133102,robocape_mag,-0.45,-16.5,18.0,10.0,0.0,0.0,0.0,10.0,0.0,0.0,0.0,10.0
1446036653073348496,428,1446036653068357944,robocape_mag,-0.45,-16.5,18.0,10.0,0.0,0.0,0.0,10.0,0.0,0.0,0.0,10.0
1446036653103626621,429,1446036653098772048,robocape_mag,-0.45,-16.5,18.0,10.0,0.0,0.0,0.0,10.0,0.0,0.0,0.0,10.0
1446036653141145287,430,1446036653136085987,robocape_mag,-0.45,-16.5,18.0,10.0,0.0,0.0,0.0,10.0,0.0,0.0,0.0,10.0
1446036653170056454,431,1446036653165330886,robocape_mag,-4.65,-17.1,18.0,10.0,0.0,0.0,0.0,10.0,0.0,0.0,0.0,10.0
1446036653210751871,432,1446036653200911045,robocape_mag,-4.65,-17.1,18.0,10.0,0.0,0.0,0.0,10.0,0.0,0.0,0.0,10.0
1446036653237405621,433,1446036653232215881,robocape_mag,-4.65,-17.1,18.0,10.0,0.0,0.0,0.0,10.0,0.0,0.0,0.0,10.0
1446036653270231454,434,1446036653265516042,robocape_mag,-4.65,-17.1,18.0,10.0,0.0,0.0,0.0,10.0,0.0,0.0,0.0,10.0
1446036653303999871,435,1446036653299057006,robocape_mag,-4.65,-17.1,18.0,10.0,0.0,0.0,0.0,10.0,0.0,0.0,0.0,10.0
1446036653337104204,436,1446036653332040071,robocape_mag,-5.85,-25.5,14.4,10.0,0.0,0.0,0.0,10.0,0.0,0.0,0.0,10.0
1446036653370144912,437,1446036653365432977,robocape_mag,-5.85,-25.5,14.4,10.0,0.0,0.0,0.0,10.0,0.0,0.0,0.0,10.0
1446036653403684037,438,1446036653398789882,robocape_mag,-5.85,-25.5,14.4,10.0,0.0,0.0,0.0,10.0,0.0,0.0,0.0,10.0
1446036653445484746,439,1446036653435481071,robocape_mag,-5.85,-25.5,14.4,10.0,0.0,0.0,0.0,10.0,0.0,0.0,0.0,10.0
1446036653470389996,440,1446036653465418100,robocape_mag,-5.85,-25.5,11.4,10.0,0.0,0.0,0.0,10.0,0.0,0.0,0.0,10.0
1446036653504000121,441,1446036653498910903,robocape_mag,-11.85,-21.3,11.4,10.0,0.0,0.0,0.0,10.0,0.0,0.0,0.0,10.0
1446036653540328246,442,1446036653535168886,robocape_mag,-11.85,-21.3,11.4,10.0,0.0,0.0,0.0,10.0,0.0,0.0,0.0,10.0
1446036653570187287,443,1446036653565510988,robocape_mag,-11.85,-21.3,11.4,10.0,0.0,0.0,0.0,10.0,0.0,0.0,0.0,10.0
1446036653603530746,444,1446036653598809003,robocape_mag,-11.85,-21.3,11.4,10.0,0.0,0.0,0.0,10.0,0.0,0.0,0.0,10.0
1446036653638814496,445,1446036653634028911,robocape_mag,-12.15,-22.2,21.9,10.0,0.0,0.0,0.0,10.0,0.0,0.0,0.0,10.0
1446036653670269413,446,1446036653665417909,robocape_mag,-12.15,-22.2,21.9,10.0,0.0,0.0,0.0,10.0,0.0,0.0,0.0,10.0
1446036653703635038,447,1446036653698926925,robocape_mag,-12.15,-22.2,21.9,10.0,0.0,0.0,0.0,10.0,0.0,0.0,0.0,10.0
1446036653736854871,448,1446036653732068061,robocape_mag,-12.15,-22.2,21.9,10.0,0.0,0.0,0.0,10.0,0.0,0.0,0.0,10.0
1446036653770177079,449,1446036653765547990,robocape_mag,-12.15,-22.2,21.9,10.0,0.0,0.0,0.0,10.0,0.0,0.0,0.0,10.0
1446036653803597663,450,1446036653798827886,robocape_mag,-7.65,-27.9,18.6,10.0,0.0,0.0,0.0,10.0,0.0,0.0,0.0,10.0
1446036653837403746,451,1446036653832393884,robocape_mag,-7.65,-27.9,18.6,10.0,0.0,0.0,0.0,10.0,0.0,0.0,0.0,10.0
1446036653870779038,452,1446036653865928888,robocape_mag,-7.65,-27.9,18.6,10.0,0.0,0.0,0.0,10.0,0.0,0.0,0.0,10.0
1446036653905467579,453,1446036653900527954,robocape_mag,-7.65,-27.9,18.6,10.0,0.0,0.0,0.0,10.0,0.0,0.0,0.0,10.0
1446036653937517788,454,1446036653932188034,robocape_mag,-7.65,-27.9,18.6,10.0,0.0,0.0,0.0,10.0,0.0,0.0,0.0,10.0
1446036653970052413,455,1446036653965322971,robocape_mag,-12.75,-25.2,11.1,10.0,0.0,0.0,0.0,10.0,0.0,0.0,0.0,10.0
1446036654005424704,456,1446036654000442981,robocape_mag,-12.75,-25.2,11.1,10.0,0.0,0.0,0.0,10.0,0.0,0.0,0.0,10.0
1446036654038951871,457,1446036654033780097,robocape_mag,-12.75,-25.2,11.1,10.0,0.0,0.0,0.0,10.0,0.0,0.0,0.0,10.0
1446036654070417704,458,1446036654065607070,robocape_mag,-12.75,-25.2,11.1,10.0,0.0,0.0,0.0,10.0,0.0,0.0,0.0,10.0
1446036654103520371,459,1446036654098778009,robocape_mag,-12.75,-25.2,11.1,10.0,0.0,0.0,0.0,10.0,0.0,0.0,0.0,10.0
1446036654136840788,460,1446036654131984949,robocape_mag,-9.75,-27.6,22.5,10.0,0.0,0.0,0.0,10.0,0.0,0.0,0.0,10.0
1446036654174927704,461,1446036654169169902,robocape_mag,-9.75,-27.6,22.5,10.0,0.0,0.0,0.0,10.0,0.0,0.0,0.0,10.0
1446036654205650704,462,1446036654200818061,robocape_mag,-9.75,-27.6,22.5,10.0,0.0,0.0,0.0,10.0,0.0,0.0,0.0,10.0
1446036654237248329,463,1446036654232237100,robocape_mag,-9.75,-27.6,22.5,10.0,0.0,0.0,0.0,10.0,0.0,0.0,0.0,10.0
1446036654270433954,464,1446036654265557050,robocape_mag,-9.75,-27.6,20.7,10.0,0.0,0.0,0.0,10.0,0.0,0.0,0.0,10.0
1446036654307588621,465,1446036654302325963,robocape_mag,-8.55,-24.0,20.7,10.0,0.0,0.0,0.0,10.0,0.0,0.0,0.0,10.0
1446036654337014996,466,1446036654331990003,robocape_mag,-8.55,-24.0,20.7,10.0,0.0,0.0,0.0,10.0,0.0,0.0,0.0,10.0
1446036654370196580,467,1446036654365355968,robocape_mag,-8.55,-24.0,20.7,10.0,0.0,0.0,0.0,10.0,0.0,0.0,0.0,10.0
1446036654405207413,468,1446036654400312900,robocape_mag,-8.55,-24.0,20.7,10.0,0.0,0.0,0.0,10.0,0.0,0.0,0.0,10.0
1446036654438385621,469,1446036654431986093,robocape_mag,4.35,-26.7,24.0,10.0,0.0,0.0,0.0,10.0,0.0,0.0,0.0,10.0
1446036654470402371,470,1446036654465667009,robocape_mag,4.35,-26.7,24.0,10.0,0.0,0.0,0.0,10.0,0.0,0.0,0.0,10.0
1446036654503570246,471,1446036654498889923,robocape_mag,4.35,-26.7,24.0,10.0,0.0,0.0,0.0,10.0,0.0,0.0,0.0,10.0
1446036654537988288,472,1446036654532099962,robocape_mag,4.35,-26.7,24.0,10.0,0.0,0.0,0.0,10.0,0.0,0.0,0.0,10.0
1446036654570491830,473,1446036654565514087,robocape_mag,4.35,-26.7,24.0,10.0,0.0,0.0,0.0,10.0,0.0,0.0,0.0,10.0
1446036654604503496,474,1446036654599598884,robocape_mag,-6.15,-30.0,9.9,10.0,0.0,0.0,0.0,10.0,0.0,0.0,0.0,10.0
1446036654639754746,475,1446036654634511947,robocape_mag,-6.15,-30.0,9.9,10.0,0.0,0.0,0.0,10.0,0.0,0.0,0.0,10.0
1446036654670504913,476,1446036654665446996,robocape_mag,-6.15,-30.0,9.9,10.0,0.0,0.0,0.0,10.0,0.0,0.0,0.0,10.0
1446036654703893330,477,1446036654699156045,robocape_mag,-6.15,-30.0,9.9,10.0,0.0,0.0,0.0,10.0,0.0,0.0,0.0,10.0
1446036654737059205,478,1446036654732002019,robocape_mag,-6.15,-30.0,9.9,10.0,0.0,0.0,0.0,10.0,0.0,0.0,0.0,10.0
1446036654770501330,479,1446036654765594959,robocape_mag,12.75,-23.1,19.2,10.0,0.0,0.0,0.0,10.0,0.0,0.0,0.0,10.0
1446036654803915163,480,1446036654799020051,robocape_mag,12.75,-23.1,19.2,10.0,0.0,0.0,0.0,10.0,0.0,0.0,0.0,10.0
1446036654837458746,481,1446036654832150936,robocape_mag,12.75,-23.1,19.2,10.0,0.0,0.0,0.0,10.0,0.0,0.0,0.0,10.0
1446036654870649163,482,1446036654865664958,robocape_mag,12.75,-23.1,19.2,10.0,0.0,0.0,0.0,10.0,0.0,0.0,0.0,10.0
1446036654903740371,483,1446036654898920059,robocape_mag,12.75,-23.1,19.2,10.0,0.0,0.0,0.0,10.0,0.0,0.0,0.0,10.0
1446036654936945913,484,1446036654932013034,robocape_mag,10.35,-25.5,6.6,10.0,0.0,0.0,0.0,10.0,0.0,0.0,0.0,10.0
1446036654970372205,485,1446036654965559959,robocape_mag,10.35,-25.5,6.6,10.0,0.0,0.0,0.0,10.0,0.0,0.0,0.0,10.0
1446036655003886288,486,1446036654999087095,robocape_mag,10.35,-25.5,6.6,10.0,0.0,0.0,0.0,10.0,0.0,0.0,0.0,10.0
1446036655037146830,487,1446036655032111883,robocape_mag,10.35,-25.5,6.6,10.0,0.0,0.0,0.0,10.0,0.0,0.0,0.0,10.0
1446036655070147205,488,1446036655065466880,robocape_mag,10.35,-25.5,15.9,10.0,0.0,0.0,0.0,10.0,0.0,0.0,0.0,10.0
1446036655103662288,489,1446036655098896980,robocape_mag,14.25,-25.2,15.9,10.0,0.0,0.0,0.0,10.0,0.0,0.0,0.0,10.0
1446036655136715455,490,1446036655131920099,robocape_mag,14.25,-25.2,15.9,10.0,0.0,0.0,0.0,10.0,0.0,0.0,0.0,10.0
1446036655170107038,491,1446036655165414094,robocape_mag,14.25,-25.2,15.9,10.0,0.0,0.0,0.0,10.0,0.0,0.0,0.0,10.0
1446036655204810747,492,1446036655199872970,robocape_mag,14.25,-25.2,15.9,10.0,0.0,0.0,0.0,10.0,0.0,0.0,0.0,10.0
1446036655238614288,493,1446036655231956005,robocape_mag,7.95,-23.1,15.6,10.0,0.0,0.0,0.0,10.0,0.0,0.0,0.0,10.0
1446036655271223663,494,1446036655265794038,robocape_mag,7.95,-23.1,15.6,10.0,0.0,0.0,0.0,10.0,0.0,0.0,0.0,10.0
1446036655304271830,495,1446036655299222946,robocape_mag,7.95,-23.1,15.6,10.0,0.0,0.0,0.0,10.0,0.0,0.0,0.0,10.0
1446036655338390080,496,1446036655332087039,robocape_mag,7.95,-23.1,15.6,10.0,0.0,0.0,0.0,10.0,0.0,0.0,0.0,10.0
1446036655370255580,497,1446036655365350961,robocape_mag,7.95,-23.1,15.6,10.0,0.0,0.0,0.0,10.0,0.0,0.0,0.0,10.0
1446036655403748663,498,1446036655398896932,robocape_mag,-11.25,-22.5,18.0,10.0,0.0,0.0,0.0,10.0,0.0,0.0,0.0,10.0
1446036655441292663,499,1446036655436124086,robocape_mag,-11.25,-22.5,18.0,10.0,0.0,0.0,0.0,10.0,0.0,0.0,0.0,10.0
1446036655470219080,500,1446036655465332984,robocape_mag,-11.25,-22.5,18.0,10.0,0.0,0.0,0.0,10.0,0.0,0.0,0.0,10.0
1446036655503787330,501,1446036655498648881,robocape_mag,-11.25,-22.5,18.0,10.0,0.0,0.0,0.0,10.0,0.0,0.0,0.0,10.0
1446036655537179330,502,1446036655532166004,robocape_mag,-11.25,-22.5,18.0,10.0,0.0,0.0,0.0,10.0,0.0,0.0,0.0,10.0
1446036655570155080,503,1446036655565423011,robocape_mag,-25.05,-24.9,11.4,10.0,0.0,0.0,0.0,10.0,0.0,0.0,0.0,10.0
1446036655603909997,504,1446036655598666906,robocape_mag,-25.05,-24.9,11.4,10.0,0.0,0.0,0.0,10.0,0.0,0.0,0.0,10.0
1446036655637199247,505,1446036655632003068,robocape_mag,-25.05,-24.9,11.4,10.0,0.0,0.0,0.0,10.0,0.0,0.0,0.0,10.0
1446036655671546455,506,1446036655666244029,robocape_mag,-25.05,-24.9,11.4,10.0,0.0,0.0,0.0,10.0,0.0,0.0,0.0,10.0
1446036655704519372,507,1446036655699085950,robocape_mag,-25.05,-24.9,11.4,10.0,0.0,0.0,0.0,10.0,0.0,0.0,0.0,10.0
1446036655736911789,508,1446036655732273101,robocape_mag,-25.95,-30.6,11.1,10.0,0.0,0.0,0.0,10.0,0.0,0.0,0.0,10.0
1446036655770263955,509,1446036655765505075,robocape_mag,-25.95,-30.6,11.1,10.0,0.0,0.0,0.0,10.0,0.0,0.0,0.0,10.0
1446036655805604664,510,1446036655798749923,robocape_mag,-25.95,-30.6,11.1,10.0,0.0,0.0,0.0,10.0,0.0,0.0,0.0,10.0
1446036655836611039,511,1446036655831947088,robocape_mag,-25.95,-30.6,11.1,10.0,0.0,0.0,0.0,10.0,0.0,0.0,0.0,10.0
1446036655870575205,512,1446036655865540981,robocape_mag,-25.95,-30.6,17.4,10.0,0.0,0.0,0.0,10.0,0.0,0.0,0.0,10.0
1446036655907154455,513,1446036655901485919,robocape_mag,-22.65,-27.9,17.4,10.0,0.0,0.0,0.0,10.0,0.0,0.0,0.0,10.0
1446036655936686914,514,1446036655931965112,robocape_mag,-22.65,-27.9,17.4,10.0,0.0,0.0,0.0,10.0,0.0,0.0,0.0,10.0
1446036655970273664,515,1446036655965517044,robocape_mag,-22.65,-27.9,17.4,10.0,0.0,0.0,0.0,10.0,0.0,0.0,0.0,10.0
1446036656003983622,516,1446036655998645067,robocape_mag,-22.65,-27.9,17.4,10.0,0.0,0.0,0.0,10.0,0.0,0.0,0.0,10.0
1446036656036746330,517,1446036656032075881,robocape_mag,-26.25,-32.7,12.0,10.0,0.0,0.0,0.0,10.0,0.0,0.0,0.0,10.0
1446036656070264705,518,1446036656065567016,robocape_mag,-26.25,-32.7,12.0,10.0,0.0,0.0,0.0,10.0,0.0,0.0,0.0,10.0
1446036656103461997,519,1446036656098680973,robocape_mag,-26.25,-32.7,12.0,10.0,0.0,0.0,0.0,10.0,0.0,0.0,0.0,10.0
1446036656136683497,520,1446036656131977081,robocape_mag,-26.25,-32.7,12.0,10.0,0.0,0.0,0.0,10.0,0.0,0.0,0.0,10.0
1446036656170512997,521,1446036656165685892,robocape_mag,-26.25,-32.7,12.0,10.0,0.0,0.0,0.0,10.0,0.0,0.0,0.0,10.0
1446036656207132122,522,1446036656201405048,robocape_mag,-32.55,-25.2,6.9,10.0,0.0,0.0,0.0,10.0,0.0,0.0,0.0,10.0
1446036656236700830,523,1446036656231956005,robocape_mag,-32.55,-25.2,6.9,10.0,0.0,0.0,0.0,10.0,0.0,0.0,0.0,10.0
1446036656270305747,524,1446036656265590906,robocape_mag,-32.55,-25.2,6.9,10.0,0.0,0.0,0.0,10.0,0.0,0.0,0.0,10.0
1446036656306301247,525,1446036656298685073,robocape_mag,-32.55,-25.2,6.9,10.0,0.0,0.0,0.0,10.0,0.0,0.0,0.0,10.0
1446036656336942039,526,1446036656332133054,robocape_mag,-32.55,-25.2,6.9,10.0,0.0,0.0,0.0,10.0,0.0,0.0,0.0,10.0
1446036656372190830,527,1446036656367324113,robocape_mag,-32.85,-31.5,4.8,10.0,0.0,0.0,0.0,10.0,0.0,0.0,0.0,10.0
1446036656408272581,528,1446036656401982069,robocape_mag,-32.85,-31.5,4.8,10.0,0.0,0.0,0.0,10.0,0.0,0.0,0.0,10.0
1446036656436867831,529,1446036656431969881,robocape_mag,-32.85,-31.5,4.8,10.0,0.0,0.0,0.0,10.0,0.0,0.0,0.0,10.0
1446036656470520789,530,1446036656465759038,robocape_mag,-32.85,-31.5,4.8,10.0,0.0,0.0,0.0,10.0,0.0,0.0,0.0,10.0
1446036656503694997,531,1446036656498645067,robocape_mag,-32.85,-31.5,4.8,10.0,0.0,0.0,0.0,10.0,0.0,0.0,0.0,10.0
