%time,field.header.seq,field.header.stamp,field.header.frame_id,field.magnetic_field.x,field.magnetic_field.y,field.magnetic_field.z,field.magnetic_field_covariance0,field.magnetic_field_covariance1,field.magnetic_field_covariance2,field.magnetic_field_covariance3,field.magnetic_field_covariance4,field.magnetic_field_covariance5,field.magnetic_field_covariance6,field.magnetic_field_covariance7,field.magnetic_field_covariance8
1446036724064968646,1,1446036724060848951,robocape_mag,8.06297489285,23.5851255358,-36.6825934223,10.0,0.0,0.0,0.0,10.0,0.0,0.0,0.0,10.0
1446036724097484896,2,1446036724094116926,robocape_mag,8.04698028117,23.5875143692,-36.6789002861,10.0,0.0,0.0,0.0,10.0,0.0,0.0,0.0,10.0
1446036724132243980,3,1446036724128619909,robocape_mag,8.04698028117,23.5875143692,-36.6789002861,10.0,0.0,0.0,0.0,10.0,0.0,0.0,0.0,10.0
1446036724164234021,4,1446036724160748004,robocape_mag,8.04698028117,23.5875143692,-36.6789002861,10.0,0.0,0.0,0.0,10.0,0.0,0.0,0.0,10.0
1446036724197614605,5,1446036724193918943,robocape_mag,8.04698028117,23.5875143692,-36.6789002861,10.0,0.0,0.0,0.0,10.0,0.0,0.0,0.0,10.0
1446036724231862646,6,1446036724228243112,robocape_mag,8.04698028117,23.5875143692,-36.6789002861,10.0,0.0,0.0,0.0,10.0,0.0,0.0,0.0,10.0
1446036724264017146,7,1446036724260482072,robocape_mag,7.98972900132,23.580550981,-36.6789339727,10.0,0.0,0.0,0.0,10.0,0.0,0.0,0.0,10.0
1446036724297222730,8,1446036724293772935,robocape_mag,7.98972900132,23.580550981,-36.6789339727,10.0,0.0,0.0,0.0,10.0,0.0,0.0,0.0,10.0
1446036724336618730,9,1446036724331331014,robocape_mag,7.98972900132,23.580550981,-36.6789339727,10.0,0.0,0.0,0.0,10.0,0.0,0.0,0.0,10.0
1446036724366043563,10,1446036724362416028,robocape_mag,7.98972900132,23.580550981,-36.6789339727,10.0,0.0,0.0,0.0,10.0,0.0,0.0,0.0,10.0
1446036724397508480,11,1446036724393960952,robocape_mag,7.98972900132,23.580550981,-36.6789339727,10.0,0.0,0.0,0.0,10.0,0.0,0.0,0.0,10.0
1446036724436111980,12,1446036724432090997,robocape_mag,8.02257762196,23.5891729212,-36.6752542959,10.0,0.0,0.0,0.0,10.0,0.0,0.0,0.0,10.0
1446036724463994897,13,1446036724460489988,robocape_mag,8.02257762196,23.5891729212,-36.6752542959,10.0,0.0,0.0,0.0,10.0,0.0,0.0,0.0,10.0
1446036724497462438,14,1446036724493966102,robocape_mag,8.02257762196,23.5891729212,-36.6752542959,10.0,0.0,0.0,0.0,10.0,0.0,0.0,0.0,10.0
1446036724533796980,15,1446036724529721975,robocape_mag,8.02257762196,23.5891729212,-36.6752542959,10.0,0.0,0.0,0.0,10.0,0.0,0.0,0.0,10.0
1446036724564101438,16,1446036724560627937,robocape_mag,8.02257762196,23.5891729212,-36.6752542959,10.0,0.0,0.0,0.0,10.0,0.0,0.0,0.0,10.0
1446036724597255022,17,1446036724593827009,robocape_mag,8.04071041568,23.6186961367,-36.6576889972,10.0,0.0,0.0,0.0,10.0,0.0,0.0,0.0,10.0
1446036724634740813,18,1446036724630641937,robocape_mag,8.04071041568,23.6186961367,-36.6576889972,10.0,0.0,0.0,0.0,10.0,0.0,0.0,0.0,10.0
1446036724663821563,19,1446036724660392045,robocape_mag,8.04071041568,23.6186961367,-36.6576889972,10.0,0.0,0.0,0.0,10.0,0.0,0.0,0.0,10.0
1446036724698186605,20,1446036724694174051,robocape_mag,8.04071041568,23.6186961367,-36.6576889972,10.0,0.0,0.0,0.0,10.0,0.0,0.0,0.0,10.0
1446036724733810438,21,1446036724729707002,robocape_mag,8.04071041568,23.6186961367,-36.6576889972,10.0,0.0,0.0,0.0,10.0,0.0,0.0,0.0,10.0
1446036724763950647,22,1446036724760329008,robocape_mag,8.0487462028,23.5904381841,-36.6771149767,10.0,0.0,0.0,0.0,10.0,0.0,0.0,0.0,10.0
1446036724797466813,23,1446036724793663024,robocape_mag,8.0487462028,23.5904381841,-36.6771149767,10.0,0.0,0.0,0.0,10.0,0.0,0.0,0.0,10.0
1446036724833451522,24,1446036724829649925,robocape_mag,8.0487462028,23.5904381841,-36.6771149767,10.0,0.0,0.0,0.0,10.0,0.0,0.0,0.0,10.0
1446036724866039980,25,1446036724862042903,robocape_mag,8.0487462028,23.5904381841,-36.6771149767,10.0,0.0,0.0,0.0,10.0,0.0,0.0,0.0,10.0
1446036724897800230,26,1446036724893922090,robocape_mag,8.03976572406,23.5857583059,-36.6792848086,10.0,0.0,0.0,0.0,10.0,0.0,0.0,0.0,10.0
1446036724934463438,27,1446036724930775880,robocape_mag,8.03976572406,23.5857583059,-36.6792848086,10.0,0.0,0.0,0.0,10.0,0.0,0.0,0.0,10.0
1446036724964070522,28,1446036724960494995,robocape_mag,8.03976572406,23.5857583059,-36.6792848086,10.0,0.0,0.0,0.0,10.0,0.0,0.0,0.0,10.0
1446036724997427022,29,1446036724993839979,robocape_mag,8.03976572406,23.5857583059,-36.6792848086,10.0,0.0,0.0,0.0,10.0,0.0,0.0,0.0,10.0
1446036725031737897,30,1446036725027982950,robocape_mag,8.03976572406,23.5857583059,-36.6792848086,10.0,0.0,0.0,0.0,10.0,0.0,0.0,0.0,10.0
1446036725064006063,31,1446036725060456037,robocape_mag,8.04947308297,23.5995822743,-36.671057642,10.0,0.0,0.0,0.0,10.0,0.0,0.0,0.0,10.0
1446036725097220439,32,1446036725093802928,robocape_mag,8.04947308297,23.5995822743,-36.671057642,10.0,0.0,0.0,0.0,10.0,0.0,0.0,0.0,10.0
1446036725131340397,33,1446036725127607107,robocape_mag,8.04947308297,23.5995822743,-36.671057642,10.0,0.0,0.0,0.0,10.0,0.0,0.0,0.0,10.0
1446036725165643147,34,1446036725161591053,robocape_mag,8.04947308297,23.5995822743,-36.671057642,10.0,0.0,0.0,0.0,10.0,0.0,0.0,0.0,10.0
1446036725197198480,35,1446036725193715095,robocape_mag,8.04947308297,23.5995822743,-36.671057642,10.0,0.0,0.0,0.0,10.0,0.0,0.0,0.0,10.0
1446036725231275189,36,1446036725227473974,robocape_mag,8.01787191353,23.593450309,-36.6719626549,10.0,0.0,0.0,0.0,10.0,0.0,0.0,0.0,10.0
1446036725265864022,37,1446036725261888027,robocape_mag,8.01787191353,23.593450309,-36.6719626549,10.0,0.0,0.0,0.0,10.0,0.0,0.0,0.0,10.0
1446036725297257772,38,1446036725293768882,robocape_mag,8.01787191353,23.593450309,-36.6719626549,10.0,0.0,0.0,0.0,10.0,0.0,0.0,0.0,10.0
1446036725331015397,39,1446036725327222108,robocape_mag,8.01787191353,23.593450309,-36.6719626549,10.0,0.0,0.0,0.0,10.0,0.0,0.0,0.0,10.0
1446036725366756647,40,1446036725363140106,robocape_mag,8.01787191353,23.593450309,-36.6719626549,10.0,0.0,0.0,0.0,10.0,0.0,0.0,0.0,10.0
1446036725397414022,41,1446036725393840074,robocape_mag,8.0487462028,23.5904381841,-36.6771149767,10.0,0.0,0.0,0.0,10.0,0.0,0.0,0.0,10.0
1446036725430725814,42,1446036725427136898,robocape_mag,8.0487462028,23.5904381841,-36.6771149767,10.0,0.0,0.0,0.0,10.0,0.0,0.0,0.0,10.0
1446036725467907064,43,1446036725463890075,robocape_mag,8.0487462028,23.5904381841,-36.6771149767,10.0,0.0,0.0,0.0,10.0,0.0,0.0,0.0,10.0
1446036725497235814,44,1446036725493716955,robocape_mag,8.0487462028,23.5904381841,-36.6771149767,10.0,0.0,0.0,0.0,10.0,0.0,0.0,0.0,10.0
1446036725530873147,45,1446036725527179002,robocape_mag,8.0487462028,23.5904381841,-36.6771149767,10.0,0.0,0.0,0.0,10.0,0.0,0.0,0.0,10.0
1446036725568156272,46,1446036725563775062,robocape_mag,8.05211194414,23.6011483002,-36.6703404538,10.0,0.0,0.0,0.0,10.0,0.0,0.0,0.0,10.0
1446036725597222064,47,1446036725593815088,robocape_mag,8.05211194414,23.6011483002,-36.6703404538,10.0,0.0,0.0,0.0,10.0,0.0,0.0,0.0,10.0
1446036725630744855,48,1446036725627159118,robocape_mag,8.05211194414,23.6011483002,-36.6703404538,10.0,0.0,0.0,0.0,10.0,0.0,0.0,0.0,10.0
1446036725669091855,49,1446036725664486885,robocape_mag,8.05211194414,23.6011483002,-36.6703404538,10.0,0.0,0.0,0.0,10.0,0.0,0.0,0.0,10.0
1446036725697423897,50,1446036725693819046,robocape_mag,8.04168557487,23.5736906723,-36.6879277655,10.0,0.0,0.0,0.0,10.0,0.0,0.0,0.0,10.0
1446036725730725272,51,1446036725727077007,robocape_mag,8.04168557487,23.5736906723,-36.6879277655,10.0,0.0,0.0,0.0,10.0,0.0,0.0,0.0,10.0
1446036725767762564,52,1446036725762983083,robocape_mag,8.04168557487,23.5736906723,-36.6879277655,10.0,0.0,0.0,0.0,10.0,0.0,0.0,0.0,10.0
1446036725797162772,53,1446036725793672084,robocape_mag,8.04168557487,23.5736906723,-36.6879277655,10.0,0.0,0.0,0.0,10.0,0.0,0.0,0.0,10.0
1446036725830819772,54,1446036725827142953,robocape_mag,8.04168557487,23.5736906723,-36.6879277655,10.0,0.0,0.0,0.0,10.0,0.0,0.0,0.0,10.0
1446036725870122397,55,1446036725866405010,robocape_mag,8.03912317605,23.6152609437,-36.6596957687,10.0,0.0,0.0,0.0,10.0,0.0,0.0,0.0,10.0
1446036725897687731,56,1446036725893992900,robocape_mag,8.03912317605,23.6152609437,-36.6596957687,10.0,0.0,0.0,0.0,10.0,0.0,0.0,0.0,10.0
1446036725931011647,57,1446036725927205085,robocape_mag,8.03912317605,23.6152609437,-36.6596957687,10.0,0.0,0.0,0.0,10.0,0.0,0.0,0.0,10.0
1446036725967494231,58,1446036725963969945,robocape_mag,8.03912317605,23.6152609437,-36.6596957687,10.0,0.0,0.0,0.0,10.0,0.0,0.0,0.0,10.0
1446036725997390564,59,1446036725993737936,robocape_mag,8.03912317605,23.6152609437,-36.6596957687,10.0,0.0,0.0,0.0,10.0,0.0,0.0,0.0,10.0
1446036726030756481,60,1446036726027040004,robocape_mag,8.05431036784,23.5893317729,-36.6785558533,10.0,0.0,0.0,0.0,10.0,0.0,0.0,0.0,10.0
1446036726067739439,61,1446036726064208984,robocape_mag,8.05431036784,23.5893317729,-36.6785558533,10.0,0.0,0.0,0.0,10.0,0.0,0.0,0.0,10.0
1446036726097361564,62,1446036726093847036,robocape_mag,8.05431036784,23.5893317729,-36.6785558533,10.0,0.0,0.0,0.0,10.0,0.0,0.0,0.0,10.0
1446036726130648731,63,1446036726127063989,robocape_mag,8.05431036784,23.5893317729,-36.6785558533,10.0,0.0,0.0,0.0,10.0,0.0,0.0,0.0,10.0
1446036726166520856,64,1446036726162971019,robocape_mag,8.05431036784,23.5893317729,-36.6785558533,10.0,0.0,0.0,0.0,10.0,0.0,0.0,0.0,10.0
1446036726197212064,65,1446036726193814039,robocape_mag,8.05431036784,23.5893317729,-36.6785558533,10.0,0.0,0.0,0.0,10.0,0.0,0.0,0.0,10.0
1446036726230570064,66,1446036726227070093,robocape_mag,8.05431036784,23.5893317729,-36.6785558533,10.0,0.0,0.0,0.0,10.0,0.0,0.0,0.0,10.0
1446036726265124856,67,1446036726261615991,robocape_mag,8.05431036784,23.5893317729,-36.6785558533,10.0,0.0,0.0,0.0,10.0,0.0,0.0,0.0,10.0
1446036726297444397,68,1446036726293946027,robocape_mag,8.05431036784,23.5893317729,-36.6785558533,10.0,0.0,0.0,0.0,10.0,0.0,0.0,0.0,10.0
1446036726330821064,69,1446036726327215909,robocape_mag,8.05431036784,23.5893317729,-36.6785558533,10.0,0.0,0.0,0.0,10.0,0.0,0.0,0.0,10.0
1446036726365606856,70,1446036726361567020,robocape_mag,8.05464895197,23.5744307642,-36.6889706222,10.0,0.0,0.0,0.0,10.0,0.0,0.0,0.0,10.0
1446036726398750522,71,1446036726394999980,robocape_mag,8.05464895197,23.5744307642,-36.6889706222,10.0,0.0,0.0,0.0,10.0,0.0,0.0,0.0,10.0
1446036726430717481,72,1446036726427079916,robocape_mag,8.05464895197,23.5744307642,-36.6889706222,10.0,0.0,0.0,0.0,10.0,0.0,0.0,0.0,10.0
1446036726464513314,73,1446036726461036920,robocape_mag,8.05464895197,23.5744307642,-36.6889706222,10.0,0.0,0.0,0.0,10.0,0.0,0.0,0.0,10.0
1446036726499196273,74,1446036726495691061,robocape_mag,8.0356840776,23.5897579542,-36.6761146385,10.0,0.0,0.0,0.0,10.0,0.0,0.0,0.0,10.0
1446036726532044023,75,1446036726528398990,robocape_mag,8.0356840776,23.5897579542,-36.6761146385,10.0,0.0,0.0,0.0,10.0,0.0,0.0,0.0,10.0
1446036726564167689,76,1446036726560676097,robocape_mag,8.0356840776,23.5897579542,-36.6761146385,10.0,0.0,0.0,0.0,10.0,0.0,0.0,0.0,10.0
1446036726601247773,77,1446036726597770929,robocape_mag,8.0356840776,23.5897579542,-36.6761146385,10.0,0.0,0.0,0.0,10.0,0.0,0.0,0.0,10.0
1446036726630623398,78,1446036726627177000,robocape_mag,8.0356840776,23.5897579542,-36.6761146385,10.0,0.0,0.0,0.0,10.0,0.0,0.0,0.0,10.0
1446036726664270856,79,1446036726660674095,robocape_mag,8.0366224043,23.5836227411,-36.6804187901,10.0,0.0,0.0,0.0,10.0,0.0,0.0,0.0,10.0
1446036726701483689,80,1446036726697012901,robocape_mag,8.0366224043,23.5836227411,-36.6804187901,10.0,0.0,0.0,0.0,10.0,0.0,0.0,0.0,10.0
1446036726730587481,81,1446036726727072000,robocape_mag,8.0366224043,23.5836227411,-36.6804187901,10.0,0.0,0.0,0.0,10.0,0.0,0.0,0.0,10.0
1446036726764544773,82,1446036726760864973,robocape_mag,8.0366224043,23.5836227411,-36.6804187901,10.0,0.0,0.0,0.0,10.0,0.0,0.0,0.0,10.0
1446036726802833273,83,1446036726799062967,robocape_mag,8.0366224043,23.5836227411,-36.6804187901,10.0,0.0,0.0,0.0,10.0,0.0,0.0,0.0,10.0
1446036726830594314,84,1446036726827141046,robocape_mag,8.0359834246,23.6142571236,-36.6600080827,10.0,0.0,0.0,0.0,10.0,0.0,0.0,0.0,10.0
1446036726866014564,85,1446036726861695051,robocape_mag,8.0359834246,23.6142571236,-36.6600080827,10.0,0.0,0.0,0.0,10.0,0.0,0.0,0.0,10.0
1446036726901595064,86,1446036726897706985,robocape_mag,8.0359834246,23.6142571236,-36.6600080827,10.0,0.0,0.0,0.0,10.0,0.0,0.0,0.0,10.0
1446036726930740773,87,1446036726927128076,robocape_mag,8.0359834246,23.6142571236,-36.6600080827,10.0,0.0,0.0,0.0,10.0,0.0,0.0,0.0,10.0
1446036726964143564,88,1446036726960603952,robocape_mag,8.0359834246,23.6142571236,-36.6600080827,10.0,0.0,0.0,0.0,10.0,0.0,0.0,0.0,10.0
1446036727000860231,89,1446036726997006893,robocape_mag,8.05779361113,23.6110319444,-36.6645995138,10.0,0.0,0.0,0.0,10.0,0.0,0.0,0.0,10.0
1446036727030436273,90,1446036727026947975,robocape_mag,8.05779361113,23.6110319444,-36.6645995138,10.0,0.0,0.0,0.0,10.0,0.0,0.0,0.0,10.0
1446036727064802398,91,1446036727060985088,robocape_mag,8.05779361113,23.6110319444,-36.6645995138,10.0,0.0,0.0,0.0,10.0,0.0,0.0,0.0,10.0
1446036727101671981,92,1446036727098144054,robocape_mag,8.05779361113,23.6110319444,-36.6645995138,10.0,0.0,0.0,0.0,10.0,0.0,0.0,0.0,10.0
1446036727130744689,93,1446036727127037048,robocape_mag,8.05779361113,23.6110319444,-36.6645995138,10.0,0.0,0.0,0.0,10.0,0.0,0.0,0.0,10.0
1446036727165639356,94,1446036727160573005,robocape_mag,8.03622517437,23.5596891908,-36.6974426077,10.0,0.0,0.0,0.0,10.0,0.0,0.0,0.0,10.0
1446036727200572106,95,1446036727196727991,robocape_mag,8.03622517437,23.5596891908,-36.6974426077,10.0,0.0,0.0,0.0,10.0,0.0,0.0,0.0,10.0
1446036727230613273,96,1446036727227008104,robocape_mag,8.03622517437,23.5596891908,-36.6974426077,10.0,0.0,0.0,0.0,10.0,0.0,0.0,0.0,10.0
1446036727264645690,97,1446036727260593891,robocape_mag,8.03622517437,23.5596891908,-36.6974426077,10.0,0.0,0.0,0.0,10.0,0.0,0.0,0.0,10.0
1446036727299820773,98,1446036727296295881,robocape_mag,8.03353437906,23.5781107895,-36.6839333738,10.0,0.0,0.0,0.0,10.0,0.0,0.0,0.0,10.0
1446036727330577065,99,1446036727327001094,robocape_mag,8.03353437906,23.5781107895,-36.6839333738,10.0,0.0,0.0,0.0,10.0,0.0,0.0,0.0,10.0
1446036727364416231,100,1446036727360537052,robocape_mag,8.03353437906,23.5781107895,-36.6839333738,10.0,0.0,0.0,0.0,10.0,0.0,0.0,0.0,10.0
1446036727398027981,101,1446036727394512891,robocape_mag,8.03353437906,23.5781107895,-36.6839333738,10.0,0.0,0.0,0.0,10.0,0.0,0.0,0.0,10.0
1446036727430561898,102,1446036727427061080,robocape_mag,8.03353437906,23.5781107895,-36.6839333738,10.0,0.0,0.0,0.0,10.0,0.0,0.0,0.0,10.0
1446036727464492606,103,1446036727460611104,robocape_mag,8.04237755129,23.5825378992,-36.6817988315,10.0,0.0,0.0,0.0,10.0,0.0,0.0,0.0,10.0
1446036727498250190,104,1446036727494704961,robocape_mag,8.04237755129,23.5825378992,-36.6817988315,10.0,0.0,0.0,0.0,10.0,0.0,0.0,0.0,10.0
1446036727531985648,105,1446036727528302907,robocape_mag,8.04237755129,23.5825378992,-36.6817988315,10.0,0.0,0.0,0.0,10.0,0.0,0.0,0.0,10.0
1446036727564568523,106,1446036727560666084,robocape_mag,8.04237755129,23.5825378992,-36.6817988315,10.0,0.0,0.0,0.0,10.0,0.0,0.0,0.0,10.0
1446036727597611231,107,1446036727594182968,robocape_mag,8.04237755129,23.5825378992,-36.6817988315,10.0,0.0,0.0,0.0,10.0,0.0,0.0,0.0,10.0
1446036727633098523,108,1446036727628722906,robocape_mag,8.0400475172,23.5711231037,-36.6895723452,10.0,0.0,0.0,0.0,10.0,0.0,0.0,0.0,10.0
1446036727664018023,109,1446036727660510063,robocape_mag,8.0400475172,23.5711231037,-36.6895723452,10.0,0.0,0.0,0.0,10.0,0.0,0.0,0.0,10.0
1446036727697747815,110,1446036727694226026,robocape_mag,8.0400475172,23.5711231037,-36.6895723452,10.0,0.0,0.0,0.0,10.0,0.0,0.0,0.0,10.0
1446036727732784648,111,1446036727729018926,robocape_mag,8.0400475172,23.5711231037,-36.6895723452,10.0,0.0,0.0,0.0,10.0,0.0,0.0,0.0,10.0
1446036727764123648,112,1446036727760591030,robocape_mag,8.0400475172,23.5711231037,-36.6895723452,10.0,0.0,0.0,0.0,10.0,0.0,0.0,0.0,10.0
1446036727797382773,113,1446036727793891906,robocape_mag,8.02542546827,23.5968798993,-36.670319849,10.0,0.0,0.0,0.0,10.0,0.0,0.0,0.0,10.0
1446036727835738481,114,1446036727831517934,robocape_mag,8.02542546827,23.5968798993,-36.670319849,10.0,0.0,0.0,0.0,10.0,0.0,0.0,0.0,10.0
1446036727864458731,115,1446036727860924005,robocape_mag,8.02542546827,23.5968798993,-36.670319849,10.0,0.0,0.0,0.0,10.0,0.0,0.0,0.0,10.0
1446036727897926232,116,1446036727894419908,robocape_mag,8.02542546827,23.5968798993,-36.670319849,10.0,0.0,0.0,0.0,10.0,0.0,0.0,0.0,10.0
1446036727933421148,117,1446036727929924011,robocape_mag,8.02542546827,23.5968798993,-36.670319849,10.0,0.0,0.0,0.0,10.0,0.0,0.0,0.0,10.0
1446036727964027690,118,1446036727960542917,robocape_mag,8.06844156022,23.5841125456,-36.6840692518,10.0,0.0,0.0,0.0,10.0,0.0,0.0,0.0,10.0
1446036727997730690,119,1446036727994271039,robocape_mag,8.06844156022,23.5841125456,-36.6840692518,10.0,0.0,0.0,0.0,10.0,0.0,0.0,0.0,10.0
1446036728035532398,120,1446036728031685113,robocape_mag,8.06844156022,23.5841125456,-36.6840692518,10.0,0.0,0.0,0.0,10.0,0.0,0.0,0.0,10.0
1446036728063941898,121,1446036728060496091,robocape_mag,8.06844156022,23.5841125456,-36.6840692518,10.0,0.0,0.0,0.0,10.0,0.0,0.0,0.0,10.0
1446036728097398107,122,1446036728093978881,robocape_mag,8.0366224043,23.5836227411,-36.6804187901,10.0,0.0,0.0,0.0,10.0,0.0,0.0,0.0,10.0
1446036728135742107,123,1446036728131973028,robocape_mag,8.0366224043,23.5836227411,-36.6804187901,10.0,0.0,0.0,0.0,10.0,0.0,0.0,0.0,10.0
1446036728163892523,124,1446036728160514116,robocape_mag,8.0366224043,23.5836227411,-36.6804187901,10.0,0.0,0.0,0.0,10.0,0.0,0.0,0.0,10.0
1446036728197832648,125,1446036728194204092,robocape_mag,8.0366224043,23.5836227411,-36.6804187901,10.0,0.0,0.0,0.0,10.0,0.0,0.0,0.0,10.0
1446036728234033982,126,1446036728230407953,robocape_mag,8.0366224043,23.5836227411,-36.6804187901,10.0,0.0,0.0,0.0,10.0,0.0,0.0,0.0,10.0
1446036728264156690,127,1446036728260462045,robocape_mag,8.06257784416,23.6003552315,-36.6722217341,10.0,0.0,0.0,0.0,10.0,0.0,0.0,0.0,10.0
1446036728297724690,128,1446036728293853044,robocape_mag,8.06257784416,23.6003552315,-36.6722217341,10.0,0.0,0.0,0.0,10.0,0.0,0.0,0.0,10.0
1446036728334310982,129,1446036728330739021,robocape_mag,8.06257784416,23.6003552315,-36.6722217341,10.0,0.0,0.0,0.0,10.0,0.0,0.0,0.0,10.0
1446036728364208190,130,1446036728360440015,robocape_mag,8.06257784416,23.6003552315,-36.6722217341,10.0,0.0,0.0,0.0,10.0,0.0,0.0,0.0,10.0
1446036728397508148,131,1446036728393740892,robocape_mag,8.06257784416,23.6003552315,-36.6722217341,10.0,0.0,0.0,0.0,10.0,0.0,0.0,0.0,10.0
1446036728433255565,132,1446036728429635047,robocape_mag,8.02702442489,23.5851542174,-36.6784061345,10.0,0.0,0.0,0.0,10.0,0.0,0.0,0.0,10.0
1446036728464596690,133,1446036728460855007,robocape_mag,8.02702442489,23.5851542174,-36.6784061345,10.0,0.0,0.0,0.0,10.0,0.0,0.0,0.0,10.0
1446036728497304148,134,1446036728493774890,robocape_mag,8.02702442489,23.5851542174,-36.6784061345,10.0,0.0,0.0,0.0,10.0,0.0,0.0,0.0,10.0
1446036728532612940,135,1446036728529037952,robocape_mag,8.02702442489,23.5851542174,-36.6784061345,10.0,0.0,0.0,0.0,10.0,0.0,0.0,0.0,10.0
1446036728564199273,136,1446036728560488939,robocape_mag,8.02702442489,23.5851542174,-36.6784061345,10.0,0.0,0.0,0.0,10.0,0.0,0.0,0.0,10.0
1446036728597304524,137,1446036728593864917,robocape_mag,8.03476118077,23.5957922796,-36.6719484648,10.0,0.0,0.0,0.0,10.0,0.0,0.0,0.0,10.0
1446036728632389149,138,1446036728628670930,robocape_mag,8.03476118077,23.5957922796,-36.6719484648,10.0,0.0,0.0,0.0,10.0,0.0,0.0,0.0,10.0
1446036728665767399,139,1446036728661531925,robocape_mag,8.03476118077,23.5957922796,-36.6719484648,10.0,0.0,0.0,0.0,10.0,0.0,0.0,0.0,10.0
1446036728697487607,140,1446036728693968057,robocape_mag,8.03476118077,23.5957922796,-36.6719484648,10.0,0.0,0.0,0.0,10.0,0.0,0.0,0.0,10.0
1446036728731108440,141,1446036728727327108,robocape_mag,8.03476118077,23.5957922796,-36.6719484648,10.0,0.0,0.0,0.0,10.0,0.0,0.0,0.0,10.0
1446036728766340649,142,1446036728762027978,robocape_mag,8.0105419212,23.5916689489,-36.6725937436,10.0,0.0,0.0,0.0,10.0,0.0,0.0,0.0,10.0
1446036728797453232,143,1446036728793850898,robocape_mag,8.0105419212,23.5916689489,-36.6725937436,10.0,0.0,0.0,0.0,10.0,0.0,0.0,0.0,10.0
1446036728831002732,144,1446036728827464103,robocape_mag,8.0105419212,23.5916689489,-36.6725937436,10.0,0.0,0.0,0.0,10.0,0.0,0.0,0.0,10.0
1446036728869635482,145,1446036728865513086,robocape_mag,8.0105419212,23.5916689489,-36.6725937436,10.0,0.0,0.0,0.0,10.0,0.0,0.0,0.0,10.0
1446036728897560607,146,1446036728893990039,robocape_mag,8.06717995081,23.590140235,-36.6797403443,10.0,0.0,0.0,0.0,10.0,0.0,0.0,0.0,10.0
1446036728930974357,147,1446036728927290916,robocape_mag,8.06717995081,23.590140235,-36.6797403443,10.0,0.0,0.0,0.0,10.0,0.0,0.0,0.0,10.0
1446036728965220649,148,1446036728961450099,robocape_mag,8.06717995081,23.590140235,-36.6797403443,10.0,0.0,0.0,0.0,10.0,0.0,0.0,0.0,10.0
1446036728997434149,149,1446036728993891954,robocape_mag,8.06717995081,23.590140235,-36.6797403443,10.0,0.0,0.0,0.0,10.0,0.0,0.0,0.0,10.0
1446036729030815857,150,1446036729027398109,robocape_mag,8.06717995081,23.590140235,-36.6797403443,10.0,0.0,0.0,0.0,10.0,0.0,0.0,0.0,10.0
1446036729067373149,151,1446036729063222885,robocape_mag,8.04306897923,23.5915861246,-36.6756747554,10.0,0.0,0.0,0.0,10.0,0.0,0.0,0.0,10.0
1446036729097404232,152,1446036729093926906,robocape_mag,8.04306897923,23.5915861246,-36.6756747554,10.0,0.0,0.0,0.0,10.0,0.0,0.0,0.0,10.0
1446036729130662857,153,1446036729127234935,robocape_mag,8.04306897923,23.5915861246,-36.6756747554,10.0,0.0,0.0,0.0,10.0,0.0,0.0,0.0,10.0
1446036729167623065,154,1446036729163347959,robocape_mag,8.04306897923,23.5915861246,-36.6756747554,10.0,0.0,0.0,0.0,10.0,0.0,0.0,0.0,10.0
1446036729198743774,155,1446036729195197105,robocape_mag,8.04306897923,23.5915861246,-36.6756747554,10.0,0.0,0.0,0.0,10.0,0.0,0.0,0.0,10.0
1446036729230728190,156,1446036729227221965,robocape_mag,8.02311431841,23.5983192338,-36.6691554726,10.0,0.0,0.0,0.0,10.0,0.0,0.0,0.0,10.0
1446036729268354024,157,1446036729264342069,robocape_mag,8.02311431841,23.5983192338,-36.6691554726,10.0,0.0,0.0,0.0,10.0,0.0,0.0,0.0,10.0
1446036729297367691,158,1446036729293673992,robocape_mag,8.02311431841,23.5983192338,-36.6691554726,10.0,0.0,0.0,0.0,10.0,0.0,0.0,0.0,10.0
1446036729330774816,159,1446036729327236890,robocape_mag,8.02311431841,23.5983192338,-36.6691554726,10.0,0.0,0.0,0.0,10.0,0.0,0.0,0.0,10.0
1446036729370585482,160,1446036729366333961,robocape_mag,8.02311431841,23.5983192338,-36.6691554726,10.0,0.0,0.0,0.0,10.0,0.0,0.0,0.0,10.0
1446036729398173149,161,1446036729394356966,robocape_mag,8.02150247582,23.5714799684,-36.6874718657,10.0,0.0,0.0,0.0,10.0,0.0,0.0,0.0,10.0
1446036729431116274,162,1446036729427232027,robocape_mag,8.02150247582,23.5714799684,-36.6874718657,10.0,0.0,0.0,0.0,10.0,0.0,0.0,0.0,10.0
1446036729468628816,163,1446036729465044021,robocape_mag,8.02150247582,23.5714799684,-36.6874718657,10.0,0.0,0.0,0.0,10.0,0.0,0.0,0.0,10.0
1446036729497579982,164,1446036729493874073,robocape_mag,8.02150247582,23.5714799684,-36.6874718657,10.0,0.0,0.0,0.0,10.0,0.0,0.0,0.0,10.0
1446036729530954524,165,1446036729527149915,robocape_mag,8.02150247582,23.5714799684,-36.6874718657,10.0,0.0,0.0,0.0,10.0,0.0,0.0,0.0,10.0
1446036729566945232,166,1446036729563414096,robocape_mag,8.05431036784,23.5893317729,-36.6785558533,10.0,0.0,0.0,0.0,10.0,0.0,0.0,0.0,10.0
1446036729597435941,167,1446036729593894958,robocape_mag,8.05431036784,23.5893317729,-36.6785558533,10.0,0.0,0.0,0.0,10.0,0.0,0.0,0.0,10.0
1446036729630739649,168,1446036729627216100,robocape_mag,8.05431036784,23.5893317729,-36.6785558533,10.0,0.0,0.0,0.0,10.0,0.0,0.0,0.0,10.0
1446036729666022316,169,1446036729662586927,robocape_mag,8.05431036784,23.5893317729,-36.6785558533,10.0,0.0,0.0,0.0,10.0,0.0,0.0,0.0,10.0
1446036729697234774,170,1446036729693736076,robocape_mag,8.05431036784,23.5893317729,-36.6785558533,10.0,0.0,0.0,0.0,10.0,0.0,0.0,0.0,10.0
1446036729731339774,171,1446036729727669954,robocape_mag,8.05431036784,23.5893317729,-36.6785558533,10.0,0.0,0.0,0.0,10.0,0.0,0.0,0.0,10.0
1446036729765356649,172,1446036729761826992,robocape_mag,8.05431036784,23.5893317729,-36.6785558533,10.0,0.0,0.0,0.0,10.0,0.0,0.0,0.0,10.0
1446036729797530316,173,1446036729793868064,robocape_mag,8.05431036784,23.5893317729,-36.6785558533,10.0,0.0,0.0,0.0,10.0,0.0,0.0,0.0,10.0
1446036729831180191,174,1446036729827508926,robocape_mag,8.05431036784,23.5893317729,-36.6785558533,10.0,0.0,0.0,0.0,10.0,0.0,0.0,0.0,10.0
1446036729867720899,175,1446036729863611936,robocape_mag,8.03790613049,23.5974471798,-36.6711707697,10.0,0.0,0.0,0.0,10.0,0.0,0.0,0.0,10.0
1446036729898993982,176,1446036729895273923,robocape_mag,8.03790613049,23.5974471798,-36.6711707697,10.0,0.0,0.0,0.0,10.0,0.0,0.0,0.0,10.0
1446036729930935816,177,1446036729927313089,robocape_mag,8.03790613049,23.5974471798,-36.6711707697,10.0,0.0,0.0,0.0,10.0,0.0,0.0,0.0,10.0
1446036729964248399,178,1446036729960772037,robocape_mag,8.03790613049,23.5974471798,-36.6711707697,10.0,0.0,0.0,0.0,10.0,0.0,0.0,0.0,10.0
1446036729999490108,179,1446036729995472908,robocape_mag,8.03790613049,23.5974471798,-36.6711707697,10.0,0.0,0.0,0.0,10.0,0.0,0.0,0.0,10.0
1446036730030899733,180,1446036730027442932,robocape_mag,8.16256286686,23.2611007386,-37.0941981633,10.0,0.0,0.0,0.0,10.0,0.0,0.0,0.0,10.0
1446036730064247399,181,1446036730060791015,robocape_mag,8.16256286686,23.2611007386,-37.0941981633,10.0,0.0,0.0,0.0,10.0,0.0,0.0,0.0,10.0
1446036730098530941,182,1446036730094861984,robocape_mag,8.16256286686,23.2611007386,-37.0941981633,10.0,0.0,0.0,0.0,10.0,0.0,0.0,0.0,10.0
1446036730130688066,183,1446036730127244949,robocape_mag,8.16256286686,23.2611007386,-37.0941981633,10.0,0.0,0.0,0.0,10.0,0.0,0.0,0.0,10.0
1446036730164265191,184,1446036730160732984,robocape_mag,8.16256286686,23.2611007386,-37.0941981633,10.0,0.0,0.0,0.0,10.0,0.0,0.0,0.0,10.0
1446036730200914483,185,1446036730197443962,robocape_mag,8.09042817857,23.220499199,-37.1589601378,10.0,0.0,0.0,0.0,10.0,0.0,0.0,0.0,10.0
1446036730230873483,186,1446036730227323055,robocape_mag,8.09042817857,23.220499199,-37.1589601378,10.0,0.0,0.0,0.0,10.0,0.0,0.0,0.0,10.0
1446036730264157024,187,1446036730260581016,robocape_mag,8.09042817857,23.220499199,-37.1589601378,10.0,0.0,0.0,0.0,10.0,0.0,0.0,0.0,10.0
1446036730301417233,188,1446036730297153949,robocape_mag,8.09042817857,23.220499199,-37.1589601378,10.0,0.0,0.0,0.0,10.0,0.0,0.0,0.0,10.0
1446036730331838274,189,1446036730328370094,robocape_mag,8.09042817857,23.220499199,-37.1589601378,10.0,0.0,0.0,0.0,10.0,0.0,0.0,0.0,10.0
1446036730364211024,190,1446036730360673904,robocape_mag,7.95877226733,23.5973471582,-36.6666346037,10.0,0.0,0.0,0.0,10.0,0.0,0.0,0.0,10.0
1446036730402241066,191,1446036730398551940,robocape_mag,7.95877226733,23.5973471582,-36.6666346037,10.0,0.0,0.0,0.0,10.0,0.0,0.0,0.0,10.0
1446036730430611316,192,1446036730427062988,robocape_mag,7.95877226733,23.5973471582,-36.6666346037,10.0,0.0,0.0,0.0,10.0,0.0,0.0,0.0,10.0
1446036730466546941,193,1446036730461414098,robocape_mag,7.95877226733,23.5973471582,-36.6666346037,10.0,0.0,0.0,0.0,10.0,0.0,0.0,0.0,10.0
1446036730501087399,194,1446036730497334003,robocape_mag,7.87186016084,23.2123219301,-37.1613940303,10.0,0.0,0.0,0.0,10.0,0.0,0.0,0.0,10.0
1446036730530846108,195,1446036730527426958,robocape_mag,7.87186016084,23.2123219301,-37.1613940303,10.0,0.0,0.0,0.0,10.0,0.0,0.0,0.0,10.0
1446036730564257149,196,1446036730560601949,robocape_mag,7.87186016084,23.2123219301,-37.1613940303,10.0,0.0,0.0,0.0,10.0,0.0,0.0,0.0,10.0
1446036730600988566,197,1446036730597194910,robocape_mag,7.87186016084,23.2123219301,-37.1613940303,10.0,0.0,0.0,0.0,10.0,0.0,0.0,0.0,10.0
1446036730630803649,198,1446036730627094984,robocape_mag,7.87186016084,23.2123219301,-37.1613940303,10.0,0.0,0.0,0.0,10.0,0.0,0.0,0.0,10.0
1446036730664338149,199,1446036730660624027,robocape_mag,7.33339750699,23.6391007915,-36.9010147211,10.0,0.0,0.0,0.0,10.0,0.0,0.0,0.0,10.0
1446036730699762941,200,1446036730696053028,robocape_mag,7.33339750699,23.6391007915,-36.9010147211,10.0,0.0,0.0,0.0,10.0,0.0,0.0,0.0,10.0
1446036730730613525,201,1446036730727122068,robocape_mag,7.33339750699,23.6391007915,-36.9010147211,10.0,0.0,0.0,0.0,10.0,0.0,0.0,0.0,10.0
1446036730767083483,202,1446036730763542890,robocape_mag,7.33339750699,23.6391007915,-36.9010147211,10.0,0.0,0.0,0.0,10.0,0.0,0.0,0.0,10.0
1446036730797560691,203,1446036730793768882,robocape_mag,7.33339750699,23.6391007915,-36.9010147211,10.0,0.0,0.0,0.0,10.0,0.0,0.0,0.0,10.0
1446036730830940108,204,1446036730827374935,robocape_mag,7.38413865105,23.6271154624,-36.8625106322,10.0,0.0,0.0,0.0,10.0,0.0,0.0,0.0,10.0
1446036730868326025,205,1446036730864762067,robocape_mag,7.38413865105,23.6271154624,-36.8625106322,10.0,0.0,0.0,0.0,10.0,0.0,0.0,0.0,10.0
1446036730897724358,206,1446036730894224882,robocape_mag,7.38413865105,23.6271154624,-36.8625106322,10.0,0.0,0.0,0.0,10.0,0.0,0.0,0.0,10.0
1446036730930851233,207,1446036730927337884,robocape_mag,7.38413865105,23.6271154624,-36.8625106322,10.0,0.0,0.0,0.0,10.0,0.0,0.0,0.0,10.0
1446036730965440150,208,1446036730961889982,robocape_mag,7.38413865105,23.6271154624,-36.8625106322,10.0,0.0,0.0,0.0,10.0,0.0,0.0,0.0,10.0
1446036730999228233,209,1446036730995245933,robocape_mag,7.54858372287,23.2587197915,-37.2890863629,10.0,0.0,0.0,0.0,10.0,0.0,0.0,0.0,10.0
1446036731030691900,210,1446036731027164936,robocape_mag,7.54858372287,23.2587197915,-37.2890863629,10.0,0.0,0.0,0.0,10.0,0.0,0.0,0.0,10.0
1446036731064989066,211,1446036731061018943,robocape_mag,7.54858372287,23.2587197915,-37.2890863629,10.0,0.0,0.0,0.0,10.0,0.0,0.0,0.0,10.0
1446036731099572358,212,1446036731095295906,robocape_mag,7.54858372287,23.2587197915,-37.2890863629,10.0,0.0,0.0,0.0,10.0,0.0,0.0,0.0,10.0
1446036731130837025,213,1446036731127389907,robocape_mag,7.54858372287,23.2587197915,-37.2890863629,10.0,0.0,0.0,0.0,10.0,0.0,0.0,0.0,10.0
1446036731164456233,214,1446036731160924911,robocape_mag,7.32601014034,23.4389417878,-37.1759122434,10.0,0.0,0.0,0.0,10.0,0.0,0.0,0.0,10.0
1446036731198874400,215,1446036731195000886,robocape_mag,7.32601014034,23.4389417878,-37.1759122434,10.0,0.0,0.0,0.0,10.0,0.0,0.0,0.0,10.0
1446036731230784525,216,1446036731227210044,robocape_mag,7.32601014034,23.4389417878,-37.1759122434,10.0,0.0,0.0,0.0,10.0,0.0,0.0,0.0,10.0
1446036731264126650,217,1446036731260600090,robocape_mag,7.32601014034,23.4389417878,-37.1759122434,10.0,0.0,0.0,0.0,10.0,0.0,0.0,0.0,10.0
1446036731298357941,218,1446036731294641017,robocape_mag,7.38992795665,23.3421084684,-37.3166135787,10.0,0.0,0.0,0.0,10.0,0.0,0.0,0.0,10.0
1446036731330771525,219,1446036731327234983,robocape_mag,7.38992795665,23.3421084684,-37.3166135787,10.0,0.0,0.0,0.0,10.0,0.0,0.0,0.0,10.0
1446036731364261983,220,1446036731360703945,robocape_mag,7.38992795665,23.3421084684,-37.3166135787,10.0,0.0,0.0,0.0,10.0,0.0,0.0,0.0,10.0
1446036731397410942,221,1446036731393929958,robocape_mag,7.38992795665,23.3421084684,-37.3166135787,10.0,0.0,0.0,0.0,10.0,0.0,0.0,0.0,10.0
1446036731431060858,222,1446036731427558898,robocape_mag,7.38992795665,23.3421084684,-37.3166135787,10.0,0.0,0.0,0.0,10.0,0.0,0.0,0.0,10.0
1446036731466311483,223,1446036731461751937,robocape_mag,6.97769441467,23.929610734,-37.5777844468,10.0,0.0,0.0,0.0,10.0,0.0,0.0,0.0,10.0
1446036731497529358,224,1446036731494035005,robocape_mag,6.97769441467,23.929610734,-37.5777844468,10.0,0.0,0.0,0.0,10.0,0.0,0.0,0.0,10.0
1446036731531593650,225,1446036731527245998,robocape_mag,6.97769441467,23.929610734,-37.5777844468,10.0,0.0,0.0,0.0,10.0,0.0,0.0,0.0,10.0
1446036731568476192,226,1446036731564002037,robocape_mag,6.97769441467,23.929610734,-37.5777844468,10.0,0.0,0.0,0.0,10.0,0.0,0.0,0.0,10.0
1446036731597564442,227,1446036731594104051,robocape_mag,6.97769441467,23.929610734,-37.5777844468,10.0,0.0,0.0,0.0,10.0,0.0,0.0,0.0,10.0
1446036731630740775,228,1446036731627302885,robocape_mag,6.96577813752,24.15,-37.6769387618,10.0,0.0,0.0,0.0,10.0,0.0,0.0,0.0,10.0
1446036731669280275,229,1446036731665733098,robocape_mag,6.96577813752,24.15,-37.6769387618,10.0,0.0,0.0,0.0,10.0,0.0,0.0,0.0,10.0
1446036731697597108,230,1446036731693945884,robocape_mag,6.96577813752,24.15,-37.6769387618,10.0,0.0,0.0,0.0,10.0,0.0,0.0,0.0,10.0
1446036731730877650,231,1446036731727154970,robocape_mag,6.96577813752,24.15,-37.6769387618,10.0,0.0,0.0,0.0,10.0,0.0,0.0,0.0,10.0
1446036731766860108,232,1446036731762918949,robocape_mag,6.96577813752,24.15,-37.6769387618,10.0,0.0,0.0,0.0,10.0,0.0,0.0,0.0,10.0
1446036731797924483,233,1446036731794064998,robocape_mag,6.98734232118,23.8809341892,-37.5298962012,10.0,0.0,0.0,0.0,10.0,0.0,0.0,0.0,10.0
1446036731832683275,234,1446036731829044103,robocape_mag,6.98734232118,23.8809341892,-37.5298962012,10.0,0.0,0.0,0.0,10.0,0.0,0.0,0.0,10.0
1446036731867729275,235,1446036731864202022,robocape_mag,6.98734232118,23.8809341892,-37.5298962012,10.0,0.0,0.0,0.0,10.0,0.0,0.0,0.0,10.0
1446036731898064775,236,1446036731894347906,robocape_mag,6.98734232118,23.8809341892,-37.5298962012,10.0,0.0,0.0,0.0,10.0,0.0,0.0,0.0,10.0
1446036731931008233,237,1446036731927357912,robocape_mag,6.98734232118,23.8809341892,-37.5298962012,10.0,0.0,0.0,0.0,10.0,0.0,0.0,0.0,10.0
1446036731966755900,238,1446036731963290929,robocape_mag,6.97349489775,23.9798991112,-37.3676993087,10.0,0.0,0.0,0.0,10.0,0.0,0.0,0.0,10.0
1446036731997600692,239,1446036731994106054,robocape_mag,6.97349489775,23.9798991112,-37.3676993087,10.0,0.0,0.0,0.0,10.0,0.0,0.0,0.0,10.0
1446036732030841192,240,1446036732027334928,robocape_mag,6.97349489775,23.9798991112,-37.3676993087,10.0,0.0,0.0,0.0,10.0,0.0,0.0,0.0,10.0
1446036732064999150,241,1446036732061288118,robocape_mag,6.97349489775,23.9798991112,-37.3676993087,10.0,0.0,0.0,0.0,10.0,0.0,0.0,0.0,10.0
1446036732098040817,242,1446036732094405889,robocape_mag,6.97819428792,24.0420215875,-37.2903948464,10.0,0.0,0.0,0.0,10.0,0.0,0.0,0.0,10.0
1446036732131000775,243,1446036732127429962,robocape_mag,6.97819428792,24.0420215875,-37.2903948464,10.0,0.0,0.0,0.0,10.0,0.0,0.0,0.0,10.0
1446036732165051984,244,1446036732161384105,robocape_mag,6.97819428792,24.0420215875,-37.2903948464,10.0,0.0,0.0,0.0,10.0,0.0,0.0,0.0,10.0
1446036732198263109,245,1446036732194561958,robocape_mag,6.97819428792,24.0420215875,-37.2903948464,10.0,0.0,0.0,0.0,10.0,0.0,0.0,0.0,10.0
1446036732230878650,246,1446036732227303028,robocape_mag,6.97819428792,24.0420215875,-37.2903948464,10.0,0.0,0.0,0.0,10.0,0.0,0.0,0.0,10.0
1446036732264434650,247,1446036732260689973,robocape_mag,6.98402225715,24.0496386761,-37.2616418557,10.0,0.0,0.0,0.0,10.0,0.0,0.0,0.0,10.0
1446036732299500650,248,1446036732295614004,robocape_mag,6.98402225715,24.0496386761,-37.2616418557,10.0,0.0,0.0,0.0,10.0,0.0,0.0,0.0,10.0
1446036732330865025,249,1446036732327265977,robocape_mag,6.98402225715,24.0496386761,-37.2616418557,10.0,0.0,0.0,0.0,10.0,0.0,0.0,0.0,10.0
1446036732364742859,250,1446036732360996007,robocape_mag,6.98402225715,24.0496386761,-37.2616418557,10.0,0.0,0.0,0.0,10.0,0.0,0.0,0.0,10.0
1446036732399352025,251,1446036732395812988,robocape_mag,6.98402225715,24.0496386761,-37.2616418557,10.0,0.0,0.0,0.0,10.0,0.0,0.0,0.0,10.0
1446036732430740025,252,1446036732427194118,robocape_mag,6.98373174568,24.0194232089,-37.2780194551,10.0,0.0,0.0,0.0,10.0,0.0,0.0,0.0,10.0
1446036732464386275,253,1446036732460696935,robocape_mag,6.98373174568,24.0194232089,-37.2780194551,10.0,0.0,0.0,0.0,10.0,0.0,0.0,0.0,10.0
1446036732501786525,254,1446036732497771024,robocape_mag,6.98373174568,24.0194232089,-37.2780194551,10.0,0.0,0.0,0.0,10.0,0.0,0.0,0.0,10.0
1446036732530948692,255,1446036732527478933,robocape_mag,6.98373174568,24.0194232089,-37.2780194551,10.0,0.0,0.0,0.0,10.0,0.0,0.0,0.0,10.0
1446036732564455067,256,1446036732560853004,robocape_mag,6.98373174568,24.0194232089,-37.2780194551,10.0,0.0,0.0,0.0,10.0,0.0,0.0,0.0,10.0
1446036732603713567,257,1446036732598774909,robocape_mag,6.97642723626,24.0306588225,-37.3052854473,10.0,0.0,0.0,0.0,10.0,0.0,0.0,0.0,10.0
1446036732630743025,258,1446036732627330064,robocape_mag,6.97642723626,24.0306588225,-37.3052854473,10.0,0.0,0.0,0.0,10.0,0.0,0.0,0.0,10.0
1446036732664582067,259,1446036732660583019,robocape_mag,6.97642723626,24.0306588225,-37.3052854473,10.0,0.0,0.0,0.0,10.0,0.0,0.0,0.0,10.0
1446036732702646692,260,1446036732697926044,robocape_mag,6.97642723626,24.0306588225,-37.3052854473,10.0,0.0,0.0,0.0,10.0,0.0,0.0,0.0,10.0
1446036732730823775,261,1446036732727130889,robocape_mag,6.97642723626,24.0306588225,-37.3052854473,10.0,0.0,0.0,0.0,10.0,0.0,0.0,0.0,10.0
1446036732764171484,262,1446036732760617971,robocape_mag,6.98113891085,24.0264539551,-37.2854200272,10.0,0.0,0.0,0.0,10.0,0.0,0.0,0.0,10.0
1446036732801944609,263,1446036732798115968,robocape_mag,6.98113891085,24.0264539551,-37.2854200272,10.0,0.0,0.0,0.0,10.0,0.0,0.0,0.0,10.0
1446036732830878401,264,1446036732827251911,robocape_mag,6.98113891085,24.0264539551,-37.2854200272,10.0,0.0,0.0,0.0,10.0,0.0,0.0,0.0,10.0
1446036732866121401,265,1446036732862016916,robocape_mag,6.98113891085,24.0264539551,-37.2854200272,10.0,0.0,0.0,0.0,10.0,0.0,0.0,0.0,10.0
1446036732901200942,266,1446036732897620916,robocape_mag,6.97290699327,24.0600045915,-37.307152696,10.0,0.0,0.0,0.0,10.0,0.0,0.0,0.0,10.0
1446036732931241234,267,1446036732927254915,robocape_mag,6.97290699327,24.0600045915,-37.307152696,10.0,0.0,0.0,0.0,10.0,0.0,0.0,0.0,10.0
1446036732964356651,268,1446036732960561037,robocape_mag,6.97290699327,24.0600045915,-37.307152696,10.0,0.0,0.0,0.0,10.0,0.0,0.0,0.0,10.0
1446036733000988192,269,1446036732997438907,robocape_mag,6.97290699327,24.0600045915,-37.307152696,10.0,0.0,0.0,0.0,10.0,0.0,0.0,0.0,10.0
1446036733031381651,270,1446036733027436971,robocape_mag,6.97290699327,24.0600045915,-37.307152696,10.0,0.0,0.0,0.0,10.0,0.0,0.0,0.0,10.0
1446036733064336859,271,1446036733060656070,robocape_mag,6.97292669391,24.0443704534,-37.3151482934,10.0,0.0,0.0,0.0,10.0,0.0,0.0,0.0,10.0
1446036733100914526,272,1446036733097409963,robocape_mag,6.97292669391,24.0443704534,-37.3151482934,10.0,0.0,0.0,0.0,10.0,0.0,0.0,0.0,10.0
1446036733131012692,273,1446036733127213001,robocape_mag,6.97292669391,24.0443704534,-37.3151482934,10.0,0.0,0.0,0.0,10.0,0.0,0.0,0.0,10.0
1446036733164394817,274,1446036733160800933,robocape_mag,6.97292669391,24.0443704534,-37.3151482934,10.0,0.0,0.0,0.0,10.0,0.0,0.0,0.0,10.0
1446036733199186067,275,1446036733194960117,robocape_mag,6.97292669391,24.0443704534,-37.3151482934,10.0,0.0,0.0,0.0,10.0,0.0,0.0,0.0,10.0
1446036733230945067,276,1446036733227133035,robocape_mag,6.97535239327,24.0126335588,-37.3233860042,10.0,0.0,0.0,0.0,10.0,0.0,0.0,0.0,10.0
1446036733264289526,277,1446036733260737895,robocape_mag,6.97535239327,24.0126335588,-37.3233860042,10.0,0.0,0.0,0.0,10.0,0.0,0.0,0.0,10.0
1446036733298975692,278,1446036733294830083,robocape_mag,6.97535239327,24.0126335588,-37.3233860042,10.0,0.0,0.0,0.0,10.0,0.0,0.0,0.0,10.0
1446036733332647067,279,1446036733328541040,robocape_mag,6.97535239327,24.0126335588,-37.3233860042,10.0,0.0,0.0,0.0,10.0,0.0,0.0,0.0,10.0
1446036733364152776,280,1446036733360507011,robocape_mag,6.97535239327,24.0126335588,-37.3233860042,10.0,0.0,0.0,0.0,10.0,0.0,0.0,0.0,10.0
1446036733398240651,281,1446036733394243955,robocape_mag,6.97941950754,24.0319564266,-37.2901447584,10.0,0.0,0.0,0.0,10.0,0.0,0.0,0.0,10.0
1446036733432902859,282,1446036733428672075,robocape_mag,6.97941950754,24.0319564266,-37.2901447584,10.0,0.0,0.0,0.0,10.0,0.0,0.0,0.0,10.0
1446036733464235359,283,1446036733460592985,robocape_mag,6.97941950754,24.0319564266,-37.2901447584,10.0,0.0,0.0,0.0,10.0,0.0,0.0,0.0,10.0
1446036733497851609,284,1446036733494148969,robocape_mag,6.97941950754,24.0319564266,-37.2901447584,10.0,0.0,0.0,0.0,10.0,0.0,0.0,0.0,10.0
1446036733533035401,285,1446036733528825998,robocape_mag,6.97941950754,24.0319564266,-37.2901447584,10.0,0.0,0.0,0.0,10.0,0.0,0.0,0.0,10.0
1446036733564128901,286,1446036733560486078,robocape_mag,7.01684762703,24.4976450017,-37.5914855268,10.0,0.0,0.0,0.0,10.0,0.0,0.0,0.0,10.0
1446036733597620609,287,1446036733593919038,robocape_mag,7.01684762703,24.4976450017,-37.5914855268,10.0,0.0,0.0,0.0,10.0,0.0,0.0,0.0,10.0
1446036733635325568,288,1446036733631586074,robocape_mag,7.01684762703,24.4976450017,-37.5914855268,10.0,0.0,0.0,0.0,10.0,0.0,0.0,0.0,10.0
1446036733664468359,289,1446036733660788059,robocape_mag,7.01684762703,24.4976450017,-37.5914855268,10.0,0.0,0.0,0.0,10.0,0.0,0.0,0.0,10.0
1446036733697938193,290,1446036733694114923,robocape_mag,7.02653486474,24.4147697241,-37.7776853204,10.0,0.0,0.0,0.0,10.0,0.0,0.0,0.0,10.0
1446036733735975068,291,1446036733731765985,robocape_mag,7.02653486474,24.4147697241,-37.7776853204,10.0,0.0,0.0,0.0,10.0,0.0,0.0,0.0,10.0
1446036733764113401,292,1446036733760390043,robocape_mag,7.02653486474,24.4147697241,-37.7776853204,10.0,0.0,0.0,0.0,10.0,0.0,0.0,0.0,10.0
1446036733797538568,293,1446036733793806076,robocape_mag,7.02653486474,24.4147697241,-37.7776853204,10.0,0.0,0.0,0.0,10.0,0.0,0.0,0.0,10.0
1446036733834777484,294,1446036733830593109,robocape_mag,7.02653486474,24.4147697241,-37.7776853204,10.0,0.0,0.0,0.0,10.0,0.0,0.0,0.0,10.0
1446036733864554109,295,1446036733860836982,robocape_mag,6.98217248401,24.3657577265,-37.3705453641,10.0,0.0,0.0,0.0,10.0,0.0,0.0,0.0,10.0
1446036733897738818,296,1446036733894119024,robocape_mag,6.98217248401,24.3657577265,-37.3705453641,10.0,0.0,0.0,0.0,10.0,0.0,0.0,0.0,10.0
1446036733935318234,297,1446036733931166887,robocape_mag,6.98217248401,24.3657577265,-37.3705453641,10.0,0.0,0.0,0.0,10.0,0.0,0.0,0.0,10.0
1446036733964071901,298,1446036733960309982,robocape_mag,6.98217248401,24.3657577265,-37.3705453641,10.0,0.0,0.0,0.0,10.0,0.0,0.0,0.0,10.0
1446036733998025401,299,1446036733994369983,robocape_mag,6.98217248401,24.3657577265,-37.3705453641,10.0,0.0,0.0,0.0,10.0,0.0,0.0,0.0,10.0
1446036734034892193,300,1446036734030920982,robocape_mag,6.9802174569,24.3568869425,-37.3706956609,10.0,0.0,0.0,0.0,10.0,0.0,0.0,0.0,10.0
1446036734064273401,301,1446036734060271978,robocape_mag,6.9802174569,24.3568869425,-37.3706956609,10.0,0.0,0.0,0.0,10.0,0.0,0.0,0.0,10.0
1446036734097777318,302,1446036734093833923,robocape_mag,6.9802174569,24.3568869425,-37.3706956609,10.0,0.0,0.0,0.0,10.0,0.0,0.0,0.0,10.0
1446036734133479484,303,1446036734129846096,robocape_mag,6.9802174569,24.3568869425,-37.3706956609,10.0,0.0,0.0,0.0,10.0,0.0,0.0,0.0,10.0
1446036734164608984,304,1446036734160718917,robocape_mag,6.9802174569,24.3568869425,-37.3706956609,10.0,0.0,0.0,0.0,10.0,0.0,0.0,0.0,10.0
1446036734197730693,305,1446036734193938016,robocape_mag,6.98655372934,24.3829902746,-37.3677622766,10.0,0.0,0.0,0.0,10.0,0.0,0.0,0.0,10.0
1446036734233613235,306,1446036734230091094,robocape_mag,6.98655372934,24.3829902746,-37.3677622766,10.0,0.0,0.0,0.0,10.0,0.0,0.0,0.0,10.0
1446036734264336110,307,1446036734260596990,robocape_mag,6.98655372934,24.3829902746,-37.3677622766,10.0,0.0,0.0,0.0,10.0,0.0,0.0,0.0,10.0
1446036734297775901,308,1446036734294045925,robocape_mag,6.98655372934,24.3829902746,-37.3677622766,10.0,0.0,0.0,0.0,10.0,0.0,0.0,0.0,10.0
1446036734332347985,309,1446036734328733921,robocape_mag,6.98655372934,24.3829902746,-37.3677622766,10.0,0.0,0.0,0.0,10.0,0.0,0.0,0.0,10.0
1446036734364238318,310,1446036734360521078,robocape_mag,6.98471472417,24.358198785,-37.3422736477,10.0,0.0,0.0,0.0,10.0,0.0,0.0,0.0,10.0
1446036734397519151,311,1446036734393997907,robocape_mag,6.98471472417,24.358198785,-37.3422736477,10.0,0.0,0.0,0.0,10.0,0.0,0.0,0.0,10.0
1446036734432090901,312,1446036734428539037,robocape_mag,6.98471472417,24.358198785,-37.3422736477,10.0,0.0,0.0,0.0,10.0,0.0,0.0,0.0,10.0
1446036734464201026,313,1446036734460536956,robocape_mag,6.98471472417,24.358198785,-37.3422736477,10.0,0.0,0.0,0.0,10.0,0.0,0.0,0.0,10.0
1446036734497486235,314,1446036734493839025,robocape_mag,6.98240317055,24.3459689781,-37.3407752053,10.0,0.0,0.0,0.0,10.0,0.0,0.0,0.0,10.0
1446036734532042110,315,1446036734528517007,robocape_mag,6.98240317055,24.3459689781,-37.3407752053,10.0,0.0,0.0,0.0,10.0,0.0,0.0,0.0,10.0
1446036734564082651,316,1446036734560385942,robocape_mag,6.98240317055,24.3459689781,-37.3407752053,10.0,0.0,0.0,0.0,10.0,0.0,0.0,0.0,10.0
1446036734597876985,317,1446036734594249963,robocape_mag,6.98240317055,24.3459689781,-37.3407752053,10.0,0.0,0.0,0.0,10.0,0.0,0.0,0.0,10.0
1446036734631198318,318,1446036734627710103,robocape_mag,6.98240317055,24.3459689781,-37.3407752053,10.0,0.0,0.0,0.0,10.0,0.0,0.0,0.0,10.0
1446036734664455110,319,1446036734660583019,robocape_mag,6.97709464885,24.3471246136,-37.3791816884,10.0,0.0,0.0,0.0,10.0,0.0,0.0,0.0,10.0
1446036734697617693,320,1446036734693985939,robocape_mag,6.97709464885,24.3471246136,-37.3791816884,10.0,0.0,0.0,0.0,10.0,0.0,0.0,0.0,10.0
1446036734732198026,321,1446036734728743076,robocape_mag,6.97709464885,24.3471246136,-37.3791816884,10.0,0.0,0.0,0.0,10.0,0.0,0.0,0.0,10.0
1446036734764019235,322,1446036734760409116,robocape_mag,6.97709464885,24.3471246136,-37.3791816884,10.0,0.0,0.0,0.0,10.0,0.0,0.0,0.0,10.0
1446036734797400943,323,1446036734793778896,robocape_mag,6.97709464885,24.3471246136,-37.3791816884,10.0,0.0,0.0,0.0,10.0,0.0,0.0,0.0,10.0
1446036734834670443,324,1446036734830332994,robocape_mag,6.978876191,24.3567553916,-37.380959017,10.0,0.0,0.0,0.0,10.0,0.0,0.0,0.0,10.0
1446036734864952901,325,1446036734861083984,robocape_mag,6.978876191,24.3567553916,-37.380959017,10.0,0.0,0.0,0.0,10.0,0.0,0.0,0.0,10.0
1446036734898081818,326,1446036734894242048,robocape_mag,6.978876191,24.3567553916,-37.380959017,10.0,0.0,0.0,0.0,10.0,0.0,0.0,0.0,10.0
1446036734933461193,327,1446036734929414987,robocape_mag,6.978876191,24.3567553916,-37.380959017,10.0,0.0,0.0,0.0,10.0,0.0,0.0,0.0,10.0
1446036734964133818,328,1446036734960489034,robocape_mag,6.978876191,24.3567553916,-37.380959017,10.0,0.0,0.0,0.0,10.0,0.0,0.0,0.0,10.0
1446036734997915902,329,1446036734994291067,robocape_mag,6.98004513482,24.3767426958,-37.411822285,10.0,0.0,0.0,0.0,10.0,0.0,0.0,0.0,10.0
1446036735035045235,330,1446036735030472993,robocape_mag,6.98004513482,24.3767426958,-37.411822285,10.0,0.0,0.0,0.0,10.0,0.0,0.0,0.0,10.0
1446036735063984527,331,1446036735060339927,robocape_mag,6.98004513482,24.3767426958,-37.411822285,10.0,0.0,0.0,0.0,10.0,0.0,0.0,0.0,10.0
1446036735097500610,332,1446036735093914031,robocape_mag,6.98004513482,24.3767426958,-37.411822285,10.0,0.0,0.0,0.0,10.0,0.0,0.0,0.0,10.0
1446036735135206443,333,1446036735131490945,robocape_mag,6.98394623482,24.3758307503,-37.3745384721,10.0,0.0,0.0,0.0,10.0,0.0,0.0,0.0,10.0
1446036735164238193,334,1446036735160500049,robocape_mag,6.9802174569,24.3568869425,-37.3706956609,10.0,0.0,0.0,0.0,10.0,0.0,0.0,0.0,10.0
1446036735197722943,335,1446036735194034099,robocape_mag,6.9802174569,24.3568869425,-37.3706956609,10.0,0.0,0.0,0.0,10.0,0.0,0.0,0.0,10.0
1446036735233651860,336,1446036735229947090,robocape_mag,6.9802174569,24.3568869425,-37.3706956609,10.0,0.0,0.0,0.0,10.0,0.0,0.0,0.0,10.0
1446036735264324485,337,1446036735260463953,robocape_mag,6.9802174569,24.3568869425,-37.3706956609,10.0,0.0,0.0,0.0,10.0,0.0,0.0,0.0,10.0
1446036735297745652,338,1446036735293781995,robocape_mag,6.98652096919,24.3627161497,-37.3373347091,10.0,0.0,0.0,0.0,10.0,0.0,0.0,0.0,10.0
1446036735332933735,339,1446036735329313993,robocape_mag,6.98652096919,24.3627161497,-37.3373347091,10.0,0.0,0.0,0.0,10.0,0.0,0.0,0.0,10.0
1446036735364131693,340,1446036735360392093,robocape_mag,6.98652096919,24.3627161497,-37.3373347091,10.0,0.0,0.0,0.0,10.0,0.0,0.0,0.0,10.0
1446036735397965527,341,1446036735394242048,robocape_mag,6.98652096919,24.3627161497,-37.3373347091,10.0,0.0,0.0,0.0,10.0,0.0,0.0,0.0,10.0
1446036735433494360,342,1446036735430053949,robocape_mag,6.98652096919,24.3627161497,-37.3373347091,10.0,0.0,0.0,0.0,10.0,0.0,0.0,0.0,10.0
1446036735463915568,343,1446036735460285902,robocape_mag,6.98009375845,24.3690110868,-37.3936231864,10.0,0.0,0.0,0.0,10.0,0.0,0.0,0.0,10.0
1446036735497918943,344,1446036735494339942,robocape_mag,6.98009375845,24.3690110868,-37.3936231864,10.0,0.0,0.0,0.0,10.0,0.0,0.0,0.0,10.0
1446036735531636902,345,1446036735528099060,robocape_mag,6.98009375845,24.3690110868,-37.3936231864,10.0,0.0,0.0,0.0,10.0,0.0,0.0,0.0,10.0
1446036735563836318,346,1446036735560363054,robocape_mag,6.98009375845,24.3690110868,-37.3936231864,10.0,0.0,0.0,0.0,10.0,0.0,0.0,0.0,10.0
1446036735597439694,347,1446036735593879938,robocape_mag,6.98009375845,24.3690110868,-37.3936231864,10.0,0.0,0.0,0.0,10.0,0.0,0.0,0.0,10.0
1446036735631668027,348,1446036735628066062,robocape_mag,6.97866442173,24.3468065551,-37.3666794304,10.0,0.0,0.0,0.0,10.0,0.0,0.0,0.0,10.0
1446036735665252819,349,1446036735661673069,robocape_mag,6.97866442173,24.3468065551,-37.3666794304,10.0,0.0,0.0,0.0,10.0,0.0,0.0,0.0,10.0
1446036735698143110,350,1446036735694245100,robocape_mag,6.97866442173,24.3468065551,-37.3666794304,10.0,0.0,0.0,0.0,10.0,0.0,0.0,0.0,10.0
1446036735730900652,351,1446036735727389097,robocape_mag,6.97866442173,24.3468065551,-37.3666794304,10.0,0.0,0.0,0.0,10.0,0.0,0.0,0.0,10.0
1446036735766038194,352,1446036735761642932,robocape_mag,6.97866442173,24.3468065551,-37.3666794304,10.0,0.0,0.0,0.0,10.0,0.0,0.0,0.0,10.0
1446036735797622152,353,1446036735794051885,robocape_mag,7.0016899424,24.0107376838,-37.2148438288,10.0,0.0,0.0,0.0,10.0,0.0,0.0,0.0,10.0
1446036735830933819,354,1446036735827243089,robocape_mag,7.0016899424,24.0107376838,-37.2148438288,10.0,0.0,0.0,0.0,10.0,0.0,0.0,0.0,10.0
1446036735865039860,355,1446036735861403942,robocape_mag,7.0016899424,24.0107376838,-37.2148438288,10.0,0.0,0.0,0.0,10.0,0.0,0.0,0.0,10.0
1446036735897703152,356,1446036735894114971,robocape_mag,7.0016899424,24.0107376838,-37.2148438288,10.0,0.0,0.0,0.0,10.0,0.0,0.0,0.0,10.0
1446036735930789319,357,1446036735927318096,robocape_mag,7.0016899424,24.0107376838,-37.2148438288,10.0,0.0,0.0,0.0,10.0,0.0,0.0,0.0,10.0
1446036735965332110,358,1446036735961673021,robocape_mag,7.04698194975,24.014147727,-37.0924431809,10.0,0.0,0.0,0.0,10.0,0.0,0.0,0.0,10.0
1446036735997480027,359,1446036735993839979,robocape_mag,7.04698194975,24.014147727,-37.0924431809,10.0,0.0,0.0,0.0,10.0,0.0,0.0,0.0,10.0
1446036736030643777,360,1446036736027153015,robocape_mag,7.04698194975,24.014147727,-37.0924431809,10.0,0.0,0.0,0.0,10.0,0.0,0.0,0.0,10.0
1446036736067760527,361,1446036736063776016,robocape_mag,7.04698194975,24.014147727,-37.0924431809,10.0,0.0,0.0,0.0,10.0,0.0,0.0,0.0,10.0
1446036736097788527,362,1446036736094124078,robocape_mag,7.36218368263,23.9953114954,-36.7059323432,10.0,0.0,0.0,0.0,10.0,0.0,0.0,0.0,10.0
1446036736130745194,363,1446036736127209901,robocape_mag,7.36218368263,23.9953114954,-36.7059323432,10.0,0.0,0.0,0.0,10.0,0.0,0.0,0.0,10.0
1446036736167923735,364,1446036736164002895,robocape_mag,7.36218368263,23.9953114954,-36.7059323432,10.0,0.0,0.0,0.0,10.0,0.0,0.0,0.0,10.0
1446036736197591110,365,1446036736193932056,robocape_mag,7.36218368263,23.9953114954,-36.7059323432,10.0,0.0,0.0,0.0,10.0,0.0,0.0,0.0,10.0
1446036736230594069,366,1446036736227072000,robocape_mag,7.36218368263,23.9953114954,-36.7059323432,10.0,0.0,0.0,0.0,10.0,0.0,0.0,0.0,10.0
1446036736267388902,367,1446036736263535022,robocape_mag,8.00597521518,23.847733838,-36.5484213419,10.0,0.0,0.0,0.0,10.0,0.0,0.0,0.0,10.0
1446036736297532527,368,1446036736293787956,robocape_mag,8.00597521518,23.847733838,-36.5484213419,10.0,0.0,0.0,0.0,10.0,0.0,0.0,0.0,10.0
1446036736332995152,369,1446036736329191923,robocape_mag,8.00597521518,23.847733838,-36.5484213419,10.0,0.0,0.0,0.0,10.0,0.0,0.0,0.0,10.0
1446036736367836402,370,1446036736364048957,robocape_mag,8.00597521518,23.847733838,-36.5484213419,10.0,0.0,0.0,0.0,10.0,0.0,0.0,0.0,10.0
1446036736398948486,371,1446036736395159959,robocape_mag,8.00597521518,23.847733838,-36.5484213419,10.0,0.0,0.0,0.0,10.0,0.0,0.0,0.0,10.0
1446036736431215819,372,1446036736427313089,robocape_mag,8.22448658804,23.5618144542,-36.7392800274,10.0,0.0,0.0,0.0,10.0,0.0,0.0,0.0,10.0
1446036736467537194,373,1446036736463886022,robocape_mag,8.22448658804,23.5618144542,-36.7392800274,10.0,0.0,0.0,0.0,10.0,0.0,0.0,0.0,10.0
1446036736497748361,374,1446036736494048118,robocape_mag,8.22448658804,23.5618144542,-36.7392800274,10.0,0.0,0.0,0.0,10.0,0.0,0.0,0.0,10.0
1446036736530850902,375,1446036736527100086,robocape_mag,8.22448658804,23.5618144542,-36.7392800274,10.0,0.0,0.0,0.0,10.0,0.0,0.0,0.0,10.0
1446036736566785611,376,1446036736563213109,robocape_mag,8.22448658804,23.5618144542,-36.7392800274,10.0,0.0,0.0,0.0,10.0,0.0,0.0,0.0,10.0
1446036736597472819,377,1446036736593867063,robocape_mag,8.19344739662,23.4196578102,-36.8617730413,10.0,0.0,0.0,0.0,10.0,0.0,0.0,0.0,10.0
1446036736630806361,378,1446036736627166032,robocape_mag,8.19344739662,23.4196578102,-36.8617730413,10.0,0.0,0.0,0.0,10.0,0.0,0.0,0.0,10.0
1446036736665962236,379,1446036736662209987,robocape_mag,8.19344739662,23.4196578102,-36.8617730413,10.0,0.0,0.0,0.0,10.0,0.0,0.0,0.0,10.0
1446036736697509027,380,1446036736694020032,robocape_mag,8.19344739662,23.4196578102,-36.8617730413,10.0,0.0,0.0,0.0,10.0,0.0,0.0,0.0,10.0
1446036736730954277,381,1446036736727276086,robocape_mag,8.19344739662,23.4196578102,-36.8617730413,10.0,0.0,0.0,0.0,10.0,0.0,0.0,0.0,10.0
1446036736765154736,382,1446036736761663913,robocape_mag,8.19578233324,23.3407167076,-36.9664724961,10.0,0.0,0.0,0.0,10.0,0.0,0.0,0.0,10.0
1446036736799434111,383,1446036736795233011,robocape_mag,8.19578233324,23.3407167076,-36.9664724961,10.0,0.0,0.0,0.0,10.0,0.0,0.0,0.0,10.0
1446036736830811694,384,1446036736827214956,robocape_mag,8.19578233324,23.3407167076,-36.9664724961,10.0,0.0,0.0,0.0,10.0,0.0,0.0,0.0,10.0
1446036736867191319,385,1446036736863688945,robocape_mag,8.19578233324,23.3407167076,-36.9664724961,10.0,0.0,0.0,0.0,10.0,0.0,0.0,0.0,10.0
1446036736899053236,386,1446036736895257949,robocape_mag,8.3205463601,23.3576008607,-37.0154393753,10.0,0.0,0.0,0.0,10.0,0.0,0.0,0.0,10.0
1446036736930669402,387,1446036736927073955,robocape_mag,8.3205463601,23.3576008607,-37.0154393753,10.0,0.0,0.0,0.0,10.0,0.0,0.0,0.0,10.0
1446036736964101527,388,1446036736960602045,robocape_mag,8.3205463601,23.3576008607,-37.0154393753,10.0,0.0,0.0,0.0,10.0,0.0,0.0,0.0,10.0
1446036736999573403,389,1446036736995704889,robocape_mag,8.3205463601,23.3576008607,-37.0154393753,10.0,0.0,0.0,0.0,10.0,0.0,0.0,0.0,10.0
1446036737030620819,390,1446036737027148008,robocape_mag,8.3205463601,23.3576008607,-37.0154393753,10.0,0.0,0.0,0.0,10.0,0.0,0.0,0.0,10.0
1446036737064107819,391,1446036737060383081,robocape_mag,8.40295907524,23.3752015818,-37.0589609004,10.0,0.0,0.0,0.0,10.0,0.0,0.0,0.0,10.0
1446036737098909111,392,1446036737095251083,robocape_mag,8.40295907524,23.3752015818,-37.0589609004,10.0,0.0,0.0,0.0,10.0,0.0,0.0,0.0,10.0
1446036737130681736,393,1446036737127234935,robocape_mag,8.40295907524,23.3752015818,-37.0589609004,10.0,0.0,0.0,0.0,10.0,0.0,0.0,0.0,10.0
1446036737163993986,394,1446036737160496950,robocape_mag,8.40295907524,23.3752015818,-37.0589609004,10.0,0.0,0.0,0.0,10.0,0.0,0.0,0.0,10.0
1446036737201268694,395,1446036737196263074,robocape_mag,8.40295907524,23.3752015818,-37.0589609004,10.0,0.0,0.0,0.0,10.0,0.0,0.0,0.0,10.0
1446036737230722153,396,1446036737227210998,robocape_mag,8.40855791411,23.3529826731,-37.1069503593,10.0,0.0,0.0,0.0,10.0,0.0,0.0,0.0,10.0
1446036737264514694,397,1446036737260860919,robocape_mag,8.40855791411,23.3529826731,-37.1069503593,10.0,0.0,0.0,0.0,10.0,0.0,0.0,0.0,10.0
1446036737301313611,398,1446036737297604084,robocape_mag,8.40855791411,23.3529826731,-37.1069503593,10.0,0.0,0.0,0.0,10.0,0.0,0.0,0.0,10.0
1446036737330684569,399,1446036737327186107,robocape_mag,8.40855791411,23.3529826731,-37.1069503593,10.0,0.0,0.0,0.0,10.0,0.0,0.0,0.0,10.0
1446036737364074319,400,1446036737360568046,robocape_mag,8.40855791411,23.3529826731,-37.1069503593,10.0,0.0,0.0,0.0,10.0,0.0,0.0,0.0,10.0
1446036737401708778,401,1446036737397228956,robocape_mag,8.47151447294,23.3510842117,-37.2004065794,10.0,0.0,0.0,0.0,10.0,0.0,0.0,0.0,10.0
1446036737430601069,402,1446036737427022933,robocape_mag,8.47151447294,23.3510842117,-37.2004065794,10.0,0.0,0.0,0.0,10.0,0.0,0.0,0.0,10.0
1446036737464168319,403,1446036737460688114,robocape_mag,8.47151447294,23.3510842117,-37.2004065794,10.0,0.0,0.0,0.0,10.0,0.0,0.0,0.0,10.0
1446036737501854361,404,1446036737498189926,robocape_mag,8.47151447294,23.3510842117,-37.2004065794,10.0,0.0,0.0,0.0,10.0,0.0,0.0,0.0,10.0
1446036737530484944,405,1446036737527012109,robocape_mag,8.47151447294,23.3510842117,-37.2004065794,10.0,0.0,0.0,0.0,10.0,0.0,0.0,0.0,10.0
1446036737563968403,406,1446036737560344934,robocape_mag,8.47309892387,23.3426081827,-37.2270788223,10.0,0.0,0.0,0.0,10.0,0.0,0.0,0.0,10.0
1446036737600373444,407,1446036737596515893,robocape_mag,8.47309892387,23.3426081827,-37.2270788223,10.0,0.0,0.0,0.0,10.0,0.0,0.0,0.0,10.0
1446036737631138153,408,1446036737627446889,robocape_mag,8.47309892387,23.3426081827,-37.2270788223,10.0,0.0,0.0,0.0,10.0,0.0,0.0,0.0,10.0
1446036737664372319,409,1446036737660634040,robocape_mag,8.47309892387,23.3426081827,-37.2270788223,10.0,0.0,0.0,0.0,10.0,0.0,0.0,0.0,10.0
1446036737699513903,410,1446036737695837974,robocape_mag,8.50419592322,23.340021343,-37.3081629497,10.0,0.0,0.0,0.0,10.0,0.0,0.0,0.0,10.0
1446036737730989778,411,1446036737727274894,robocape_mag,8.50419592322,23.340021343,-37.3081629497,10.0,0.0,0.0,0.0,10.0,0.0,0.0,0.0,10.0
1446036737764114445,412,1446036737760343074,robocape_mag,8.50419592322,23.340021343,-37.3081629497,10.0,0.0,0.0,0.0,10.0,0.0,0.0,0.0,10.0
1446036737799550695,413,1446036737795768022,robocape_mag,8.50419592322,23.340021343,-37.3081629497,10.0,0.0,0.0,0.0,10.0,0.0,0.0,0.0,10.0
1446036737831122736,414,1446036737827604055,robocape_mag,8.50419592322,23.340021343,-37.3081629497,10.0,0.0,0.0,0.0,10.0,0.0,0.0,0.0,10.0
1446036737865516820,415,1446036737861916065,robocape_mag,8.47713413971,23.3171280593,-37.3313170753,10.0,0.0,0.0,0.0,10.0,0.0,0.0,0.0,10.0
1446036737899465528,416,1446036737895428895,robocape_mag,8.47713413971,23.3171280593,-37.3313170753,10.0,0.0,0.0,0.0,10.0,0.0,0.0,0.0,10.0
1446036737931056278,417,1446036737927431106,robocape_mag,8.47713413971,23.3171280593,-37.3313170753,10.0,0.0,0.0,0.0,10.0,0.0,0.0,0.0,10.0
1446036737964007861,418,1446036737960516929,robocape_mag,8.47713413971,23.3171280593,-37.3313170753,10.0,0.0,0.0,0.0,10.0,0.0,0.0,0.0,10.0
1446036737997945695,419,1446036737994299888,robocape_mag,8.47713413971,23.3171280593,-37.3313170753,10.0,0.0,0.0,0.0,10.0,0.0,0.0,0.0,10.0
1446036738032180945,420,1446036738028409957,robocape_mag,8.47315089219,23.309787961,-37.3573224839,10.0,0.0,0.0,0.0,10.0,0.0,0.0,0.0,10.0
1446036738064066153,421,1446036738060623884,robocape_mag,8.47315089219,23.309787961,-37.3573224839,10.0,0.0,0.0,0.0,10.0,0.0,0.0,0.0,10.0
1446036738097637570,422,1446036738094033956,robocape_mag,8.47315089219,23.309787961,-37.3573224839,10.0,0.0,0.0,0.0,10.0,0.0,0.0,0.0,10.0
1446036738133535278,423,1446036738129455089,robocape_mag,8.47315089219,23.309787961,-37.3573224839,10.0,0.0,0.0,0.0,10.0,0.0,0.0,0.0,10.0
1446036738163986403,424,1446036738160505056,robocape_mag,8.47315089219,23.309787961,-37.3573224839,10.0,0.0,0.0,0.0,10.0,0.0,0.0,0.0,10.0
1446036738197649528,425,1446036738193913936,robocape_mag,8.44931721578,23.2903507728,-37.3919003966,10.0,0.0,0.0,0.0,10.0,0.0,0.0,0.0,10.0
1446036738231842278,426,1446036738227977037,robocape_mag,8.44931721578,23.2903507728,-37.3919003966,10.0,0.0,0.0,0.0,10.0,0.0,0.0,0.0,10.0
1446036738264089111,427,1446036738260577917,robocape_mag,8.44931721578,23.2903507728,-37.3919003966,10.0,0.0,0.0,0.0,10.0,0.0,0.0,0.0,10.0
1446036738297483736,428,1446036738293731927,robocape_mag,8.44931721578,23.2903507728,-37.3919003966,10.0,0.0,0.0,0.0,10.0,0.0,0.0,0.0,10.0
1446036738335058695,429,1446036738329961061,robocape_mag,8.44931721578,23.2903507728,-37.3919003966,10.0,0.0,0.0,0.0,10.0,0.0,0.0,0.0,10.0
1446036738364413237,430,1446036738360894918,robocape_mag,8.41653714966,23.2764836347,-37.3610314873,10.0,0.0,0.0,0.0,10.0,0.0,0.0,0.0,10.0
