%time,field.header.seq,field.header.stamp,field.header.frame_id,field.magnetic_field.x,field.magnetic_field.y,field.magnetic_field.z,field.magnetic_field_covariance0,field.magnetic_field_covariance1,field.magnetic_field_covariance2,field.magnetic_field_covariance3,field.magnetic_field_covariance4,field.magnetic_field_covariance5,field.magnetic_field_covariance6,field.magnetic_field_covariance7,field.magnetic_field_covariance8
1446040863897297808,1,1446040863892241001,robocape_mag,25.5,-19.05,2.25,10.0,0.0,0.0,0.0,10.0,0.0,0.0,0.0,10.0
1446040863929083808,2,1446040863924348115,robocape_mag,25.5,-19.05,2.25,10.0,0.0,0.0,0.0,10.0,0.0,0.0,0.0,10.0
1446040863962900641,3,1446040863957734107,robocape_mag,25.5,-19.05,2.25,10.0,0.0,0.0,0.0,10.0,0.0,0.0,0.0,10.0
1446040863995166641,4,1446040863990454912,robocape_mag,28.8,-21.75,2.55,10.0,0.0,0.0,0.0,10.0,0.0,0.0,0.0,10.0
1446040864028982558,5,1446040864024197101,robocape_mag,28.8,-21.75,2.55,10.0,0.0,0.0,0.0,10.0,0.0,0.0,0.0,10.0
1446040864062668975,6,1446040864057490110,robocape_mag,28.8,-21.75,2.55,10.0,0.0,0.0,0.0,10.0,0.0,0.0,0.0,10.0
1446040864095259225,7,1446040864090486049,robocape_mag,28.8,-21.75,2.55,10.0,0.0,0.0,0.0,10.0,0.0,0.0,0.0,10.0
1446040864128999933,8,1446040864124222993,robocape_mag,28.8,-21.75,2.55,10.0,0.0,0.0,0.0,10.0,0.0,0.0,0.0,10.0
1446040864162439766,9,1446040864157481908,robocape_mag,30.6,-24.15,3.15,10.0,0.0,0.0,0.0,10.0,0.0,0.0,0.0,10.0
1446040864195179766,10,1446040864190428972,robocape_mag,30.6,-24.15,3.15,10.0,0.0,0.0,0.0,10.0,0.0,0.0,0.0,10.0
1446040864229257683,11,1446040864224375963,robocape_mag,30.6,-24.15,3.15,10.0,0.0,0.0,0.0,10.0,0.0,0.0,0.0,10.0
1446040864262585641,12,1446040864257472038,robocape_mag,30.6,-24.15,3.15,10.0,0.0,0.0,0.0,10.0,0.0,0.0,0.0,10.0
1446040864295535058,13,1446040864290709972,robocape_mag,30.6,-24.15,3.15,10.0,0.0,0.0,0.0,10.0,0.0,0.0,0.0,10.0
1446040864329004100,14,1446040864324206113,robocape_mag,28.5,-25.05,-0.15,10.0,0.0,0.0,0.0,10.0,0.0,0.0,0.0,10.0
1446040864362548600,15,1446040864357422113,robocape_mag,28.5,-25.05,-0.15,10.0,0.0,0.0,0.0,10.0,0.0,0.0,0.0,10.0
1446040864395482892,16,1446040864390427112,robocape_mag,28.5,-25.05,-0.15,10.0,0.0,0.0,0.0,10.0,0.0,0.0,0.0,10.0
1446040864428959433,17,1446040864424192905,robocape_mag,28.5,-25.05,-0.15,10.0,0.0,0.0,0.0,10.0,0.0,0.0,0.0,10.0
1446040864462835850,18,1446040864457793951,robocape_mag,28.5,-25.05,-0.15,10.0,0.0,0.0,0.0,10.0,0.0,0.0,0.0,10.0
1446040864495186683,19,1446040864490462064,robocape_mag,21.3,-20.85,2.25,10.0,0.0,0.0,0.0,10.0,0.0,0.0,0.0,10.0
1446040864536025892,20,1446040864530879974,robocape_mag,21.3,-20.85,2.25,10.0,0.0,0.0,0.0,10.0,0.0,0.0,0.0,10.0
1446040864562324933,21,1446040864557487010,robocape_mag,21.3,-20.85,2.25,10.0,0.0,0.0,0.0,10.0,0.0,0.0,0.0,10.0
1446040864595266808,22,1446040864590459108,robocape_mag,21.3,-20.85,2.25,10.0,0.0,0.0,0.0,10.0,0.0,0.0,0.0,10.0
1446040864629208475,23,1446040864624388933,robocape_mag,21.3,-20.85,2.25,10.0,0.0,0.0,0.0,10.0,0.0,0.0,0.0,10.0
1446040864662618433,24,1446040864657607078,robocape_mag,23.1,-19.05,0.45,10.0,0.0,0.0,0.0,10.0,0.0,0.0,0.0,10.0
1446040864695161933,25,1446040864690392971,robocape_mag,23.1,-19.05,0.45,10.0,0.0,0.0,0.0,10.0,0.0,0.0,0.0,10.0
1446040864728929683,26,1446040864724155902,robocape_mag,23.1,-19.05,0.45,10.0,0.0,0.0,0.0,10.0,0.0,0.0,0.0,10.0
1446040864762350142,27,1446040864757380962,robocape_mag,23.1,-19.05,0.45,10.0,0.0,0.0,0.0,10.0,0.0,0.0,0.0,10.0
1446040864795406308,28,1446040864790673017,robocape_mag,24.9,-20.85,-0.75,10.0,0.0,0.0,0.0,10.0,0.0,0.0,0.0,10.0
1446040864829003475,29,1446040864824126005,robocape_mag,24.9,-20.85,-0.75,10.0,0.0,0.0,0.0,10.0,0.0,0.0,0.0,10.0
1446040864864093808,30,1446040864859143018,robocape_mag,24.9,-20.85,-0.75,10.0,0.0,0.0,0.0,10.0,0.0,0.0,0.0,10.0
1446040864895146850,31,1446040864890383958,robocape_mag,24.9,-20.85,-0.75,10.0,0.0,0.0,0.0,10.0,0.0,0.0,0.0,10.0
1446040864928870600,32,1446040864924094915,robocape_mag,24.9,-20.85,-0.75,10.0,0.0,0.0,0.0,10.0,0.0,0.0,0.0,10.0
1446040864962707225,33,1446040864957796096,robocape_mag,24.6,-19.95,1.35,10.0,0.0,0.0,0.0,10.0,0.0,0.0,0.0,10.0
1446040864995263767,34,1446040864990535020,robocape_mag,24.6,-19.95,1.35,10.0,0.0,0.0,0.0,10.0,0.0,0.0,0.0,10.0
1446040865029136683,35,1446040865024036884,robocape_mag,24.6,-19.95,1.35,10.0,0.0,0.0,0.0,10.0,0.0,0.0,0.0,10.0
1446040865062377975,36,1446040865057581901,robocape_mag,24.6,-19.95,1.35,10.0,0.0,0.0,0.0,10.0,0.0,0.0,0.0,10.0
1446040865095436475,37,1446040865090544939,robocape_mag,24.6,-19.95,1.35,10.0,0.0,0.0,0.0,10.0,0.0,0.0,0.0,10.0
1446040865128801934,38,1446040865124015092,robocape_mag,25.2,-21.15,-0.45,10.0,0.0,0.0,0.0,10.0,0.0,0.0,0.0,10.0
1446040865162600184,39,1446040865157627105,robocape_mag,25.2,-21.15,-0.45,10.0,0.0,0.0,0.0,10.0,0.0,0.0,0.0,10.0
1446040865195285100,40,1446040865190517902,robocape_mag,25.2,-21.15,-0.45,10.0,0.0,0.0,0.0,10.0,0.0,0.0,0.0,10.0
1446040865228975934,41,1446040865224200010,robocape_mag,25.2,-21.15,-0.45,10.0,0.0,0.0,0.0,10.0,0.0,0.0,0.0,10.0
1446040865262382392,42,1446040865257363080,robocape_mag,25.2,-21.15,-0.45,10.0,0.0,0.0,0.0,10.0,0.0,0.0,0.0,10.0
1446040865295519434,43,1446040865290772914,robocape_mag,27.9,-19.65,-0.15,10.0,0.0,0.0,0.0,10.0,0.0,0.0,0.0,10.0
1446040865329210184,44,1446040865324455976,robocape_mag,27.9,-19.65,-0.15,10.0,0.0,0.0,0.0,10.0,0.0,0.0,0.0,10.0
1446040865362484892,45,1446040865357489109,robocape_mag,27.9,-19.65,-0.15,10.0,0.0,0.0,0.0,10.0,0.0,0.0,0.0,10.0
1446040865395427850,46,1446040865390686988,robocape_mag,27.9,-19.65,-0.15,10.0,0.0,0.0,0.0,10.0,0.0,0.0,0.0,10.0
1446040865428994767,47,1446040865423835992,robocape_mag,27.9,-19.65,-0.15,10.0,0.0,0.0,0.0,10.0,0.0,0.0,0.0,10.0
1446040865462799684,48,1446040865457581996,robocape_mag,24.6,-20.55,-1.65,10.0,0.0,0.0,0.0,10.0,0.0,0.0,0.0,10.0
1446040865495453350,49,1446040865490710973,robocape_mag,24.6,-20.55,-1.65,10.0,0.0,0.0,0.0,10.0,0.0,0.0,0.0,10.0
1446040865536636725,50,1446040865530602931,robocape_mag,24.6,-20.55,-1.65,10.0,0.0,0.0,0.0,10.0,0.0,0.0,0.0,10.0
1446040865562878059,51,1446040865557576894,robocape_mag,24.6,-20.55,-1.65,10.0,0.0,0.0,0.0,10.0,0.0,0.0,0.0,10.0
1446040865595458767,52,1446040865590615987,robocape_mag,24.9,-20.25,-1.95,10.0,0.0,0.0,0.0,10.0,0.0,0.0,0.0,10.0
1446040865629135267,53,1446040865623795986,robocape_mag,24.9,-20.25,-1.95,10.0,0.0,0.0,0.0,10.0,0.0,0.0,0.0,10.0
1446040865662431850,54,1446040865657397031,robocape_mag,24.9,-20.25,-1.95,10.0,0.0,0.0,0.0,10.0,0.0,0.0,0.0,10.0
1446040865695437517,55,1446040865690412998,robocape_mag,24.9,-20.25,-1.95,10.0,0.0,0.0,0.0,10.0,0.0,0.0,0.0,10.0
1446040865728907100,56,1446040865723742961,robocape_mag,24.9,-20.25,-1.95,10.0,0.0,0.0,0.0,10.0,0.0,0.0,0.0,10.0
1446040865762377142,57,1446040865757297039,robocape_mag,24.0,-21.15,-2.25,10.0,0.0,0.0,0.0,10.0,0.0,0.0,0.0,10.0
1446040865795526809,58,1446040865790613889,robocape_mag,24.0,-21.15,-2.25,10.0,0.0,0.0,0.0,10.0,0.0,0.0,0.0,10.0
1446040865828874517,59,1446040865823745965,robocape_mag,24.0,-21.15,-2.25,10.0,0.0,0.0,0.0,10.0,0.0,0.0,0.0,10.0
1446040865862545101,60,1446040865857393026,robocape_mag,24.0,-21.15,-2.25,10.0,0.0,0.0,0.0,10.0,0.0,0.0,0.0,10.0
1446040865896213767,61,1446040865890607118,robocape_mag,24.0,-21.15,-2.25,10.0,0.0,0.0,0.0,10.0,0.0,0.0,0.0,10.0
1446040865929004976,62,1446040865923878908,robocape_mag,24.6,-13.95,-17.85,10.0,0.0,0.0,0.0,10.0,0.0,0.0,0.0,10.0
1446040865962775017,63,1446040865957366943,robocape_mag,24.6,-13.95,-17.85,10.0,0.0,0.0,0.0,10.0,0.0,0.0,0.0,10.0
1446040865996175642,64,1446040865990663051,robocape_mag,24.6,-13.95,-17.85,10.0,0.0,0.0,0.0,10.0,0.0,0.0,0.0,10.0
1446040866029340809,65,1446040866023895025,robocape_mag,24.6,-13.95,-17.85,10.0,0.0,0.0,0.0,10.0,0.0,0.0,0.0,10.0
1446040866062341601,66,1446040866057374954,robocape_mag,24.6,-13.95,-17.85,10.0,0.0,0.0,0.0,10.0,0.0,0.0,0.0,10.0
1446040866095387517,67,1446040866090565919,robocape_mag,26.4,-25.95,-31.65,10.0,0.0,0.0,0.0,10.0,0.0,0.0,0.0,10.0
1446040866128712351,68,1446040866123855113,robocape_mag,26.4,-25.95,-31.65,10.0,0.0,0.0,0.0,10.0,0.0,0.0,0.0,10.0
1446040866162567226,69,1446040866157372951,robocape_mag,26.4,-25.95,-31.65,10.0,0.0,0.0,0.0,10.0,0.0,0.0,0.0,10.0
1446040866195319142,70,1446040866190521001,robocape_mag,26.4,-25.95,-31.65,10.0,0.0,0.0,0.0,10.0,0.0,0.0,0.0,10.0
1446040866228567101,71,1446040866223798990,robocape_mag,26.4,-25.95,-31.65,10.0,0.0,0.0,0.0,10.0,0.0,0.0,0.0,10.0
1446040866262466934,72,1446040866257368087,robocape_mag,26.4,-24.15,2.55,10.0,0.0,0.0,0.0,10.0,0.0,0.0,0.0,10.0
1446040866301006351,73,1446040866296103000,robocape_mag,26.4,-24.15,2.55,10.0,0.0,0.0,0.0,10.0,0.0,0.0,0.0,10.0
1446040866328557767,74,1446040866323790073,robocape_mag,26.4,-24.15,2.55,10.0,0.0,0.0,0.0,10.0,0.0,0.0,0.0,10.0
1446040866365813851,75,1446040866361021041,robocape_mag,26.4,-24.15,2.55,10.0,0.0,0.0,0.0,10.0,0.0,0.0,0.0,10.0
1446040866395641809,76,1446040866390531063,robocape_mag,25.5,-20.85,-28.35,10.0,0.0,0.0,0.0,10.0,0.0,0.0,0.0,10.0
1446040866428678101,77,1446040866423907995,robocape_mag,25.5,-20.85,-28.35,10.0,0.0,0.0,0.0,10.0,0.0,0.0,0.0,10.0
1446040866462732059,78,1446040866457344055,robocape_mag,25.5,-20.85,-28.35,10.0,0.0,0.0,0.0,10.0,0.0,0.0,0.0,10.0
1446040866495456893,79,1446040866490717887,robocape_mag,25.5,-20.85,-28.35,10.0,0.0,0.0,0.0,10.0,0.0,0.0,0.0,10.0
1446040866536819518,80,1446040866530464887,robocape_mag,25.5,-20.85,-28.35,10.0,0.0,0.0,0.0,10.0,0.0,0.0,0.0,10.0
1446040866562278018,81,1446040866557172060,robocape_mag,27.0,-34.35,-10.05,10.0,0.0,0.0,0.0,10.0,0.0,0.0,0.0,10.0
1446040866595373143,82,1446040866590465068,robocape_mag,27.0,-34.35,-10.05,10.0,0.0,0.0,0.0,10.0,0.0,0.0,0.0,10.0
1446040866628799434,83,1446040866623895883,robocape_mag,27.0,-34.35,-10.05,10.0,0.0,0.0,0.0,10.0,0.0,0.0,0.0,10.0
1446040866662355809,84,1446040866657377958,robocape_mag,27.0,-34.35,-10.05,10.0,0.0,0.0,0.0,10.0,0.0,0.0,0.0,10.0
1446040866695241851,85,1446040866690426111,robocape_mag,27.0,-34.35,-10.05,10.0,0.0,0.0,0.0,10.0,0.0,0.0,0.0,10.0
1446040866728690059,86,1446040866723741054,robocape_mag,26.4,-34.35,-10.05,10.0,0.0,0.0,0.0,10.0,0.0,0.0,0.0,10.0
1446040866762703934,87,1446040866757608890,robocape_mag,26.4,-34.35,-10.05,10.0,0.0,0.0,0.0,10.0,0.0,0.0,0.0,10.0
1446040866795875351,88,1446040866791091918,robocape_mag,26.4,-34.35,-10.05,10.0,0.0,0.0,0.0,10.0,0.0,0.0,0.0,10.0
1446040866829208893,89,1446040866824364900,robocape_mag,26.4,-34.35,-10.05,10.0,0.0,0.0,0.0,10.0,0.0,0.0,0.0,10.0
1446040866864108809,90,1446040866858699083,robocape_mag,26.4,-34.35,-10.05,10.0,0.0,0.0,0.0,10.0,0.0,0.0,0.0,10.0
1446040866895458351,91,1446040866890618085,robocape_mag,26.4,-34.95,-9.45,10.0,0.0,0.0,0.0,10.0,0.0,0.0,0.0,10.0
1446040866928704893,92,1446040866923871040,robocape_mag,26.4,-34.95,-9.45,10.0,0.0,0.0,0.0,10.0,0.0,0.0,0.0,10.0
1446040866963037684,93,1446040866957411050,robocape_mag,26.4,-34.95,-9.45,10.0,0.0,0.0,0.0,10.0,0.0,0.0,0.0,10.0
1446040866995311976,94,1446040866990575075,robocape_mag,26.4,-34.95,-9.45,10.0,0.0,0.0,0.0,10.0,0.0,0.0,0.0,10.0
1446040867029094726,95,1446040867023869037,robocape_mag,26.4,-34.95,-9.45,10.0,0.0,0.0,0.0,10.0,0.0,0.0,0.0,10.0
1446040867062436518,96,1446040867057292938,robocape_mag,26.7,-35.25,-9.75,10.0,0.0,0.0,0.0,10.0,0.0,0.0,0.0,10.0
1446040867095367726,97,1446040867090581893,robocape_mag,26.7,-35.25,-9.75,10.0,0.0,0.0,0.0,10.0,0.0,0.0,0.0,10.0
1446040867128916184,98,1446040867123697042,robocape_mag,26.7,-35.25,-9.75,10.0,0.0,0.0,0.0,10.0,0.0,0.0,0.0,10.0
1446040867162535601,99,1446040867157392978,robocape_mag,26.7,-35.25,-9.75,10.0,0.0,0.0,0.0,10.0,0.0,0.0,0.0,10.0
1446040867195415560,100,1446040867190557956,robocape_mag,26.4,-34.35,-10.65,10.0,0.0,0.0,0.0,10.0,0.0,0.0,0.0,10.0
1446040867228804643,101,1446040867223666906,robocape_mag,26.4,-34.35,-10.65,10.0,0.0,0.0,0.0,10.0,0.0,0.0,0.0,10.0
1446040867262484726,102,1446040867257400035,robocape_mag,26.4,-34.35,-10.65,10.0,0.0,0.0,0.0,10.0,0.0,0.0,0.0,10.0
1446040867295365393,103,1446040867290617942,robocape_mag,26.4,-34.35,-10.65,10.0,0.0,0.0,0.0,10.0,0.0,0.0,0.0,10.0
1446040867328847393,104,1446040867323774099,robocape_mag,26.4,-34.35,-10.65,10.0,0.0,0.0,0.0,10.0,0.0,0.0,0.0,10.0
1446040867362300476,105,1446040867357227087,robocape_mag,27.6,-34.95,-11.25,10.0,0.0,0.0,0.0,10.0,0.0,0.0,0.0,10.0
1446040867395406435,106,1446040867390503883,robocape_mag,27.6,-34.95,-11.25,10.0,0.0,0.0,0.0,10.0,0.0,0.0,0.0,10.0
1446040867428706851,107,1446040867423702955,robocape_mag,27.6,-34.95,-11.25,10.0,0.0,0.0,0.0,10.0,0.0,0.0,0.0,10.0
1446040867462760060,108,1446040867457161903,robocape_mag,27.6,-34.95,-11.25,10.0,0.0,0.0,0.0,10.0,0.0,0.0,0.0,10.0
1446040867495480310,109,1446040867490606069,robocape_mag,27.6,-34.95,-11.25,10.0,0.0,0.0,0.0,10.0,0.0,0.0,0.0,10.0
1446040867536385101,110,1446040867530616998,robocape_mag,27.9,-34.65,-11.55,10.0,0.0,0.0,0.0,10.0,0.0,0.0,0.0,10.0
1446040867562591976,111,1446040867557303905,robocape_mag,27.9,-34.65,-11.55,10.0,0.0,0.0,0.0,10.0,0.0,0.0,0.0,10.0
1446040867595647060,112,1446040867590696096,robocape_mag,27.9,-34.65,-11.55,10.0,0.0,0.0,0.0,10.0,0.0,0.0,0.0,10.0
1446040867629346226,113,1446040867623696088,robocape_mag,27.9,-34.65,-11.55,10.0,0.0,0.0,0.0,10.0,0.0,0.0,0.0,10.0
1446040867662624518,114,1446040867657350063,robocape_mag,27.9,-34.65,-11.55,10.0,0.0,0.0,0.0,10.0,0.0,0.0,0.0,10.0
1446040867695615518,115,1446040867690633058,robocape_mag,27.0,-33.75,-10.05,10.0,0.0,0.0,0.0,10.0,0.0,0.0,0.0,10.0
1446040867728710351,116,1446040867723685026,robocape_mag,27.0,-33.75,-10.05,10.0,0.0,0.0,0.0,10.0,0.0,0.0,0.0,10.0
1446040867762884018,117,1446040867757637977,robocape_mag,27.0,-33.75,-10.05,10.0,0.0,0.0,0.0,10.0,0.0,0.0,0.0,10.0
1446040867795616893,118,1446040867790678977,robocape_mag,27.0,-33.75,-10.05,10.0,0.0,0.0,0.0,10.0,0.0,0.0,0.0,10.0
1446040867828656060,119,1446040867823735952,robocape_mag,27.0,-33.75,-10.05,10.0,0.0,0.0,0.0,10.0,0.0,0.0,0.0,10.0
1446040867862834351,120,1446040867857424974,robocape_mag,26.1,-34.05,-9.75,10.0,0.0,0.0,0.0,10.0,0.0,0.0,0.0,10.0
1446040867896336352,121,1446040867891343116,robocape_mag,26.1,-34.05,-9.75,10.0,0.0,0.0,0.0,10.0,0.0,0.0,0.0,10.0
1446040867928764727,122,1446040867923727989,robocape_mag,26.1,-34.05,-9.75,10.0,0.0,0.0,0.0,10.0,0.0,0.0,0.0,10.0
1446040867963362685,123,1446040867957700014,robocape_mag,26.1,-34.05,-9.75,10.0,0.0,0.0,0.0,10.0,0.0,0.0,0.0,10.0
1446040867995379518,124,1446040867990473985,robocape_mag,27.3,-34.65,-12.15,10.0,0.0,0.0,0.0,10.0,0.0,0.0,0.0,10.0
1446040868029123560,125,1446040868023818969,robocape_mag,27.3,-34.65,-12.15,10.0,0.0,0.0,0.0,10.0,0.0,0.0,0.0,10.0
1446040868063011352,126,1446040868057075977,robocape_mag,27.3,-34.65,-12.15,10.0,0.0,0.0,0.0,10.0,0.0,0.0,0.0,10.0
1446040868095427227,127,1446040868090454101,robocape_mag,27.3,-34.65,-12.15,10.0,0.0,0.0,0.0,10.0,0.0,0.0,0.0,10.0
1446040868128836643,128,1446040868123851060,robocape_mag,27.3,-34.65,-12.15,10.0,0.0,0.0,0.0,10.0,0.0,0.0,0.0,10.0
1446040868162872435,129,1446040868157250881,robocape_mag,26.7,-34.05,-12.15,10.0,0.0,0.0,0.0,10.0,0.0,0.0,0.0,10.0
1446040868195365268,130,1446040868190423011,robocape_mag,26.7,-34.05,-12.15,10.0,0.0,0.0,0.0,10.0,0.0,0.0,0.0,10.0
1446040868228702643,131,1446040868223711967,robocape_mag,26.7,-34.05,-12.15,10.0,0.0,0.0,0.0,10.0,0.0,0.0,0.0,10.0
1446040868262963310,132,1446040868257369041,robocape_mag,26.7,-34.05,-12.15,10.0,0.0,0.0,0.0,10.0,0.0,0.0,0.0,10.0
1446040868295475602,133,1446040868290555000,robocape_mag,26.7,-34.05,-12.15,10.0,0.0,0.0,0.0,10.0,0.0,0.0,0.0,10.0
1446040868328624352,134,1446040868323739051,robocape_mag,28.5,-34.05,-10.95,10.0,0.0,0.0,0.0,10.0,0.0,0.0,0.0,10.0
1446040868362936227,135,1446040868357062101,robocape_mag,28.5,-34.05,-10.95,10.0,0.0,0.0,0.0,10.0,0.0,0.0,0.0,10.0
1446040868395855977,136,1446040868390511035,robocape_mag,28.5,-34.05,-10.95,10.0,0.0,0.0,0.0,10.0,0.0,0.0,0.0,10.0
1446040868428768227,137,1446040868423823118,robocape_mag,28.5,-34.05,-10.95,10.0,0.0,0.0,0.0,10.0,0.0,0.0,0.0,10.0
1446040868463260893,138,1446040868457206010,robocape_mag,28.5,-34.05,-10.95,10.0,0.0,0.0,0.0,10.0,0.0,0.0,0.0,10.0
1446040868495433268,139,1446040868490515947,robocape_mag,29.1,-35.85,-11.55,10.0,0.0,0.0,0.0,10.0,0.0,0.0,0.0,10.0
1446040868536119018,140,1446040868529257059,robocape_mag,29.1,-35.85,-11.55,10.0,0.0,0.0,0.0,10.0,0.0,0.0,0.0,10.0
1446040868562962018,141,1446040868557022094,robocape_mag,29.1,-35.85,-11.55,10.0,0.0,0.0,0.0,10.0,0.0,0.0,0.0,10.0
1446040868595508560,142,1446040868590553045,robocape_mag,29.1,-35.85,-11.55,10.0,0.0,0.0,0.0,10.0,0.0,0.0,0.0,10.0
1446040868628508144,143,1446040868623680114,robocape_mag,29.1,-35.85,-11.55,10.0,0.0,0.0,0.0,10.0,0.0,0.0,0.0,10.0
1446040868662974269,144,1446040868657169103,robocape_mag,28.8,-34.95,-10.65,10.0,0.0,0.0,0.0,10.0,0.0,0.0,0.0,10.0
1446040868695570769,145,1446040868690608024,robocape_mag,28.8,-34.95,-10.65,10.0,0.0,0.0,0.0,10.0,0.0,0.0,0.0,10.0
1446040868728482019,146,1446040868723705053,robocape_mag,28.8,-34.95,-10.65,10.0,0.0,0.0,0.0,10.0,0.0,0.0,0.0,10.0
1446040868762596144,147,1446040868757159948,robocape_mag,28.8,-34.95,-10.65,10.0,0.0,0.0,0.0,10.0,0.0,0.0,0.0,10.0
1446040868803182602,148,1446040868798326015,robocape_mag,27.0,-33.15,-11.25,10.0,0.0,0.0,0.0,10.0,0.0,0.0,0.0,10.0
1446040868828421935,149,1446040868823734998,robocape_mag,27.0,-33.15,-11.25,10.0,0.0,0.0,0.0,10.0,0.0,0.0,0.0,10.0
1446040868862342019,150,1446040868857062101,robocape_mag,27.0,-33.15,-11.25,10.0,0.0,0.0,0.0,10.0,0.0,0.0,0.0,10.0
1446040868895550060,151,1446040868890599966,robocape_mag,27.0,-33.15,-11.25,10.0,0.0,0.0,0.0,10.0,0.0,0.0,0.0,10.0
1446040868928421977,152,1446040868923703908,robocape_mag,27.0,-33.15,-11.25,10.0,0.0,0.0,0.0,10.0,0.0,0.0,0.0,10.0
1446040868963775935,153,1446040868957818031,robocape_mag,27.6,-35.55,-11.25,10.0,0.0,0.0,0.0,10.0,0.0,0.0,0.0,10.0
1446040868995680519,154,1446040868990714073,robocape_mag,27.6,-35.55,-11.25,10.0,0.0,0.0,0.0,10.0,0.0,0.0,0.0,10.0
1446040869029024852,155,1446040869023960113,robocape_mag,27.6,-35.55,-11.25,10.0,0.0,0.0,0.0,10.0,0.0,0.0,0.0,10.0
1446040869062565894,156,1446040869057251930,robocape_mag,27.6,-35.55,-11.25,10.0,0.0,0.0,0.0,10.0,0.0,0.0,0.0,10.0
1446040869095270602,157,1446040869090430021,robocape_mag,27.6,-35.55,-11.25,10.0,0.0,0.0,0.0,10.0,0.0,0.0,0.0,10.0
1446040869128589060,158,1446040869123810052,robocape_mag,26.4,-34.95,-11.85,10.0,0.0,0.0,0.0,10.0,0.0,0.0,0.0,10.0
1446040869162629102,159,1446040869157387971,robocape_mag,26.4,-34.95,-11.85,10.0,0.0,0.0,0.0,10.0,0.0,0.0,0.0,10.0
1446040869195452644,160,1446040869190644025,robocape_mag,26.4,-34.95,-11.85,10.0,0.0,0.0,0.0,10.0,0.0,0.0,0.0,10.0
1446040869228529435,161,1446040869223716020,robocape_mag,26.4,-34.95,-11.85,10.0,0.0,0.0,0.0,10.0,0.0,0.0,0.0,10.0
1446040869262660560,162,1446040869257297992,robocape_mag,26.4,-34.95,-11.85,10.0,0.0,0.0,0.0,10.0,0.0,0.0,0.0,10.0
1446040869295581019,163,1446040869290604114,robocape_mag,27.0,-34.95,-11.25,10.0,0.0,0.0,0.0,10.0,0.0,0.0,0.0,10.0
1446040869328476936,164,1446040869323753118,robocape_mag,27.0,-34.95,-11.25,10.0,0.0,0.0,0.0,10.0,0.0,0.0,0.0,10.0
1446040869362489227,165,1446040869357121944,robocape_mag,27.0,-34.95,-11.25,10.0,0.0,0.0,0.0,10.0,0.0,0.0,0.0,10.0
1446040869395667519,166,1446040869390618085,robocape_mag,27.0,-34.95,-11.25,10.0,0.0,0.0,0.0,10.0,0.0,0.0,0.0,10.0
1446040869428576977,167,1446040869423799991,robocape_mag,27.0,-34.95,-11.25,10.0,0.0,0.0,0.0,10.0,0.0,0.0,0.0,10.0
1446040869463020894,168,1446040869457355976,robocape_mag,26.7,-34.65,-12.15,10.0,0.0,0.0,0.0,10.0,0.0,0.0,0.0,10.0
1446040869495295061,169,1446040869490542888,robocape_mag,26.7,-34.65,-12.15,10.0,0.0,0.0,0.0,10.0,0.0,0.0,0.0,10.0
1446040869536075727,170,1446040869530410051,robocape_mag,26.7,-34.65,-12.15,10.0,0.0,0.0,0.0,10.0,0.0,0.0,0.0,10.0
1446040869562921394,171,1446040869557554960,robocape_mag,26.7,-34.65,-12.15,10.0,0.0,0.0,0.0,10.0,0.0,0.0,0.0,10.0
1446040869595503852,172,1446040869590688943,robocape_mag,27.0,-34.95,-11.25,10.0,0.0,0.0,0.0,10.0,0.0,0.0,0.0,10.0
1446040869628540852,173,1446040869623750925,robocape_mag,27.0,-34.95,-11.25,10.0,0.0,0.0,0.0,10.0,0.0,0.0,0.0,10.0
1446040869662868894,174,1446040869657680988,robocape_mag,27.0,-34.95,-11.25,10.0,0.0,0.0,0.0,10.0,0.0,0.0,0.0,10.0
1446040869695785436,175,1446040869690915107,robocape_mag,27.0,-34.95,-11.25,10.0,0.0,0.0,0.0,10.0,0.0,0.0,0.0,10.0
1446040869728973102,176,1446040869724236965,robocape_mag,27.0,-34.95,-11.25,10.0,0.0,0.0,0.0,10.0,0.0,0.0,0.0,10.0
1446040869762901686,177,1446040869757865905,robocape_mag,27.6,-34.35,-11.85,10.0,0.0,0.0,0.0,10.0,0.0,0.0,0.0,10.0
1446040869795531269,178,1446040869790771007,robocape_mag,27.6,-34.35,-11.85,10.0,0.0,0.0,0.0,10.0,0.0,0.0,0.0,10.0
1446040869828598769,179,1446040869823857069,robocape_mag,27.6,-34.35,-11.85,10.0,0.0,0.0,0.0,10.0,0.0,0.0,0.0,10.0
1446040869862696769,180,1446040869857654094,robocape_mag,27.6,-34.35,-11.85,10.0,0.0,0.0,0.0,10.0,0.0,0.0,0.0,10.0
1446040869895483686,181,1446040869890705108,robocape_mag,27.6,-34.35,-11.85,10.0,0.0,0.0,0.0,10.0,0.0,0.0,0.0,10.0
1446040869928566936,182,1446040869923832893,robocape_mag,27.3,-36.45,-10.95,10.0,0.0,0.0,0.0,10.0,0.0,0.0,0.0,10.0
1446040869962595311,183,1446040869957571029,robocape_mag,27.3,-36.45,-10.95,10.0,0.0,0.0,0.0,10.0,0.0,0.0,0.0,10.0
1446040869995721686,184,1446040869990643978,robocape_mag,27.3,-36.45,-10.95,10.0,0.0,0.0,0.0,10.0,0.0,0.0,0.0,10.0
1446040870029689311,185,1446040870023813962,robocape_mag,27.3,-36.45,-10.95,10.0,0.0,0.0,0.0,10.0,0.0,0.0,0.0,10.0
1446040870071107394,186,1446040870065968990,robocape_mag,27.3,-36.45,-10.95,10.0,0.0,0.0,0.0,10.0,0.0,0.0,0.0,10.0
1446040870095808144,187,1446040870090595960,robocape_mag,25.5,-34.65,-10.95,10.0,0.0,0.0,0.0,10.0,0.0,0.0,0.0,10.0
1446040870128583811,188,1446040870123760938,robocape_mag,25.5,-34.65,-10.95,10.0,0.0,0.0,0.0,10.0,0.0,0.0,0.0,10.0
1446040870162527394,189,1446040870157742023,robocape_mag,25.5,-34.65,-10.95,10.0,0.0,0.0,0.0,10.0,0.0,0.0,0.0,10.0
1446040870195434978,190,1446040870190651893,robocape_mag,25.5,-34.65,-10.95,10.0,0.0,0.0,0.0,10.0,0.0,0.0,0.0,10.0
1446040870228778894,191,1446040870223787069,robocape_mag,25.5,-34.65,-10.95,10.0,0.0,0.0,0.0,10.0,0.0,0.0,0.0,10.0
1446040870262681186,192,1446040870257863998,robocape_mag,28.5,-34.65,-12.15,10.0,0.0,0.0,0.0,10.0,0.0,0.0,0.0,10.0
1446040870295376728,193,1446040870290568113,robocape_mag,28.5,-34.65,-12.15,10.0,0.0,0.0,0.0,10.0,0.0,0.0,0.0,10.0
1446040870328584686,194,1446040870323843955,robocape_mag,28.5,-34.65,-12.15,10.0,0.0,0.0,0.0,10.0,0.0,0.0,0.0,10.0
1446040870362519103,195,1446040870357686042,robocape_mag,28.5,-34.65,-12.15,10.0,0.0,0.0,0.0,10.0,0.0,0.0,0.0,10.0
1446040870395834769,196,1446040870390530109,robocape_mag,27.9,-34.05,-12.15,10.0,0.0,0.0,0.0,10.0,0.0,0.0,0.0,10.0
1446040870430549811,197,1446040870425714969,robocape_mag,27.9,-34.05,-12.15,10.0,0.0,0.0,0.0,10.0,0.0,0.0,0.0,10.0
1446040870462514936,198,1446040870457523107,robocape_mag,27.9,-34.05,-12.15,10.0,0.0,0.0,0.0,10.0,0.0,0.0,0.0,10.0
1446040870495645228,199,1446040870490617990,robocape_mag,27.9,-34.05,-12.15,10.0,0.0,0.0,0.0,10.0,0.0,0.0,0.0,10.0
1446040870536290769,200,1446040870530411958,robocape_mag,27.9,-34.05,-12.15,10.0,0.0,0.0,0.0,10.0,0.0,0.0,0.0,10.0
1446040870565038311,201,1446040870560283899,robocape_mag,28.5,-36.45,-10.95,10.0,0.0,0.0,0.0,10.0,0.0,0.0,0.0,10.0
1446040870595570644,202,1446040870590517044,robocape_mag,28.5,-36.45,-10.95,10.0,0.0,0.0,0.0,10.0,0.0,0.0,0.0,10.0
1446040870628592478,203,1446040870623800039,robocape_mag,28.5,-36.45,-10.95,10.0,0.0,0.0,0.0,10.0,0.0,0.0,0.0,10.0
1446040870662512561,204,1446040870657522916,robocape_mag,28.5,-36.45,-10.95,10.0,0.0,0.0,0.0,10.0,0.0,0.0,0.0,10.0
1446040870695838186,205,1446040870690787076,robocape_mag,28.5,-36.45,-10.95,10.0,0.0,0.0,0.0,10.0,0.0,0.0,0.0,10.0
1446040870728657520,206,1446040870723788022,robocape_mag,27.3,-35.85,-12.15,10.0,0.0,0.0,0.0,10.0,0.0,0.0,0.0,10.0
1446040870763007311,207,1446040870758260965,robocape_mag,27.3,-35.85,-12.15,10.0,0.0,0.0,0.0,10.0,0.0,0.0,0.0,10.0
1446040870795611061,208,1446040870790652036,robocape_mag,27.3,-35.85,-12.15,10.0,0.0,0.0,0.0,10.0,0.0,0.0,0.0,10.0
1446040870828507020,209,1446040870823781013,robocape_mag,27.3,-35.85,-12.15,10.0,0.0,0.0,0.0,10.0,0.0,0.0,0.0,10.0
1446040870862435520,210,1446040870857482910,robocape_mag,27.3,-35.85,-12.15,10.0,0.0,0.0,0.0,10.0,0.0,0.0,0.0,10.0
1446040870895550061,211,1446040870890595912,robocape_mag,27.3,-34.65,-12.15,10.0,0.0,0.0,0.0,10.0,0.0,0.0,0.0,10.0
1446040870928540770,212,1446040870923825979,robocape_mag,27.3,-34.65,-12.15,10.0,0.0,0.0,0.0,10.0,0.0,0.0,0.0,10.0
1446040870962513603,213,1446040870957511901,robocape_mag,27.3,-34.65,-12.15,10.0,0.0,0.0,0.0,10.0,0.0,0.0,0.0,10.0
1446040870995667311,214,1446040870990566968,robocape_mag,27.3,-34.65,-12.15,10.0,0.0,0.0,0.0,10.0,0.0,0.0,0.0,10.0
1446040871028989603,215,1446040871023860931,robocape_mag,27.3,-34.65,-12.15,10.0,0.0,0.0,0.0,10.0,0.0,0.0,0.0,10.0
1446040871062679478,216,1446040871057651996,robocape_mag,26.1,-35.25,-11.55,10.0,0.0,0.0,0.0,10.0,0.0,0.0,0.0,10.0
1446040871095630978,217,1446040871090509891,robocape_mag,26.1,-35.25,-11.55,10.0,0.0,0.0,0.0,10.0,0.0,0.0,0.0,10.0
1446040871128661061,218,1446040871123862028,robocape_mag,26.1,-35.25,-11.55,10.0,0.0,0.0,0.0,10.0,0.0,0.0,0.0,10.0
1446040871162354853,219,1446040871157530069,robocape_mag,26.1,-35.25,-11.55,10.0,0.0,0.0,0.0,10.0,0.0,0.0,0.0,10.0
1446040871195640145,220,1446040871190517902,robocape_mag,27.6,-34.35,-11.25,10.0,0.0,0.0,0.0,10.0,0.0,0.0,0.0,10.0
1446040871228859270,221,1446040871224111080,robocape_mag,27.6,-34.35,-11.25,10.0,0.0,0.0,0.0,10.0,0.0,0.0,0.0,10.0
1446040871262896020,222,1446040871258114099,robocape_mag,27.6,-34.35,-11.25,10.0,0.0,0.0,0.0,10.0,0.0,0.0,0.0,10.0
1446040871295762353,223,1446040871290641069,robocape_mag,27.6,-34.35,-11.25,10.0,0.0,0.0,0.0,10.0,0.0,0.0,0.0,10.0
1446040871328528936,224,1446040871323756933,robocape_mag,27.6,-34.35,-11.25,10.0,0.0,0.0,0.0,10.0,0.0,0.0,0.0,10.0
1446040871363769645,225,1446040871358536958,robocape_mag,27.6,-34.35,-11.85,10.0,0.0,0.0,0.0,10.0,0.0,0.0,0.0,10.0
1446040871395702562,226,1446040871390435934,robocape_mag,27.6,-34.35,-11.85,10.0,0.0,0.0,0.0,10.0,0.0,0.0,0.0,10.0
1446040871428840770,227,1446040871423963069,robocape_mag,27.6,-34.35,-11.85,10.0,0.0,0.0,0.0,10.0,0.0,0.0,0.0,10.0
1446040871462885937,228,1446040871457747936,robocape_mag,27.6,-34.35,-11.85,10.0,0.0,0.0,0.0,10.0,0.0,0.0,0.0,10.0
1446040871496044020,229,1446040871490709066,robocape_mag,27.6,-34.35,-11.85,10.0,0.0,0.0,0.0,10.0,0.0,0.0,0.0,10.0
1446040871536105937,230,1446040871530761003,robocape_mag,27.0,-35.55,-11.85,10.0,0.0,0.0,0.0,10.0,0.0,0.0,0.0,10.0
1446040871562530562,231,1446040871557502031,robocape_mag,27.0,-35.55,-11.85,10.0,0.0,0.0,0.0,10.0,0.0,0.0,0.0,10.0
1446040871595577187,232,1446040871590426921,robocape_mag,27.0,-35.55,-11.85,10.0,0.0,0.0,0.0,10.0,0.0,0.0,0.0,10.0
1446040871628608145,233,1446040871623786926,robocape_mag,27.0,-35.55,-11.85,10.0,0.0,0.0,0.0,10.0,0.0,0.0,0.0,10.0
1446040871662617020,234,1446040871657818078,robocape_mag,27.0,-35.55,-11.85,10.0,0.0,0.0,0.0,10.0,0.0,0.0,0.0,10.0
1446040871695850687,235,1446040871690514087,robocape_mag,27.6,-34.95,-11.85,10.0,0.0,0.0,0.0,10.0,0.0,0.0,0.0,10.0
1446040871729876895,236,1446040871723754882,robocape_mag,27.6,-34.95,-11.85,10.0,0.0,0.0,0.0,10.0,0.0,0.0,0.0,10.0
1446040871762836812,237,1446040871757683038,robocape_mag,27.6,-34.95,-11.85,10.0,0.0,0.0,0.0,10.0,0.0,0.0,0.0,10.0
1446040871795794687,238,1446040871790518045,robocape_mag,27.6,-34.95,-11.85,10.0,0.0,0.0,0.0,10.0,0.0,0.0,0.0,10.0
1446040871828609728,239,1446040871823853969,robocape_mag,27.6,-34.95,-11.85,10.0,0.0,0.0,0.0,10.0,0.0,0.0,0.0,10.0
1446040871862425228,240,1446040871857177972,robocape_mag,27.3,-34.65,-10.35,10.0,0.0,0.0,0.0,10.0,0.0,0.0,0.0,10.0
1446040871901335853,241,1446040871896476030,robocape_mag,27.3,-34.65,-10.35,10.0,0.0,0.0,0.0,10.0,0.0,0.0,0.0,10.0
1446040871928549145,242,1446040871923831939,robocape_mag,27.3,-34.65,-10.35,10.0,0.0,0.0,0.0,10.0,0.0,0.0,0.0,10.0
1446040871963043270,243,1446040871957988977,robocape_mag,27.3,-34.65,-10.35,10.0,0.0,0.0,0.0,10.0,0.0,0.0,0.0,10.0
1446040871995942770,244,1446040871990617990,robocape_mag,27.0,-33.75,-10.65,10.0,0.0,0.0,0.0,10.0,0.0,0.0,0.0,10.0
1446040872029826145,245,1446040872023760080,robocape_mag,27.0,-33.75,-10.65,10.0,0.0,0.0,0.0,10.0,0.0,0.0,0.0,10.0
1446040872062853478,246,1446040872057339906,robocape_mag,27.0,-33.75,-10.65,10.0,0.0,0.0,0.0,10.0,0.0,0.0,0.0,10.0
1446040872095595979,247,1446040872090543031,robocape_mag,27.0,-33.75,-10.65,10.0,0.0,0.0,0.0,10.0,0.0,0.0,0.0,10.0
1446040872128661520,248,1446040872123840093,robocape_mag,27.0,-33.75,-10.65,10.0,0.0,0.0,0.0,10.0,0.0,0.0,0.0,10.0
1446040872162636312,249,1446040872157274007,robocape_mag,26.7,-34.05,-11.55,10.0,0.0,0.0,0.0,10.0,0.0,0.0,0.0,10.0
1446040872195599395,250,1446040872190383911,robocape_mag,26.7,-34.05,-11.55,10.0,0.0,0.0,0.0,10.0,0.0,0.0,0.0,10.0
1446040872228546687,251,1446040872223750114,robocape_mag,26.7,-34.05,-11.55,10.0,0.0,0.0,0.0,10.0,0.0,0.0,0.0,10.0
1446040872262875937,252,1446040872257359981,robocape_mag,26.7,-34.05,-11.55,10.0,0.0,0.0,0.0,10.0,0.0,0.0,0.0,10.0
1446040872295717187,253,1446040872290539979,robocape_mag,26.7,-34.05,-11.55,10.0,0.0,0.0,0.0,10.0,0.0,0.0,0.0,10.0
1446040872328512729,254,1446040872323775053,robocape_mag,27.0,-34.95,-10.65,10.0,0.0,0.0,0.0,10.0,0.0,0.0,0.0,10.0
1446040872362592187,255,1446040872357183933,robocape_mag,27.0,-34.95,-10.65,10.0,0.0,0.0,0.0,10.0,0.0,0.0,0.0,10.0
1446040872396204270,256,1446040872390544891,robocape_mag,27.0,-34.95,-10.65,10.0,0.0,0.0,0.0,10.0,0.0,0.0,0.0,10.0
1446040872434349479,257,1446040872429357051,robocape_mag,27.0,-34.95,-10.65,10.0,0.0,0.0,0.0,10.0,0.0,0.0,0.0,10.0
1446040872467456937,258,1446040872462523937,robocape_mag,27.0,-34.95,-10.65,10.0,0.0,0.0,0.0,10.0,0.0,0.0,0.0,10.0
1446040872499904937,259,1446040872494851112,robocape_mag,26.7,-36.45,-9.75,10.0,0.0,0.0,0.0,10.0,0.0,0.0,0.0,10.0
1446040872537463687,260,1446040872529671907,robocape_mag,26.7,-36.45,-9.75,10.0,0.0,0.0,0.0,10.0,0.0,0.0,0.0,10.0
1446040872569979729,261,1446040872565021991,robocape_mag,26.7,-36.45,-9.75,10.0,0.0,0.0,0.0,10.0,0.0,0.0,0.0,10.0
1446040872604791645,262,1446040872599693059,robocape_mag,26.7,-36.45,-9.75,10.0,0.0,0.0,0.0,10.0,0.0,0.0,0.0,10.0
1446040872636947729,263,1446040872630954980,robocape_mag,25.8,-33.75,-10.05,10.0,0.0,0.0,0.0,10.0,0.0,0.0,0.0,10.0
1446040872673078770,264,1446040872665949106,robocape_mag,25.8,-33.75,-10.05,10.0,0.0,0.0,0.0,10.0,0.0,0.0,0.0,10.0
1446040872708053979,265,1446040872701579093,robocape_mag,25.8,-33.75,-10.05,10.0,0.0,0.0,0.0,10.0,0.0,0.0,0.0,10.0
1446040872738076437,266,1446040872733150959,robocape_mag,25.8,-33.75,-10.05,10.0,0.0,0.0,0.0,10.0,0.0,0.0,0.0,10.0
1446040872763036062,267,1446040872757328033,robocape_mag,25.8,-33.75,-10.05,10.0,0.0,0.0,0.0,10.0,0.0,0.0,0.0,10.0
1446040872795661104,268,1446040872790494918,robocape_mag,27.9,-35.85,-12.15,10.0,0.0,0.0,0.0,10.0,0.0,0.0,0.0,10.0
1446040872828639104,269,1446040872823926925,robocape_mag,27.9,-35.85,-12.15,10.0,0.0,0.0,0.0,10.0,0.0,0.0,0.0,10.0
1446040872862152021,270,1446040872857194900,robocape_mag,27.9,-35.85,-12.15,10.0,0.0,0.0,0.0,10.0,0.0,0.0,0.0,10.0
1446040872895772104,271,1446040872890618085,robocape_mag,27.9,-35.85,-12.15,10.0,0.0,0.0,0.0,10.0,0.0,0.0,0.0,10.0
1446040872928627021,272,1446040872923815965,robocape_mag,27.9,-35.85,-12.15,10.0,0.0,0.0,0.0,10.0,0.0,0.0,0.0,10.0
1446040872961904062,273,1446040872957145929,robocape_mag,27.3,-34.05,-11.55,10.0,0.0,0.0,0.0,10.0,0.0,0.0,0.0,10.0
1446040872995432104,274,1446040872990482091,robocape_mag,27.3,-34.05,-11.55,10.0,0.0,0.0,0.0,10.0,0.0,0.0,0.0,10.0
1446040873029296271,275,1446040873023854017,robocape_mag,27.3,-34.05,-11.55,10.0,0.0,0.0,0.0,10.0,0.0,0.0,0.0,10.0
1446040873062074271,276,1446040873057229995,robocape_mag,27.3,-34.05,-11.55,10.0,0.0,0.0,0.0,10.0,0.0,0.0,0.0,10.0
1446040873095513562,277,1446040873090451955,robocape_mag,27.3,-34.05,-11.55,10.0,0.0,0.0,0.0,10.0,0.0,0.0,0.0,10.0
1446040873128740187,278,1446040873123764038,robocape_mag,27.0,-34.95,-11.25,10.0,0.0,0.0,0.0,10.0,0.0,0.0,0.0,10.0
1446040873162198229,279,1446040873157270908,robocape_mag,27.0,-34.95,-11.25,10.0,0.0,0.0,0.0,10.0,0.0,0.0,0.0,10.0
1446040873196601396,280,1446040873191567897,robocape_mag,27.0,-34.95,-11.25,10.0,0.0,0.0,0.0,10.0,0.0,0.0,0.0,10.0
1446040873228710812,281,1446040873223706007,robocape_mag,27.0,-34.95,-11.25,10.0,0.0,0.0,0.0,10.0,0.0,0.0,0.0,10.0
1446040873262175271,282,1446040873257186889,robocape_mag,27.0,-34.95,-11.25,10.0,0.0,0.0,0.0,10.0,0.0,0.0,0.0,10.0
1446040873295343646,283,1446040873290482044,robocape_mag,26.7,-34.05,-9.75,10.0,0.0,0.0,0.0,10.0,0.0,0.0,0.0,10.0
1446040873328727979,284,1446040873323796987,robocape_mag,26.7,-34.05,-9.75,10.0,0.0,0.0,0.0,10.0,0.0,0.0,0.0,10.0
1446040873362052479,285,1446040873357134103,robocape_mag,26.7,-34.05,-9.75,10.0,0.0,0.0,0.0,10.0,0.0,0.0,0.0,10.0
1446040873395405771,286,1446040873390466928,robocape_mag,26.7,-34.05,-9.75,10.0,0.0,0.0,0.0,10.0,0.0,0.0,0.0,10.0
1446040873428733729,287,1446040873423840045,robocape_mag,26.7,-34.05,-9.75,10.0,0.0,0.0,0.0,10.0,0.0,0.0,0.0,10.0
1446040873462065729,288,1446040873457142114,robocape_mag,27.3,-34.65,-12.75,10.0,0.0,0.0,0.0,10.0,0.0,0.0,0.0,10.0
1446040873495242771,289,1446040873490456104,robocape_mag,27.3,-34.65,-12.75,10.0,0.0,0.0,0.0,10.0,0.0,0.0,0.0,10.0
1446040873537252771,290,1446040873532180070,robocape_mag,27.3,-34.65,-12.75,10.0,0.0,0.0,0.0,10.0,0.0,0.0,0.0,10.0
1446040873562134146,291,1446040873557173013,robocape_mag,27.3,-34.65,-12.75,10.0,0.0,0.0,0.0,10.0,0.0,0.0,0.0,10.0
1446040873595481229,292,1446040873590650081,robocape_mag,28.2,-34.95,-10.65,10.0,0.0,0.0,0.0,10.0,0.0,0.0,0.0,10.0
1446040873628542146,293,1446040873623771905,robocape_mag,28.2,-34.95,-10.65,10.0,0.0,0.0,0.0,10.0,0.0,0.0,0.0,10.0
1446040873662128771,294,1446040873657144069,robocape_mag,28.2,-34.95,-10.65,10.0,0.0,0.0,0.0,10.0,0.0,0.0,0.0,10.0
1446040873695274979,295,1446040873690418004,robocape_mag,28.2,-34.95,-10.65,10.0,0.0,0.0,0.0,10.0,0.0,0.0,0.0,10.0
1446040873728620229,296,1446040873723829030,robocape_mag,28.2,-34.95,-10.65,10.0,0.0,0.0,0.0,10.0,0.0,0.0,0.0,10.0
1446040873762198021,297,1446040873757227897,robocape_mag,27.6,-35.55,-10.65,10.0,0.0,0.0,0.0,10.0,0.0,0.0,0.0,10.0
1446040873795340438,298,1446040873790606975,robocape_mag,27.6,-35.55,-10.65,10.0,0.0,0.0,0.0,10.0,0.0,0.0,0.0,10.0
1446040873828690021,299,1446040873823857069,robocape_mag,27.6,-35.55,-10.65,10.0,0.0,0.0,0.0,10.0,0.0,0.0,0.0,10.0
1446040873862427813,300,1446040873857301950,robocape_mag,27.6,-35.55,-10.65,10.0,0.0,0.0,0.0,10.0,0.0,0.0,0.0,10.0
1446040873903591854,301,1446040873898328065,robocape_mag,27.6,-35.55,-10.65,10.0,0.0,0.0,0.0,10.0,0.0,0.0,0.0,10.0
1446040873937894354,302,1446040873932750940,robocape_mag,28.8,-34.95,-11.25,10.0,0.0,0.0,0.0,10.0,0.0,0.0,0.0,10.0
1446040873973777813,303,1446040873965779066,robocape_mag,28.8,-34.95,-11.25,10.0,0.0,0.0,0.0,10.0,0.0,0.0,0.0,10.0
1446040874002967854,304,1446040873997906923,robocape_mag,28.8,-34.95,-11.25,10.0,0.0,0.0,0.0,10.0,0.0,0.0,0.0,10.0
1446040874034286604,305,1446040874029381036,robocape_mag,28.8,-34.95,-11.25,10.0,0.0,0.0,0.0,10.0,0.0,0.0,0.0,10.0
1446040874064529396,306,1446040874059432029,robocape_mag,28.8,-34.95,-11.25,10.0,0.0,0.0,0.0,10.0,0.0,0.0,0.0,10.0
1446040874097085896,307,1446040874092047929,robocape_mag,26.7,-35.25,-12.75,10.0,0.0,0.0,0.0,10.0,0.0,0.0,0.0,10.0
1446040874130807938,308,1446040874125727891,robocape_mag,26.7,-35.25,-12.75,10.0,0.0,0.0,0.0,10.0,0.0,0.0,0.0,10.0
1446040874168936563,309,1446040874162688970,robocape_mag,26.7,-35.25,-12.75,10.0,0.0,0.0,0.0,10.0,0.0,0.0,0.0,10.0
1446040874195608230,310,1446040874190639019,robocape_mag,26.7,-35.25,-12.75,10.0,0.0,0.0,0.0,10.0,0.0,0.0,0.0,10.0
1446040874228552188,311,1446040874223793029,robocape_mag,26.7,-35.25,-12.75,10.0,0.0,0.0,0.0,10.0,0.0,0.0,0.0,10.0
1446040874262332021,312,1446040874257282972,robocape_mag,26.1,-34.05,-12.15,10.0,0.0,0.0,0.0,10.0,0.0,0.0,0.0,10.0
1446040874295240188,313,1446040874290524005,robocape_mag,26.1,-34.05,-12.15,10.0,0.0,0.0,0.0,10.0,0.0,0.0,0.0,10.0
1446040874328452105,314,1446040874323760986,robocape_mag,26.1,-34.05,-12.15,10.0,0.0,0.0,0.0,10.0,0.0,0.0,0.0,10.0
1446040874362329480,315,1446040874357243061,robocape_mag,26.1,-34.05,-12.15,10.0,0.0,0.0,0.0,10.0,0.0,0.0,0.0,10.0
1446040874396059730,316,1446040874390678882,robocape_mag,25.5,-35.25,-10.95,10.0,0.0,0.0,0.0,10.0,0.0,0.0,0.0,10.0
1446040874428540938,317,1446040874423712015,robocape_mag,25.5,-35.25,-10.95,10.0,0.0,0.0,0.0,10.0,0.0,0.0,0.0,10.0
1446040874462084688,318,1446040874457035064,robocape_mag,25.5,-35.25,-10.95,10.0,0.0,0.0,0.0,10.0,0.0,0.0,0.0,10.0
1446040874495930938,319,1446040874490910053,robocape_mag,25.5,-35.25,-10.95,10.0,0.0,0.0,0.0,10.0,0.0,0.0,0.0,10.0
1446040874535949021,320,1446040874530875921,robocape_mag,25.5,-35.25,-10.95,10.0,0.0,0.0,0.0,10.0,0.0,0.0,0.0,10.0
1446040874562293230,321,1446040874557153940,robocape_mag,24.9,-35.25,-9.75,10.0,0.0,0.0,0.0,10.0,0.0,0.0,0.0,10.0
1446040874595595480,322,1446040874590796947,robocape_mag,24.9,-35.25,-9.75,10.0,0.0,0.0,0.0,10.0,0.0,0.0,0.0,10.0
1446040874628678021,323,1446040874623925924,robocape_mag,24.9,-35.25,-9.75,10.0,0.0,0.0,0.0,10.0,0.0,0.0,0.0,10.0
1446040874662567438,324,1446040874657264947,robocape_mag,24.9,-35.25,-9.75,10.0,0.0,0.0,0.0,10.0,0.0,0.0,0.0,10.0
1446040874695844271,325,1446040874690886974,robocape_mag,24.9,-35.25,-9.75,10.0,0.0,0.0,0.0,10.0,0.0,0.0,0.0,10.0
1446040874728856605,326,1446040874724076032,robocape_mag,27.0,-34.95,-12.45,10.0,0.0,0.0,0.0,10.0,0.0,0.0,0.0,10.0
1446040874762436105,327,1446040874757158041,robocape_mag,27.0,-34.95,-12.45,10.0,0.0,0.0,0.0,10.0,0.0,0.0,0.0,10.0
1446040874795538646,328,1446040874790580034,robocape_mag,27.0,-34.95,-12.45,10.0,0.0,0.0,0.0,10.0,0.0,0.0,0.0,10.0
1446040874828745896,329,1446040874823981046,robocape_mag,27.0,-34.95,-12.45,10.0,0.0,0.0,0.0,10.0,0.0,0.0,0.0,10.0
1446040874862386480,330,1446040874857131004,robocape_mag,27.0,-34.95,-12.45,10.0,0.0,0.0,0.0,10.0,0.0,0.0,0.0,10.0
1446040874896692397,331,1446040874891674995,robocape_mag,27.0,-35.55,-11.25,10.0,0.0,0.0,0.0,10.0,0.0,0.0,0.0,10.0
1446040874928851230,332,1446040874924110889,robocape_mag,27.0,-35.55,-11.25,10.0,0.0,0.0,0.0,10.0,0.0,0.0,0.0,10.0
1446040874962275897,333,1446040874957112073,robocape_mag,27.0,-35.55,-11.25,10.0,0.0,0.0,0.0,10.0,0.0,0.0,0.0,10.0
1446040874995875522,334,1446040874990995883,robocape_mag,27.0,-35.55,-11.25,10.0,0.0,0.0,0.0,10.0,0.0,0.0,0.0,10.0
1446040875028948188,335,1446040875023885965,robocape_mag,27.0,-35.55,-11.25,10.0,0.0,0.0,0.0,10.0,0.0,0.0,0.0,10.0
1446040875062547522,336,1446040875057286977,robocape_mag,27.9,-34.65,-11.55,10.0,0.0,0.0,0.0,10.0,0.0,0.0,0.0,10.0
1446040875095474230,337,1446040875090641975,robocape_mag,27.9,-34.65,-11.55,10.0,0.0,0.0,0.0,10.0,0.0,0.0,0.0,10.0
1446040875128764480,338,1446040875123980998,robocape_mag,27.9,-34.65,-11.55,10.0,0.0,0.0,0.0,10.0,0.0,0.0,0.0,10.0
1446040875162645772,339,1446040875157330989,robocape_mag,27.9,-34.65,-11.55,10.0,0.0,0.0,0.0,10.0,0.0,0.0,0.0,10.0
1446040875195582313,340,1446040875190604925,robocape_mag,27.6,-36.15,-11.85,10.0,0.0,0.0,0.0,10.0,0.0,0.0,0.0,10.0
1446040875228756772,341,1446040875223984003,robocape_mag,27.6,-36.15,-11.85,10.0,0.0,0.0,0.0,10.0,0.0,0.0,0.0,10.0
1446040875262237313,342,1446040875257045030,robocape_mag,27.6,-36.15,-11.85,10.0,0.0,0.0,0.0,10.0,0.0,0.0,0.0,10.0
1446040875295762022,343,1446040875290764093,robocape_mag,27.6,-36.15,-11.85,10.0,0.0,0.0,0.0,10.0,0.0,0.0,0.0,10.0
1446040875328716938,344,1446040875323973894,robocape_mag,27.6,-36.15,-11.85,10.0,0.0,0.0,0.0,10.0,0.0,0.0,0.0,10.0
1446040875362263688,345,1446040875357050895,robocape_mag,28.2,-34.95,-10.05,10.0,0.0,0.0,0.0,10.0,0.0,0.0,0.0,10.0
1446040875395717730,346,1446040875390775918,robocape_mag,28.2,-34.95,-10.05,10.0,0.0,0.0,0.0,10.0,0.0,0.0,0.0,10.0
1446040875428684188,347,1446040875423902034,robocape_mag,28.2,-34.95,-10.05,10.0,0.0,0.0,0.0,10.0,0.0,0.0,0.0,10.0
1446040875462450730,348,1446040875457087039,robocape_mag,28.2,-34.95,-10.05,10.0,0.0,0.0,0.0,10.0,0.0,0.0,0.0,10.0
1446040875495684063,349,1446040875490678071,robocape_mag,28.2,-34.95,-10.05,10.0,0.0,0.0,0.0,10.0,0.0,0.0,0.0,10.0
1446040875536237188,350,1446040875530437946,robocape_mag,28.2,-34.95,-10.65,10.0,0.0,0.0,0.0,10.0,0.0,0.0,0.0,10.0
1446040875562632105,351,1446040875557399988,robocape_mag,28.2,-34.95,-10.65,10.0,0.0,0.0,0.0,10.0,0.0,0.0,0.0,10.0
1446040875595744897,352,1446040875590682983,robocape_mag,28.2,-34.95,-10.65,10.0,0.0,0.0,0.0,10.0,0.0,0.0,0.0,10.0
1446040875628868397,353,1446040875623904943,robocape_mag,28.2,-34.95,-10.65,10.0,0.0,0.0,0.0,10.0,0.0,0.0,0.0,10.0
1446040875662245397,354,1446040875657234907,robocape_mag,28.2,-34.95,-10.65,10.0,0.0,0.0,0.0,10.0,0.0,0.0,0.0,10.0
1446040875695751480,355,1446040875690701961,robocape_mag,27.0,-34.95,-11.25,10.0,0.0,0.0,0.0,10.0,0.0,0.0,0.0,10.0
1446040875728842064,356,1446040875723845958,robocape_mag,27.0,-34.95,-11.25,10.0,0.0,0.0,0.0,10.0,0.0,0.0,0.0,10.0
1446040875762419980,357,1446040875757136106,robocape_mag,27.0,-34.95,-11.25,10.0,0.0,0.0,0.0,10.0,0.0,0.0,0.0,10.0
1446040875796050397,358,1446040875791076898,robocape_mag,27.0,-34.95,-11.25,10.0,0.0,0.0,0.0,10.0,0.0,0.0,0.0,10.0
1446040875828516147,359,1446040875823808908,robocape_mag,27.0,-34.95,-11.25,10.0,0.0,0.0,0.0,10.0,0.0,0.0,0.0,10.0
1446040875862161022,360,1446040875857175111,robocape_mag,27.9,-34.05,-12.15,10.0,0.0,0.0,0.0,10.0,0.0,0.0,0.0,10.0
1446040875896035355,361,1446040875890917062,robocape_mag,27.9,-34.05,-12.15,10.0,0.0,0.0,0.0,10.0,0.0,0.0,0.0,10.0
1446040875928546064,362,1446040875923806905,robocape_mag,27.9,-34.05,-12.15,10.0,0.0,0.0,0.0,10.0,0.0,0.0,0.0,10.0
1446040875962024355,363,1446040875957106113,robocape_mag,27.9,-34.05,-12.15,10.0,0.0,0.0,0.0,10.0,0.0,0.0,0.0,10.0
1446040875995856564,364,1446040875990818977,robocape_mag,28.2,-33.15,-10.05,10.0,0.0,0.0,0.0,10.0,0.0,0.0,0.0,10.0
1446040876028890689,365,1446040876023828983,robocape_mag,28.2,-33.15,-10.05,10.0,0.0,0.0,0.0,10.0,0.0,0.0,0.0,10.0
1446040876061862147,366,1446040876057113885,robocape_mag,28.2,-33.15,-10.05,10.0,0.0,0.0,0.0,10.0,0.0,0.0,0.0,10.0
1446040876103657480,367,1446040876098690986,robocape_mag,28.2,-33.15,-10.05,10.0,0.0,0.0,0.0,10.0,0.0,0.0,0.0,10.0
1446040876128740314,368,1446040876123936891,robocape_mag,28.2,-33.15,-10.05,10.0,0.0,0.0,0.0,10.0,0.0,0.0,0.0,10.0
1446040876162335522,369,1446040876157381057,robocape_mag,27.9,-34.05,-10.35,10.0,0.0,0.0,0.0,10.0,0.0,0.0,0.0,10.0
1446040876195739189,370,1446040876190907955,robocape_mag,27.9,-34.05,-10.35,10.0,0.0,0.0,0.0,10.0,0.0,0.0,0.0,10.0
1446040876228626105,371,1446040876223830938,robocape_mag,27.9,-34.05,-10.35,10.0,0.0,0.0,0.0,10.0,0.0,0.0,0.0,10.0
1446040876262383022,372,1446040876257523059,robocape_mag,27.9,-34.05,-10.35,10.0,0.0,0.0,0.0,10.0,0.0,0.0,0.0,10.0
1446040876295913981,373,1446040876291121959,robocape_mag,27.9,-34.05,-10.35,10.0,0.0,0.0,0.0,10.0,0.0,0.0,0.0,10.0
1446040876328902356,374,1446040876323931932,robocape_mag,27.3,-35.85,-13.35,10.0,0.0,0.0,0.0,10.0,0.0,0.0,0.0,10.0
1446040876362119814,375,1446040876357222080,robocape_mag,27.3,-35.85,-13.35,10.0,0.0,0.0,0.0,10.0,0.0,0.0,0.0,10.0
1446040876396422314,376,1446040876390861034,robocape_mag,27.3,-35.85,-13.35,10.0,0.0,0.0,0.0,10.0,0.0,0.0,0.0,10.0
1446040876435447397,377,1446040876423865079,robocape_mag,27.3,-35.85,-13.35,10.0,0.0,0.0,0.0,10.0,0.0,0.0,0.0,10.0
1446040876469783147,378,1446040876460467100,robocape_mag,27.3,-35.85,-13.35,10.0,0.0,0.0,0.0,10.0,0.0,0.0,0.0,10.0
1446040876498833897,379,1446040876493841886,robocape_mag,28.2,-34.95,-11.85,10.0,0.0,0.0,0.0,10.0,0.0,0.0,0.0,10.0
1446040876539307647,380,1446040876528242111,robocape_mag,28.2,-34.95,-11.85,10.0,0.0,0.0,0.0,10.0,0.0,0.0,0.0,10.0
1446040876569696856,381,1446040876564522027,robocape_mag,28.2,-34.95,-11.85,10.0,0.0,0.0,0.0,10.0,0.0,0.0,0.0,10.0
1446040876602045939,382,1446040876597152948,robocape_mag,28.2,-34.95,-11.85,10.0,0.0,0.0,0.0,10.0,0.0,0.0,0.0,10.0
1446040876633982272,383,1446040876629087924,robocape_mag,27.6,-36.15,-12.45,10.0,0.0,0.0,0.0,10.0,0.0,0.0,0.0,10.0
1446040876670906189,384,1446040876663019895,robocape_mag,27.6,-36.15,-12.45,10.0,0.0,0.0,0.0,10.0,0.0,0.0,0.0,10.0
1446040876701877481,385,1446040876697005987,robocape_mag,27.6,-36.15,-12.45,10.0,0.0,0.0,0.0,10.0,0.0,0.0,0.0,10.0
1446040876734188981,386,1446040876729135990,robocape_mag,27.6,-36.15,-12.45,10.0,0.0,0.0,0.0,10.0,0.0,0.0,0.0,10.0
1446040876764215147,387,1446040876759305000,robocape_mag,27.6,-36.15,-12.45,10.0,0.0,0.0,0.0,10.0,0.0,0.0,0.0,10.0
1446040876797574647,388,1446040876792624950,robocape_mag,30.3,-34.05,-12.75,10.0,0.0,0.0,0.0,10.0,0.0,0.0,0.0,10.0
1446040876834040397,389,1446040876828788995,robocape_mag,30.3,-34.05,-12.75,10.0,0.0,0.0,0.0,10.0,0.0,0.0,0.0,10.0
1446040876868676981,390,1446040876863447904,robocape_mag,30.3,-34.05,-12.75,10.0,0.0,0.0,0.0,10.0,0.0,0.0,0.0,10.0
1446040876905289314,391,1446040876895096063,robocape_mag,30.3,-34.05,-12.75,10.0,0.0,0.0,0.0,10.0,0.0,0.0,0.0,10.0
1446040876934679439,392,1446040876929754018,robocape_mag,30.3,-34.05,-12.75,10.0,0.0,0.0,0.0,10.0,0.0,0.0,0.0,10.0
1446040876965135314,393,1446040876960177898,robocape_mag,27.0,-35.55,-10.65,10.0,0.0,0.0,0.0,10.0,0.0,0.0,0.0,10.0
1446040877000410481,394,1446040876995506048,robocape_mag,27.0,-35.55,-10.65,10.0,0.0,0.0,0.0,10.0,0.0,0.0,0.0,10.0
1446040877036240439,395,1446040877030273914,robocape_mag,27.0,-35.55,-10.65,10.0,0.0,0.0,0.0,10.0,0.0,0.0,0.0,10.0
1446040877068481439,396,1446040877063136100,robocape_mag,27.0,-35.55,-10.65,10.0,0.0,0.0,0.0,10.0,0.0,0.0,0.0,10.0
1446040877101272189,397,1446040877096174001,robocape_mag,27.0,-35.55,-10.65,10.0,0.0,0.0,0.0,10.0,0.0,0.0,0.0,10.0
1446040877139822439,398,1446040877130089044,robocape_mag,27.9,-34.65,-10.35,10.0,0.0,0.0,0.0,10.0,0.0,0.0,0.0,10.0
1446040877169795981,399,1446040877164639949,robocape_mag,27.9,-34.65,-10.35,10.0,0.0,0.0,0.0,10.0,0.0,0.0,0.0,10.0
1446040877201142814,400,1446040877196194887,robocape_mag,27.9,-34.65,-10.35,10.0,0.0,0.0,0.0,10.0,0.0,0.0,0.0,10.0
1446040877231402981,401,1446040877226430892,robocape_mag,27.9,-34.65,-10.35,10.0,0.0,0.0,0.0,10.0,0.0,0.0,0.0,10.0
1446040877263213898,402,1446040877258163928,robocape_mag,27.9,-34.65,-10.35,10.0,0.0,0.0,0.0,10.0,0.0,0.0,0.0,10.0
1446040877298937814,403,1446040877293925046,robocape_mag,26.7,-35.25,-10.95,10.0,0.0,0.0,0.0,10.0,0.0,0.0,0.0,10.0
1446040877334915231,404,1446040877327533006,robocape_mag,26.7,-35.25,-10.95,10.0,0.0,0.0,0.0,10.0,0.0,0.0,0.0,10.0
1446040877365831023,405,1446040877360893964,robocape_mag,26.7,-35.25,-10.95,10.0,0.0,0.0,0.0,10.0,0.0,0.0,0.0,10.0
1446040877398926148,406,1446040877393903970,robocape_mag,26.7,-35.25,-10.95,10.0,0.0,0.0,0.0,10.0,0.0,0.0,0.0,10.0
1446040877433992106,407,1446040877427386999,robocape_mag,26.7,-35.25,-11.85,10.0,0.0,0.0,0.0,10.0,0.0,0.0,0.0,10.0
1446040877465005439,408,1446040877460102081,robocape_mag,27.6,-35.55,-11.85,10.0,0.0,0.0,0.0,10.0,0.0,0.0,0.0,10.0
1446040877496145439,409,1446040877491192102,robocape_mag,27.6,-35.55,-11.85,10.0,0.0,0.0,0.0,10.0,0.0,0.0,0.0,10.0
1446040877536670273,410,1446040877530512094,robocape_mag,27.6,-35.55,-11.85,10.0,0.0,0.0,0.0,10.0,0.0,0.0,0.0,10.0
1446040877562108148,411,1446040877557205915,robocape_mag,27.6,-35.55,-11.85,10.0,0.0,0.0,0.0,10.0,0.0,0.0,0.0,10.0
1446040877596269731,412,1446040877591490030,robocape_mag,27.0,-34.95,-12.45,10.0,0.0,0.0,0.0,10.0,0.0,0.0,0.0,10.0
1446040877628666939,413,1446040877623836994,robocape_mag,27.0,-34.95,-12.45,10.0,0.0,0.0,0.0,10.0,0.0,0.0,0.0,10.0
1446040877662900190,414,1446040877657201051,robocape_mag,27.0,-34.95,-12.45,10.0,0.0,0.0,0.0,10.0,0.0,0.0,0.0,10.0
1446040877696302523,415,1446040877691473960,robocape_mag,27.0,-34.95,-12.45,10.0,0.0,0.0,0.0,10.0,0.0,0.0,0.0,10.0
1446040877728653773,416,1446040877723848104,robocape_mag,27.0,-34.95,-12.45,10.0,0.0,0.0,0.0,10.0,0.0,0.0,0.0,10.0
1446040877762227398,417,1446040877757152080,robocape_mag,28.5,-35.85,-12.15,10.0,0.0,0.0,0.0,10.0,0.0,0.0,0.0,10.0
1446040877795965648,418,1446040877791004896,robocape_mag,28.5,-35.85,-12.15,10.0,0.0,0.0,0.0,10.0,0.0,0.0,0.0,10.0
1446040877828862690,419,1446040877824027061,robocape_mag,28.5,-35.85,-12.15,10.0,0.0,0.0,0.0,10.0,0.0,0.0,0.0,10.0
1446040877862116565,420,1446040877857134103,robocape_mag,28.5,-35.85,-12.15,10.0,0.0,0.0,0.0,10.0,0.0,0.0,0.0,10.0
1446040877896220940,421,1446040877891220092,robocape_mag,28.5,-35.85,-12.15,10.0,0.0,0.0,0.0,10.0,0.0,0.0,0.0,10.0
1446040877928855190,422,1446040877924093961,robocape_mag,25.8,-34.95,-11.25,10.0,0.0,0.0,0.0,10.0,0.0,0.0,0.0,10.0
1446040877962187565,423,1446040877957155942,robocape_mag,25.8,-34.95,-11.25,10.0,0.0,0.0,0.0,10.0,0.0,0.0,0.0,10.0
1446040877996202356,424,1446040877991245031,robocape_mag,25.8,-34.95,-11.25,10.0,0.0,0.0,0.0,10.0,0.0,0.0,0.0,10.0
1446040878029143815,425,1446040878023962020,robocape_mag,25.8,-34.95,-11.25,10.0,0.0,0.0,0.0,10.0,0.0,0.0,0.0,10.0
1446040878062258940,426,1446040878057075977,robocape_mag,25.8,-34.95,-11.25,10.0,0.0,0.0,0.0,10.0,0.0,0.0,0.0,10.0
1446040878096661940,427,1446040878091717004,robocape_mag,27.9,-35.25,-10.95,10.0,0.0,0.0,0.0,10.0,0.0,0.0,0.0,10.0
1446040878129026481,428,1446040878123966932,robocape_mag,27.9,-35.25,-10.95,10.0,0.0,0.0,0.0,10.0,0.0,0.0,0.0,10.0
1446040878162419690,429,1446040878157237052,robocape_mag,27.9,-35.25,-10.95,10.0,0.0,0.0,0.0,10.0,0.0,0.0,0.0,10.0
1446040878196246190,430,1446040878191258907,robocape_mag,27.9,-35.25,-10.95,10.0,0.0,0.0,0.0,10.0,0.0,0.0,0.0,10.0
1446040878228785273,431,1446040878223983049,robocape_mag,27.9,-35.25,-10.95,10.0,0.0,0.0,0.0,10.0,0.0,0.0,0.0,10.0
1446040878262351981,432,1446040878257042884,robocape_mag,27.0,-35.55,-10.65,10.0,0.0,0.0,0.0,10.0,0.0,0.0,0.0,10.0
1446040878298621731,433,1446040878293726921,robocape_mag,27.0,-35.55,-10.65,10.0,0.0,0.0,0.0,10.0,0.0,0.0,0.0,10.0
1446040878328872565,434,1446040878324131965,robocape_mag,27.0,-35.55,-10.65,10.0,0.0,0.0,0.0,10.0,0.0,0.0,0.0,10.0
1446040878362285315,435,1446040878357112884,robocape_mag,27.0,-35.55,-10.65,10.0,0.0,0.0,0.0,10.0,0.0,0.0,0.0,10.0
1446040878396683148,436,1446040878390913009,robocape_mag,27.6,-33.75,-12.45,10.0,0.0,0.0,0.0,10.0,0.0,0.0,0.0,10.0
1446040878428858357,437,1446040878424113035,robocape_mag,27.6,-33.75,-12.45,10.0,0.0,0.0,0.0,10.0,0.0,0.0,0.0,10.0
1446040878462398148,438,1446040878457138061,robocape_mag,27.6,-33.75,-12.45,10.0,0.0,0.0,0.0,10.0,0.0,0.0,0.0,10.0
1446040878496465815,439,1446040878490446090,robocape_mag,27.6,-33.75,-12.45,10.0,0.0,0.0,0.0,10.0,0.0,0.0,0.0,10.0
1446040878536381982,440,1446040878530662059,robocape_mag,27.6,-33.75,-12.45,10.0,0.0,0.0,0.0,10.0,0.0,0.0,0.0,10.0
1446040878562345232,441,1446040878557092905,robocape_mag,27.3,-34.05,-11.55,10.0,0.0,0.0,0.0,10.0,0.0,0.0,0.0,10.0
1446040878597219940,442,1446040878591921091,robocape_mag,27.3,-34.05,-11.55,10.0,0.0,0.0,0.0,10.0,0.0,0.0,0.0,10.0
1446040878630082190,443,1446040878625072956,robocape_mag,27.3,-34.05,-11.55,10.0,0.0,0.0,0.0,10.0,0.0,0.0,0.0,10.0
1446040878662708065,444,1446040878657412052,robocape_mag,27.3,-34.05,-11.55,10.0,0.0,0.0,0.0,10.0,0.0,0.0,0.0,10.0
1446040878696528107,445,1446040878690655946,robocape_mag,27.3,-34.05,-11.55,10.0,0.0,0.0,0.0,10.0,0.0,0.0,0.0,10.0
1446040878728819440,446,1446040878724071025,robocape_mag,27.0,-35.55,-11.85,10.0,0.0,0.0,0.0,10.0,0.0,0.0,0.0,10.0
1446040878771820482,447,1446040878764488935,robocape_mag,27.0,-35.55,-11.85,10.0,0.0,0.0,0.0,10.0,0.0,0.0,0.0,10.0
1446040878805156940,448,1446040878800122976,robocape_mag,27.0,-35.55,-11.85,10.0,0.0,0.0,0.0,10.0,0.0,0.0,0.0,10.0
1446040878837836315,449,1446040878832653999,robocape_mag,27.0,-35.55,-11.85,10.0,0.0,0.0,0.0,10.0,0.0,0.0,0.0,10.0
1446040878870520065,450,1446040878865605115,robocape_mag,27.0,-35.55,-11.85,10.0,0.0,0.0,0.0,10.0,0.0,0.0,0.0,10.0
1446040878911091732,451,1446040878900707960,robocape_mag,27.0,-36.15,-9.45,10.0,0.0,0.0,0.0,10.0,0.0,0.0,0.0,10.0
1446040878940825648,452,1446040878935916900,robocape_mag,27.0,-36.15,-9.45,10.0,0.0,0.0,0.0,10.0,0.0,0.0,0.0,10.0
1446040878974720523,453,1446040878969157934,robocape_mag,27.0,-36.15,-9.45,10.0,0.0,0.0,0.0,10.0,0.0,0.0,0.0,10.0
1446040879007475690,454,1446040879002441883,robocape_mag,27.0,-36.15,-9.45,10.0,0.0,0.0,0.0,10.0,0.0,0.0,0.0,10.0
1446040879041178982,455,1446040879036184072,robocape_mag,27.6,-32.55,-11.25,10.0,0.0,0.0,0.0,10.0,0.0,0.0,0.0,10.0
1446040879078781940,456,1446040879069004058,robocape_mag,27.6,-32.55,-11.25,10.0,0.0,0.0,0.0,10.0,0.0,0.0,0.0,10.0
1446040879106802565,457,1446040879101950883,robocape_mag,27.6,-32.55,-11.25,10.0,0.0,0.0,0.0,10.0,0.0,0.0,0.0,10.0
1446040879140167024,458,1446040879135065078,robocape_mag,27.6,-32.55,-11.25,10.0,0.0,0.0,0.0,10.0,0.0,0.0,0.0,10.0
1446040879174023232,459,1446040879168687105,robocape_mag,27.6,-32.55,-11.25,10.0,0.0,0.0,0.0,10.0,0.0,0.0,0.0,10.0
1446040879207403815,460,1446040879202379941,robocape_mag,27.0,-35.55,-12.45,10.0,0.0,0.0,0.0,10.0,0.0,0.0,0.0,10.0
1446040879240363690,461,1446040879235327005,robocape_mag,27.0,-35.55,-12.45,10.0,0.0,0.0,0.0,10.0,0.0,0.0,0.0,10.0
1446040879272720649,462,1446040879267889022,robocape_mag,27.0,-35.55,-12.45,10.0,0.0,0.0,0.0,10.0,0.0,0.0,0.0,10.0
1446040879303100899,463,1446040879298207044,robocape_mag,27.0,-35.55,-12.45,10.0,0.0,0.0,0.0,10.0,0.0,0.0,0.0,10.0
1446040879338930857,464,1446040879330359935,robocape_mag,27.0,-35.55,-12.45,10.0,0.0,0.0,0.0,10.0,0.0,0.0,0.0,10.0
1446040879368493940,465,1446040879363445043,robocape_mag,27.9,-35.25,-11.55,10.0,0.0,0.0,0.0,10.0,0.0,0.0,0.0,10.0
1446040879401516607,466,1446040879396507978,robocape_mag,27.9,-35.25,-11.55,10.0,0.0,0.0,0.0,10.0,0.0,0.0,0.0,10.0
1446040879433745774,467,1446040879428638935,robocape_mag,27.9,-35.25,-11.55,10.0,0.0,0.0,0.0,10.0,0.0,0.0,0.0,10.0
1446040879471242232,468,1446040879462097883,robocape_mag,27.9,-35.25,-11.55,10.0,0.0,0.0,0.0,10.0,0.0,0.0,0.0,10.0
1446040879500434899,469,1446040879494633913,robocape_mag,27.9,-35.25,-11.55,10.0,0.0,0.0,0.0,10.0,0.0,0.0,0.0,10.0
1446040879539204690,470,1446040879529350042,robocape_mag,26.7,-33.45,-11.55,10.0,0.0,0.0,0.0,10.0,0.0,0.0,0.0,10.0
1446040879573415357,471,1446040879565979957,robocape_mag,26.7,-33.45,-11.55,10.0,0.0,0.0,0.0,10.0,0.0,0.0,0.0,10.0
1446040879606366940,472,1446040879601401090,robocape_mag,26.7,-33.45,-11.55,10.0,0.0,0.0,0.0,10.0,0.0,0.0,0.0,10.0
1446040879639634690,473,1446040879634685993,robocape_mag,26.7,-33.45,-11.55,10.0,0.0,0.0,0.0,10.0,0.0,0.0,0.0,10.0
1446040879682753399,474,1446040879672713041,robocape_mag,27.0,-34.35,-13.05,10.0,0.0,0.0,0.0,10.0,0.0,0.0,0.0,10.0
1446040879711545024,475,1446040879706598997,robocape_mag,27.0,-34.35,-13.05,10.0,0.0,0.0,0.0,10.0,0.0,0.0,0.0,10.0
1446040879745037440,476,1446040879740024089,robocape_mag,27.0,-34.35,-13.05,10.0,0.0,0.0,0.0,10.0,0.0,0.0,0.0,10.0
1446040879774621816,477,1446040879769752025,robocape_mag,27.0,-34.35,-13.05,10.0,0.0,0.0,0.0,10.0,0.0,0.0,0.0,10.0
1446040879798443774,478,1446040879793431043,robocape_mag,27.0,-34.35,-13.05,10.0,0.0,0.0,0.0,10.0,0.0,0.0,0.0,10.0
1446040879828838774,479,1446040879823896884,robocape_mag,27.0,-34.35,-13.05,10.0,0.0,0.0,0.0,10.0,0.0,0.0,0.0,10.0
1446040879861857524,480,1446040879857121944,robocape_mag,27.3,-35.25,-10.95,10.0,0.0,0.0,0.0,10.0,0.0,0.0,0.0,10.0
1446040879895521274,481,1446040879890537023,robocape_mag,27.3,-35.25,-10.95,10.0,0.0,0.0,0.0,10.0,0.0,0.0,0.0,10.0
1446040879929110232,482,1446040879924058914,robocape_mag,27.3,-35.25,-10.95,10.0,0.0,0.0,0.0,10.0,0.0,0.0,0.0,10.0
1446040879961821191,483,1446040879957108020,robocape_mag,27.3,-35.25,-10.95,10.0,0.0,0.0,0.0,10.0,0.0,0.0,0.0,10.0
1446040879995982857,484,1446040879990658998,robocape_mag,28.5,-33.45,-9.75,10.0,0.0,0.0,0.0,10.0,0.0,0.0,0.0,10.0
1446040880029313691,485,1446040880023891925,robocape_mag,28.5,-33.45,-9.75,10.0,0.0,0.0,0.0,10.0,0.0,0.0,0.0,10.0
1446040880061776274,486,1446040880057033061,robocape_mag,28.5,-33.45,-9.75,10.0,0.0,0.0,0.0,10.0,0.0,0.0,0.0,10.0
1446040880095517232,487,1446040880090388059,robocape_mag,28.5,-33.45,-9.75,10.0,0.0,0.0,0.0,10.0,0.0,0.0,0.0,10.0
1446040880128785232,488,1446040880123816013,robocape_mag,28.5,-33.45,-9.75,10.0,0.0,0.0,0.0,10.0,0.0,0.0,0.0,10.0
1446040880162359982,489,1446040880157377004,robocape_mag,26.1,-34.65,-11.55,10.0,0.0,0.0,0.0,10.0,0.0,0.0,0.0,10.0
1446040880195607649,490,1446040880190567970,robocape_mag,26.1,-34.65,-11.55,10.0,0.0,0.0,0.0,10.0,0.0,0.0,0.0,10.0
1446040880228983649,491,1446040880224076986,robocape_mag,26.1,-34.65,-11.55,10.0,0.0,0.0,0.0,10.0,0.0,0.0,0.0,10.0
1446040880261762274,492,1446040880257018089,robocape_mag,26.1,-34.65,-11.55,10.0,0.0,0.0,0.0,10.0,0.0,0.0,0.0,10.0
1446040880295557232,493,1446040880290513038,robocape_mag,26.1,-34.65,-11.55,10.0,0.0,0.0,0.0,10.0,0.0,0.0,0.0,10.0
1446040880329799357,494,1446040880324816942,robocape_mag,27.3,-34.65,-12.75,10.0,0.0,0.0,0.0,10.0,0.0,0.0,0.0,10.0
1446040880361763982,495,1446040880357080936,robocape_mag,27.3,-34.65,-12.75,10.0,0.0,0.0,0.0,10.0,0.0,0.0,0.0,10.0
1446040880396110482,496,1446040880390505075,robocape_mag,27.3,-34.65,-12.75,10.0,0.0,0.0,0.0,10.0,0.0,0.0,0.0,10.0
1446040880428882274,497,1446040880423818111,robocape_mag,27.3,-34.65,-12.75,10.0,0.0,0.0,0.0,10.0,0.0,0.0,0.0,10.0
1446040880461931566,498,1446040880457094907,robocape_mag,27.3,-34.65,-12.75,10.0,0.0,0.0,0.0,10.0,0.0,0.0,0.0,10.0
1446040880496086524,499,1446040880490936994,robocape_mag,29.1,-34.65,-12.15,10.0,0.0,0.0,0.0,10.0,0.0,0.0,0.0,10.0
1446040880536653233,500,1446040880530636072,robocape_mag,29.1,-34.65,-12.15,10.0,0.0,0.0,0.0,10.0,0.0,0.0,0.0,10.0
1446040880561771899,501,1446040880557030916,robocape_mag,29.1,-34.65,-12.15,10.0,0.0,0.0,0.0,10.0,0.0,0.0,0.0,10.0
1446040880595613483,502,1446040880590784072,robocape_mag,29.1,-34.65,-12.15,10.0,0.0,0.0,0.0,10.0,0.0,0.0,0.0,10.0
1446040880628636774,503,1446040880623812913,robocape_mag,29.1,-34.65,-12.15,10.0,0.0,0.0,0.0,10.0,0.0,0.0,0.0,10.0
1446040880662406024,504,1446040880657335042,robocape_mag,25.5,-35.25,-12.15,10.0,0.0,0.0,0.0,10.0,0.0,0.0,0.0,10.0
1446040880695506941,505,1446040880690443992,robocape_mag,25.5,-35.25,-12.15,10.0,0.0,0.0,0.0,10.0,0.0,0.0,0.0,10.0
1446040880728803858,506,1446040880723918914,robocape_mag,25.5,-35.25,-12.15,10.0,0.0,0.0,0.0,10.0,0.0,0.0,0.0,10.0
1446040880762124441,507,1446040880757297039,robocape_mag,25.5,-35.25,-12.15,10.0,0.0,0.0,0.0,10.0,0.0,0.0,0.0,10.0
1446040880795445316,508,1446040880790491104,robocape_mag,28.2,-34.35,-11.25,10.0,0.0,0.0,0.0,10.0,0.0,0.0,0.0,10.0
1446040880828898608,509,1446040880823863983,robocape_mag,28.2,-34.35,-11.25,10.0,0.0,0.0,0.0,10.0,0.0,0.0,0.0,10.0
1446040880861866608,510,1446040880857131004,robocape_mag,28.2,-34.35,-11.25,10.0,0.0,0.0,0.0,10.0,0.0,0.0,0.0,10.0
1446040880895463524,511,1446040880890513896,robocape_mag,28.2,-34.35,-11.25,10.0,0.0,0.0,0.0,10.0,0.0,0.0,0.0,10.0
1446040880928897316,512,1446040880923825979,robocape_mag,28.2,-34.35,-11.25,10.0,0.0,0.0,0.0,10.0,0.0,0.0,0.0,10.0
1446040880962058733,513,1446040880957288980,robocape_mag,28.2,-34.35,-10.65,10.0,0.0,0.0,0.0,10.0,0.0,0.0,0.0,10.0
1446040880995775274,514,1446040880990755081,robocape_mag,28.2,-34.35,-10.65,10.0,0.0,0.0,0.0,10.0,0.0,0.0,0.0,10.0
1446040881030336274,515,1446040881023794889,robocape_mag,28.2,-34.35,-10.65,10.0,0.0,0.0,0.0,10.0,0.0,0.0,0.0,10.0
1446040881062062066,516,1446040881057123899,robocape_mag,28.2,-34.35,-10.65,10.0,0.0,0.0,0.0,10.0,0.0,0.0,0.0,10.0
1446040881095372566,517,1446040881090559959,robocape_mag,28.2,-34.35,-10.65,10.0,0.0,0.0,0.0,10.0,0.0,0.0,0.0,10.0
1446040881128937483,518,1446040881123794078,robocape_mag,27.6,-33.75,-11.25,10.0,0.0,0.0,0.0,10.0,0.0,0.0,0.0,10.0
1446040881162483066,519,1446040881157075881,robocape_mag,27.6,-33.75,-11.25,10.0,0.0,0.0,0.0,10.0,0.0,0.0,0.0,10.0
1446040881195555025,520,1446040881190530061,robocape_mag,27.6,-33.75,-11.25,10.0,0.0,0.0,0.0,10.0,0.0,0.0,0.0,10.0
