%time,field.header.seq,field.header.stamp,field.header.frame_id,field.orientation.x,field.orientation.y,field.orientation.z,field.orientation.w,field.orientation_covariance0,field.orientation_covariance1,field.orientation_covariance2,field.orientation_covariance3,field.orientation_covariance4,field.orientation_covariance5,field.orientation_covariance6,field.orientation_covariance7,field.orientation_covariance8,field.angular_velocity.x,field.angular_velocity.y,field.angular_velocity.z,field.angular_velocity_covariance0,field.angular_velocity_covariance1,field.angular_velocity_covariance2,field.angular_velocity_covariance3,field.angular_velocity_covariance4,field.angular_velocity_covariance5,field.angular_velocity_covariance6,field.angular_velocity_covariance7,field.angular_velocity_covariance8,field.linear_acceleration.x,field.linear_acceleration.y,field.linear_acceleration.z,field.linear_acceleration_covariance0,field.linear_acceleration_covariance1,field.linear_acceleration_covariance2,field.linear_acceleration_covariance3,field.linear_acceleration_covariance4,field.linear_acceleration_covariance5,field.linear_acceleration_covariance6,field.linear_acceleration_covariance7,field.linear_acceleration_covariance8
1446035243702752149,1,1446035243648164987,robocape,15.4758929319,10.4268229416,156.534339329,0.0,10.0,0.0,0.0,0.0,10.0,0.0,0.0,0.0,10.0,0.00798948327024,0.0111852765783,0.00865527354276,1.0,0.0,0.0,0.0,1.0,0.0,0.0,0.0,1.0,0.00119750976563,-0.603544921875,10.1417102051,0.1,0.0,0.0,0.0,0.1,0.0,0.0,0.0,0.1
1446035243719904274,2,1446035243667931079,robocape,15.4875566003,10.4347700896,156.547524734,0.0,10.0,0.0,0.0,0.0,10.0,0.0,0.0,0.0,10.0,0.00785632521573,0.0114515926873,0.00852211548825,1.0,0.0,0.0,0.0,1.0,0.0,0.0,0.0,1.0,-0.00598754882813,-0.613125,10.1704504395,0.1,0.0,0.0,0.0,0.1,0.0,0.0,0.0,0.1
1446035243728164190,3,1446035243690401077,robocape,15.4993797003,10.4421707682,156.561488668,0.0,10.0,0.0,0.0,0.0,10.0,0.0,0.0,0.0,10.0,0.00785632521573,0.0110521185238,0.00932106381528,1.0,0.0,0.0,0.0,1.0,0.0,0.0,0.0,1.0,-0.0155676269531,-0.608334960938,10.1441052246,0.1,0.0,0.0,0.0,0.1,0.0,0.0,0.0,0.1
1446035243728223524,4,1446035243711082935,robocape,15.5108784385,10.4497163032,156.575346536,0.0,10.0,0.0,0.0,0.0,10.0,0.0,0.0,0.0,10.0,0.00759000910673,0.0111852765783,0.00918790576077,1.0,0.0,0.0,0.0,1.0,0.0,0.0,0.0,1.0,-0.00359252929688,-0.605939941406,10.1345251465,0.1,0.0,0.0,0.0,0.1,0.0,0.0,0.0,0.1
1446035243728493982,5,1446035243724895954,robocape,15.5225686553,10.4570060403,156.588631405,0.0,10.0,0.0,0.0,0.0,10.0,0.0,0.0,0.0,10.0,0.00785632521573,0.0107858024148,0.00878843159726,1.0,0.0,0.0,0.0,1.0,0.0,0.0,0.0,1.0,0.0047900390625,-0.609532470703,10.1453027344,0.1,0.0,0.0,0.0,0.1,0.0,0.0,0.0,0.1
1446035243755133524,6,1446035243751833915,robocape,15.5346668961,10.4644730234,156.601660134,0.0,10.0,0.0,0.0,0.0,10.0,0.0,0.0,0.0,10.0,0.00825579937925,0.0109189604693,0.00852211548825,1.0,0.0,0.0,0.0,1.0,0.0,0.0,0.0,1.0,-0.0119750976563,-0.587977294922,10.1476977539,0.1,0.0,0.0,0.0,0.1,0.0,0.0,0.0,0.1
1446035243790527815,7,1446035243781975984,robocape,15.5465368484,10.4716068866,156.615058189,0.0,10.0,0.0,0.0,0.0,10.0,0.0,0.0,0.0,10.0,0.00798948327024,0.0106526443603,0.00892158965177,1.0,0.0,0.0,0.0,1.0,0.0,0.0,0.0,1.0,-0.0047900390625,-0.59396484375,10.1596728516,0.1,0.0,0.0,0.0,0.1,0.0,0.0,0.0,0.1
1446035243802493982,8,1446035243799124002,robocape,15.5584163869,10.4797314781,156.628492621,0.0,10.0,0.0,0.0,0.0,10.0,0.0,0.0,0.0,10.0,0.00798948327024,0.0117179087963,0.00865527354276,1.0,0.0,0.0,0.0,1.0,0.0,0.0,0.0,1.0,0.00718505859375,-0.599952392578,10.1441052246,0.1,0.0,0.0,0.0,0.1,0.0,0.0,0.0,0.1
1446035243820167524,9,1446035243818114995,robocape,15.5701171737,10.4870065218,156.641787115,0.0,10.0,0.0,0.0,0.0,10.0,0.0,0.0,0.0,10.0,0.00785632521573,0.0107858024148,0.00878843159726,1.0,0.0,0.0,0.0,1.0,0.0,0.0,0.0,1.0,0.148491210938,-0.598754882812,10.1740429688,0.1,0.0,0.0,0.0,0.1,0.0,0.0,0.0,0.1
1446035243843365107,10,1446035243841614961,robocape,15.5816374563,10.4943103639,156.654933844,0.0,10.0,0.0,0.0,0.0,10.0,0.0,0.0,0.0,10.0,0.00772316716123,0.0107858024148,0.00865527354276,1.0,0.0,0.0,0.0,1.0,0.0,0.0,0.0,1.0,0.00838256835938,-0.596359863281,10.1536853027,0.1,0.0,0.0,0.0,0.1,0.0,0.0,0.0,0.1
1446035243870846024,11,1446035243868942022,robocape,15.5932128286,10.5015917154,156.66759071,0.0,10.0,0.0,0.0,0.0,10.0,0.0,0.0,0.0,10.0,0.00785632521573,0.0106526443603,0.00825579937925,1.0,0.0,0.0,0.0,1.0,0.0,0.0,0.0,1.0,-0.00359252929688,-0.598754882812,10.1548828125,0.1,0.0,0.0,0.0,0.1,0.0,0.0,0.0,0.1
1446035243898165357,12,1446035243894469022,robocape,15.6044024987,10.5089208922,156.68059199,0.0,10.0,0.0,0.0,0.0,10.0,0.0,0.0,0.0,10.0,0.00745685105222,0.0107858024148,0.00852211548825,1.0,0.0,0.0,0.0,1.0,0.0,0.0,0.0,1.0,-0.0119750976563,-0.599952392578,10.1584753418,0.1,0.0,0.0,0.0,0.1,0.0,0.0,0.0,0.1
1446035243916258691,13,1446035243914480924,robocape,15.6163747585,10.5164786206,156.693679507,0.0,10.0,0.0,0.0,0.0,10.0,0.0,0.0,0.0,10.0,0.00812264132474,0.0110521185238,0.00852211548825,1.0,0.0,0.0,0.0,1.0,0.0,0.0,0.0,1.0,-0.0167651367188,-0.604742431641,10.1620678711,0.1,0.0,0.0,0.0,0.1,0.0,0.0,0.0,0.1
1446035243940854816,14,1446035243939090967,robocape,15.6282839403,10.5243157973,156.707195639,0.0,10.0,0.0,0.0,0.0,10.0,0.0,0.0,0.0,10.0,0.00798948327024,0.0114515926873,0.00878843159726,1.0,0.0,0.0,0.0,1.0,0.0,0.0,0.0,1.0,-0.0167651367188,-0.597557373047,10.157277832,0.1,0.0,0.0,0.0,0.1,0.0,0.0,0.0,0.1
1446035243969535149,15,1446035243967750072,robocape,15.6402529963,10.531750041,156.720246148,0.0,10.0,0.0,0.0,0.0,10.0,0.0,0.0,0.0,10.0,0.00812264132474,0.0109189604693,0.00852211548825,1.0,0.0,0.0,0.0,1.0,0.0,0.0,0.0,1.0,0.00718505859375,-0.587977294922,10.1536853027,0.1,0.0,0.0,0.0,0.1,0.0,0.0,0.0,0.1
1446035243992407816,16,1446035243990680932,robocape,15.6520897989,10.5386982815,156.732638626,0.0,10.0,0.0,0.0,0.0,10.0,0.0,0.0,0.0,10.0,0.00812264132474,0.0102531701968,0.00812264132474,1.0,0.0,0.0,0.0,1.0,0.0,0.0,0.0,1.0,0.009580078125,-0.599952392578,10.1668579102,0.1,0.0,0.0,0.0,0.1,0.0,0.0,0.0,0.1
1446035244015002816,17,1446035244013360977,robocape,15.6642557576,10.5462087304,156.745886174,0.0,10.0,0.0,0.0,0.0,10.0,0.0,0.0,0.0,10.0,0.00825579937925,0.0110521185238,0.00865527354276,1.0,0.0,0.0,0.0,1.0,0.0,0.0,0.0,1.0,0.0,-0.591569824219,10.152487793,0.1,0.0,0.0,0.0,0.1,0.0,0.0,0.0,0.1
1446035244040655607,18,1446035244038754940,robocape,15.6764629121,10.5539613471,156.758578019,0.0,10.0,0.0,0.0,0.0,10.0,0.0,0.0,0.0,10.0,0.00838895743375,0.0111852765783,0.00812264132474,1.0,0.0,0.0,0.0,1.0,0.0,0.0,0.0,1.0,0.0047900390625,-0.598754882812,10.1381176758,0.1,0.0,0.0,0.0,0.1,0.0,0.0,0.0,0.1
1446035244068860691,19,1446035244067070007,robocape,15.6884107757,10.5615760644,156.770737915,0.0,10.0,0.0,0.0,0.0,10.0,0.0,0.0,0.0,10.0,0.00825579937925,0.0109189604693,0.00772316716123,1.0,0.0,0.0,0.0,1.0,0.0,0.0,0.0,1.0,0.0119750976563,-0.59396484375,10.1381176758,0.1,0.0,0.0,0.0,0.1,0.0,0.0,0.0,0.1
1446035244091972316,20,1446035244090277910,robocape,15.7001223044,10.5694552454,156.783969426,0.0,10.0,0.0,0.0,0.0,10.0,0.0,0.0,0.0,10.0,0.00785632521573,0.0114515926873,0.00852211548825,1.0,0.0,0.0,0.0,1.0,0.0,0.0,0.0,1.0,0.0131726074219,-0.614322509766,10.1644628906,0.1,0.0,0.0,0.0,0.1,0.0,0.0,0.0,0.1
1446035244115049441,21,1446035244113430023,robocape,15.7122857254,10.5772147476,156.797161341,0.0,10.0,0.0,0.0,0.0,10.0,0.0,0.0,0.0,10.0,0.00825579937925,0.0113184346328,0.00852211548825,1.0,0.0,0.0,0.0,1.0,0.0,0.0,0.0,1.0,0.00119750976563,-0.601149902344,10.1632653809,0.1,0.0,0.0,0.0,0.1,0.0,0.0,0.0,0.1
1446035244140423399,22,1446035244138808012,robocape,15.7252850707,10.5850209132,156.810698318,0.0,10.0,0.0,0.0,0.0,10.0,0.0,0.0,0.0,10.0,0.00892158965177,0.0114515926873,0.00878843159726,1.0,0.0,0.0,0.0,1.0,0.0,0.0,0.0,1.0,0.00119750976563,-0.585582275391,10.1824255371,0.1,0.0,0.0,0.0,0.1,0.0,0.0,0.0,0.1
1446035244167743774,23,1446035244165990114,robocape,15.7376200417,10.5925084526,156.823961133,0.0,10.0,0.0,0.0,0.0,10.0,0.0,0.0,0.0,10.0,0.00838895743375,0.0110521185238,0.00865527354276,1.0,0.0,0.0,0.0,1.0,0.0,0.0,0.0,1.0,0.00119750976563,-0.607137451172,10.157277832,0.1,0.0,0.0,0.0,0.1,0.0,0.0,0.0,0.1
1446035244194851274,24,1446035244192207098,robocape,15.7489203725,10.5999596791,156.837376474,0.0,10.0,0.0,0.0,0.0,10.0,0.0,0.0,0.0,10.0,0.00745685105222,0.0110521185238,0.00878843159726,1.0,0.0,0.0,0.0,1.0,0.0,0.0,0.0,1.0,0.00359252929688,-0.605939941406,10.1273400879,0.1,0.0,0.0,0.0,0.1,0.0,0.0,0.0,0.1
1446035244215274774,25,1446035244213342905,robocape,15.7603481761,10.6072234345,156.849916887,0.0,10.0,0.0,0.0,0.0,10.0,0.0,0.0,0.0,10.0,0.00772316716123,0.0106526443603,0.00812264132474,1.0,0.0,0.0,0.0,1.0,0.0,0.0,0.0,1.0,-0.01916015625,-0.608334960938,10.1285375977,0.1,0.0,0.0,0.0,0.1,0.0,0.0,0.0,0.1
1446035244240661816,26,1446035244238867998,robocape,15.7717312268,10.6149966673,156.862971557,0.0,10.0,0.0,0.0,0.0,10.0,0.0,0.0,0.0,10.0,0.00759000910673,0.0113184346328,0.00838895743375,1.0,0.0,0.0,0.0,1.0,0.0,0.0,0.0,1.0,-0.009580078125,-0.598754882812,10.1393151855,0.1,0.0,0.0,0.0,0.1,0.0,0.0,0.0,0.1
1446035244267254149,27,1446035244265495061,robocape,15.7839772565,10.6222886339,156.876501784,0.0,10.0,0.0,0.0,0.0,10.0,0.0,0.0,0.0,10.0,0.00825579937925,0.0109189604693,0.00892158965177,1.0,0.0,0.0,0.0,1.0,0.0,0.0,0.0,1.0,-0.00838256835938,-0.591569824219,10.1405126953,0.1,0.0,0.0,0.0,0.1,0.0,0.0,0.0,0.1
1446035244293603607,28,1446035244291662931,robocape,15.79575744,10.6296247447,156.889241777,0.0,10.0,0.0,0.0,0.0,10.0,0.0,0.0,0.0,10.0,0.00798948327024,0.0107858024148,0.00825579937925,1.0,0.0,0.0,0.0,1.0,0.0,0.0,0.0,1.0,-0.00598754882813,-0.598754882812,10.1680554199,0.1,0.0,0.0,0.0,0.1,0.0,0.0,0.0,0.1
1446035244315304691,29,1446035244313539028,robocape,15.8073891818,10.6376680373,156.902731555,0.0,10.0,0.0,0.0,0.0,10.0,0.0,0.0,0.0,10.0,0.00772316716123,0.0117179087963,0.00865527354276,1.0,0.0,0.0,0.0,1.0,0.0,0.0,0.0,1.0,-0.00239501953125,-0.591569824219,10.1788330078,0.1,0.0,0.0,0.0,0.1,0.0,0.0,0.0,0.1
1446035244340503274,30,1446035244338717937,robocape,15.8195990314,10.6452452902,156.916054015,0.0,10.0,0.0,0.0,0.0,10.0,0.0,0.0,0.0,10.0,0.00825579937925,0.0111852765783,0.00865527354276,1.0,0.0,0.0,0.0,1.0,0.0,0.0,0.0,1.0,0.00598754882813,-0.586779785156,10.1668579102,0.1,0.0,0.0,0.0,0.1,0.0,0.0,0.0,0.1
1446035244366784274,31,1446035244364923954,robocape,15.8311702554,10.652851518,156.92922895,0.0,10.0,0.0,0.0,0.0,10.0,0.0,0.0,0.0,10.0,0.00772316716123,0.0111852765783,0.00852211548825,1.0,0.0,0.0,0.0,1.0,0.0,0.0,0.0,1.0,-0.00359252929688,-0.591569824219,10.1488952637,0.1,0.0,0.0,0.0,0.1,0.0,0.0,0.0,0.1
1446035244395108982,32,1446035244393223047,robocape,15.8431134751,10.6601731757,156.941978619,0.0,10.0,0.0,0.0,0.0,10.0,0.0,0.0,0.0,10.0,0.00812264132474,0.0107858024148,0.00825579937925,1.0,0.0,0.0,0.0,1.0,0.0,0.0,0.0,1.0,-0.0155676269531,-0.586779785156,10.1560803223,0.1,0.0,0.0,0.0,0.1,0.0,0.0,0.0,0.1
1446035244415166566,33,1446035244413413047,robocape,15.854654685,10.6673103487,156.954988142,0.0,10.0,0.0,0.0,0.0,10.0,0.0,0.0,0.0,10.0,0.00772316716123,0.0106526443603,0.00852211548825,1.0,0.0,0.0,0.0,1.0,0.0,0.0,0.0,1.0,-0.0143701171875,-0.601149902344,10.1476977539,0.1,0.0,0.0,0.0,0.1,0.0,0.0,0.0,0.1
1446035244440326149,34,1446035244438568115,robocape,15.866297712,10.6746250049,156.96774255,0.0,10.0,0.0,0.0,0.0,10.0,0.0,0.0,0.0,10.0,0.00785632521573,0.0107858024148,0.00825579937925,1.0,0.0,0.0,0.0,1.0,0.0,0.0,0.0,1.0,-0.0107775878906,-0.609532470703,10.1692529297,0.1,0.0,0.0,0.0,0.1,0.0,0.0,0.0,0.1
1446035244466180107,35,1446035244464427947,robocape,15.8777045701,10.6823647962,156.980819973,0.0,10.0,0.0,0.0,0.0,10.0,0.0,0.0,0.0,10.0,0.00759000910673,0.0113184346328,0.00838895743375,1.0,0.0,0.0,0.0,1.0,0.0,0.0,0.0,1.0,-0.00239501953125,-0.586779785156,10.157277832,0.1,0.0,0.0,0.0,0.1,0.0,0.0,0.0,0.1
1446035244495097941,36,1446035244493180990,robocape,15.8893866451,10.690348385,156.994478041,0.0,10.0,0.0,0.0,0.0,10.0,0.0,0.0,0.0,10.0,0.00772316716123,0.0117179087963,0.00878843159726,1.0,0.0,0.0,0.0,1.0,0.0,0.0,0.0,1.0,-0.00119750976563,-0.589174804688,10.1429077148,0.1,0.0,0.0,0.0,0.1,0.0,0.0,0.0,0.1
1446035244517239983,37,1446035244514972925,robocape,15.9007456387,10.6982616221,157.00730317,0.0,10.0,0.0,0.0,0.0,10.0,0.0,0.0,0.0,10.0,0.00759000910673,0.0114515926873,0.00812264132474,1.0,0.0,0.0,0.0,1.0,0.0,0.0,0.0,1.0,-0.00239501953125,-0.59396484375,10.1429077148,0.1,0.0,0.0,0.0,0.1,0.0,0.0,0.0,0.1
1446035244540349899,38,1446035244538410902,robocape,15.9121105346,10.7060068918,157.020880897,0.0,10.0,0.0,0.0,0.0,10.0,0.0,0.0,0.0,10.0,0.00745685105222,0.0114515926873,0.00878843159726,1.0,0.0,0.0,0.0,1.0,0.0,0.0,0.0,1.0,-0.0047900390625,-0.603544921875,10.1476977539,0.1,0.0,0.0,0.0,0.1,0.0,0.0,0.0,0.1
1446035244565683108,39,1446035244563769102,robocape,15.9239805383,10.7134521589,157.034675614,0.0,10.0,0.0,0.0,0.0,10.0,0.0,0.0,0.0,10.0,0.00785632521573,0.0111852765783,0.00905474770627,1.0,0.0,0.0,0.0,1.0,0.0,0.0,0.0,1.0,0.00239501953125,-0.599952392578,10.1488952637,0.1,0.0,0.0,0.0,0.1,0.0,0.0,0.0,0.1
1446035244593609483,40,1446035244591718912,robocape,15.9361049982,10.7210745854,157.048215649,0.0,10.0,0.0,0.0,0.0,10.0,0.0,0.0,0.0,10.0,0.00812264132474,0.0113184346328,0.00878843159726,1.0,0.0,0.0,0.0,1.0,0.0,0.0,0.0,1.0,0.0,-0.604742431641,10.1548828125,0.1,0.0,0.0,0.0,0.1,0.0,0.0,0.0,0.1
1446035244615955399,41,1446035244614082098,robocape,15.9482679958,10.7291538067,157.061929688,0.0,10.0,0.0,0.0,0.0,10.0,0.0,0.0,0.0,10.0,0.00812264132474,0.0118510668509,0.00878843159726,1.0,0.0,0.0,0.0,1.0,0.0,0.0,0.0,1.0,-0.00119750976563,-0.602347412109,10.1704504395,0.1,0.0,0.0,0.0,0.1,0.0,0.0,0.0,0.1
1446035244640212233,42,1446035244638434886,robocape,15.9601421394,10.7369657875,157.075710688,0.0,10.0,0.0,0.0,0.0,10.0,0.0,0.0,0.0,10.0,0.00785632521573,0.0115847507418,0.00892158965177,1.0,0.0,0.0,0.0,1.0,0.0,0.0,0.0,1.0,-0.009580078125,-0.601149902344,10.157277832,0.1,0.0,0.0,0.0,0.1,0.0,0.0,0.0,0.1
1446035244665497274,43,1446035244663634061,robocape,15.9720151685,10.7440669371,157.088743877,0.0,10.0,0.0,0.0,0.0,10.0,0.0,0.0,0.0,10.0,0.00798948327024,0.0106526443603,0.00852211548825,1.0,0.0,0.0,0.0,1.0,0.0,0.0,0.0,1.0,-0.0143701171875,-0.595162353516,10.1536853027,0.1,0.0,0.0,0.0,0.1,0.0,0.0,0.0,0.1
1446035244693926316,44,1446035244691658973,robocape,15.9841144043,10.7514271465,157.102851215,0.0,10.0,0.0,0.0,0.0,10.0,0.0,0.0,0.0,10.0,0.00798948327024,0.0111852765783,0.00932106381528,1.0,0.0,0.0,0.0,1.0,0.0,0.0,0.0,1.0,-0.00718505859375,-0.595162353516,10.1536853027,0.1,0.0,0.0,0.0,0.1,0.0,0.0,0.0,0.1
1446035244721272566,45,1446035244718997955,robocape,15.9956740141,10.7587842533,157.115825123,0.0,10.0,0.0,0.0,0.0,10.0,0.0,0.0,0.0,10.0,0.00772316716123,0.0109189604693,0.00838895743375,1.0,0.0,0.0,0.0,1.0,0.0,0.0,0.0,1.0,-0.00239501953125,-0.596359863281,10.1584753418,0.1,0.0,0.0,0.0,0.1,0.0,0.0,0.0,0.1
1446035244740458524,46,1446035244738492012,robocape,16.0077253153,10.7661047843,157.128951447,0.0,10.0,0.0,0.0,0.0,10.0,0.0,0.0,0.0,10.0,0.00812264132474,0.0109189604693,0.00852211548825,1.0,0.0,0.0,0.0,1.0,0.0,0.0,0.0,1.0,-0.0107775878906,-0.596359863281,10.1476977539,0.1,0.0,0.0,0.0,0.1,0.0,0.0,0.0,0.1
1446035244765632941,47,1446035244763786077,robocape,16.0194697381,10.7737996209,157.142059376,0.0,10.0,0.0,0.0,0.0,10.0,0.0,0.0,0.0,10.0,0.00785632521573,0.0113184346328,0.00838895743375,1.0,0.0,0.0,0.0,1.0,0.0,0.0,0.0,1.0,-0.0119750976563,-0.59396484375,10.152487793,0.1,0.0,0.0,0.0,0.1,0.0,0.0,0.0,0.1
1446035244793080024,48,1446035244791279077,robocape,16.0310823671,10.7817206043,157.155255994,0.0,10.0,0.0,0.0,0.0,10.0,0.0,0.0,0.0,10.0,0.00772316716123,0.0115847507418,0.00838895743375,1.0,0.0,0.0,0.0,1.0,0.0,0.0,0.0,1.0,-0.00838256835938,-0.601149902344,10.2015856934,0.1,0.0,0.0,0.0,0.1,0.0,0.0,0.0,0.1
1446035244818321358,49,1446035244814553976,robocape,16.0438421015,10.789308732,157.168819007,0.0,10.0,0.0,0.0,0.0,10.0,0.0,0.0,0.0,10.0,0.00865527354276,0.0113184346328,0.00878843159726,1.0,0.0,0.0,0.0,1.0,0.0,0.0,0.0,1.0,-0.0131726074219,-0.598754882812,10.1740429688,0.1,0.0,0.0,0.0,0.1,0.0,0.0,0.0,0.1
1446035244840416899,50,1446035244838455915,robocape,16.0560166557,10.7967450261,157.18249149,0.0,10.0,0.0,0.0,0.0,10.0,0.0,0.0,0.0,10.0,0.00812264132474,0.0111852765783,0.00892158965177,1.0,0.0,0.0,0.0,1.0,0.0,0.0,0.0,1.0,-0.0047900390625,-0.586779785156,10.1536853027,0.1,0.0,0.0,0.0,0.1,0.0,0.0,0.0,0.1
1446035244866332858,51,1446035244864403009,robocape,16.06820677,10.8037024739,157.195500703,0.0,10.0,0.0,0.0,0.0,10.0,0.0,0.0,0.0,10.0,0.00825579937925,0.0105194863058,0.00852211548825,1.0,0.0,0.0,0.0,1.0,0.0,0.0,0.0,1.0,0.0,-0.584384765625,10.1429077148,0.1,0.0,0.0,0.0,0.1,0.0,0.0,0.0,0.1
1446035244891816441,52,1446035244890038013,robocape,16.0792822151,10.8113298565,157.208278369,0.0,10.0,0.0,0.0,0.0,10.0,0.0,0.0,0.0,10.0,0.00732369299772,0.0111852765783,0.00812264132474,1.0,0.0,0.0,0.0,1.0,0.0,0.0,0.0,1.0,-0.0107775878906,-0.587977294922,10.1393151855,0.1,0.0,0.0,0.0,0.1,0.0,0.0,0.0,0.1
1446035244920257774,53,1446035244917947053,robocape,16.0913073407,10.8189205042,157.221208473,0.0,10.0,0.0,0.0,0.0,10.0,0.0,0.0,0.0,10.0,0.00812264132474,0.0111852765783,0.00825579937925,1.0,0.0,0.0,0.0,1.0,0.0,0.0,0.0,1.0,-0.00119750976563,-0.598754882812,10.1153649902,0.1,0.0,0.0,0.0,0.1,0.0,0.0,0.0,0.1
1446035244940531191,54,1446035244938611030,robocape,16.1030656726,10.8260969547,157.234311184,0.0,10.0,0.0,0.0,0.0,10.0,0.0,0.0,0.0,10.0,0.00785632521573,0.0107858024148,0.00852211548825,1.0,0.0,0.0,0.0,1.0,0.0,0.0,0.0,1.0,-0.00598754882813,-0.597557373047,10.1716479492,0.1,0.0,0.0,0.0,0.1,0.0,0.0,0.0,0.1
1446035244966050274,55,1446035244964297056,robocape,16.1145487694,10.8336140702,157.247546181,0.0,10.0,0.0,0.0,0.0,10.0,0.0,0.0,0.0,10.0,0.00759000910673,0.0111852765783,0.00852211548825,1.0,0.0,0.0,0.0,1.0,0.0,0.0,0.0,1.0,-0.00598754882813,-0.596359863281,10.1740429688,0.1,0.0,0.0,0.0,0.1,0.0,0.0,0.0,0.1
1446035244991187816,56,1446035244989226102,robocape,16.1268199376,10.8409796279,157.260890299,0.0,10.0,0.0,0.0,0.0,10.0,0.0,0.0,0.0,10.0,0.00825579937925,0.0110521185238,0.00865527354276,1.0,0.0,0.0,0.0,1.0,0.0,0.0,0.0,1.0,-0.0179626464844,-0.598754882812,10.1668579102,0.1,0.0,0.0,0.0,0.1,0.0,0.0,0.0,0.1
1446035245018630774,57,1446035245016824007,robocape,16.1388518088,10.8482751346,157.274536826,0.0,10.0,0.0,0.0,0.0,10.0,0.0,0.0,0.0,10.0,0.00798948327024,0.0110521185238,0.00892158965177,1.0,0.0,0.0,0.0,1.0,0.0,0.0,0.0,1.0,-0.0215551757813,-0.599952392578,10.1608703613,0.1,0.0,0.0,0.0,0.1,0.0,0.0,0.0,0.1
1446035245041915108,58,1446035245039675951,robocape,16.1505189063,10.8565020938,157.287889899,0.0,10.0,0.0,0.0,0.0,10.0,0.0,0.0,0.0,10.0,0.00772316716123,0.0119842249054,0.00838895743375,1.0,0.0,0.0,0.0,1.0,0.0,0.0,0.0,1.0,0.00239501953125,-0.592767333984,10.1453027344,0.1,0.0,0.0,0.0,0.1,0.0,0.0,0.0,0.1
1446035245065300733,59,1446035245063527107,robocape,16.1626732974,10.8642002162,157.301371848,0.0,10.0,0.0,0.0,0.0,10.0,0.0,0.0,0.0,10.0,0.00812264132474,0.0114515926873,0.00865527354276,1.0,0.0,0.0,0.0,1.0,0.0,0.0,0.0,1.0,-0.00718505859375,-0.59396484375,10.177635498,0.1,0.0,0.0,0.0,0.1,0.0,0.0,0.0,0.1
1446035245090526941,60,1446035245088700056,robocape,16.1749163387,10.8716802345,157.315262776,0.0,10.0,0.0,0.0,0.0,10.0,0.0,0.0,0.0,10.0,0.00812264132474,0.0113184346328,0.00905474770627,1.0,0.0,0.0,0.0,1.0,0.0,0.0,0.0,1.0,0.00359252929688,-0.59396484375,10.157277832,0.1,0.0,0.0,0.0,0.1,0.0,0.0,0.0,0.1
1446035245119300441,61,1446035245117368936,robocape,16.1866708555,10.8789789939,157.328276062,0.0,10.0,0.0,0.0,0.0,10.0,0.0,0.0,0.0,10.0,0.00785632521573,0.0109189604693,0.00838895743375,1.0,0.0,0.0,0.0,1.0,0.0,0.0,0.0,1.0,-0.00598754882813,-0.587977294922,10.1644628906,0.1,0.0,0.0,0.0,0.1,0.0,0.0,0.0,0.1
1446035245142118399,62,1446035245139739990,robocape,16.1978545176,10.8867322411,157.341465883,0.0,10.0,0.0,0.0,0.0,10.0,0.0,0.0,0.0,10.0,0.00732369299772,0.0114515926873,0.00838895743375,1.0,0.0,0.0,0.0,1.0,0.0,0.0,0.0,1.0,0.0,-0.586779785156,10.1596728516,0.1,0.0,0.0,0.0,0.1,0.0,0.0,0.0,0.1
1446035245165321108,63,1446035245163574934,robocape,16.2101223303,10.8942194993,157.354721055,0.0,10.0,0.0,0.0,0.0,10.0,0.0,0.0,0.0,10.0,0.00825579937925,0.0111852765783,0.00852211548825,1.0,0.0,0.0,0.0,1.0,0.0,0.0,0.0,1.0,-0.009580078125,-0.598754882812,10.1536853027,0.1,0.0,0.0,0.0,0.1,0.0,0.0,0.0,0.1
1446035245190403233,64,1446035245188622951,robocape,16.2227708431,10.9017508198,157.368322292,0.0,10.0,0.0,0.0,0.0,10.0,0.0,0.0,0.0,10.0,0.00852211548825,0.0113184346328,0.00878843159726,1.0,0.0,0.0,0.0,1.0,0.0,0.0,0.0,1.0,-0.0155676269531,-0.592767333984,10.1560803223,0.1,0.0,0.0,0.0,0.1,0.0,0.0,0.0,0.1
1446035245218525733,65,1446035245216649055,robocape,16.2354965829,10.9087394838,157.381558082,0.0,10.0,0.0,0.0,0.0,10.0,0.0,0.0,0.0,10.0,0.00865527354276,0.0106526443603,0.00865527354276,1.0,0.0,0.0,0.0,1.0,0.0,0.0,0.0,1.0,-0.0107775878906,-0.584384765625,10.1393151855,0.1,0.0,0.0,0.0,0.1,0.0,0.0,0.0,0.1
1446035245242293816,66,1446035245240073919,robocape,16.2483284448,10.9163963288,157.394565007,0.0,10.0,0.0,0.0,0.0,10.0,0.0,0.0,0.0,10.0,0.00878843159726,0.0113184346328,0.00825579937925,1.0,0.0,0.0,0.0,1.0,0.0,0.0,0.0,1.0,-0.009580078125,-0.589174804688,10.1465002441,0.1,0.0,0.0,0.0,0.1,0.0,0.0,0.0,0.1
1446035245265207025,67,1446035245263475894,robocape,16.2602700581,10.9239016647,157.407680783,0.0,10.0,0.0,0.0,0.0,10.0,0.0,0.0,0.0,10.0,0.00798948327024,0.0111852765783,0.00838895743375,1.0,0.0,0.0,0.0,1.0,0.0,0.0,0.0,1.0,0.0,-0.604742431641,10.1584753418,0.1,0.0,0.0,0.0,0.1,0.0,0.0,0.0,0.1
1446035245290371150,68,1446035245288609981,robocape,16.272475781,10.9310412342,157.421311246,0.0,10.0,0.0,0.0,0.0,10.0,0.0,0.0,0.0,10.0,0.00812264132474,0.0109189604693,0.00892158965177,1.0,0.0,0.0,0.0,1.0,0.0,0.0,0.0,1.0,0.00718505859375,-0.605939941406,10.1465002441,0.1,0.0,0.0,0.0,0.1,0.0,0.0,0.0,0.1
1446035245318170900,69,1446035245316358089,robocape,16.285173815,10.9381437069,157.435094118,0.0,10.0,0.0,0.0,0.0,10.0,0.0,0.0,0.0,10.0,0.00852211548825,0.0109189604693,0.00905474770627,1.0,0.0,0.0,0.0,1.0,0.0,0.0,0.0,1.0,-0.0107775878906,-0.584384765625,10.1500927734,0.1,0.0,0.0,0.0,0.1,0.0,0.0,0.0,0.1
1446035245344969941,70,1446035245342560052,robocape,16.2973529363,10.9453092282,157.448579696,0.0,10.0,0.0,0.0,0.0,10.0,0.0,0.0,0.0,10.0,0.00812264132474,0.0109189604693,0.00878843159726,1.0,0.0,0.0,0.0,1.0,0.0,0.0,0.0,1.0,-0.00359252929688,-0.608334960938,10.132130127,0.1,0.0,0.0,0.0,0.1,0.0,0.0,0.0,0.1
1446035245365385025,71,1446035245363449096,robocape,16.3096811481,10.9525658821,157.462755018,0.0,10.0,0.0,0.0,0.0,10.0,0.0,0.0,0.0,10.0,0.00812264132474,0.0111852765783,0.00932106381528,1.0,0.0,0.0,0.0,1.0,0.0,0.0,0.0,1.0,0.00718505859375,-0.603544921875,10.1476977539,0.1,0.0,0.0,0.0,0.1,0.0,0.0,0.0,0.1
1446035245390803191,72,1446035245389015913,robocape,16.3214871132,10.9596767284,157.475901876,0.0,10.0,0.0,0.0,0.0,10.0,0.0,0.0,0.0,10.0,0.00785632521573,0.0107858024148,0.00852211548825,1.0,0.0,0.0,0.0,1.0,0.0,0.0,0.0,1.0,0.00119750976563,-0.607137451172,10.157277832,0.1,0.0,0.0,0.0,0.1,0.0,0.0,0.0,0.1
1446035245417866566,73,1446035245416165113,robocape,16.3334857677,10.9672406703,157.489226776,0.0,10.0,0.0,0.0,0.0,10.0,0.0,0.0,0.0,10.0,0.00798948327024,0.0113184346328,0.00852211548825,1.0,0.0,0.0,0.0,1.0,0.0,0.0,0.0,1.0,0.00239501953125,-0.611927490234,10.172845459,0.1,0.0,0.0,0.0,0.1,0.0,0.0,0.0,0.1
1446035245444221650,74,1446035245442015886,robocape,16.3452083953,10.9742774424,157.50267821,0.0,10.0,0.0,0.0,0.0,10.0,0.0,0.0,0.0,10.0,0.00772316716123,0.0107858024148,0.00878843159726,1.0,0.0,0.0,0.0,1.0,0.0,0.0,0.0,1.0,-0.00119750976563,-0.601149902344,10.152487793,0.1,0.0,0.0,0.0,0.1,0.0,0.0,0.0,0.1
1446035245465385858,75,1446035245463521957,robocape,16.357502495,10.9818141721,157.516651686,0.0,10.0,0.0,0.0,0.0,10.0,0.0,0.0,0.0,10.0,0.00812264132474,0.0114515926873,0.00905474770627,1.0,0.0,0.0,0.0,1.0,0.0,0.0,0.0,1.0,-0.00718505859375,-0.599952392578,10.1249450684,0.1,0.0,0.0,0.0,0.1,0.0,0.0,0.0,0.1
1446035245490616275,76,1446035245488856077,robocape,16.3698332852,10.9895950098,157.530072321,0.0,10.0,0.0,0.0,0.0,10.0,0.0,0.0,0.0,10.0,0.00825579937925,0.0115847507418,0.00852211548825,1.0,0.0,0.0,0.0,1.0,0.0,0.0,0.0,1.0,-0.00718505859375,-0.599952392578,10.152487793,0.1,0.0,0.0,0.0,0.1,0.0,0.0,0.0,0.1
1446035245516269275,77,1446035245514420986,robocape,16.3823006424,10.9971438316,157.54340759,0.0,10.0,0.0,0.0,0.0,10.0,0.0,0.0,0.0,10.0,0.00838895743375,0.0113184346328,0.00852211548825,1.0,0.0,0.0,0.0,1.0,0.0,0.0,0.0,1.0,-0.00598754882813,-0.595162353516,10.1465002441,0.1,0.0,0.0,0.0,0.1,0.0,0.0,0.0,0.1
1446035245545033608,78,1446035245542341947,robocape,16.3938668443,11.0041457267,157.557512396,0.0,10.0,0.0,0.0,0.0,10.0,0.0,0.0,0.0,10.0,0.00745685105222,0.0109189604693,0.00932106381528,1.0,0.0,0.0,0.0,1.0,0.0,0.0,0.0,1.0,-0.0119750976563,-0.595162353516,10.136920166,0.1,0.0,0.0,0.0,0.1,0.0,0.0,0.0,0.1
1446035245565508900,79,1446035245563630104,robocape,16.4053861115,11.0112313307,157.570676257,0.0,10.0,0.0,0.0,0.0,10.0,0.0,0.0,0.0,10.0,0.00759000910673,0.0107858024148,0.00852211548825,1.0,0.0,0.0,0.0,1.0,0.0,0.0,0.0,1.0,-0.00718505859375,-0.59396484375,10.136920166,0.1,0.0,0.0,0.0,0.1,0.0,0.0,0.0,0.1
1446035245590337816,80,1446035245588566064,robocape,16.4173488355,11.0189502473,157.583763479,0.0,10.0,0.0,0.0,0.0,10.0,0.0,0.0,0.0,10.0,0.00798948327024,0.0114515926873,0.00825579937925,1.0,0.0,0.0,0.0,1.0,0.0,0.0,0.0,1.0,-0.0047900390625,-0.592767333984,10.1824255371,0.1,0.0,0.0,0.0,0.1,0.0,0.0,0.0,0.1
1446035245615997400,81,1446035245613858938,robocape,16.4295588464,11.0263572017,157.596570958,0.0,10.0,0.0,0.0,0.0,10.0,0.0,0.0,0.0,10.0,0.00825579937925,0.0110521185238,0.00812264132474,1.0,0.0,0.0,0.0,1.0,0.0,0.0,0.0,1.0,0.00359252929688,-0.591569824219,10.1656604004,0.1,0.0,0.0,0.0,0.1,0.0,0.0,0.0,0.1
1446035245645408941,82,1446035245643248081,robocape,16.4417118164,11.0340349417,157.609813306,0.0,10.0,0.0,0.0,0.0,10.0,0.0,0.0,0.0,10.0,0.00812264132474,0.0114515926873,0.00838895743375,1.0,0.0,0.0,0.0,1.0,0.0,0.0,0.0,1.0,-0.00838256835938,-0.589174804688,10.1405126953,0.1,0.0,0.0,0.0,0.1,0.0,0.0,0.0,0.1
1446035245666675108,83,1446035245664716005,robocape,16.4539034233,11.0413000957,157.623225269,0.0,10.0,0.0,0.0,0.0,10.0,0.0,0.0,0.0,10.0,0.00812264132474,0.0110521185238,0.00865527354276,1.0,0.0,0.0,0.0,1.0,0.0,0.0,0.0,1.0,-0.009580078125,-0.59396484375,10.1704504395,0.1,0.0,0.0,0.0,0.1,0.0,0.0,0.0,0.1
1446035245693486525,84,1446035245688471078,robocape,16.4659605972,11.0491642499,157.636711272,0.0,10.0,0.0,0.0,0.0,10.0,0.0,0.0,0.0,10.0,0.00798948327024,0.0117179087963,0.00852211548825,1.0,0.0,0.0,0.0,1.0,0.0,0.0,0.0,1.0,-0.00718505859375,-0.586779785156,10.1620678711,0.1,0.0,0.0,0.0,0.1,0.0,0.0,0.0,0.1
1446035245719281566,85,1446035245717479944,robocape,16.4785641289,11.0562279632,157.649889859,0.0,10.0,0.0,0.0,0.0,10.0,0.0,0.0,0.0,10.0,0.00852211548825,0.0107858024148,0.00852211548825,1.0,0.0,0.0,0.0,1.0,0.0,0.0,0.0,1.0,-0.009580078125,-0.595162353516,10.1536853027,0.1,0.0,0.0,0.0,0.1,0.0,0.0,0.0,0.1
1446035245743847066,86,1446035245741898059,robocape,16.4899782337,11.0636293829,157.663203884,0.0,10.0,0.0,0.0,0.0,10.0,0.0,0.0,0.0,10.0,0.00745685105222,0.0111852765783,0.00852211548825,1.0,0.0,0.0,0.0,1.0,0.0,0.0,0.0,1.0,-0.009580078125,-0.59396484375,10.1680554199,0.1,0.0,0.0,0.0,0.1,0.0,0.0,0.0,0.1
1446035245766512775,87,1446035245764638900,robocape,16.5020149721,11.0711408662,157.676564767,0.0,10.0,0.0,0.0,0.0,10.0,0.0,0.0,0.0,10.0,0.00798948327024,0.0113184346328,0.00852211548825,1.0,0.0,0.0,0.0,1.0,0.0,0.0,0.0,1.0,-0.01916015625,-0.587977294922,10.1476977539,0.1,0.0,0.0,0.0,0.1,0.0,0.0,0.0,0.1
1446035245790194733,88,1446035245788403034,robocape,16.513707351,11.0785686239,157.689733961,0.0,10.0,0.0,0.0,0.0,10.0,0.0,0.0,0.0,10.0,0.00772316716123,0.0111852765783,0.00838895743375,1.0,0.0,0.0,0.0,1.0,0.0,0.0,0.0,1.0,-0.0143701171875,-0.605939941406,10.1536853027,0.1,0.0,0.0,0.0,0.1,0.0,0.0,0.0,0.1
1446035245815700108,89,1446035245813962936,robocape,16.5265676147,11.0858915159,157.703355212,0.0,10.0,0.0,0.0,0.0,10.0,0.0,0.0,0.0,10.0,0.00865527354276,0.0111852765783,0.00878843159726,1.0,0.0,0.0,0.0,1.0,0.0,0.0,0.0,1.0,-0.0143701171875,-0.602347412109,10.1644628906,0.1,0.0,0.0,0.0,0.1,0.0,0.0,0.0,0.1
1446035245843970400,90,1446035245842171907,robocape,16.5398105362,11.0935389281,157.716618651,0.0,10.0,0.0,0.0,0.0,10.0,0.0,0.0,0.0,10.0,0.00905474770627,0.0114515926873,0.00838895743375,1.0,0.0,0.0,0.0,1.0,0.0,0.0,0.0,1.0,-0.0143701171875,-0.599952392578,10.1453027344,0.1,0.0,0.0,0.0,0.1,0.0,0.0,0.0,0.1
1446035245869434316,91,1446035245867394924,robocape,16.5522320014,11.1008753728,157.7296015,0.0,10.0,0.0,0.0,0.0,10.0,0.0,0.0,0.0,10.0,0.00838895743375,0.0110521185238,0.00825579937925,1.0,0.0,0.0,0.0,1.0,0.0,0.0,0.0,1.0,-0.00838256835938,-0.607137451172,10.1536853027,0.1,0.0,0.0,0.0,0.1,0.0,0.0,0.0,0.1
1446035245890162108,92,1446035245888370990,robocape,16.564484203,11.1079810218,157.742497814,0.0,10.0,0.0,0.0,0.0,10.0,0.0,0.0,0.0,10.0,0.00825579937925,0.0107858024148,0.00825579937925,1.0,0.0,0.0,0.0,1.0,0.0,0.0,0.0,1.0,-0.00239501953125,-0.597557373047,10.152487793,0.1,0.0,0.0,0.0,0.1,0.0,0.0,0.0,0.1
1446035245915708192,93,1446035245913882970,robocape,16.5767451943,11.1155710056,157.755425102,0.0,10.0,0.0,0.0,0.0,10.0,0.0,0.0,0.0,10.0,0.00825579937925,0.0113184346328,0.00812264132474,1.0,0.0,0.0,0.0,1.0,0.0,0.0,0.0,1.0,-0.00359252929688,-0.601149902344,10.1453027344,0.1,0.0,0.0,0.0,0.1,0.0,0.0,0.0,0.1
1446035245944010733,94,1446035245942244052,robocape,16.5877784949,11.1230438328,157.768310303,0.0,10.0,0.0,0.0,0.0,10.0,0.0,0.0,0.0,10.0,0.00719053494321,0.0111852765783,0.00812264132474,1.0,0.0,0.0,0.0,1.0,0.0,0.0,0.0,1.0,0.0,-0.598754882812,10.1560803223,0.1,0.0,0.0,0.0,0.1,0.0,0.0,0.0,0.1
1446035245969162442,95,1446035245966938018,robocape,16.599545075,11.130264388,157.781752506,0.0,10.0,0.0,0.0,0.0,10.0,0.0,0.0,0.0,10.0,0.00772316716123,0.0110521185238,0.00865527354276,1.0,0.0,0.0,0.0,1.0,0.0,0.0,0.0,1.0,-0.0155676269531,-0.601149902344,10.1692529297,0.1,0.0,0.0,0.0,0.1,0.0,0.0,0.0,0.1
1446035245990358733,96,1446035245988475084,robocape,16.6109863318,11.1376286294,157.795092004,0.0,10.0,0.0,0.0,0.0,10.0,0.0,0.0,0.0,10.0,0.00745685105222,0.0111852765783,0.00852211548825,1.0,0.0,0.0,0.0,1.0,0.0,0.0,0.0,1.0,-0.0299377441406,-0.596359863281,10.1476977539,0.1,0.0,0.0,0.0,0.1,0.0,0.0,0.0,0.1
1446035246016085317,97,1446035246014187097,robocape,16.6223883943,11.1446271057,157.80894369,0.0,10.0,0.0,0.0,0.0,10.0,0.0,0.0,0.0,10.0,0.00732369299772,0.0109189604693,0.00905474770627,1.0,0.0,0.0,0.0,1.0,0.0,0.0,0.0,1.0,-0.0047900390625,-0.584384765625,10.1465002441,0.1,0.0,0.0,0.0,0.1,0.0,0.0,0.0,0.1
1446035246042057525,98,1446035246040302991,robocape,16.6334907506,11.1515307863,157.822109042,0.0,10.0,0.0,0.0,0.0,10.0,0.0,0.0,0.0,10.0,0.00719053494321,0.0106526443603,0.00852211548825,1.0,0.0,0.0,0.0,1.0,0.0,0.0,0.0,1.0,0.0,-0.602347412109,10.1644628906,0.1,0.0,0.0,0.0,0.1,0.0,0.0,0.0,0.1
1446035246070536025,99,1446035246068762063,robocape,16.645874861,11.1591111004,157.835545341,0.0,10.0,0.0,0.0,0.0,10.0,0.0,0.0,0.0,10.0,0.00825579937925,0.0114515926873,0.00852211548825,1.0,0.0,0.0,0.0,1.0,0.0,0.0,0.0,1.0,-0.00119750976563,-0.59396484375,10.193203125,0.1,0.0,0.0,0.0,0.1,0.0,0.0,0.0,0.1
1446035246090261692,100,1446035246088489055,robocape,16.6580472689,11.166381526,157.848700102,0.0,10.0,0.0,0.0,0.0,10.0,0.0,0.0,0.0,10.0,0.00812264132474,0.0110521185238,0.00838895743375,1.0,0.0,0.0,0.0,1.0,0.0,0.0,0.0,1.0,-0.00718505859375,-0.598754882812,10.1680554199,0.1,0.0,0.0,0.0,0.1,0.0,0.0,0.0,0.1
1446035246115703608,101,1446035246113933086,robocape,16.6701121596,11.1737276821,157.862051992,0.0,10.0,0.0,0.0,0.0,10.0,0.0,0.0,0.0,10.0,0.00798948327024,0.0111852765783,0.00852211548825,1.0,0.0,0.0,0.0,1.0,0.0,0.0,0.0,1.0,-0.0179626464844,-0.601149902344,10.1692529297,0.1,0.0,0.0,0.0,0.1,0.0,0.0,0.0,0.1
1446035246141789275,102,1446035246140007019,robocape,16.6826155728,11.1809344031,157.876005553,0.0,10.0,0.0,0.0,0.0,10.0,0.0,0.0,0.0,10.0,0.00825579937925,0.0111852765783,0.00905474770627,1.0,0.0,0.0,0.0,1.0,0.0,0.0,0.0,1.0,-0.00598754882813,-0.602347412109,10.1560803223,0.1,0.0,0.0,0.0,0.1,0.0,0.0,0.0,0.1
1446035246170062192,103,1446035246168087005,robocape,16.6950858513,11.1885448502,157.889796875,0.0,10.0,0.0,0.0,0.0,10.0,0.0,0.0,0.0,10.0,0.00825579937925,0.0115847507418,0.00878843159726,1.0,0.0,0.0,0.0,1.0,0.0,0.0,0.0,1.0,-0.00119750976563,-0.59396484375,10.1417102051,0.1,0.0,0.0,0.0,0.1,0.0,0.0,0.0,0.1
1446035246191691900,104,1446035246189395904,robocape,16.7073540703,11.1959589529,157.903351254,0.0,10.0,0.0,0.0,0.0,10.0,0.0,0.0,0.0,10.0,0.00812264132474,0.0113184346328,0.00865527354276,1.0,0.0,0.0,0.0,1.0,0.0,0.0,0.0,1.0,-0.00119750976563,-0.605939941406,10.1500927734,0.1,0.0,0.0,0.0,0.1,0.0,0.0,0.0,0.1
1446035246215285483,105,1446035246213484048,robocape,16.7192465664,11.2032336939,157.915874718,0.0,10.0,0.0,0.0,0.0,10.0,0.0,0.0,0.0,10.0,0.00798948327024,0.0109189604693,0.00785632521573,1.0,0.0,0.0,0.0,1.0,0.0,0.0,0.0,1.0,-0.00838256835938,-0.597557373047,10.1752404785,0.1,0.0,0.0,0.0,0.1,0.0,0.0,0.0,0.1
1446035246240873358,106,1446035246239098072,robocape,16.731347975,11.2104140786,157.929344211,0.0,10.0,0.0,0.0,0.0,10.0,0.0,0.0,0.0,10.0,0.00798948327024,0.0110521185238,0.00865527354276,1.0,0.0,0.0,0.0,1.0,0.0,0.0,0.0,1.0,-0.00718505859375,-0.602347412109,10.1536853027,0.1,0.0,0.0,0.0,0.1,0.0,0.0,0.0,0.1
1446035246269934233,107,1446035246268042087,robocape,16.7432878483,11.2175678811,157.943460241,0.0,10.0,0.0,0.0,0.0,10.0,0.0,0.0,0.0,10.0,0.00772316716123,0.0111852765783,0.00918790576077,1.0,0.0,0.0,0.0,1.0,0.0,0.0,0.0,1.0,-0.0047900390625,-0.595162353516,10.1441052246,0.1,0.0,0.0,0.0,0.1,0.0,0.0,0.0,0.1
1446035246291927108,108,1446035246289673089,robocape,16.7550123029,11.2247860427,157.957279238,0.0,10.0,0.0,0.0,0.0,10.0,0.0,0.0,0.0,10.0,0.00759000910673,0.0111852765783,0.00892158965177,1.0,0.0,0.0,0.0,1.0,0.0,0.0,0.0,1.0,-0.0131726074219,-0.583187255859,10.1512902832,0.1,0.0,0.0,0.0,0.1,0.0,0.0,0.0,0.1
1446035246315334192,109,1446035246313565015,robocape,16.7662488996,11.2320346366,157.970950909,0.0,10.0,0.0,0.0,0.0,10.0,0.0,0.0,0.0,10.0,0.00719053494321,0.0111852765783,0.00878843159726,1.0,0.0,0.0,0.0,1.0,0.0,0.0,0.0,1.0,-0.0131726074219,-0.592767333984,10.136920166,0.1,0.0,0.0,0.0,0.1,0.0,0.0,0.0,0.1
1446035246340482108,110,1446035246338721990,robocape,16.7781228717,11.2390427883,157.984040386,0.0,10.0,0.0,0.0,0.0,10.0,0.0,0.0,0.0,10.0,0.00785632521573,0.0107858024148,0.00838895743375,1.0,0.0,0.0,0.0,1.0,0.0,0.0,0.0,1.0,-0.0179626464844,-0.601149902344,10.1453027344,0.1,0.0,0.0,0.0,0.1,0.0,0.0,0.0,0.1
1446035246368951567,111,1446035246367234945,robocape,16.7903460999,11.2462159717,157.998016477,0.0,10.0,0.0,0.0,0.0,10.0,0.0,0.0,0.0,10.0,0.00798948327024,0.0111852765783,0.00905474770627,1.0,0.0,0.0,0.0,1.0,0.0,0.0,0.0,1.0,-0.00598754882813,-0.589174804688,10.1465002441,0.1,0.0,0.0,0.0,0.1,0.0,0.0,0.0,0.1
1446035246392737233,112,1446035246390460968,robocape,16.801983913,11.2534323007,158.010706779,0.0,10.0,0.0,0.0,0.0,10.0,0.0,0.0,0.0,10.0,0.00772316716123,0.0109189604693,0.00798948327024,1.0,0.0,0.0,0.0,1.0,0.0,0.0,0.0,1.0,-0.0047900390625,-0.601149902344,10.1536853027,0.1,0.0,0.0,0.0,0.1,0.0,0.0,0.0,0.1
1446035246418428900,113,1446035246416629076,robocape,16.8137689072,11.2602488066,158.024057689,0.0,10.0,0.0,0.0,0.0,10.0,0.0,0.0,0.0,10.0,0.00772316716123,0.0106526443603,0.00865527354276,1.0,0.0,0.0,0.0,1.0,0.0,0.0,0.0,1.0,-0.0047900390625,-0.597557373047,10.1393151855,0.1,0.0,0.0,0.0,0.1,0.0,0.0,0.0,0.1
1446035246441659650,114,1446035246439876079,robocape,16.8255972247,11.2674241297,158.036902549,0.0,10.0,0.0,0.0,0.0,10.0,0.0,0.0,0.0,10.0,0.00785632521573,0.0109189604693,0.00812264132474,1.0,0.0,0.0,0.0,1.0,0.0,0.0,0.0,1.0,-0.00359252929688,-0.597557373047,10.1632653809,0.1,0.0,0.0,0.0,0.1,0.0,0.0,0.0,0.1
1446035246468339192,115,1446035246466594934,robocape,16.8376450287,11.2747059355,158.051428283,0.0,10.0,0.0,0.0,0.0,10.0,0.0,0.0,0.0,10.0,0.00772316716123,0.0114515926873,0.00945422186978,1.0,0.0,0.0,0.0,1.0,0.0,0.0,0.0,1.0,0.00359252929688,-0.586779785156,10.1512902832,0.1,0.0,0.0,0.0,0.1,0.0,0.0,0.0,0.1
1446035246494763358,116,1446035246490242958,robocape,16.8504033975,11.282075941,158.065013003,0.0,10.0,0.0,0.0,0.0,10.0,0.0,0.0,0.0,10.0,0.00852211548825,0.0113184346328,0.00865527354276,1.0,0.0,0.0,0.0,1.0,0.0,0.0,0.0,1.0,0.0,-0.59396484375,10.1668579102,0.1,0.0,0.0,0.0,0.1,0.0,0.0,0.0,0.1
1446035246515717858,117,1446035246513547897,robocape,16.8623150245,11.2893738105,158.078899768,0.0,10.0,0.0,0.0,0.0,10.0,0.0,0.0,0.0,10.0,0.00772316716123,0.0113184346328,0.00892158965177,1.0,0.0,0.0,0.0,1.0,0.0,0.0,0.0,1.0,-0.0047900390625,-0.604742431641,10.1536853027,0.1,0.0,0.0,0.0,0.1,0.0,0.0,0.0,0.1
1446035246540475692,118,1446035246538696050,robocape,16.8734593813,11.2961828138,158.092757117,0.0,10.0,0.0,0.0,0.0,10.0,0.0,0.0,0.0,10.0,0.00705737688871,0.0107858024148,0.00905474770627,1.0,0.0,0.0,0.0,1.0,0.0,0.0,0.0,1.0,-0.00359252929688,-0.608334960938,10.1620678711,0.1,0.0,0.0,0.0,0.1,0.0,0.0,0.0,0.1
1446035246567925108,119,1446035246566189050,robocape,16.8851210765,11.3025413438,158.104801673,0.0,10.0,0.0,0.0,0.0,10.0,0.0,0.0,0.0,10.0,0.00785632521573,0.00985369603329,0.00772316716123,1.0,0.0,0.0,0.0,1.0,0.0,0.0,0.0,1.0,-0.158071289063,-0.595162353516,10.1201550293,0.1,0.0,0.0,0.0,0.1,0.0,0.0,0.0,0.1
1446035246595923192,120,1446035246593071937,robocape,16.8970651921,11.3108226882,158.11811578,0.0,10.0,0.0,0.0,0.0,10.0,0.0,0.0,0.0,10.0,0.00785632521573,0.0122505410144,0.00812264132474,1.0,0.0,0.0,0.0,1.0,0.0,0.0,0.0,1.0,0.0778381347656,-0.585582275391,10.1764379883,0.1,0.0,0.0,0.0,0.1,0.0,0.0,0.0,0.1
1446035246615720609,121,1446035246613945007,robocape,16.9085560705,11.3203292415,158.131438546,0.0,10.0,0.0,0.0,0.0,10.0,0.0,0.0,0.0,10.0,0.00745685105222,0.0135821215594,0.00772316716123,1.0,0.0,0.0,0.0,1.0,0.0,0.0,0.0,1.0,-0.0383203125,-0.595162353516,10.2351159668,0.1,0.0,0.0,0.0,0.1,0.0,0.0,0.0,0.1
1446035246640485025,122,1446035246638786077,robocape,16.9237292335,11.3245032427,158.142774631,0.0,10.0,0.0,0.0,0.0,10.0,0.0,0.0,0.0,10.0,0.0110521185238,0.00732369299772,0.00785632521573,1.0,0.0,0.0,0.0,1.0,0.0,0.0,0.0,1.0,-2.15192504883,-0.667012939453,10.26984375,0.1,0.0,0.0,0.0,0.1,0.0,0.0,0.0,0.1
1446035246666365567,123,1446035246664554119,robocape,16.941407019,11.349001677,158.159888675,0.0,10.0,0.0,0.0,0.0,10.0,0.0,0.0,0.0,10.0,0.0121173829599,0.0307595105904,0.00585895439817,1.0,0.0,0.0,0.0,1.0,0.0,0.0,0.0,1.0,-2.54710327148,-0.627495117188,10.5692211914,0.1,0.0,0.0,0.0,0.1,0.0,0.0,0.0,0.1
1446035246693972859,124,1446035246691942930,robocape,16.9453895092,11.3622455811,158.157895219,0.0,10.0,0.0,0.0,0.0,10.0,0.0,0.0,0.0,10.0,0.00386158358061,0.0138484376684,-0.00599211245268,1.0,0.0,0.0,0.0,1.0,0.0,0.0,0.0,1.0,-2.33634155273,-0.550854492188,10.3680395508,0.1,0.0,0.0,0.0,0.1,0.0,0.0,0.0,0.1
1446035246720028150,125,1446035246717952966,robocape,16.938123336,11.3783884781,158.15609736,0.0,10.0,0.0,0.0,0.0,10.0,0.0,0.0,0.0,10.0,-0.00599211245268,0.0170442309765,-0.0067910607797,1.0,0.0,0.0,0.0,1.0,0.0,0.0,0.0,1.0,-1.68848876953,-0.534089355469,10.2734362793,0.1,0.0,0.0,0.0,0.1,0.0,0.0,0.0,0.1
1446035246740787192,126,1446035246739028930,robocape,16.9147092726,11.3797034535,158.145505487,0.0,10.0,0.0,0.0,0.0,10.0,0.0,0.0,0.0,10.0,-0.0183758115215,-0.00119842249054,-0.00905474770627,1.0,0.0,0.0,0.0,1.0,0.0,0.0,0.0,1.0,-2.08007446289,-0.59396484375,10.2650537109,0.1,0.0,0.0,0.0,0.1,0.0,0.0,0.0,0.1
1446035246766238192,127,1446035246764481067,robocape,16.8775915296,11.3944144339,158.154238113,0.0,10.0,0.0,0.0,0.0,10.0,0.0,0.0,0.0,10.0,-0.034088461953,0.0181094954125,0.00226368692657,1.0,0.0,0.0,0.0,1.0,0.0,0.0,0.0,1.0,-1.81422729492,-0.444276123047,10.3764221191,0.1,0.0,0.0,0.0,0.1,0.0,0.0,0.0,0.1
1446035246794474775,128,1446035246792490959,robocape,16.79688959,11.4182289839,158.166624054,0.0,10.0,0.0,0.0,0.0,10.0,0.0,0.0,0.0,10.0,-0.0728374558137,0.0288952978274,0.00226368692657,1.0,0.0,0.0,0.0,1.0,0.0,0.0,0.0,1.0,-1.39869140625,-0.0107775878906,9.83395019531,0.1,0.0,0.0,0.0,0.1,0.0,0.0,0.0,0.1
1446035246816389317,129,1446035246814682006,robocape,16.650621876,11.4478968302,158.186689737,0.0,10.0,0.0,0.0,0.0,10.0,0.0,0.0,0.0,10.0,-0.13156015785,0.0371510972066,0.0066579027252,1.0,0.0,0.0,0.0,1.0,0.0,0.0,0.0,1.0,-1.29570556641,-0.132923583984,10.765612793,0.1,0.0,0.0,0.0,0.1,0.0,0.0,0.0,0.1
1446035246840244859,130,1446035246838476896,robocape,16.4418424702,11.4400502197,158.190601724,0.0,10.0,0.0,0.0,0.0,10.0,0.0,0.0,0.0,10.0,-0.182959166888,-0.00759000910673,0.00572579634367,1.0,0.0,0.0,0.0,1.0,0.0,0.0,0.0,1.0,-1.16876953125,-0.275427246094,10.0135766602,0.1,0.0,0.0,0.0,0.1,0.0,0.0,0.0,0.1
1446035246865644984,131,1446035246863866090,robocape,16.1708324352,11.4455651919,158.196669789,0.0,10.0,0.0,0.0,0.0,10.0,0.0,0.0,0.0,10.0,-0.23768712729,0.00745685105222,0.0031957933081,1.0,0.0,0.0,0.0,1.0,0.0,0.0,0.0,1.0,-1.46096191406,-0.09580078125,9.85670288086,0.1,0.0,0.0,0.0,0.1,0.0,0.0,0.0,0.1
1446035246894851109,132,1446035246893033981,robocape,15.8075497024,11.3671883354,158.181065841,0.0,10.0,0.0,0.0,0.0,10.0,0.0,0.0,0.0,10.0,-0.31398669252,-0.0890827384632,0.0117179087963,1.0,0.0,0.0,0.0,1.0,0.0,0.0,0.0,1.0,-0.486188964844,0.0993933105469,9.8135925293,0.1,0.0,0.0,0.0,0.1,0.0,0.0,0.0,0.1
1446035246917192900,133,1446035246914901971,robocape,15.3249469903,11.3915592253,158.20862766,0.0,10.0,0.0,0.0,0.0,10.0,0.0,0.0,0.0,10.0,-0.426505248576,0.0328900394625,0.0151800182135,1.0,0.0,0.0,0.0,1.0,0.0,0.0,0.0,1.0,1.04063598633,0.263452148438,10.9524243164,0.1,0.0,0.0,0.0,0.1,0.0,0.0,0.0,0.1
1446035246940316442,134,1446035246938564062,robocape,14.6918462461,11.3909416525,158.333183311,0.0,10.0,0.0,0.0,0.0,10.0,0.0,0.0,0.0,10.0,-0.576707534057,0.0267647689553,0.102531701968,1.0,0.0,0.0,0.0,1.0,0.0,0.0,0.0,1.0,-0.195194091797,0.124541015625,9.16933227539,0.1,0.0,0.0,0.0,0.1,0.0,0.0,0.0,0.1
1446035246965688525,135,1446035246963931083,robocape,13.8308527886,11.3375417589,158.501618239,0.0,10.0,0.0,0.0,0.0,10.0,0.0,0.0,0.0,10.0,-0.784034624919,-0.0233026595382,0.153797552952,1.0,0.0,0.0,0.0,1.0,0.0,0.0,0.0,1.0,-1.12326416016,0.154478759766,10.1584753418,0.1,0.0,0.0,0.0,0.1,0.0,0.0,0.0,0.1
1446035246993863609,136,1446035246992113113,robocape,12.7543159073,11.2856488831,158.704282086,0.0,10.0,0.0,0.0,0.0,10.0,0.0,0.0,0.0,10.0,-0.97857854255,-0.01744370514,0.181361270234,1.0,0.0,0.0,0.0,1.0,0.0,0.0,0.0,1.0,-4.3649230957,0.00838256835938,9.67348388672,0.1,0.0,0.0,0.0,0.1,0.0,0.0,0.0,0.1
1446035247021127734,137,1446035247017815113,robocape,11.4704068984,11.2740154697,158.956621674,0.0,10.0,0.0,0.0,0.0,10.0,0.0,0.0,0.0,10.0,-1.16899456049,0.03222424919,0.212786571097,1.0,0.0,0.0,0.0,1.0,0.0,0.0,0.0,1.0,-6.21507568359,0.2682421875,10.3345092773,0.1,0.0,0.0,0.0,0.1,0.0,0.0,0.0,0.1
1446035247040117942,138,1446035247038358926,robocape,9.92686067153,11.2485328848,159.224802956,0.0,10.0,0.0,0.0,0.0,10.0,0.0,0.0,0.0,10.0,-1.39855904646,0.0141147537774,0.229697644019,1.0,0.0,0.0,0.0,1.0,0.0,0.0,0.0,1.0,-5.38759643555,0.118553466797,11.0410400391,0.1,0.0,0.0,0.0,0.1,0.0,0.0,0.0,0.1
1446035247065623150,139,1446035247063857078,robocape,8.10070459741,11.0493223493,159.466184485,0.0,10.0,0.0,0.0,0.0,10.0,0.0,0.0,0.0,10.0,-1.63957512511,-0.18921759545,0.238219759508,1.0,0.0,0.0,0.0,1.0,0.0,0.0,0.0,1.0,-2.4105871582,0.51732421875,9.4303894043,0.1,0.0,0.0,0.0,0.1,0.0,0.0,0.0,0.1
1446035247093020484,140,1446035247091253995,robocape,5.88926688382,10.9209947919,159.750269552,0.0,10.0,0.0,0.0,0.0,10.0,0.0,0.0,0.0,10.0,-1.98312290573,-0.113184346328,0.257927151574,1.0,0.0,0.0,0.0,1.0,0.0,0.0,0.0,1.0,-6.23064331055,0.656235351563,8.39813598633,0.1,0.0,0.0,0.0,0.1,0.0,0.0,0.0,0.1
1446035247119640442,141,1446035247117844104,robocape,3.21450814563,10.8553187579,160.132357794,0.0,10.0,0.0,0.0,0.0,10.0,0.0,0.0,0.0,10.0,-2.40523393851,-0.0472711093489,0.330764607388,1.0,0.0,0.0,0.0,1.0,0.0,0.0,0.0,1.0,-2.63571899414,1.20589233398,9.31063842773,0.1,0.0,0.0,0.0,0.1,0.0,0.0,0.0,0.1
1446035247140413317,142,1446035247138535022,robocape,0.00481365444256,10.7289201059,160.555928394,0.0,10.0,0.0,0.0,0.0,10.0,0.0,0.0,0.0,10.0,-2.87927661254,-0.130628051468,0.365385701559,1.0,0.0,0.0,0.0,1.0,0.0,0.0,0.0,1.0,-2.82253051758,1.20469482422,7.67963012695,0.1,0.0,0.0,0.0,0.1,0.0,0.0,0.0,0.1
1446035247165532234,143,1446035247163757085,robocape,-4.12654807084,10.671648976,161.076935393,0.0,10.0,0.0,0.0,0.0,10.0,0.0,0.0,0.0,10.0,-3.70139444105,-0.0796285165934,0.442484215117,1.0,0.0,0.0,0.0,1.0,0.0,0.0,0.0,1.0,-1.07177124023,1.916015625,6.25818603516,0.1,0.0,0.0,0.0,0.1,0.0,0.0,0.0,0.1
1446035247191974067,144,1446035247190191984,robocape,-9.00345476289,10.6461385923,161.656968019,0.0,10.0,0.0,0.0,0.0,10.0,0.0,0.0,0.0,10.0,-4.36332312999,-0.084821680719,0.489222692248,1.0,0.0,0.0,0.0,1.0,0.0,0.0,0.0,1.0,2.96503417969,1.63100830078,4.58885742188,0.1,0.0,0.0,0.0,0.1,0.0,0.0,0.0,0.1
1446035247219612192,145,1446035247217247962,robocape,-13.9402772752,10.421458568,161.673395624,0.0,10.0,0.0,0.0,0.0,10.0,0.0,0.0,0.0,10.0,-4.31378833371,-0.246475558887,-0.0356863586071,1.0,0.0,0.0,0.0,1.0,0.0,0.0,0.0,1.0,1.64897094727,-19.5457543945,6.70126464844,0.1,0.0,0.0,0.0,0.1,0.0,0.0,0.0,0.1
1446035247241453067,146,1446035247239689111,robocape,-16.2220818798,10.248888976,159.665234036,0.0,10.0,0.0,0.0,0.0,10.0,0.0,0.0,0.0,10.0,-1.64130617982,0.263652947918,-1.70775204901,1.0,0.0,0.0,0.0,1.0,0.0,0.0,0.0,1.0,9.99920654297,-19.62,10.1213525391,0.1,0.0,0.0,0.0,0.1,0.0,0.0,0.0,0.1
1446035247265737900,147,1446035247263978004,robocape,-15.7652274352,10.991264055,156.810672704,0.0,10.0,0.0,0.0,0.0,10.0,0.0,0.0,0.0,10.0,0.911866357243,1.46287438678,-2.11721306661,1.0,0.0,0.0,0.0,1.0,0.0,0.0,0.0,1.0,8.9705456543,-19.62,7.62095214844,0.1,0.0,0.0,0.0,0.1,0.0,0.0,0.0,0.1
1446035247290783151,148,1446035247289031982,robocape,-14.226434299,12.1735522842,153.830540345,0.0,10.0,0.0,0.0,0.0,10.0,0.0,0.0,0.0,10.0,1.93398758362,1.95768971732,-2.09883725509,1.0,0.0,0.0,0.0,1.0,0.0,0.0,0.0,1.0,-6.60187133789,-3.62725708008,8.60889770508,0.1,0.0,0.0,0.0,0.1,0.0,0.0,0.0,0.1
1446035247318518984,149,1446035247316582918,robocape,-13.3051899293,12.8302416478,152.00608482,0.0,10.0,0.0,0.0,0.0,10.0,0.0,0.0,0.0,10.0,1.19842249054,1.11466607425,-1.31533526239,1.0,0.0,0.0,0.0,1.0,0.0,0.0,0.0,1.0,-3.61288696289,1.57831787109,7.67843261719,0.1,0.0,0.0,0.0,0.1,0.0,0.0,0.0,0.1
1446035247342045567,150,1446035247339685916,robocape,-13.1738649136,13.4325589182,150.08095573,0.0,10.0,0.0,0.0,0.0,10.0,0.0,0.0,0.0,10.0,0.555002771173,1.07218865487,-1.41347274856,1.0,0.0,0.0,0.0,1.0,0.0,0.0,0.0,1.0,-1.63579833984,0.368833007813,8.43046875,0.1,0.0,0.0,0.0,0.1,0.0,0.0,0.0,0.1
1446035247365383942,151,1446035247363615036,robocape,-13.9289025473,13.8684724657,148.160260823,0.0,10.0,0.0,0.0,0.0,10.0,0.0,0.0,0.0,10.0,-0.199337607592,0.892824755449,-1.44303383666,1.0,0.0,0.0,0.0,1.0,0.0,0.0,0.0,1.0,-0.452658691406,0.492176513672,10.9464367676,0.1,0.0,0.0,0.0,0.1,0.0,0.0,0.0,0.1
1446035247391083526,152,1446035247389313936,robocape,-15.3666703908,14.3043576532,146.22216589,0.0,10.0,0.0,0.0,0.0,10.0,0.0,0.0,0.0,10.0,-0.773648296668,0.93010901071,-1.43304698257,1.0,0.0,0.0,0.0,1.0,0.0,0.0,0.0,1.0,1.05979614258,1.7244140625,9.88544311523,0.1,0.0,0.0,0.0,0.1,0.0,0.0,0.0,0.1
1446035247420072067,153,1446035247418201923,robocape,-17.5348960716,14.7465913091,144.131965536,0.0,10.0,0.0,0.0,0.0,10.0,0.0,0.0,0.0,10.0,-1.35435057236,1.02451807135,-1.5152055022,1.0,0.0,0.0,0.0,1.0,0.0,0.0,0.0,1.0,3.69072509766,-1.74956176758,11.3116772461,0.1,0.0,0.0,0.0,0.1,0.0,0.0,0.0,0.1
1446035247441264734,154,1446035247439018964,robocape,-19.6566351079,15.0546559262,141.602630445,0.0,10.0,0.0,0.0,0.0,10.0,0.0,0.0,0.0,10.0,-1.18084562734,1.04089651206,-1.86900645302,1.0,0.0,0.0,0.0,1.0,0.0,0.0,0.0,1.0,3.11592041016,-10.3800146484,8.89270751953,0.1,0.0,0.0,0.0,0.1,0.0,0.0,0.0,0.1
1446035247465364359,155,1446035247463474035,robocape,-21.348402591,15.4716681039,138.566632322,0.0,10.0,0.0,0.0,0.0,10.0,0.0,0.0,0.0,10.0,-0.647813935162,1.38311271213,-2.17020997231,1.0,0.0,0.0,0.0,1.0,0.0,0.0,0.0,1.0,3.98291748047,-15.9927429199,9.29507080078,0.1,0.0,0.0,0.0,0.1,0.0,0.0,0.0,0.1
1446035247490469692,156,1446035247488693952,robocape,-22.7386125102,16.0566396808,135.517797981,0.0,10.0,0.0,0.0,0.0,10.0,0.0,0.0,0.0,10.0,-0.348341470582,1.65329040472,-2.0458403494,1.0,0.0,0.0,0.0,1.0,0.0,0.0,0.0,1.0,4.43437866211,-10.7572302246,4.7169909668,0.1,0.0,0.0,0.0,0.1,0.0,0.0,0.0,0.1
1446035247519187692,157,1446035247517427921,robocape,-23.0610884522,16.572273395,132.977926073,0.0,10.0,0.0,0.0,0.0,10.0,0.0,0.0,0.0,10.0,0.469382142126,1.44516436553,-1.65382303694,1.0,0.0,0.0,0.0,1.0,0.0,0.0,0.0,1.0,1.32803833008,-4.46551391602,10.9332641602,0.1,0.0,0.0,0.0,0.1,0.0,0.0,0.0,0.1
1446035247542426442,158,1446035247540446043,robocape,-23.9013919289,16.9910617596,130.831317491,0.0,10.0,0.0,0.0,0.0,10.0,0.0,0.0,0.0,10.0,-0.0766990393943,1.22052672758,-1.38284639602,1.0,0.0,0.0,0.0,1.0,0.0,0.0,0.0,1.0,0.281414794922,-2.56865844727,7.43893066406,0.1,0.0,0.0,0.0,0.1,0.0,0.0,0.0,0.1
1446035247565425526,159,1446035247563664913,robocape,-25.1426679923,17.276636086,128.548739134,0.0,10.0,0.0,0.0,0.0,10.0,0.0,0.0,0.0,10.0,-0.367116756267,1.12904714414,-1.52825499154,1.0,0.0,0.0,0.0,1.0,0.0,0.0,0.0,1.0,3.05125488281,-2.02618652344,9.72617431641,0.1,0.0,0.0,0.0,0.1,0.0,0.0,0.0,0.1
1446035247590532984,160,1446035247588742971,robocape,-26.4328783002,17.4086078653,126.399781887,0.0,10.0,0.0,0.0,0.0,10.0,0.0,0.0,0.0,10.0,-0.44168526679,0.924516372421,-1.49270179099,1.0,0.0,0.0,0.0,1.0,0.0,0.0,0.0,1.0,1.09931396484,-5.91330322266,6.6641418457,0.1,0.0,0.0,0.0,0.1,0.0,0.0,0.0,0.1
1446035247618336859,161,1446035247616513013,robocape,-27.8868855915,17.6168498047,124.208113471,0.0,10.0,0.0,0.0,0.0,10.0,0.0,0.0,0.0,10.0,-0.562592780279,1.07019128405,-1.44889279106,1.0,0.0,0.0,0.0,1.0,0.0,0.0,0.0,1.0,4.23319702148,-9.47828979492,8.76816650391,0.1,0.0,0.0,0.0,0.1,0.0,0.0,0.0,0.1
1446035247645125526,162,1446035247642858982,robocape,-28.9962071056,17.8393329118,121.776983463,0.0,10.0,0.0,0.0,0.0,10.0,0.0,0.0,0.0,10.0,-0.172705996692,1.21240408626,-1.58045294891,1.0,0.0,0.0,0.0,1.0,0.0,0.0,0.0,1.0,0.32572265625,-6.91801391602,7.20541625977,0.1,0.0,0.0,0.0,0.1,0.0,0.0,0.0,0.1
1446035247665594234,163,1446035247663651943,robocape,-29.9862855323,18.0169635727,119.681328123,0.0,10.0,0.0,0.0,0.0,10.0,0.0,0.0,0.0,10.0,-0.168844413111,1.05234810474,-1.34835845991,1.0,0.0,0.0,0.0,1.0,0.0,0.0,0.0,1.0,0.55564453125,-3.9433996582,9.42919189453,0.1,0.0,0.0,0.0,0.1,0.0,0.0,0.0,0.1
1446035247698080276,164,1446035247688607931,robocape,-31.0510779039,18.1030991667,117.696623928,0.0,10.0,0.0,0.0,0.0,10.0,0.0,0.0,0.0,10.0,-0.264851370408,0.918257943859,-1.3156015785,1.0,0.0,0.0,0.0,1.0,0.0,0.0,0.0,1.0,3.36260742188,-6.95753173828,7.18865112305,0.1,0.0,0.0,0.0,0.1,0.0,0.0,0.0,0.1
1446035247720142151,165,1446035247718305110,robocape,-32.0559810824,18.2644224504,115.66461463,0.0,10.0,0.0,0.0,0.0,10.0,0.0,0.0,0.0,10.0,-0.190948650159,1.05301389502,-1.27245836884,1.0,0.0,0.0,0.0,1.0,0.0,0.0,0.0,1.0,1.149609375,-5.60195068359,9.86388793945,0.1,0.0,0.0,0.0,0.1,0.0,0.0,0.0,0.1
1446035247744825484,166,1446035247742489099,robocape,-32.9758169623,18.3902247061,113.941195291,0.0,10.0,0.0,0.0,0.0,10.0,0.0,0.0,0.0,10.0,-0.215183416078,0.897352129302,-1.06992496794,1.0,0.0,0.0,0.0,1.0,0.0,0.0,0.0,1.0,-0.398770751953,-6.19711303711,7.72992553711,0.1,0.0,0.0,0.0,0.1,0.0,0.0,0.0,0.1
1446035247765428442,167,1446035247763660907,robocape,-34.2101322081,18.2176567842,111.506709464,0.0,10.0,0.0,0.0,0.0,10.0,0.0,0.0,0.0,10.0,-0.248472929704,0.875247892255,-1.76740685743,1.0,0.0,0.0,0.0,1.0,0.0,0.0,0.0,1.0,7.80057861328,-10.6781945801,9.75730957031,0.1,0.0,0.0,0.0,0.1,0.0,0.0,0.0,0.1
1446035247790393984,168,1446035247788640975,robocape,-36.0879083013,18.3402612267,108.591305638,0.0,10.0,0.0,0.0,0.0,10.0,0.0,0.0,0.0,10.0,-0.647947093216,1.49376705543,-1.81481112483,1.0,0.0,0.0,0.0,1.0,0.0,0.0,0.0,1.0,4.9852331543,-7.04015991211,3.76497070313,0.1,0.0,0.0,0.0,0.1,0.0,0.0,0.0,0.1
1446035247816759276,169,1446035247814681053,robocape,-37.1686885478,18.4648462692,105.213352376,0.0,10.0,0.0,0.0,0.0,10.0,0.0,0.0,0.0,10.0,0.214517625806,1.76261316747,-2.06861037672,1.0,0.0,0.0,0.0,1.0,0.0,0.0,0.0,1.0,-0.930465087891,-5.35047363281,11.3188623047,0.1,0.0,0.0,0.0,0.1,0.0,0.0,0.0,0.1
1446035247845156651,170,1446035247842781066,robocape,-37.8548626727,18.6351752185,103.011550137,0.0,10.0,0.0,0.0,0.0,10.0,0.0,0.0,0.0,10.0,0.163251774822,1.27099363024,-1.24822360292,1.0,0.0,0.0,0.0,1.0,0.0,0.0,0.0,1.0,-3.31590454102,-4.90739501953,11.4266381836,0.1,0.0,0.0,0.0,0.1,0.0,0.0,0.0,0.1
1446035247865432067,171,1446035247863662004,robocape,-38.3912926787,18.6428664443,101.605783455,0.0,10.0,0.0,0.0,0.0,10.0,0.0,0.0,0.0,10.0,0.0213052887206,0.70334084389,-0.878044211399,1.0,0.0,0.0,0.0,1.0,0.0,0.0,0.0,1.0,2.20940551758,-0.596359863281,7.51197875977,0.1,0.0,0.0,0.0,0.1,0.0,0.0,0.0,0.1
1446035247890208234,172,1446035247888475894,robocape,-39.293710956,18.5183168279,99.7777284861,0.0,10.0,0.0,0.0,0.0,10.0,0.0,0.0,0.0,10.0,-0.153531236843,0.776710931922,-1.25421571537,1.0,0.0,0.0,0.0,1.0,0.0,0.0,0.0,1.0,5.66182617188,-4.5253894043,5.98395629883,0.1,0.0,0.0,0.0,0.1,0.0,0.0,0.0,0.1
1446035247915969067,173,1446035247914202928,robocape,-40.3619227662,18.535627661,97.9486074109,0.0,10.0,0.0,0.0,0.0,10.0,0.0,0.0,0.0,10.0,-0.300138254852,0.958205360211,-1.10960606818,1.0,0.0,0.0,0.0,1.0,0.0,0.0,0.0,1.0,2.13994995117,-3.50630859375,9.31902099609,0.1,0.0,0.0,0.0,0.1,0.0,0.0,0.0,0.1
1446035247944293192,174,1446035247941812992,robocape,-41.2013875481,18.4397243644,96.5098989405,0.0,10.0,0.0,0.0,0.0,10.0,0.0,0.0,0.0,10.0,-0.236755020908,0.647947093216,-0.964463788772,1.0,0.0,0.0,0.0,1.0,0.0,0.0,0.0,1.0,1.23104003906,-5.22713012695,8.34784057617,0.1,0.0,0.0,0.0,0.1,0.0,0.0,0.0,0.1
1446035247967209651,175,1446035247965259075,robocape,-42.4302194004,18.3206629173,94.9922668896,0.0,10.0,0.0,0.0,0.0,10.0,0.0,0.0,0.0,10.0,-0.553138558409,0.684032925987,-1.0229201747,1.0,0.0,0.0,0.0,1.0,0.0,0.0,0.0,1.0,1.71124145508,-6.08694213867,8.34664306641,0.1,0.0,0.0,0.0,0.1,0.0,0.0,0.0,0.1
1446035247990379443,176,1446035247988614082,robocape,-43.58541389,18.1223765588,92.7912787182,0.0,10.0,0.0,0.0,0.0,10.0,0.0,0.0,0.0,10.0,-0.2631203157,0.999351199052,-1.48910652352,1.0,0.0,0.0,0.0,1.0,0.0,0.0,0.0,1.0,3.9505847168,-6.58869873047,4.40204589844,0.1,0.0,0.0,0.0,0.1,0.0,0.0,0.0,0.1
1446035248015497401,177,1446035248013784885,robocape,-44.5246785171,18.1346432425,90.4768947214,0.0,10.0,0.0,0.0,0.0,10.0,0.0,0.0,0.0,10.0,-0.0412789968962,1.30867735966,-1.3273194873,1.0,0.0,0.0,0.0,1.0,0.0,0.0,0.0,1.0,-2.67763183594,-10.3812121582,11.9870727539,0.1,0.0,0.0,0.0,0.1,0.0,0.0,0.0,0.1
1446035248043582443,178,1446035248041435956,robocape,-44.939795801,18.0582571527,89.0711512307,0.0,10.0,0.0,0.0,0.0,10.0,0.0,0.0,0.0,10.0,0.109455920802,0.719452968485,-0.881373162762,1.0,0.0,0.0,0.0,1.0,0.0,0.0,0.0,1.0,-1.6825012207,-0.752036132813,9.76688964844,0.1,0.0,0.0,0.0,0.1,0.0,0.0,0.0,0.1
1446035248067505151,179,1446035248065572977,robocape,-45.6570047085,17.972581948,87.8930556671,0.0,10.0,0.0,0.0,0.0,10.0,0.0,0.0,0.0,10.0,-0.232760279273,0.589357549235,-0.755006169037,1.0,0.0,0.0,0.0,1.0,0.0,0.0,0.0,1.0,0.446671142578,-6.19232299805,7.57065673828,0.1,0.0,0.0,0.0,0.1,0.0,0.0,0.0,0.1
1446035248090159401,180,1446035248088396072,robocape,-46.4630891392,17.8100805635,86.4406522908,0.0,10.0,0.0,0.0,0.0,10.0,0.0,0.0,0.0,10.0,-0.22290658324,0.684698716259,-0.97977696504,1.0,0.0,0.0,0.0,1.0,0.0,0.0,0.0,1.0,-0.411943359375,-5.61632080078,9.05556884766,0.1,0.0,0.0,0.0,0.1,0.0,0.0,0.0,0.1
1446035248115410859,181,1446035248113643884,robocape,-47.4802481184,17.4629546952,84.7115380956,0.0,10.0,0.0,0.0,0.0,10.0,0.0,0.0,0.0,10.0,-0.325571443262,0.691356618985,-1.31173999492,1.0,0.0,0.0,0.0,1.0,0.0,0.0,0.0,1.0,1.63340332031,-11.6541650391,9.16693725586,0.1,0.0,0.0,0.0,0.1,0.0,0.0,0.0,0.1
1446035248144167109,182,1446035248142261981,robocape,-48.5945215901,17.2719812235,82.6177256688,0.0,10.0,0.0,0.0,0.0,10.0,0.0,0.0,0.0,10.0,-0.304532470651,1.08750183113,-1.33451002224,1.0,0.0,0.0,0.0,1.0,0.0,0.0,0.0,1.0,4.39246582031,-3.70030517578,4.59244995117,0.1,0.0,0.0,0.0,0.1,0.0,0.0,0.0,0.1
1446035248167198484,183,1446035248165215015,robocape,-49.0057525904,17.1278841568,80.9725703002,0.0,10.0,0.0,0.0,0.0,10.0,0.0,0.0,0.0,10.0,0.15965650735,0.876446314745,-1.03144229019,1.0,0.0,0.0,0.0,1.0,0.0,0.0,0.0,1.0,-2.08246948242,-5.94803100586,11.3248498535,0.1,0.0,0.0,0.0,0.1,0.0,0.0,0.0,0.1
1446035248190359943,184,1446035248188532114,robocape,-49.7825094669,16.9493325659,79.5948672389,0.0,10.0,0.0,0.0,0.0,10.0,0.0,0.0,0.0,10.0,-0.248606087759,0.693353989802,-0.91679320526,1.0,0.0,0.0,0.0,1.0,0.0,0.0,0.0,1.0,-0.202379150391,-3.74102050781,8.34065551758,0.1,0.0,0.0,0.0,0.1,0.0,0.0,0.0,0.1
1446035248215944943,185,1446035248214200019,robocape,-50.6302659825,16.7362417022,77.9963672629,0.0,10.0,0.0,0.0,0.0,10.0,0.0,0.0,0.0,10.0,-0.248739245813,0.817723612709,-1.05847337525,1.0,0.0,0.0,0.0,1.0,0.0,0.0,0.0,1.0,1.48251708984,-3.20333862305,8.3574206543,0.1,0.0,0.0,0.0,0.1,0.0,0.0,0.0,0.1
1446035248243122443,186,1446035248241345882,robocape,-51.6984758638,16.2811043838,75.920424412,0.0,10.0,0.0,0.0,0.0,10.0,0.0,0.0,0.0,10.0,-0.309725634776,0.941960077561,-1.5433018517,1.0,0.0,0.0,0.0,1.0,0.0,0.0,0.0,1.0,-1.01668579102,-7.75028320313,10.0159716797,0.1,0.0,0.0,0.0,0.1,0.0,0.0,0.0,0.1
1446035248268311193,187,1446035248266551017,robocape,-52.6758810083,16.0111720995,73.8727510957,0.0,10.0,0.0,0.0,0.0,10.0,0.0,0.0,0.0,10.0,-0.255263990484,1.11120396484,-1.31520210434,1.0,0.0,0.0,0.0,1.0,0.0,0.0,0.0,1.0,-2.34711914063,-5.88935302734,9.63037353516,0.1,0.0,0.0,0.0,0.1,0.0,0.0,0.0,0.1
1446035248290283068,188,1446035248288408041,robocape,-53.3667857498,15.7567470225,72.1242134442,0.0,10.0,0.0,0.0,0.0,10.0,0.0,0.0,0.0,10.0,-0.102531701968,0.950748509158,-1.13397399216,1.0,0.0,0.0,0.0,1.0,0.0,0.0,0.0,1.0,-0.450263671875,-4.9085925293,8.83881958008,0.1,0.0,0.0,0.0,0.1,0.0,0.0,0.0,0.1
1446035248315476318,189,1446035248313705921,robocape,-54.2442692053,15.4757964651,70.2833000101,0.0,10.0,0.0,0.0,0.0,10.0,0.0,0.0,0.0,10.0,-0.24953819414,1.01213437228,-1.19322932641,1.0,0.0,0.0,0.0,1.0,0.0,0.0,0.0,1.0,-0.598754882812,-3.60450439453,10.0638720703,0.1,0.0,0.0,0.0,0.1,0.0,0.0,0.0,0.1
1446035248342551609,190,1446035248340773105,robocape,-55.5276562962,14.9812349445,68.0087191115,0.0,10.0,0.0,0.0,0.0,10.0,0.0,0.0,0.0,10.0,-0.500940601044,1.17818246625,-1.60375560845,1.0,0.0,0.0,0.0,1.0,0.0,0.0,0.0,1.0,5.2151550293,-3.38895263672,5.20437744141,0.1,0.0,0.0,0.0,0.1,0.0,0.0,0.0,0.1
1446035248369663276,191,1446035248367407083,robocape,-56.4252114951,14.2302908527,65.3527633836,0.0,10.0,0.0,0.0,0.0,10.0,0.0,0.0,0.0,10.0,-0.0952080089703,1.30747893717,-2.01974137072,1.0,0.0,0.0,0.0,1.0,0.0,0.0,0.0,1.0,-2.30640380859,-17.0788842773,9.48786987305,0.1,0.0,0.0,0.0,0.1,0.0,0.0,0.0,0.1
1446035248393208234,192,1446035248390957117,robocape,-57.3449221228,13.8199027333,62.5957395123,0.0,10.0,0.0,0.0,0.0,10.0,0.0,0.0,0.0,10.0,-0.121706461817,1.65728514636,-1.68391675726,1.0,0.0,0.0,0.0,1.0,0.0,0.0,0.0,1.0,-3.42487792969,-8.88552246094,12.0002453613,0.1,0.0,0.0,0.0,0.1,0.0,0.0,0.0,0.1
1446035248416883068,193,1446035248413669109,robocape,-57.5454802029,13.4371899193,60.5503483178,0.0,10.0,0.0,0.0,0.0,10.0,0.0,0.0,0.0,10.0,0.313454060302,1.19709090999,-1.31573473655,1.0,0.0,0.0,0.0,1.0,0.0,0.0,0.0,1.0,-0.609532470703,-2.6476940918,8.77774658203,0.1,0.0,0.0,0.0,0.1,0.0,0.0,0.0,0.1
1446035248441573151,194,1446035248439804077,robocape,-58.0096857655,12.949446648,58.6680274883,0.0,10.0,0.0,0.0,0.0,10.0,0.0,0.0,0.0,10.0,0.0278300333913,1.02917860326,-1.33917055415,1.0,0.0,0.0,0.0,1.0,0.0,0.0,0.0,1.0,1.15799194336,-2.57225097656,8.97773071289,0.1,0.0,0.0,0.0,0.1,0.0,0.0,0.0,0.1
