%time,field.header.seq,field.header.stamp,field.header.frame_id,field.magnetic_field.x,field.magnetic_field.y,field.magnetic_field.z,field.magnetic_field_covariance0,field.magnetic_field_covariance1,field.magnetic_field_covariance2,field.magnetic_field_covariance3,field.magnetic_field_covariance4,field.magnetic_field_covariance5,field.magnetic_field_covariance6,field.magnetic_field_covariance7,field.magnetic_field_covariance8
1452011197129816368,1,1452011197070974111,robocape_mag,15.6,-30.75,19.2,10.0,0.0,0.0,0.0,10.0,0.0,0.0,0.0,10.0
1452011197130860201,2,1452011197121227979,robocape_mag,15.6,-30.75,19.2,10.0,0.0,0.0,0.0,10.0,0.0,0.0,0.0,10.0
1452011197147885743,3,1452011197141078948,robocape_mag,15.6,-30.75,19.2,10.0,0.0,0.0,0.0,10.0,0.0,0.0,0.0,10.0
1452011197180144285,4,1452011197171087026,robocape_mag,15.6,-30.75,19.2,10.0,0.0,0.0,0.0,10.0,0.0,0.0,0.0,10.0
1452011197196554910,5,1452011197191562891,robocape_mag,15.6,-30.75,19.2,10.0,0.0,0.0,0.0,10.0,0.0,0.0,0.0,10.0
1452011197220526368,6,1452011197215361118,robocape_mag,15.6,-31.95,19.2,10.0,0.0,0.0,0.0,10.0,0.0,0.0,0.0,10.0
1452011197254037451,7,1452011197248965978,robocape_mag,15.6,-31.95,19.2,10.0,0.0,0.0,0.0,10.0,0.0,0.0,0.0,10.0
1452011197298109493,8,1452011197289094924,robocape_mag,15.6,-31.95,19.2,10.0,0.0,0.0,0.0,10.0,0.0,0.0,0.0,10.0
1452011197320471451,9,1452011197315490961,robocape_mag,15.6,-31.95,19.2,10.0,0.0,0.0,0.0,10.0,0.0,0.0,0.0,10.0
1452011197353482368,10,1452011197348771095,robocape_mag,15.6,-31.95,19.2,10.0,0.0,0.0,0.0,10.0,0.0,0.0,0.0,10.0
1452011197387152326,11,1452011197382136106,robocape_mag,16.5,-31.65,17.7,10.0,0.0,0.0,0.0,10.0,0.0,0.0,0.0,10.0
1452011197420304743,12,1452011197415340900,robocape_mag,16.5,-31.65,17.7,10.0,0.0,0.0,0.0,10.0,0.0,0.0,0.0,10.0
1452011197453347535,13,1452011197448612928,robocape_mag,16.5,-31.65,17.7,10.0,0.0,0.0,0.0,10.0,0.0,0.0,0.0,10.0
1452011197487069826,14,1452011197482141017,robocape_mag,16.5,-31.65,17.7,10.0,0.0,0.0,0.0,10.0,0.0,0.0,0.0,10.0
1452011197520689368,15,1452011197515568017,robocape_mag,16.5,-31.65,17.7,10.0,0.0,0.0,0.0,10.0,0.0,0.0,0.0,10.0
1452011197553384576,16,1452011197548650979,robocape_mag,16.5,-31.65,18.9,10.0,0.0,0.0,0.0,10.0,0.0,0.0,0.0,10.0
1452011197587169243,17,1452011197582186937,robocape_mag,16.5,-31.65,18.9,10.0,0.0,0.0,0.0,10.0,0.0,0.0,0.0,10.0
1452011197621002451,18,1452011197615667104,robocape_mag,16.5,-31.65,18.9,10.0,0.0,0.0,0.0,10.0,0.0,0.0,0.0,10.0
1452011197653247285,19,1452011197648667097,robocape_mag,16.5,-31.65,18.9,10.0,0.0,0.0,0.0,10.0,0.0,0.0,0.0,10.0
1452011197687032451,20,1452011197682101964,robocape_mag,14.7,-32.85,17.1,10.0,0.0,0.0,0.0,10.0,0.0,0.0,0.0,10.0
1452011197720626535,21,1452011197715526103,robocape_mag,14.7,-32.85,17.1,10.0,0.0,0.0,0.0,10.0,0.0,0.0,0.0,10.0
1452011197753992368,22,1452011197748569011,robocape_mag,14.7,-32.85,17.1,10.0,0.0,0.0,0.0,10.0,0.0,0.0,0.0,10.0
1452011197787152868,23,1452011197782113075,robocape_mag,14.7,-32.85,17.1,10.0,0.0,0.0,0.0,10.0,0.0,0.0,0.0,10.0
1452011197820454743,24,1452011197815634965,robocape_mag,14.7,-32.85,17.1,10.0,0.0,0.0,0.0,10.0,0.0,0.0,0.0,10.0
1452011197853925951,25,1452011197848933935,robocape_mag,14.1,-31.05,17.7,10.0,0.0,0.0,0.0,10.0,0.0,0.0,0.0,10.0
1452011197886870077,26,1452011197882067918,robocape_mag,14.1,-31.05,17.7,10.0,0.0,0.0,0.0,10.0,0.0,0.0,0.0,10.0
1452011197920233493,27,1452011197915323019,robocape_mag,14.1,-31.05,17.7,10.0,0.0,0.0,0.0,10.0,0.0,0.0,0.0,10.0
1452011197953382910,28,1452011197948628902,robocape_mag,14.1,-31.05,17.7,10.0,0.0,0.0,0.0,10.0,0.0,0.0,0.0,10.0
1452011197987007827,29,1452011197982224941,robocape_mag,14.1,-31.05,17.7,10.0,0.0,0.0,0.0,10.0,0.0,0.0,0.0,10.0
1452011198020267035,30,1452011198015367031,robocape_mag,16.8,-33.15,18.0,10.0,0.0,0.0,0.0,10.0,0.0,0.0,0.0,10.0
1452011198053545285,31,1452011198048744916,robocape_mag,16.8,-33.15,18.0,10.0,0.0,0.0,0.0,10.0,0.0,0.0,0.0,10.0
1452011198087104743,32,1452011198082182884,robocape_mag,16.8,-33.15,18.0,10.0,0.0,0.0,0.0,10.0,0.0,0.0,0.0,10.0
1452011198120716493,33,1452011198115715026,robocape_mag,16.8,-33.15,18.0,10.0,0.0,0.0,0.0,10.0,0.0,0.0,0.0,10.0
1452011198153616410,34,1452011198148817062,robocape_mag,16.8,-33.15,18.0,10.0,0.0,0.0,0.0,10.0,0.0,0.0,0.0,10.0
1452011198187045827,35,1452011198182257890,robocape_mag,16.2,-31.95,17.4,10.0,0.0,0.0,0.0,10.0,0.0,0.0,0.0,10.0
1452011198220619785,36,1452011198215586900,robocape_mag,16.2,-31.95,17.4,10.0,0.0,0.0,0.0,10.0,0.0,0.0,0.0,10.0
1452011198254217993,37,1452011198248583078,robocape_mag,16.2,-31.95,17.4,10.0,0.0,0.0,0.0,10.0,0.0,0.0,0.0,10.0
1452011198287021827,38,1452011198282237052,robocape_mag,16.2,-31.95,17.4,10.0,0.0,0.0,0.0,10.0,0.0,0.0,0.0,10.0
1452011198320583785,39,1452011198315726995,robocape_mag,16.2,-31.95,17.4,10.0,0.0,0.0,0.0,10.0,0.0,0.0,0.0,10.0
1452011198353449118,40,1452011198348526954,robocape_mag,15.9,-31.05,17.7,10.0,0.0,0.0,0.0,10.0,0.0,0.0,0.0,10.0
1452011198386908368,41,1452011198382246971,robocape_mag,15.9,-31.05,17.7,10.0,0.0,0.0,0.0,10.0,0.0,0.0,0.0,10.0
1452011198420260452,42,1452011198415334939,robocape_mag,15.9,-31.05,17.7,10.0,0.0,0.0,0.0,10.0,0.0,0.0,0.0,10.0
1452011198453784327,43,1452011198448715925,robocape_mag,15.9,-31.05,17.7,10.0,0.0,0.0,0.0,10.0,0.0,0.0,0.0,10.0
1452011198486848743,44,1452011198482184886,robocape_mag,16.2,-31.95,18.0,10.0,0.0,0.0,0.0,10.0,0.0,0.0,0.0,10.0
1452011198527645368,45,1452011198522551059,robocape_mag,16.2,-31.95,18.0,10.0,0.0,0.0,0.0,10.0,0.0,0.0,0.0,10.0
1452011198553870119,46,1452011198548909902,robocape_mag,16.2,-31.95,18.0,10.0,0.0,0.0,0.0,10.0,0.0,0.0,0.0,10.0
1452011198586815952,47,1452011198582041978,robocape_mag,16.2,-31.95,18.0,10.0,0.0,0.0,0.0,10.0,0.0,0.0,0.0,10.0
1452011198620324702,48,1452011198615464925,robocape_mag,16.2,-31.95,18.0,10.0,0.0,0.0,0.0,10.0,0.0,0.0,0.0,10.0
1452011198653501952,49,1452011198648672103,robocape_mag,14.4,-32.55,18.0,10.0,0.0,0.0,0.0,10.0,0.0,0.0,0.0,10.0
1452011198686795952,50,1452011198682056903,robocape_mag,14.4,-32.55,18.0,10.0,0.0,0.0,0.0,10.0,0.0,0.0,0.0,10.0
1452011198720558785,51,1452011198715574026,robocape_mag,14.4,-32.55,18.0,10.0,0.0,0.0,0.0,10.0,0.0,0.0,0.0,10.0
1452011198754407410,52,1452011198748694896,robocape_mag,14.4,-32.55,18.0,10.0,0.0,0.0,0.0,10.0,0.0,0.0,0.0,10.0
1452011198786898994,53,1452011198782166004,robocape_mag,14.4,-32.55,18.0,10.0,0.0,0.0,0.0,10.0,0.0,0.0,0.0,10.0
1452011198820210910,54,1452011198815335035,robocape_mag,17.7,-32.25,18.3,10.0,0.0,0.0,0.0,10.0,0.0,0.0,0.0,10.0
1452011198857720285,55,1452011198850069999,robocape_mag,17.7,-32.25,18.3,10.0,0.0,0.0,0.0,10.0,0.0,0.0,0.0,10.0
1452011198890505452,56,1452011198884088039,robocape_mag,17.7,-32.25,18.3,10.0,0.0,0.0,0.0,10.0,0.0,0.0,0.0,10.0
1452011198921789202,57,1452011198916867971,robocape_mag,17.7,-32.25,18.3,10.0,0.0,0.0,0.0,10.0,0.0,0.0,0.0,10.0
1452011198955156535,58,1452011198949862957,robocape_mag,17.7,-32.25,18.3,10.0,0.0,0.0,0.0,10.0,0.0,0.0,0.0,10.0
1452011198988009952,59,1452011198983057022,robocape_mag,15.3,-31.05,18.3,10.0,0.0,0.0,0.0,10.0,0.0,0.0,0.0,10.0
1452011199021623077,60,1452011199016551017,robocape_mag,15.3,-31.05,18.3,10.0,0.0,0.0,0.0,10.0,0.0,0.0,0.0,10.0
1452011199054456952,61,1452011199049200057,robocape_mag,15.3,-31.05,18.3,10.0,0.0,0.0,0.0,10.0,0.0,0.0,0.0,10.0
1452011199089847244,62,1452011199083060026,robocape_mag,15.3,-31.05,18.3,10.0,0.0,0.0,0.0,10.0,0.0,0.0,0.0,10.0
1452011199126058285,63,1452011199120701074,robocape_mag,15.9,-31.65,18.3,10.0,0.0,0.0,0.0,10.0,0.0,0.0,0.0,10.0
1452011199156176077,64,1452011199149939060,robocape_mag,15.9,-31.65,18.3,10.0,0.0,0.0,0.0,10.0,0.0,0.0,0.0,10.0
1452011199188307452,65,1452011199183429002,robocape_mag,15.9,-31.65,18.3,10.0,0.0,0.0,0.0,10.0,0.0,0.0,0.0,10.0
1452011199220866327,66,1452011199215995073,robocape_mag,15.9,-31.65,18.3,10.0,0.0,0.0,0.0,10.0,0.0,0.0,0.0,10.0
1452011199255831619,67,1452011199249278068,robocape_mag,15.9,-31.65,18.3,10.0,0.0,0.0,0.0,10.0,0.0,0.0,0.0,10.0
1452011199287684327,68,1452011199282708883,robocape_mag,15.9,-30.45,19.5,10.0,0.0,0.0,0.0,10.0,0.0,0.0,0.0,10.0
1452011199321044327,69,1452011199315907001,robocape_mag,15.9,-30.45,19.5,10.0,0.0,0.0,0.0,10.0,0.0,0.0,0.0,10.0
1452011199354226077,70,1452011199349222898,robocape_mag,15.9,-30.45,19.5,10.0,0.0,0.0,0.0,10.0,0.0,0.0,0.0,10.0
1452011199387906661,71,1452011199383023023,robocape_mag,15.9,-30.45,19.5,10.0,0.0,0.0,0.0,10.0,0.0,0.0,0.0,10.0
1452011199421256952,72,1452011199416006088,robocape_mag,15.9,-30.45,19.5,10.0,0.0,0.0,0.0,10.0,0.0,0.0,0.0,10.0
1452011199457388994,73,1452011199450086116,robocape_mag,15.0,-31.95,18.0,10.0,0.0,0.0,0.0,10.0,0.0,0.0,0.0,10.0
1452011199489815202,74,1452011199484857082,robocape_mag,15.0,-31.95,18.0,10.0,0.0,0.0,0.0,10.0,0.0,0.0,0.0,10.0
1452011199521795827,75,1452011199516499996,robocape_mag,15.0,-31.95,18.0,10.0,0.0,0.0,0.0,10.0,0.0,0.0,0.0,10.0
1452011199555412619,76,1452011199549500942,robocape_mag,15.0,-31.95,18.0,10.0,0.0,0.0,0.0,10.0,0.0,0.0,0.0,10.0
1452011199587814744,77,1452011199582937955,robocape_mag,15.0,-31.95,18.0,10.0,0.0,0.0,0.0,10.0,0.0,0.0,0.0,10.0
1452011199622709244,78,1452011199617314100,robocape_mag,17.1,-29.85,17.7,10.0,0.0,0.0,0.0,10.0,0.0,0.0,0.0,10.0
1452011199655741952,79,1452011199650473117,robocape_mag,17.1,-29.85,17.7,10.0,0.0,0.0,0.0,10.0,0.0,0.0,0.0,10.0
1452011199688699036,80,1452011199683697938,robocape_mag,17.1,-29.85,17.7,10.0,0.0,0.0,0.0,10.0,0.0,0.0,0.0,10.0
1452011199722772327,81,1452011199716840982,robocape_mag,17.1,-29.85,17.7,10.0,0.0,0.0,0.0,10.0,0.0,0.0,0.0,10.0
1452011199755675327,82,1452011199749921083,robocape_mag,17.1,-29.85,17.7,10.0,0.0,0.0,0.0,10.0,0.0,0.0,0.0,10.0
1452011199788636119,83,1452011199783415079,robocape_mag,15.9,-31.05,18.3,10.0,0.0,0.0,0.0,10.0,0.0,0.0,0.0,10.0
1452011199822044286,84,1452011199816724061,robocape_mag,15.9,-31.05,18.3,10.0,0.0,0.0,0.0,10.0,0.0,0.0,0.0,10.0
1452011199855123619,85,1452011199849446058,robocape_mag,15.9,-31.05,18.3,10.0,0.0,0.0,0.0,10.0,0.0,0.0,0.0,10.0
1452011199889362869,86,1452011199882385969,robocape_mag,15.9,-31.05,18.3,10.0,0.0,0.0,0.0,10.0,0.0,0.0,0.0,10.0
1452011199921453786,87,1452011199915512084,robocape_mag,15.9,-31.05,18.3,10.0,0.0,0.0,0.0,10.0,0.0,0.0,0.0,10.0
1452011199954173369,88,1452011199949430942,robocape_mag,18.6,-31.95,17.4,10.0,0.0,0.0,0.0,10.0,0.0,0.0,0.0,10.0
1452011199987657703,89,1452011199982543945,robocape_mag,18.6,-31.95,17.4,10.0,0.0,0.0,0.0,10.0,0.0,0.0,0.0,10.0
1452011200021730994,90,1452011200016185998,robocape_mag,18.6,-31.95,17.4,10.0,0.0,0.0,0.0,10.0,0.0,0.0,0.0,10.0
1452011200055179494,91,1452011200050185918,robocape_mag,18.6,-31.95,17.4,10.0,0.0,0.0,0.0,10.0,0.0,0.0,0.0,10.0
1452011200091092703,92,1452011200083602905,robocape_mag,15.9,-30.45,18.9,10.0,0.0,0.0,0.0,10.0,0.0,0.0,0.0,10.0
1452011200121944703,93,1452011200116733074,robocape_mag,15.9,-30.45,18.9,10.0,0.0,0.0,0.0,10.0,0.0,0.0,0.0,10.0
1452011200155239036,94,1452011200150238990,robocape_mag,15.9,-30.45,18.9,10.0,0.0,0.0,0.0,10.0,0.0,0.0,0.0,10.0
1452011200188418119,95,1452011200183496952,robocape_mag,15.9,-30.45,18.9,10.0,0.0,0.0,0.0,10.0,0.0,0.0,0.0,10.0
1452011200221698703,96,1452011200215754032,robocape_mag,15.9,-30.45,18.9,10.0,0.0,0.0,0.0,10.0,0.0,0.0,0.0,10.0
1452011200255100078,97,1452011200249629974,robocape_mag,16.5,-31.05,20.1,10.0,0.0,0.0,0.0,10.0,0.0,0.0,0.0,10.0
1452011200289535953,98,1452011200282694101,robocape_mag,16.5,-31.05,20.1,10.0,0.0,0.0,0.0,10.0,0.0,0.0,0.0,10.0
1452011200320475286,99,1452011200315181970,robocape_mag,16.5,-31.05,20.1,10.0,0.0,0.0,0.0,10.0,0.0,0.0,0.0,10.0
1452011200353648536,100,1452011200348782062,robocape_mag,16.5,-31.05,20.1,10.0,0.0,0.0,0.0,10.0,0.0,0.0,0.0,10.0
1452011200390057244,101,1452011200382857084,robocape_mag,16.5,-31.05,20.1,10.0,0.0,0.0,0.0,10.0,0.0,0.0,0.0,10.0
1452011200420722536,102,1452011200415635108,robocape_mag,13.5,-32.25,18.9,10.0,0.0,0.0,0.0,10.0,0.0,0.0,0.0,10.0
1452011200453744994,103,1452011200448944091,robocape_mag,13.5,-32.25,18.9,10.0,0.0,0.0,0.0,10.0,0.0,0.0,0.0,10.0
1452011200488432994,104,1452011200482361078,robocape_mag,13.5,-32.25,18.9,10.0,0.0,0.0,0.0,10.0,0.0,0.0,0.0,10.0
1452011200522414203,105,1452011200516527891,robocape_mag,13.5,-32.25,18.9,10.0,0.0,0.0,0.0,10.0,0.0,0.0,0.0,10.0
1452011200555184244,106,1452011200549822092,robocape_mag,13.5,-32.25,18.9,10.0,0.0,0.0,0.0,10.0,0.0,0.0,0.0,10.0
1452011200590195328,107,1452011200582752943,robocape_mag,15.0,-31.95,17.4,10.0,0.0,0.0,0.0,10.0,0.0,0.0,0.0,10.0
1452011200621342578,108,1452011200616024971,robocape_mag,15.0,-31.95,17.4,10.0,0.0,0.0,0.0,10.0,0.0,0.0,0.0,10.0
1452011200655015953,109,1452011200649969100,robocape_mag,15.0,-31.95,17.4,10.0,0.0,0.0,0.0,10.0,0.0,0.0,0.0,10.0
1452011200688364078,110,1452011200683351039,robocape_mag,15.0,-31.95,17.4,10.0,0.0,0.0,0.0,10.0,0.0,0.0,0.0,10.0
1452011200722198786,111,1452011200715679883,robocape_mag,15.0,-31.95,17.4,10.0,0.0,0.0,0.0,10.0,0.0,0.0,0.0,10.0
1452011200754272161,112,1452011200749032974,robocape_mag,16.2,-30.15,18.6,10.0,0.0,0.0,0.0,10.0,0.0,0.0,0.0,10.0
1452011200793306078,113,1452011200787969112,robocape_mag,16.2,-30.15,18.6,10.0,0.0,0.0,0.0,10.0,0.0,0.0,0.0,10.0
1452011200821933453,114,1452011200816735029,robocape_mag,16.2,-30.15,18.6,10.0,0.0,0.0,0.0,10.0,0.0,0.0,0.0,10.0
1452011200855132453,115,1452011200850070953,robocape_mag,16.2,-30.15,18.6,10.0,0.0,0.0,0.0,10.0,0.0,0.0,0.0,10.0
1452011200887928995,116,1452011200882792949,robocape_mag,16.2,-30.75,18.0,10.0,0.0,0.0,0.0,10.0,0.0,0.0,0.0,10.0
1452011200921442995,117,1452011200916393995,robocape_mag,16.2,-30.75,18.0,10.0,0.0,0.0,0.0,10.0,0.0,0.0,0.0,10.0
1452011200954958828,118,1452011200949966907,robocape_mag,16.2,-30.75,18.0,10.0,0.0,0.0,0.0,10.0,0.0,0.0,0.0,10.0
1452011200989051828,119,1452011200982515096,robocape_mag,16.2,-30.75,18.0,10.0,0.0,0.0,0.0,10.0,0.0,0.0,0.0,10.0
1452011201027710911,120,1452011201017543077,robocape_mag,16.2,-30.75,18.0,10.0,0.0,0.0,0.0,10.0,0.0,0.0,0.0,10.0
1452011201055136495,121,1452011201050005912,robocape_mag,15.0,-33.75,18.0,10.0,0.0,0.0,0.0,10.0,0.0,0.0,0.0,10.0
1452011201090551286,122,1452011201083870887,robocape_mag,15.0,-33.75,18.0,10.0,0.0,0.0,0.0,10.0,0.0,0.0,0.0,10.0
1452011201122264786,123,1452011201116996049,robocape_mag,15.0,-33.75,18.0,10.0,0.0,0.0,0.0,10.0,0.0,0.0,0.0,10.0
1452011201154853995,124,1452011201149996042,robocape_mag,15.0,-33.75,18.0,10.0,0.0,0.0,0.0,10.0,0.0,0.0,0.0,10.0
1452011201190616036,125,1452011201184108972,robocape_mag,15.0,-33.75,18.0,10.0,0.0,0.0,0.0,10.0,0.0,0.0,0.0,10.0
1452011201221676870,126,1452011201216660022,robocape_mag,16.2,-33.15,18.6,10.0,0.0,0.0,0.0,10.0,0.0,0.0,0.0,10.0
1452011201255219786,127,1452011201249849081,robocape_mag,16.2,-33.15,18.6,10.0,0.0,0.0,0.0,10.0,0.0,0.0,0.0,10.0
1452011201288469911,128,1452011201283282995,robocape_mag,16.2,-33.15,18.6,10.0,0.0,0.0,0.0,10.0,0.0,0.0,0.0,10.0
1452011201321688745,129,1452011201316437005,robocape_mag,16.2,-33.15,18.6,10.0,0.0,0.0,0.0,10.0,0.0,0.0,0.0,10.0
1452011201354734245,130,1452011201349771976,robocape_mag,16.2,-33.15,18.6,10.0,0.0,0.0,0.0,10.0,0.0,0.0,0.0,10.0
1452011201388226995,131,1452011201383197069,robocape_mag,15.6,-31.95,18.0,10.0,0.0,0.0,0.0,10.0,0.0,0.0,0.0,10.0
1452011201421806870,132,1452011201416569948,robocape_mag,15.6,-31.95,18.0,10.0,0.0,0.0,0.0,10.0,0.0,0.0,0.0,10.0
1452011201454708870,133,1452011201449836015,robocape_mag,15.6,-31.95,18.0,10.0,0.0,0.0,0.0,10.0,0.0,0.0,0.0,10.0
1452011201488152870,134,1452011201483077049,robocape_mag,15.6,-31.95,18.0,10.0,0.0,0.0,0.0,10.0,0.0,0.0,0.0,10.0
1452011201520487412,135,1452011201515552997,robocape_mag,15.6,-31.95,18.0,10.0,0.0,0.0,0.0,10.0,0.0,0.0,0.0,10.0
1452011201553242662,136,1452011201548610925,robocape_mag,16.5,-31.05,19.5,10.0,0.0,0.0,0.0,10.0,0.0,0.0,0.0,10.0
1452011201593346870,137,1452011201588134050,robocape_mag,16.5,-31.05,19.5,10.0,0.0,0.0,0.0,10.0,0.0,0.0,0.0,10.0
1452011201627234995,138,1452011201622323989,robocape_mag,16.5,-31.05,19.5,10.0,0.0,0.0,0.0,10.0,0.0,0.0,0.0,10.0
1452011201660600537,139,1452011201653284072,robocape_mag,16.5,-31.05,19.5,10.0,0.0,0.0,0.0,10.0,0.0,0.0,0.0,10.0
1452011201692356662,140,1452011201683667898,robocape_mag,16.2,-30.75,18.6,10.0,0.0,0.0,0.0,10.0,0.0,0.0,0.0,10.0
1452011201727909870,141,1452011201718528985,robocape_mag,16.2,-30.75,18.6,10.0,0.0,0.0,0.0,10.0,0.0,0.0,0.0,10.0
1452011201758720745,142,1452011201753283977,robocape_mag,16.2,-30.75,18.6,10.0,0.0,0.0,0.0,10.0,0.0,0.0,0.0,10.0
1452011201792892078,143,1452011201787277936,robocape_mag,16.2,-30.75,18.6,10.0,0.0,0.0,0.0,10.0,0.0,0.0,0.0,10.0
1452011201830595620,144,1452011201820986986,robocape_mag,16.2,-30.75,18.6,10.0,0.0,0.0,0.0,10.0,0.0,0.0,0.0,10.0
1452011201861788662,145,1452011201850198030,robocape_mag,14.7,-31.05,17.1,10.0,0.0,0.0,0.0,10.0,0.0,0.0,0.0,10.0
1452011201902430995,146,1452011201892640113,robocape_mag,14.7,-31.05,17.1,10.0,0.0,0.0,0.0,10.0,0.0,0.0,0.0,10.0
1452011201923395953,147,1452011201918521881,robocape_mag,14.7,-31.05,17.1,10.0,0.0,0.0,0.0,10.0,0.0,0.0,0.0,10.0
1452011201966888745,148,1452011201953736066,robocape_mag,14.7,-31.05,17.1,10.0,0.0,0.0,0.0,10.0,0.0,0.0,0.0,10.0
1452011201993156162,149,1452011201986139059,robocape_mag,14.7,-31.05,17.1,10.0,0.0,0.0,0.0,10.0,0.0,0.0,0.0,10.0
1452011202030134870,150,1452011202021621942,robocape_mag,14.7,-32.85,18.3,10.0,0.0,0.0,0.0,10.0,0.0,0.0,0.0,10.0
1452011202059790954,151,1452011202051167964,robocape_mag,14.7,-32.85,18.3,10.0,0.0,0.0,0.0,10.0,0.0,0.0,0.0,10.0
1452011202097653787,152,1452011202088279008,robocape_mag,14.7,-32.85,18.3,10.0,0.0,0.0,0.0,10.0,0.0,0.0,0.0,10.0
1452011202123894870,153,1452011202118330001,robocape_mag,14.7,-32.85,18.3,10.0,0.0,0.0,0.0,10.0,0.0,0.0,0.0,10.0
1452011202167511162,154,1452011202152128934,robocape_mag,14.7,-32.85,18.3,10.0,0.0,0.0,0.0,10.0,0.0,0.0,0.0,10.0
1452011202212890912,155,1452011202192555904,robocape_mag,14.7,-31.05,18.3,10.0,0.0,0.0,0.0,10.0,0.0,0.0,0.0,10.0
1452011202245144495,156,1452011202230333089,robocape_mag,14.7,-31.05,18.3,10.0,0.0,0.0,0.0,10.0,0.0,0.0,0.0,10.0
1452011202274963537,157,1452011202265367984,robocape_mag,14.7,-31.05,18.3,10.0,0.0,0.0,0.0,10.0,0.0,0.0,0.0,10.0
1452011202320705370,158,1452011202297070026,robocape_mag,14.7,-31.05,18.3,10.0,0.0,0.0,0.0,10.0,0.0,0.0,0.0,10.0
1452011202351533829,159,1452011202340277910,robocape_mag,18.0,-31.35,17.4,10.0,0.0,0.0,0.0,10.0,0.0,0.0,0.0,10.0
1452011202375111579,160,1452011202369551897,robocape_mag,18.0,-31.35,17.4,10.0,0.0,0.0,0.0,10.0,0.0,0.0,0.0,10.0
1452011202397995204,161,1452011202391429901,robocape_mag,18.0,-31.35,17.4,10.0,0.0,0.0,0.0,10.0,0.0,0.0,0.0,10.0
1452011202435237620,162,1452011202420680046,robocape_mag,18.0,-31.35,17.4,10.0,0.0,0.0,0.0,10.0,0.0,0.0,0.0,10.0
1452011202458336537,163,1452011202453171014,robocape_mag,18.0,-31.35,17.4,10.0,0.0,0.0,0.0,10.0,0.0,0.0,0.0,10.0
1452011202493173829,164,1452011202487873077,robocape_mag,16.2,-33.75,16.8,10.0,0.0,0.0,0.0,10.0,0.0,0.0,0.0,10.0
1452011202529497954,165,1452011202522258996,robocape_mag,16.2,-33.75,16.8,10.0,0.0,0.0,0.0,10.0,0.0,0.0,0.0,10.0
1452011202557082579,166,1452011202551629066,robocape_mag,16.2,-33.75,16.8,10.0,0.0,0.0,0.0,10.0,0.0,0.0,0.0,10.0
1452011202592600204,167,1452011202587276935,robocape_mag,16.2,-33.75,16.8,10.0,0.0,0.0,0.0,10.0,0.0,0.0,0.0,10.0
1452011202628183162,168,1452011202621545076,robocape_mag,16.2,-33.75,16.8,10.0,0.0,0.0,0.0,10.0,0.0,0.0,0.0,10.0
1452011202659904495,169,1452011202651669025,robocape_mag,15.6,-32.55,15.6,10.0,0.0,0.0,0.0,10.0,0.0,0.0,0.0,10.0
1452011202696026037,170,1452011202690840959,robocape_mag,15.6,-32.55,15.6,10.0,0.0,0.0,0.0,10.0,0.0,0.0,0.0,10.0
1452011202735772579,171,1452011202727732896,robocape_mag,15.6,-32.55,15.6,10.0,0.0,0.0,0.0,10.0,0.0,0.0,0.0,10.0
1452011202763920787,172,1452011202756105899,robocape_mag,15.6,-32.55,15.6,10.0,0.0,0.0,0.0,10.0,0.0,0.0,0.0,10.0
1452011202794521537,173,1452011202787574052,robocape_mag,15.6,-32.55,15.6,10.0,0.0,0.0,0.0,10.0,0.0,0.0,0.0,10.0
1452011202828768954,174,1452011202821572065,robocape_mag,16.2,-30.15,19.2,10.0,0.0,0.0,0.0,10.0,0.0,0.0,0.0,10.0
1452011202857785704,175,1452011202852431058,robocape_mag,16.2,-30.15,19.2,10.0,0.0,0.0,0.0,10.0,0.0,0.0,0.0,10.0
1452011202894157246,176,1452011202886854887,robocape_mag,16.2,-30.15,19.2,10.0,0.0,0.0,0.0,10.0,0.0,0.0,0.0,10.0
1452011202930091454,177,1452011202920032024,robocape_mag,16.2,-30.15,19.2,10.0,0.0,0.0,0.0,10.0,0.0,0.0,0.0,10.0
1452011202958612329,178,1452011202953105926,robocape_mag,16.2,-30.15,19.2,10.0,0.0,0.0,0.0,10.0,0.0,0.0,0.0,10.0
1452011202996799621,179,1452011202986408948,robocape_mag,15.9,-31.65,15.9,10.0,0.0,0.0,0.0,10.0,0.0,0.0,0.0,10.0
1452011203023732829,180,1452011203018434047,robocape_mag,15.9,-31.65,15.9,10.0,0.0,0.0,0.0,10.0,0.0,0.0,0.0,10.0
1452011203059576704,181,1452011203051597118,robocape_mag,15.9,-31.65,15.9,10.0,0.0,0.0,0.0,10.0,0.0,0.0,0.0,10.0
1452011203093840371,182,1452011203088423013,robocape_mag,15.9,-31.65,15.9,10.0,0.0,0.0,0.0,10.0,0.0,0.0,0.0,10.0
1452011203142426496,183,1452011203122591972,robocape_mag,15.3,-31.05,19.5,10.0,0.0,0.0,0.0,10.0,0.0,0.0,0.0,10.0
1452011203163161954,184,1452011203154272079,robocape_mag,15.3,-31.05,19.5,10.0,0.0,0.0,0.0,10.0,0.0,0.0,0.0,10.0
1452011203201696954,185,1452011203188267946,robocape_mag,15.3,-31.05,19.5,10.0,0.0,0.0,0.0,10.0,0.0,0.0,0.0,10.0
1452011203232966621,186,1452011203226109981,robocape_mag,15.3,-31.05,19.5,10.0,0.0,0.0,0.0,10.0,0.0,0.0,0.0,10.0
1452011203257747829,187,1452011203250431060,robocape_mag,15.3,-31.05,19.5,10.0,0.0,0.0,0.0,10.0,0.0,0.0,0.0,10.0
1452011203290321204,188,1452011203284714937,robocape_mag,15.0,-32.55,18.0,10.0,0.0,0.0,0.0,10.0,0.0,0.0,0.0,10.0
1452011203328816496,189,1452011203320079088,robocape_mag,15.0,-32.55,18.0,10.0,0.0,0.0,0.0,10.0,0.0,0.0,0.0,10.0
1452011203359523829,190,1452011203352842092,robocape_mag,15.0,-32.55,18.0,10.0,0.0,0.0,0.0,10.0,0.0,0.0,0.0,10.0
1452011203393082537,191,1452011203385277986,robocape_mag,15.0,-32.55,18.0,10.0,0.0,0.0,0.0,10.0,0.0,0.0,0.0,10.0
1452011203425647037,192,1452011203419972896,robocape_mag,15.0,-32.55,18.0,10.0,0.0,0.0,0.0,10.0,0.0,0.0,0.0,10.0
1452011203460648079,193,1452011203452363967,robocape_mag,16.8,-30.75,18.0,10.0,0.0,0.0,0.0,10.0,0.0,0.0,0.0,10.0
1452011203491421663,194,1452011203485704898,robocape_mag,16.8,-30.75,18.0,10.0,0.0,0.0,0.0,10.0,0.0,0.0,0.0,10.0
1452011203528140288,195,1452011203522316932,robocape_mag,16.8,-30.75,18.0,10.0,0.0,0.0,0.0,10.0,0.0,0.0,0.0,10.0
1452011203560904329,196,1452011203552905082,robocape_mag,16.8,-30.75,18.0,10.0,0.0,0.0,0.0,10.0,0.0,0.0,0.0,10.0
1452011203593541288,197,1452011203584883928,robocape_mag,16.8,-30.75,18.0,10.0,0.0,0.0,0.0,10.0,0.0,0.0,0.0,10.0
1452011203628118746,198,1452011203621520042,robocape_mag,15.3,-31.65,18.3,10.0,0.0,0.0,0.0,10.0,0.0,0.0,0.0,10.0
1452011203656575121,199,1452011203651269912,robocape_mag,15.3,-31.65,18.3,10.0,0.0,0.0,0.0,10.0,0.0,0.0,0.0,10.0
1452011203702327579,200,1452011203686722040,robocape_mag,15.3,-31.65,18.3,10.0,0.0,0.0,0.0,10.0,0.0,0.0,0.0,10.0
1452011203728950079,201,1452011203723371028,robocape_mag,15.3,-31.65,18.3,10.0,0.0,0.0,0.0,10.0,0.0,0.0,0.0,10.0
1452011203755891704,202,1452011203750674962,robocape_mag,15.3,-31.65,18.3,10.0,0.0,0.0,0.0,10.0,0.0,0.0,0.0,10.0
1452011203799200329,203,1452011203788909912,robocape_mag,15.9,-31.65,15.3,10.0,0.0,0.0,0.0,10.0,0.0,0.0,0.0,10.0
1452011203826760788,204,1452011203821180105,robocape_mag,15.9,-31.65,15.3,10.0,0.0,0.0,0.0,10.0,0.0,0.0,0.0,10.0
1452011203861958204,205,1452011203851336956,robocape_mag,15.9,-31.65,15.3,10.0,0.0,0.0,0.0,10.0,0.0,0.0,0.0,10.0
1452011203903064413,206,1452011203892141103,robocape_mag,15.9,-31.65,15.3,10.0,0.0,0.0,0.0,10.0,0.0,0.0,0.0,10.0
1452011203932926704,207,1452011203925317049,robocape_mag,15.9,-31.65,18.3,10.0,0.0,0.0,0.0,10.0,0.0,0.0,0.0,10.0
1452011203956410996,208,1452011203951003074,robocape_mag,15.9,-31.65,18.3,10.0,0.0,0.0,0.0,10.0,0.0,0.0,0.0,10.0
1452011204003589871,209,1452011203990925073,robocape_mag,15.9,-31.65,18.3,10.0,0.0,0.0,0.0,10.0,0.0,0.0,0.0,10.0
1452011204031581454,210,1452011204023005008,robocape_mag,15.9,-31.65,18.3,10.0,0.0,0.0,0.0,10.0,0.0,0.0,0.0,10.0
1452011204055172704,211,1452011204049875974,robocape_mag,15.9,-31.65,18.3,10.0,0.0,0.0,0.0,10.0,0.0,0.0,0.0,10.0
1452011204100271954,212,1452011204089675903,robocape_mag,14.4,-33.75,17.4,10.0,0.0,0.0,0.0,10.0,0.0,0.0,0.0,10.0
1452011204135024079,213,1452011204121769905,robocape_mag,14.4,-33.75,17.4,10.0,0.0,0.0,0.0,10.0,0.0,0.0,0.0,10.0
1452011204160515746,214,1452011204154272079,robocape_mag,14.4,-33.75,17.4,10.0,0.0,0.0,0.0,10.0,0.0,0.0,0.0,10.0
1452011204203413621,215,1452011204188354969,robocape_mag,14.4,-33.75,17.4,10.0,0.0,0.0,0.0,10.0,0.0,0.0,0.0,10.0
1452011204231487455,216,1452011204225049018,robocape_mag,14.4,-33.75,17.4,10.0,0.0,0.0,0.0,10.0,0.0,0.0,0.0,10.0
1452011204257132413,217,1452011204251744985,robocape_mag,16.2,-31.95,15.6,10.0,0.0,0.0,0.0,10.0,0.0,0.0,0.0,10.0
1452011204299717996,218,1452011204287719964,robocape_mag,16.2,-31.95,15.6,10.0,0.0,0.0,0.0,10.0,0.0,0.0,0.0,10.0
1452011204328981288,219,1452011204323431968,robocape_mag,16.2,-31.95,15.6,10.0,0.0,0.0,0.0,10.0,0.0,0.0,0.0,10.0
1452011204358835330,220,1452011204350944995,robocape_mag,16.2,-31.95,15.6,10.0,0.0,0.0,0.0,10.0,0.0,0.0,0.0,10.0
1452011204401167413,221,1452011204390330076,robocape_mag,16.2,-31.95,15.6,10.0,0.0,0.0,0.0,10.0,0.0,0.0,0.0,10.0
1452011204427170246,222,1452011204421698093,robocape_mag,15.0,-30.75,16.8,10.0,0.0,0.0,0.0,10.0,0.0,0.0,0.0,10.0
1452011204454518955,223,1452011204449224948,robocape_mag,15.0,-30.75,16.8,10.0,0.0,0.0,0.0,10.0,0.0,0.0,0.0,10.0
1452011204499377121,224,1452011204486759901,robocape_mag,15.0,-30.75,16.8,10.0,0.0,0.0,0.0,10.0,0.0,0.0,0.0,10.0
1452011204525871413,225,1452011204520483016,robocape_mag,15.0,-30.75,16.8,10.0,0.0,0.0,0.0,10.0,0.0,0.0,0.0,10.0
1452011204556631121,226,1452011204548804044,robocape_mag,15.0,-30.75,16.8,10.0,0.0,0.0,0.0,10.0,0.0,0.0,0.0,10.0
1452011204596672788,227,1452011204586661100,robocape_mag,13.8,-30.75,14.4,10.0,0.0,0.0,0.0,10.0,0.0,0.0,0.0,10.0
1452011204627026830,228,1452011204619450092,robocape_mag,13.8,-30.75,14.4,10.0,0.0,0.0,0.0,10.0,0.0,0.0,0.0,10.0
1452011204654409580,229,1452011204648943901,robocape_mag,13.8,-30.75,14.4,10.0,0.0,0.0,0.0,10.0,0.0,0.0,0.0,10.0
1452011204698038871,230,1452011204688390016,robocape_mag,13.8,-30.75,14.4,10.0,0.0,0.0,0.0,10.0,0.0,0.0,0.0,10.0
1452011204728552746,231,1452011204720318078,robocape_mag,15.3,-31.65,18.3,10.0,0.0,0.0,0.0,10.0,0.0,0.0,0.0,10.0
1452011204755070246,232,1452011204749490976,robocape_mag,15.3,-31.65,18.3,10.0,0.0,0.0,0.0,10.0,0.0,0.0,0.0,10.0
1452011204796377663,233,1452011204788753986,robocape_mag,15.3,-31.65,18.3,10.0,0.0,0.0,0.0,10.0,0.0,0.0,0.0,10.0
1452011204828729788,234,1452011204821064949,robocape_mag,15.3,-31.65,18.3,10.0,0.0,0.0,0.0,10.0,0.0,0.0,0.0,10.0
1452011204855956163,235,1452011204848927974,robocape_mag,15.3,-31.65,18.3,10.0,0.0,0.0,0.0,10.0,0.0,0.0,0.0,10.0
1452011204899111788,236,1452011204887382030,robocape_mag,15.3,-33.45,18.9,10.0,0.0,0.0,0.0,10.0,0.0,0.0,0.0,10.0
1452011204925209622,237,1452011204919905900,robocape_mag,15.3,-33.45,18.9,10.0,0.0,0.0,0.0,10.0,0.0,0.0,0.0,10.0
1452011204957595080,238,1452011204949278116,robocape_mag,15.3,-33.45,18.9,10.0,0.0,0.0,0.0,10.0,0.0,0.0,0.0,10.0
1452011204995285372,239,1452011204985116004,robocape_mag,15.3,-33.45,18.9,10.0,0.0,0.0,0.0,10.0,0.0,0.0,0.0,10.0
1452011205038117830,240,1452011205020307064,robocape_mag,15.3,-33.45,18.9,10.0,0.0,0.0,0.0,10.0,0.0,0.0,0.0,10.0
1452011205070773788,241,1452011205056969881,robocape_mag,16.2,-29.55,16.8,10.0,0.0,0.0,0.0,10.0,0.0,0.0,0.0,10.0
1452011205098550705,242,1452011205088725090,robocape_mag,16.2,-29.55,16.8,10.0,0.0,0.0,0.0,10.0,0.0,0.0,0.0,10.0
1452011205132190163,243,1452011205121284961,robocape_mag,16.2,-29.55,16.8,10.0,0.0,0.0,0.0,10.0,0.0,0.0,0.0,10.0
1452011205163540455,244,1452011205154567003,robocape_mag,16.2,-29.55,16.8,10.0,0.0,0.0,0.0,10.0,0.0,0.0,0.0,10.0
1452011205191088080,245,1452011205183376073,robocape_mag,16.2,-29.55,16.8,10.0,0.0,0.0,0.0,10.0,0.0,0.0,0.0,10.0
1452011205228213538,246,1452011205217390060,robocape_mag,15.0,-33.15,17.4,10.0,0.0,0.0,0.0,10.0,0.0,0.0,0.0,10.0
1452011205253855455,247,1452011205248851060,robocape_mag,15.0,-33.15,17.4,10.0,0.0,0.0,0.0,10.0,0.0,0.0,0.0,10.0
1452011205286894330,248,1452011205282051086,robocape_mag,15.0,-33.15,17.4,10.0,0.0,0.0,0.0,10.0,0.0,0.0,0.0,10.0
1452011205320561913,249,1452011205315459012,robocape_mag,15.0,-33.15,17.4,10.0,0.0,0.0,0.0,10.0,0.0,0.0,0.0,10.0
1452011205353714122,250,1452011205348933935,robocape_mag,15.0,-33.15,17.4,10.0,0.0,0.0,0.0,10.0,0.0,0.0,0.0,10.0
1452011205387047913,251,1452011205382158994,robocape_mag,15.3,-30.45,16.5,10.0,0.0,0.0,0.0,10.0,0.0,0.0,0.0,10.0
1452011205420208205,252,1452011205415484905,robocape_mag,15.3,-30.45,16.5,10.0,0.0,0.0,0.0,10.0,0.0,0.0,0.0,10.0
1452011205453769538,253,1452011205448885917,robocape_mag,15.3,-30.45,16.5,10.0,0.0,0.0,0.0,10.0,0.0,0.0,0.0,10.0
1452011205486905580,254,1452011205482038021,robocape_mag,15.3,-30.45,16.5,10.0,0.0,0.0,0.0,10.0,0.0,0.0,0.0,10.0
1452011205522197997,255,1452011205516443014,robocape_mag,15.3,-30.45,18.6,10.0,0.0,0.0,0.0,10.0,0.0,0.0,0.0,10.0
1452011205553931372,256,1452011205548970937,robocape_mag,15.0,-31.95,18.6,10.0,0.0,0.0,0.0,10.0,0.0,0.0,0.0,10.0
1452011205586897580,257,1452011205582052946,robocape_mag,15.0,-31.95,18.6,10.0,0.0,0.0,0.0,10.0,0.0,0.0,0.0,10.0
1452011205620787330,258,1452011205615962982,robocape_mag,15.0,-31.95,18.6,10.0,0.0,0.0,0.0,10.0,0.0,0.0,0.0,10.0
1452011205659734789,259,1452011205654797077,robocape_mag,15.0,-31.95,18.6,10.0,0.0,0.0,0.0,10.0,0.0,0.0,0.0,10.0
1452011205688733872,260,1452011205683428049,robocape_mag,14.7,-32.25,18.3,10.0,0.0,0.0,0.0,10.0,0.0,0.0,0.0,10.0
1452011205727419164,261,1452011205717457056,robocape_mag,14.7,-32.25,18.3,10.0,0.0,0.0,0.0,10.0,0.0,0.0,0.0,10.0
1452011205754957997,262,1452011205749820947,robocape_mag,14.7,-32.25,18.3,10.0,0.0,0.0,0.0,10.0,0.0,0.0,0.0,10.0
1452011205792848164,263,1452011205786098957,robocape_mag,14.7,-32.25,18.3,10.0,0.0,0.0,0.0,10.0,0.0,0.0,0.0,10.0
1452011205823247580,264,1452011205817922115,robocape_mag,14.7,-32.25,18.3,10.0,0.0,0.0,0.0,10.0,0.0,0.0,0.0,10.0
1452011205853657330,265,1452011205848887920,robocape_mag,17.7,-30.45,17.1,10.0,0.0,0.0,0.0,10.0,0.0,0.0,0.0,10.0
1452011205886640997,266,1452011205882045030,robocape_mag,17.7,-30.45,17.1,10.0,0.0,0.0,0.0,10.0,0.0,0.0,0.0,10.0
1452011205920315289,267,1452011205915585994,robocape_mag,17.7,-30.45,17.1,10.0,0.0,0.0,0.0,10.0,0.0,0.0,0.0,10.0
1452011205953665122,268,1452011205948822021,robocape_mag,17.7,-30.45,17.1,10.0,0.0,0.0,0.0,10.0,0.0,0.0,0.0,10.0
1452011205986534414,269,1452011205981915950,robocape_mag,17.7,-30.45,17.1,10.0,0.0,0.0,0.0,10.0,0.0,0.0,0.0,10.0
1452011206020306205,270,1452011206015569925,robocape_mag,15.0,-30.75,18.0,10.0,0.0,0.0,0.0,10.0,0.0,0.0,0.0,10.0
1452011206054076997,271,1452011206048871994,robocape_mag,15.0,-30.75,18.0,10.0,0.0,0.0,0.0,10.0,0.0,0.0,0.0,10.0
1452011206086593705,272,1452011206081841945,robocape_mag,15.0,-30.75,18.0,10.0,0.0,0.0,0.0,10.0,0.0,0.0,0.0,10.0
1452011206120906830,273,1452011206115745067,robocape_mag,15.0,-30.75,18.0,10.0,0.0,0.0,0.0,10.0,0.0,0.0,0.0,10.0
1452011206158956830,274,1452011206151582956,robocape_mag,15.0,-30.75,18.0,10.0,0.0,0.0,0.0,10.0,0.0,0.0,0.0,10.0
1452011206186898580,275,1452011206182156085,robocape_mag,16.8,-31.95,16.8,10.0,0.0,0.0,0.0,10.0,0.0,0.0,0.0,10.0
1452011206220605247,276,1452011206215445995,robocape_mag,16.8,-31.95,16.8,10.0,0.0,0.0,0.0,10.0,0.0,0.0,0.0,10.0
1452011206253651872,277,1452011206248780012,robocape_mag,16.8,-31.95,16.8,10.0,0.0,0.0,0.0,10.0,0.0,0.0,0.0,10.0
1452011206286548581,278,1452011206281881093,robocape_mag,16.8,-31.95,16.8,10.0,0.0,0.0,0.0,10.0,0.0,0.0,0.0,10.0
1452011206320149372,279,1452011206315365076,robocape_mag,16.8,-31.95,16.8,10.0,0.0,0.0,0.0,10.0,0.0,0.0,0.0,10.0
1452011206353510289,280,1452011206348829984,robocape_mag,14.7,-30.45,18.9,10.0,0.0,0.0,0.0,10.0,0.0,0.0,0.0,10.0
1452011206386662997,281,1452011206381967067,robocape_mag,14.7,-30.45,18.9,10.0,0.0,0.0,0.0,10.0,0.0,0.0,0.0,10.0
1452011206420037372,282,1452011206415357112,robocape_mag,14.7,-30.45,18.9,10.0,0.0,0.0,0.0,10.0,0.0,0.0,0.0,10.0
1452011206453510247,283,1452011206448728084,robocape_mag,14.7,-30.45,18.9,10.0,0.0,0.0,0.0,10.0,0.0,0.0,0.0,10.0
1452011206486616206,284,1452011206481992959,robocape_mag,14.7,-32.85,19.5,10.0,0.0,0.0,0.0,10.0,0.0,0.0,0.0,10.0
1452011206520319872,285,1452011206515547990,robocape_mag,14.7,-32.85,19.5,10.0,0.0,0.0,0.0,10.0,0.0,0.0,0.0,10.0
1452011206553908497,286,1452011206548969984,robocape_mag,14.7,-32.85,19.5,10.0,0.0,0.0,0.0,10.0,0.0,0.0,0.0,10.0
1452011206586634914,287,1452011206581899881,robocape_mag,14.7,-32.85,19.5,10.0,0.0,0.0,0.0,10.0,0.0,0.0,0.0,10.0
1452011206620190997,288,1452011206615521907,robocape_mag,14.7,-32.85,19.5,10.0,0.0,0.0,0.0,10.0,0.0,0.0,0.0,10.0
1452011206653883581,289,1452011206648907899,robocape_mag,16.8,-31.35,18.6,10.0,0.0,0.0,0.0,10.0,0.0,0.0,0.0,10.0
1452011206686601872,290,1452011206682009935,robocape_mag,16.8,-31.35,18.6,10.0,0.0,0.0,0.0,10.0,0.0,0.0,0.0,10.0
1452011206720817081,291,1452011206715753078,robocape_mag,16.8,-31.35,18.6,10.0,0.0,0.0,0.0,10.0,0.0,0.0,0.0,10.0
1452011206753985289,292,1452011206749197959,robocape_mag,16.8,-31.35,18.6,10.0,0.0,0.0,0.0,10.0,0.0,0.0,0.0,10.0
1452011206786581331,293,1452011206781934976,robocape_mag,16.8,-31.35,18.6,10.0,0.0,0.0,0.0,10.0,0.0,0.0,0.0,10.0
1452011206820314872,294,1452011206815481901,robocape_mag,14.7,-32.25,18.3,10.0,0.0,0.0,0.0,10.0,0.0,0.0,0.0,10.0
1452011206854141039,295,1452011206849298000,robocape_mag,14.7,-32.25,18.3,10.0,0.0,0.0,0.0,10.0,0.0,0.0,0.0,10.0
1452011206886543706,296,1452011206881927013,robocape_mag,14.7,-32.25,18.3,10.0,0.0,0.0,0.0,10.0,0.0,0.0,0.0,10.0
1452011206920280081,297,1452011206915457963,robocape_mag,14.7,-32.25,18.3,10.0,0.0,0.0,0.0,10.0,0.0,0.0,0.0,10.0
1452011206954030956,298,1452011206949202060,robocape_mag,14.7,-32.25,18.3,10.0,0.0,0.0,0.0,10.0,0.0,0.0,0.0,10.0
1452011206986583039,299,1452011206981925010,robocape_mag,16.8,-30.75,15.6,10.0,0.0,0.0,0.0,10.0,0.0,0.0,0.0,10.0
1452011207020251873,300,1452011207015414953,robocape_mag,16.8,-30.75,15.6,10.0,0.0,0.0,0.0,10.0,0.0,0.0,0.0,10.0
1452011207054131789,301,1452011207049071073,robocape_mag,16.8,-30.75,15.6,10.0,0.0,0.0,0.0,10.0,0.0,0.0,0.0,10.0
1452011207086600623,302,1452011207081885099,robocape_mag,16.8,-30.75,15.6,10.0,0.0,0.0,0.0,10.0,0.0,0.0,0.0,10.0
1452011207120547498,303,1452011207115627050,robocape_mag,16.8,-30.75,15.6,10.0,0.0,0.0,0.0,10.0,0.0,0.0,0.0,10.0
1452011207154232248,304,1452011207149238109,robocape_mag,15.6,-30.15,17.4,10.0,0.0,0.0,0.0,10.0,0.0,0.0,0.0,10.0
1452011207186965748,305,1452011207182168006,robocape_mag,15.6,-30.15,17.4,10.0,0.0,0.0,0.0,10.0,0.0,0.0,0.0,10.0
1452011207220223623,306,1452011207215452909,robocape_mag,15.6,-30.15,17.4,10.0,0.0,0.0,0.0,10.0,0.0,0.0,0.0,10.0
1452011207254040581,307,1452011207249275922,robocape_mag,15.6,-30.15,17.4,10.0,0.0,0.0,0.0,10.0,0.0,0.0,0.0,10.0
1452011207286751373,308,1452011207282000064,robocape_mag,15.6,-33.75,19.2,10.0,0.0,0.0,0.0,10.0,0.0,0.0,0.0,10.0
1452011207320081123,309,1452011207315295934,robocape_mag,15.6,-33.75,19.2,10.0,0.0,0.0,0.0,10.0,0.0,0.0,0.0,10.0
1452011207353924456,310,1452011207349149942,robocape_mag,15.6,-33.75,19.2,10.0,0.0,0.0,0.0,10.0,0.0,0.0,0.0,10.0
1452011207386692539,311,1452011207381927967,robocape_mag,15.6,-33.75,19.2,10.0,0.0,0.0,0.0,10.0,0.0,0.0,0.0,10.0
1452011207420041748,312,1452011207415350914,robocape_mag,15.6,-33.75,19.2,10.0,0.0,0.0,0.0,10.0,0.0,0.0,0.0,10.0
1452011207454089081,313,1452011207449377059,robocape_mag,17.1,-31.65,17.1,10.0,0.0,0.0,0.0,10.0,0.0,0.0,0.0,10.0
1452011207486703706,314,1452011207481972932,robocape_mag,17.1,-31.65,17.1,10.0,0.0,0.0,0.0,10.0,0.0,0.0,0.0,10.0
1452011207520037206,315,1452011207515300035,robocape_mag,17.1,-31.65,17.1,10.0,0.0,0.0,0.0,10.0,0.0,0.0,0.0,10.0
1452011207554025373,316,1452011207549081087,robocape_mag,17.1,-31.65,17.1,10.0,0.0,0.0,0.0,10.0,0.0,0.0,0.0,10.0
1452011207586701998,317,1452011207581901073,robocape_mag,17.1,-31.65,17.1,10.0,0.0,0.0,0.0,10.0,0.0,0.0,0.0,10.0
1452011207620571873,318,1452011207615612030,robocape_mag,12.3,-34.65,16.5,10.0,0.0,0.0,0.0,10.0,0.0,0.0,0.0,10.0
1452011207653950165,319,1452011207648967981,robocape_mag,12.3,-34.65,16.5,10.0,0.0,0.0,0.0,10.0,0.0,0.0,0.0,10.0
1452011207687040915,320,1452011207682045936,robocape_mag,12.3,-34.65,16.5,10.0,0.0,0.0,0.0,10.0,0.0,0.0,0.0,10.0
1452011207720219915,321,1452011207715480089,robocape_mag,12.3,-34.65,16.5,10.0,0.0,0.0,0.0,10.0,0.0,0.0,0.0,10.0
1452011207753813915,322,1452011207749037027,robocape_mag,12.3,-34.65,16.5,10.0,0.0,0.0,0.0,10.0,0.0,0.0,0.0,10.0
1452011207786632998,323,1452011207781868934,robocape_mag,12.3,-35.25,14.1,10.0,0.0,0.0,0.0,10.0,0.0,0.0,0.0,10.0
1452011207820050206,324,1452011207815320014,robocape_mag,12.3,-35.25,14.1,10.0,0.0,0.0,0.0,10.0,0.0,0.0,0.0,10.0
1452011207853866623,325,1452011207849005937,robocape_mag,12.3,-35.25,14.1,10.0,0.0,0.0,0.0,10.0,0.0,0.0,0.0,10.0
1452011207886791081,326,1452011207882013082,robocape_mag,12.3,-35.25,14.1,10.0,0.0,0.0,0.0,10.0,0.0,0.0,0.0,10.0
1452011207920119290,327,1452011207915410995,robocape_mag,12.3,-35.25,14.1,10.0,0.0,0.0,0.0,10.0,0.0,0.0,0.0,10.0
1452011207954100956,328,1452011207949198961,robocape_mag,10.5,-32.85,17.7,10.0,0.0,0.0,0.0,10.0,0.0,0.0,0.0,10.0
1452011207986763040,329,1452011207982027053,robocape_mag,10.5,-32.85,17.7,10.0,0.0,0.0,0.0,10.0,0.0,0.0,0.0,10.0
1452011208019978456,330,1452011208015286922,robocape_mag,10.5,-32.85,17.7,10.0,0.0,0.0,0.0,10.0,0.0,0.0,0.0,10.0
1452011208054127456,331,1452011208049148082,robocape_mag,10.5,-32.85,17.7,10.0,0.0,0.0,0.0,10.0,0.0,0.0,0.0,10.0
1452011208086667706,332,1452011208081878900,robocape_mag,12.9,-31.65,17.7,10.0,0.0,0.0,0.0,10.0,0.0,0.0,0.0,10.0
1452011208120601373,333,1452011208115680932,robocape_mag,12.9,-31.65,17.7,10.0,0.0,0.0,0.0,10.0,0.0,0.0,0.0,10.0
1452011208154117456,334,1452011208149077892,robocape_mag,12.9,-31.65,17.7,10.0,0.0,0.0,0.0,10.0,0.0,0.0,0.0,10.0
1452011208187388956,335,1452011208182260990,robocape_mag,12.9,-31.65,17.7,10.0,0.0,0.0,0.0,10.0,0.0,0.0,0.0,10.0
1452011208220478540,336,1452011208215615987,robocape_mag,12.9,-31.65,17.7,10.0,0.0,0.0,0.0,10.0,0.0,0.0,0.0,10.0
1452011208253971456,337,1452011208249223947,robocape_mag,21.9,-31.05,14.7,10.0,0.0,0.0,0.0,10.0,0.0,0.0,0.0,10.0
1452011208291447123,338,1452011208286618947,robocape_mag,21.9,-31.05,14.7,10.0,0.0,0.0,0.0,10.0,0.0,0.0,0.0,10.0
1452011208320326081,339,1452011208315603971,robocape_mag,21.9,-31.05,14.7,10.0,0.0,0.0,0.0,10.0,0.0,0.0,0.0,10.0
1452011208353796165,340,1452011208349066972,robocape_mag,21.9,-31.05,14.7,10.0,0.0,0.0,0.0,10.0,0.0,0.0,0.0,10.0
1452011208386760123,341,1452011208381962060,robocape_mag,21.9,-31.05,14.7,10.0,0.0,0.0,0.0,10.0,0.0,0.0,0.0,10.0
1452011208420507373,342,1452011208415798902,robocape_mag,25.5,-31.65,6.9,10.0,0.0,0.0,0.0,10.0,0.0,0.0,0.0,10.0
1452011208454133248,343,1452011208449137926,robocape_mag,25.5,-31.65,6.9,10.0,0.0,0.0,0.0,10.0,0.0,0.0,0.0,10.0
1452011208486593040,344,1452011208481941938,robocape_mag,25.5,-31.65,6.9,10.0,0.0,0.0,0.0,10.0,0.0,0.0,0.0,10.0
1452011208521061957,345,1452011208516241073,robocape_mag,25.5,-31.65,6.9,10.0,0.0,0.0,0.0,10.0,0.0,0.0,0.0,10.0
1452011208554140540,346,1452011208549228906,robocape_mag,25.5,-31.65,6.9,10.0,0.0,0.0,0.0,10.0,0.0,0.0,0.0,10.0
1452011208586795248,347,1452011208582146883,robocape_mag,32.1,-26.25,2.1,10.0,0.0,0.0,0.0,10.0,0.0,0.0,0.0,10.0
1452011208620793665,348,1452011208615869045,robocape_mag,32.1,-26.25,2.1,10.0,0.0,0.0,0.0,10.0,0.0,0.0,0.0,10.0
1452011208654114290,349,1452011208649161100,robocape_mag,32.1,-26.25,2.1,10.0,0.0,0.0,0.0,10.0,0.0,0.0,0.0,10.0
1452011208687207498,350,1452011208682303905,robocape_mag,32.1,-26.25,2.1,10.0,0.0,0.0,0.0,10.0,0.0,0.0,0.0,10.0
1452011208720805040,351,1452011208715964078,robocape_mag,32.1,-26.25,2.1,10.0,0.0,0.0,0.0,10.0,0.0,0.0,0.0,10.0
1452011208753923623,352,1452011208749198913,robocape_mag,36.6,-26.55,3.6,10.0,0.0,0.0,0.0,10.0,0.0,0.0,0.0,10.0
1452011208786745082,353,1452011208781950950,robocape_mag,36.6,-26.55,3.6,10.0,0.0,0.0,0.0,10.0,0.0,0.0,0.0,10.0
1452011208820443540,354,1452011208815619945,robocape_mag,36.6,-26.55,3.6,10.0,0.0,0.0,0.0,10.0,0.0,0.0,0.0,10.0
1452011208854056373,355,1452011208848819017,robocape_mag,36.6,-26.55,3.6,10.0,0.0,0.0,0.0,10.0,0.0,0.0,0.0,10.0
1452011208887148957,356,1452011208882045030,robocape_mag,39.9,-25.65,0.9,10.0,0.0,0.0,0.0,10.0,0.0,0.0,0.0,10.0
1452011208920284373,357,1452011208915463924,robocape_mag,39.9,-25.65,0.9,10.0,0.0,0.0,0.0,10.0,0.0,0.0,0.0,10.0
1452011208954118540,358,1452011208948813915,robocape_mag,39.9,-25.65,0.9,10.0,0.0,0.0,0.0,10.0,0.0,0.0,0.0,10.0
1452011208986950832,359,1452011208982034921,robocape_mag,39.9,-25.65,0.9,10.0,0.0,0.0,0.0,10.0,0.0,0.0,0.0,10.0
1452011209020185082,360,1452011209015379905,robocape_mag,39.9,-25.65,0.9,10.0,0.0,0.0,0.0,10.0,0.0,0.0,0.0,10.0
1452011209056847540,361,1452011209051908016,robocape_mag,45.6,-21.15,-1.2,10.0,0.0,0.0,0.0,10.0,0.0,0.0,0.0,10.0
1452011209086832624,362,1452011209082098960,robocape_mag,45.6,-21.15,-1.2,10.0,0.0,0.0,0.0,10.0,0.0,0.0,0.0,10.0
1452011209120526790,363,1452011209115581989,robocape_mag,45.6,-21.15,-1.2,10.0,0.0,0.0,0.0,10.0,0.0,0.0,0.0,10.0
1452011209154285624,364,1452011209148859024,robocape_mag,45.6,-21.15,-1.2,10.0,0.0,0.0,0.0,10.0,0.0,0.0,0.0,10.0
1452011209187431082,365,1452011209182559967,robocape_mag,45.6,-21.15,-1.2,10.0,0.0,0.0,0.0,10.0,0.0,0.0,0.0,10.0
1452011209220538582,366,1452011209215692996,robocape_mag,44.1,-22.65,-2.1,10.0,0.0,0.0,0.0,10.0,0.0,0.0,0.0,10.0
1452011209253996415,367,1452011209248738050,robocape_mag,44.1,-22.65,-2.1,10.0,0.0,0.0,0.0,10.0,0.0,0.0,0.0,10.0
1452011209286861332,368,1452011209282075881,robocape_mag,44.1,-22.65,-2.1,10.0,0.0,0.0,0.0,10.0,0.0,0.0,0.0,10.0
1452011209320337415,369,1452011209315429925,robocape_mag,44.1,-22.65,-2.1,10.0,0.0,0.0,0.0,10.0,0.0,0.0,0.0,10.0
1452011209354119457,370,1452011209348754882,robocape_mag,44.1,-22.65,-2.1,10.0,0.0,0.0,0.0,10.0,0.0,0.0,0.0,10.0
1452011209386924624,371,1452011209382020950,robocape_mag,42.0,-22.35,-1.2,10.0,0.0,0.0,0.0,10.0,0.0,0.0,0.0,10.0
1452011209420300665,372,1452011209415458917,robocape_mag,42.0,-22.35,-1.2,10.0,0.0,0.0,0.0,10.0,0.0,0.0,0.0,10.0
1452011209454283999,373,1452011209448874950,robocape_mag,42.0,-22.35,-1.2,10.0,0.0,0.0,0.0,10.0,0.0,0.0,0.0,10.0
1452011209486784874,374,1452011209482014894,robocape_mag,42.0,-22.35,-1.2,10.0,0.0,0.0,0.0,10.0,0.0,0.0,0.0,10.0
1452011209520444999,375,1452011209515594959,robocape_mag,42.0,-22.35,-1.2,10.0,0.0,0.0,0.0,10.0,0.0,0.0,0.0,10.0
1452011209554088165,376,1452011209548804998,robocape_mag,34.5,-24.45,15.3,10.0,0.0,0.0,0.0,10.0,0.0,0.0,0.0,10.0
1452011209587511665,377,1452011209582637071,robocape_mag,34.5,-24.45,15.3,10.0,0.0,0.0,0.0,10.0,0.0,0.0,0.0,10.0
1452011209620367249,378,1452011209615559101,robocape_mag,34.5,-24.45,15.3,10.0,0.0,0.0,0.0,10.0,0.0,0.0,0.0,10.0
1452011209654475290,379,1452011209648828983,robocape_mag,34.5,-24.45,15.3,10.0,0.0,0.0,0.0,10.0,0.0,0.0,0.0,10.0
1452011209687387332,380,1452011209682389974,robocape_mag,24.3,-33.45,9.9,10.0,0.0,0.0,0.0,10.0,0.0,0.0,0.0,10.0
1452011209720752290,381,1452011209715909004,robocape_mag,24.3,-33.45,9.9,10.0,0.0,0.0,0.0,10.0,0.0,0.0,0.0,10.0
1452011209754815541,382,1452011209748706102,robocape_mag,24.3,-33.45,9.9,10.0,0.0,0.0,0.0,10.0,0.0,0.0,0.0,10.0
1452011209786798582,383,1452011209782046079,robocape_mag,24.3,-33.45,9.9,10.0,0.0,0.0,0.0,10.0,0.0,0.0,0.0,10.0
1452011209820484082,384,1452011209815677881,robocape_mag,24.3,-33.45,9.9,10.0,0.0,0.0,0.0,10.0,0.0,0.0,0.0,10.0
1452011209853809916,385,1452011209848845958,robocape_mag,17.1,-34.65,11.7,10.0,0.0,0.0,0.0,10.0,0.0,0.0,0.0,10.0
1452011209887305291,386,1452011209882483959,robocape_mag,17.1,-34.65,11.7,10.0,0.0,0.0,0.0,10.0,0.0,0.0,0.0,10.0
1452011209920448957,387,1452011209915705919,robocape_mag,17.1,-34.65,11.7,10.0,0.0,0.0,0.0,10.0,0.0,0.0,0.0,10.0
1452011209953827082,388,1452011209948858976,robocape_mag,17.1,-34.65,11.7,10.0,0.0,0.0,0.0,10.0,0.0,0.0,0.0,10.0
1452011209987291582,389,1452011209982539892,robocape_mag,17.1,-34.65,11.7,10.0,0.0,0.0,0.0,10.0,0.0,0.0,0.0,10.0
1452011210020555957,390,1452011210015841007,robocape_mag,12.0,-36.15,11.4,10.0,0.0,0.0,0.0,10.0,0.0,0.0,0.0,10.0
1452011210053655499,391,1452011210048645019,robocape_mag,12.0,-36.15,11.4,10.0,0.0,0.0,0.0,10.0,0.0,0.0,0.0,10.0
1452011210092473832,392,1452011210087768077,robocape_mag,12.0,-36.15,11.4,10.0,0.0,0.0,0.0,10.0,0.0,0.0,0.0,10.0
1452011210120640124,393,1452011210115818977,robocape_mag,12.0,-36.15,11.4,10.0,0.0,0.0,0.0,10.0,0.0,0.0,0.0,10.0
1452011210153992416,394,1452011210148736000,robocape_mag,12.0,-36.15,11.4,10.0,0.0,0.0,0.0,10.0,0.0,0.0,0.0,10.0
1452011210187510582,395,1452011210182478904,robocape_mag,6.3,-35.85,14.1,10.0,0.0,0.0,0.0,10.0,0.0,0.0,0.0,10.0
1452011210220672707,396,1452011210215735912,robocape_mag,6.3,-35.85,14.1,10.0,0.0,0.0,0.0,10.0,0.0,0.0,0.0,10.0
1452011210253651874,397,1452011210248667955,robocape_mag,6.3,-35.85,14.1,10.0,0.0,0.0,0.0,10.0,0.0,0.0,0.0,10.0
1452011210286895999,398,1452011210281959056,robocape_mag,6.3,-35.85,14.1,10.0,0.0,0.0,0.0,10.0,0.0,0.0,0.0,10.0
1452011210320698749,399,1452011210315594911,robocape_mag,6.3,-35.85,14.1,10.0,0.0,0.0,0.0,10.0,0.0,0.0,0.0,10.0
1452011210354024416,400,1452011210348896980,robocape_mag,3.6,-33.15,18.0,10.0,0.0,0.0,0.0,10.0,0.0,0.0,0.0,10.0
1452011210386791874,401,1452011210382024049,robocape_mag,3.6,-33.15,18.0,10.0,0.0,0.0,0.0,10.0,0.0,0.0,0.0,10.0
1452011210420717082,402,1452011210415533065,robocape_mag,3.6,-33.15,18.0,10.0,0.0,0.0,0.0,10.0,0.0,0.0,0.0,10.0
1452011210453847291,403,1452011210448827028,robocape_mag,3.6,-33.15,18.0,10.0,0.0,0.0,0.0,10.0,0.0,0.0,0.0,10.0
1452011210486765541,404,1452011210481982946,robocape_mag,-2.4,-33.75,16.8,10.0,0.0,0.0,0.0,10.0,0.0,0.0,0.0,10.0
1452011210520453249,405,1452011210515558004,robocape_mag,-2.4,-33.75,16.8,10.0,0.0,0.0,0.0,10.0,0.0,0.0,0.0,10.0
1452011210554069708,406,1452011210548939943,robocape_mag,-2.4,-33.75,16.8,10.0,0.0,0.0,0.0,10.0,0.0,0.0,0.0,10.0
1452011210586843083,407,1452011210582082986,robocape_mag,-2.4,-33.75,16.8,10.0,0.0,0.0,0.0,10.0,0.0,0.0,0.0,10.0
1452011210620805374,408,1452011210615705966,robocape_mag,-2.4,-33.75,16.8,10.0,0.0,0.0,0.0,10.0,0.0,0.0,0.0,10.0
1452011210654881958,409,1452011210649760007,robocape_mag,-2.4,-30.15,13.2,10.0,0.0,0.0,0.0,10.0,0.0,0.0,0.0,10.0
1452011210687266291,410,1452011210682332992,robocape_mag,-2.4,-30.15,13.2,10.0,0.0,0.0,0.0,10.0,0.0,0.0,0.0,10.0
1452011210721257291,411,1452011210716113090,robocape_mag,-2.4,-30.15,13.2,10.0,0.0,0.0,0.0,10.0,0.0,0.0,0.0,10.0
1452011210753915124,412,1452011210748909950,robocape_mag,-2.4,-30.15,13.2,10.0,0.0,0.0,0.0,10.0,0.0,0.0,0.0,10.0
1452011210787179583,413,1452011210782402038,robocape_mag,-2.4,-30.15,13.2,10.0,0.0,0.0,0.0,10.0,0.0,0.0,0.0,10.0
1452011210820495333,414,1452011210815423011,robocape_mag,-5.1,-32.85,17.1,10.0,0.0,0.0,0.0,10.0,0.0,0.0,0.0,10.0
1452011210854097208,415,1452011210849069118,robocape_mag,-5.1,-32.85,17.1,10.0,0.0,0.0,0.0,10.0,0.0,0.0,0.0,10.0
1452011210886849583,416,1452011210882086038,robocape_mag,-5.1,-32.85,17.1,10.0,0.0,0.0,0.0,10.0,0.0,0.0,0.0,10.0
1452011210920923999,417,1452011210915612936,robocape_mag,-5.1,-32.85,17.1,10.0,0.0,0.0,0.0,10.0,0.0,0.0,0.0,10.0
1452011210953884999,418,1452011210948892116,robocape_mag,-5.1,-32.85,17.1,10.0,0.0,0.0,0.0,10.0,0.0,0.0,0.0,10.0
1452011210986829874,419,1452011210982091903,robocape_mag,-8.7,-30.45,15.3,10.0,0.0,0.0,0.0,10.0,0.0,0.0,0.0,10.0
1452011211020729041,420,1452011211015542030,robocape_mag,-8.7,-30.45,15.3,10.0,0.0,0.0,0.0,10.0,0.0,0.0,0.0,10.0
1452011211053778624,421,1452011211048810958,robocape_mag,-8.7,-30.45,15.3,10.0,0.0,0.0,0.0,10.0,0.0,0.0,0.0,10.0
1452011211086842958,422,1452011211082032918,robocape_mag,-8.7,-30.45,15.3,10.0,0.0,0.0,0.0,10.0,0.0,0.0,0.0,10.0
1452011211121323374,423,1452011211115967035,robocape_mag,-8.7,-30.45,15.3,10.0,0.0,0.0,0.0,10.0,0.0,0.0,0.0,10.0
1452011211154213958,424,1452011211149010896,robocape_mag,-7.5,-28.05,18.3,10.0,0.0,0.0,0.0,10.0,0.0,0.0,0.0,10.0
1452011211187624125,425,1452011211182374000,robocape_mag,-7.5,-28.05,18.3,10.0,0.0,0.0,0.0,10.0,0.0,0.0,0.0,10.0
1452011211220680625,426,1452011211215547084,robocape_mag,-7.5,-28.05,18.3,10.0,0.0,0.0,0.0,10.0,0.0,0.0,0.0,10.0
1452011211253870333,427,1452011211248852014,robocape_mag,-7.5,-28.05,18.3,10.0,0.0,0.0,0.0,10.0,0.0,0.0,0.0,10.0
1452011211286888541,428,1452011211281999111,robocape_mag,-11.7,-29.25,15.9,10.0,0.0,0.0,0.0,10.0,0.0,0.0,0.0,10.0
1452011211320614625,429,1452011211315618991,robocape_mag,-11.7,-29.25,15.9,10.0,0.0,0.0,0.0,10.0,0.0,0.0,0.0,10.0
1452011211353879416,430,1452011211348872900,robocape_mag,-11.7,-29.25,15.9,10.0,0.0,0.0,0.0,10.0,0.0,0.0,0.0,10.0
1452011211386832458,431,1452011211381989002,robocape_mag,-11.7,-29.25,15.9,10.0,0.0,0.0,0.0,10.0,0.0,0.0,0.0,10.0
1452011211420897875,432,1452011211415715932,robocape_mag,-11.7,-29.25,15.9,10.0,0.0,0.0,0.0,10.0,0.0,0.0,0.0,10.0
1452011211453986291,433,1452011211448998928,robocape_mag,-9.6,-25.95,15.6,10.0,0.0,0.0,0.0,10.0,0.0,0.0,0.0,10.0
1452011211486952625,434,1452011211482069015,robocape_mag,-9.6,-25.95,15.6,10.0,0.0,0.0,0.0,10.0,0.0,0.0,0.0,10.0
1452011211520809500,435,1452011211515702009,robocape_mag,-9.6,-25.95,15.6,10.0,0.0,0.0,0.0,10.0,0.0,0.0,0.0,10.0
1452011211554024000,436,1452011211548995971,robocape_mag,-9.6,-25.95,15.6,10.0,0.0,0.0,0.0,10.0,0.0,0.0,0.0,10.0
1452011211586862333,437,1452011211581993103,robocape_mag,-9.6,-25.95,15.6,10.0,0.0,0.0,0.0,10.0,0.0,0.0,0.0,10.0
1452011211620867583,438,1452011211615735054,robocape_mag,-0.6,-31.95,15.0,10.0,0.0,0.0,0.0,10.0,0.0,0.0,0.0,10.0
1452011211654098875,439,1452011211648987054,robocape_mag,-0.6,-31.95,15.0,10.0,0.0,0.0,0.0,10.0,0.0,0.0,0.0,10.0
1452011211687637833,440,1452011211682007074,robocape_mag,-0.6,-31.95,15.0,10.0,0.0,0.0,0.0,10.0,0.0,0.0,0.0,10.0
1452011211721571750,441,1452011211715564012,robocape_mag,-0.6,-31.95,15.0,10.0,0.0,0.0,0.0,10.0,0.0,0.0,0.0,10.0
1452011211753752625,442,1452011211748742103,robocape_mag,-0.6,-31.95,15.0,10.0,0.0,0.0,0.0,10.0,0.0,0.0,0.0,10.0
1452011211787058083,443,1452011211781933069,robocape_mag,11.7,-34.65,10.5,10.0,0.0,0.0,0.0,10.0,0.0,0.0,0.0,10.0
1452011211820359166,444,1452011211815577983,robocape_mag,11.7,-34.65,10.5,10.0,0.0,0.0,0.0,10.0,0.0,0.0,0.0,10.0
1452011211853897042,445,1452011211848932981,robocape_mag,11.7,-34.65,10.5,10.0,0.0,0.0,0.0,10.0,0.0,0.0,0.0,10.0
1452011211887534042,446,1452011211882050991,robocape_mag,11.7,-34.65,10.5,10.0,0.0,0.0,0.0,10.0,0.0,0.0,0.0,10.0
1452011211920392583,447,1452011211915498971,robocape_mag,11.7,-34.65,10.5,10.0,0.0,0.0,0.0,10.0,0.0,0.0,0.0,10.0
1452011211954032125,448,1452011211948950052,robocape_mag,18.6,-32.55,16.8,10.0,0.0,0.0,0.0,10.0,0.0,0.0,0.0,10.0
1452011211986954250,449,1452011211982073068,robocape_mag,18.6,-32.55,16.8,10.0,0.0,0.0,0.0,10.0,0.0,0.0,0.0,10.0
1452011212020242042,450,1452011212015413999,robocape_mag,18.6,-32.55,16.8,10.0,0.0,0.0,0.0,10.0,0.0,0.0,0.0,10.0
1452011212053978458,451,1452011212048952102,robocape_mag,18.6,-32.55,16.8,10.0,0.0,0.0,0.0,10.0,0.0,0.0,0.0,10.0
1452011212087003792,452,1452011212082067966,robocape_mag,23.7,-34.65,12.9,10.0,0.0,0.0,0.0,10.0,0.0,0.0,0.0,10.0
1452011212120742458,453,1452011212115550041,robocape_mag,23.7,-34.65,12.9,10.0,0.0,0.0,0.0,10.0,0.0,0.0,0.0,10.0
1452011212154212667,454,1452011212148848056,robocape_mag,23.7,-34.65,12.9,10.0,0.0,0.0,0.0,10.0,0.0,0.0,0.0,10.0
1452011212187933833,455,1452011212182238101,robocape_mag,23.7,-34.65,12.9,10.0,0.0,0.0,0.0,10.0,0.0,0.0,0.0,10.0
1452011212220695875,456,1452011212215643882,robocape_mag,23.7,-34.65,12.9,10.0,0.0,0.0,0.0,10.0,0.0,0.0,0.0,10.0
1452011212254374625,457,1452011212249211072,robocape_mag,24.3,-29.85,10.5,10.0,0.0,0.0,0.0,10.0,0.0,0.0,0.0,10.0
1452011212286759875,458,1452011212281902074,robocape_mag,24.3,-29.85,10.5,10.0,0.0,0.0,0.0,10.0,0.0,0.0,0.0,10.0
1452011212320350000,459,1452011212315355062,robocape_mag,24.3,-29.85,10.5,10.0,0.0,0.0,0.0,10.0,0.0,0.0,0.0,10.0
1452011212353909375,460,1452011212348768949,robocape_mag,24.3,-29.85,10.5,10.0,0.0,0.0,0.0,10.0,0.0,0.0,0.0,10.0
1452011212386864625,461,1452011212382023096,robocape_mag,24.3,-29.85,10.5,10.0,0.0,0.0,0.0,10.0,0.0,0.0,0.0,10.0
1452011212420664958,462,1452011212415553092,robocape_mag,17.4,-31.35,18.0,10.0,0.0,0.0,0.0,10.0,0.0,0.0,0.0,10.0
1452011212454149875,463,1452011212448890924,robocape_mag,17.4,-31.35,18.0,10.0,0.0,0.0,0.0,10.0,0.0,0.0,0.0,10.0
1452011212486844958,464,1452011212482069969,robocape_mag,17.4,-31.35,18.0,10.0,0.0,0.0,0.0,10.0,0.0,0.0,0.0,10.0
1452011212520428583,465,1452011212515491008,robocape_mag,17.4,-31.35,18.0,10.0,0.0,0.0,0.0,10.0,0.0,0.0,0.0,10.0
1452011212553979709,466,1452011212548738002,robocape_mag,17.4,-31.35,18.0,10.0,0.0,0.0,0.0,10.0,0.0,0.0,0.0,10.0
1452011212591513584,467,1452011212586431026,robocape_mag,17.1,-31.05,17.1,10.0,0.0,0.0,0.0,10.0,0.0,0.0,0.0,10.0
1452011212620514209,468,1452011212615468978,robocape_mag,17.1,-31.05,17.1,10.0,0.0,0.0,0.0,10.0,0.0,0.0,0.0,10.0
1452011212653842042,469,1452011212648628950,robocape_mag,17.1,-31.05,17.1,10.0,0.0,0.0,0.0,10.0,0.0,0.0,0.0,10.0
1452011212687326500,470,1452011212681912899,robocape_mag,17.1,-31.05,17.1,10.0,0.0,0.0,0.0,10.0,0.0,0.0,0.0,10.0
1452011212721281042,471,1452011212716151952,robocape_mag,17.1,-31.05,17.4,10.0,0.0,0.0,0.0,10.0,0.0,0.0,0.0,10.0
1452011212753819917,472,1452011212748753070,robocape_mag,19.2,-31.35,17.4,10.0,0.0,0.0,0.0,10.0,0.0,0.0,0.0,10.0
1452011212786795250,473,1452011212782088994,robocape_mag,19.2,-31.35,17.4,10.0,0.0,0.0,0.0,10.0,0.0,0.0,0.0,10.0
1452011212820387209,474,1452011212815613031,robocape_mag,19.2,-31.35,17.4,10.0,0.0,0.0,0.0,10.0,0.0,0.0,0.0,10.0
1452011212853921750,475,1452011212848876953,robocape_mag,19.2,-31.35,17.4,10.0,0.0,0.0,0.0,10.0,0.0,0.0,0.0,10.0
1452011212886837792,476,1452011212882065057,robocape_mag,16.5,-34.05,17.1,10.0,0.0,0.0,0.0,10.0,0.0,0.0,0.0,10.0
1452011212920427375,477,1452011212915571928,robocape_mag,16.5,-34.05,17.1,10.0,0.0,0.0,0.0,10.0,0.0,0.0,0.0,10.0
1452011212953915959,478,1452011212948713064,robocape_mag,16.5,-34.05,17.1,10.0,0.0,0.0,0.0,10.0,0.0,0.0,0.0,10.0
1452011212987071417,479,1452011212982289075,robocape_mag,16.5,-34.05,17.1,10.0,0.0,0.0,0.0,10.0,0.0,0.0,0.0,10.0
1452011213020383084,480,1452011213015528917,robocape_mag,16.5,-34.05,17.1,10.0,0.0,0.0,0.0,10.0,0.0,0.0,0.0,10.0
1452011213053922709,481,1452011213048724889,robocape_mag,20.1,-31.65,14.7,10.0,0.0,0.0,0.0,10.0,0.0,0.0,0.0,10.0
1452011213086661000,482,1452011213081959962,robocape_mag,20.1,-31.65,14.7,10.0,0.0,0.0,0.0,10.0,0.0,0.0,0.0,10.0
1452011213121265959,483,1452011213115967035,robocape_mag,20.1,-31.65,14.7,10.0,0.0,0.0,0.0,10.0,0.0,0.0,0.0,10.0
1452011213154282375,484,1452011213148992061,robocape_mag,20.1,-31.65,14.7,10.0,0.0,0.0,0.0,10.0,0.0,0.0,0.0,10.0
1452011213187660584,485,1452011213182415008,robocape_mag,20.1,-31.65,14.7,10.0,0.0,0.0,0.0,10.0,0.0,0.0,0.0,10.0
1452011213220875459,486,1452011213215671062,robocape_mag,17.1,-33.45,14.7,10.0,0.0,0.0,0.0,10.0,0.0,0.0,0.0,10.0
1452011213253998542,487,1452011213248858928,robocape_mag,17.1,-33.45,14.7,10.0,0.0,0.0,0.0,10.0,0.0,0.0,0.0,10.0
1452011213287015792,488,1452011213282067060,robocape_mag,17.1,-33.45,14.7,10.0,0.0,0.0,0.0,10.0,0.0,0.0,0.0,10.0
1452011213320434459,489,1452011213315608024,robocape_mag,17.1,-33.45,14.7,10.0,0.0,0.0,0.0,10.0,0.0,0.0,0.0,10.0
1452011213353949334,490,1452011213348826885,robocape_mag,17.1,-33.45,14.7,10.0,0.0,0.0,0.0,10.0,0.0,0.0,0.0,10.0
1452011213386758959,491,1452011213382077932,robocape_mag,16.5,-32.25,15.3,10.0,0.0,0.0,0.0,10.0,0.0,0.0,0.0,10.0
1452011213420444417,492,1452011213415586948,robocape_mag,16.5,-32.25,15.3,10.0,0.0,0.0,0.0,10.0,0.0,0.0,0.0,10.0
1452011213453962459,493,1452011213448726892,robocape_mag,16.5,-32.25,15.3,10.0,0.0,0.0,0.0,10.0,0.0,0.0,0.0,10.0
1452011213486741959,494,1452011213481951951,robocape_mag,16.5,-32.25,15.3,10.0,0.0,0.0,0.0,10.0,0.0,0.0,0.0,10.0
1452011213520345417,495,1452011213515512943,robocape_mag,16.5,-32.25,15.3,10.0,0.0,0.0,0.0,10.0,0.0,0.0,0.0,10.0
1452011213554918834,496,1452011213549767971,robocape_mag,18.6,-33.15,15.6,10.0,0.0,0.0,0.0,10.0,0.0,0.0,0.0,10.0
1452011213586844084,497,1452011213582046985,robocape_mag,18.6,-33.15,15.6,10.0,0.0,0.0,0.0,10.0,0.0,0.0,0.0,10.0
1452011213620641626,498,1452011213615474939,robocape_mag,18.6,-33.15,15.6,10.0,0.0,0.0,0.0,10.0,0.0,0.0,0.0,10.0
1452011213653992376,499,1452011213648695945,robocape_mag,18.6,-33.15,15.6,10.0,0.0,0.0,0.0,10.0,0.0,0.0,0.0,10.0
1452011213687248251,500,1452011213681878089,robocape_mag,16.2,-33.15,16.8,10.0,0.0,0.0,0.0,10.0,0.0,0.0,0.0,10.0
1452011213720794417,501,1452011213715691089,robocape_mag,16.2,-33.15,16.8,10.0,0.0,0.0,0.0,10.0,0.0,0.0,0.0,10.0
1452011213754172626,502,1452011213748941898,robocape_mag,16.2,-33.15,16.8,10.0,0.0,0.0,0.0,10.0,0.0,0.0,0.0,10.0
1452011213786876042,503,1452011213782017946,robocape_mag,16.2,-33.15,16.8,10.0,0.0,0.0,0.0,10.0,0.0,0.0,0.0,10.0
1452011213820453501,504,1452011213815603971,robocape_mag,16.2,-33.15,16.8,10.0,0.0,0.0,0.0,10.0,0.0,0.0,0.0,10.0
1452011213853942709,505,1452011213848689079,robocape_mag,19.8,-31.95,14.4,10.0,0.0,0.0,0.0,10.0,0.0,0.0,0.0,10.0
1452011213891681751,506,1452011213886645078,robocape_mag,19.8,-31.95,14.4,10.0,0.0,0.0,0.0,10.0,0.0,0.0,0.0,10.0
1452011213920636001,507,1452011213915761947,robocape_mag,19.8,-31.95,14.4,10.0,0.0,0.0,0.0,10.0,0.0,0.0,0.0,10.0
1452011213954399376,508,1452011213948914051,robocape_mag,19.8,-31.95,14.4,10.0,0.0,0.0,0.0,10.0,0.0,0.0,0.0,10.0
1452011213987132543,509,1452011213982234954,robocape_mag,19.8,-31.95,14.4,10.0,0.0,0.0,0.0,10.0,0.0,0.0,0.0,10.0
1452011214020308626,510,1452011214015465974,robocape_mag,17.1,-33.45,15.9,10.0,0.0,0.0,0.0,10.0,0.0,0.0,0.0,10.0
1452011214054046876,511,1452011214048686027,robocape_mag,17.1,-33.45,15.9,10.0,0.0,0.0,0.0,10.0,0.0,0.0,0.0,10.0
1452011214087144501,512,1452011214082180976,robocape_mag,17.1,-33.45,15.9,10.0,0.0,0.0,0.0,10.0,0.0,0.0,0.0,10.0
1452011214120751543,513,1452011214115456104,robocape_mag,17.1,-33.45,15.9,10.0,0.0,0.0,0.0,10.0,0.0,0.0,0.0,10.0
1452011214154180084,514,1452011214148744106,robocape_mag,17.1,-33.45,15.9,10.0,0.0,0.0,0.0,10.0,0.0,0.0,0.0,10.0
1452011214187730418,515,1452011214182348966,robocape_mag,18.3,-32.25,15.9,10.0,0.0,0.0,0.0,10.0,0.0,0.0,0.0,10.0
1452011214221204584,516,1452011214215858936,robocape_mag,18.3,-32.25,15.9,10.0,0.0,0.0,0.0,10.0,0.0,0.0,0.0,10.0
1452011214254044543,517,1452011214248698949,robocape_mag,18.3,-32.25,15.9,10.0,0.0,0.0,0.0,10.0,0.0,0.0,0.0,10.0
1452011214287325043,518,1452011214282408952,robocape_mag,18.3,-32.25,15.9,10.0,0.0,0.0,0.0,10.0,0.0,0.0,0.0,10.0
1452011214320642418,519,1452011214315624952,robocape_mag,18.3,-32.25,15.9,10.0,0.0,0.0,0.0,10.0,0.0,0.0,0.0,10.0
1452011214353643084,520,1452011214348515033,robocape_mag,20.1,-31.05,17.1,10.0,0.0,0.0,0.0,10.0,0.0,0.0,0.0,10.0
1452011214387403626,521,1452011214382529020,robocape_mag,20.1,-31.05,17.1,10.0,0.0,0.0,0.0,10.0,0.0,0.0,0.0,10.0
1452011214420558626,522,1452011214415559053,robocape_mag,20.1,-31.05,17.1,10.0,0.0,0.0,0.0,10.0,0.0,0.0,0.0,10.0
1452011214455071084,523,1452011214449799060,robocape_mag,20.1,-31.05,17.1,10.0,0.0,0.0,0.0,10.0,0.0,0.0,0.0,10.0
1452011214487110043,524,1452011214482219934,robocape_mag,18.0,-31.35,16.2,10.0,0.0,0.0,0.0,10.0,0.0,0.0,0.0,10.0
1452011214520536334,525,1452011214515321016,robocape_mag,18.0,-31.35,16.2,10.0,0.0,0.0,0.0,10.0,0.0,0.0,0.0,10.0
1452011214554243584,526,1452011214548748016,robocape_mag,18.0,-31.35,16.2,10.0,0.0,0.0,0.0,10.0,0.0,0.0,0.0,10.0
1452011214586959793,527,1452011214582195043,robocape_mag,18.0,-31.35,16.2,10.0,0.0,0.0,0.0,10.0,0.0,0.0,0.0,10.0
1452011214621288001,528,1452011214615477085,robocape_mag,18.0,-31.35,16.2,10.0,0.0,0.0,0.0,10.0,0.0,0.0,0.0,10.0
