%time,field.header.seq,field.header.stamp,field.header.frame_id,field.orientation.x,field.orientation.y,field.orientation.z,field.orientation.w,field.orientation_covariance0,field.orientation_covariance1,field.orientation_covariance2,field.orientation_covariance3,field.orientation_covariance4,field.orientation_covariance5,field.orientation_covariance6,field.orientation_covariance7,field.orientation_covariance8,field.angular_velocity.x,field.angular_velocity.y,field.angular_velocity.z,field.angular_velocity_covariance0,field.angular_velocity_covariance1,field.angular_velocity_covariance2,field.angular_velocity_covariance3,field.angular_velocity_covariance4,field.angular_velocity_covariance5,field.angular_velocity_covariance6,field.angular_velocity_covariance7,field.angular_velocity_covariance8,field.linear_acceleration.x,field.linear_acceleration.y,field.linear_acceleration.z,field.linear_acceleration_covariance0,field.linear_acceleration_covariance1,field.linear_acceleration_covariance2,field.linear_acceleration_covariance3,field.linear_acceleration_covariance4,field.linear_acceleration_covariance5,field.linear_acceleration_covariance6,field.linear_acceleration_covariance7,field.linear_acceleration_covariance8
1446035580423771122,1,1446035580422040939,robocape,13.9840480292,6.88376700242,115.94752387,0.0,10.0,0.0,0.0,0.0,10.0,0.0,0.0,0.0,10.0,0.00572579634367,0.0256995045193,0.00705737688871,1.0,0.0,0.0,0.0,1.0,0.0,0.0,0.0,1.0,0.0371228027344,-0.270637207031,10.1141674805,0.1,0.0,0.0,0.0,0.1,0.0,0.0,0.0,0.1
1446035580455731872,2,1446035580453912973,robocape,13.9963344887,6.92220543366,115.971869025,0.0,10.0,0.0,0.0,0.0,10.0,0.0,0.0,0.0,10.0,0.00479368996214,0.0255663464648,0.0066579027252,1.0,0.0,0.0,0.0,1.0,0.0,0.0,0.0,1.0,0.0323327636719,-0.253872070313,10.1201550293,0.1,0.0,0.0,0.0,0.1,0.0,0.0,0.0,0.1
1446035580489440164,3,1446035580487533092,robocape,14.0090803614,6.95916173844,115.997657987,0.0,10.0,0.0,0.0,0.0,10.0,0.0,0.0,0.0,10.0,0.00492684801665,0.0249005561922,0.00759000910673,1.0,0.0,0.0,0.0,1.0,0.0,0.0,0.0,1.0,0.0490979003906,-0.267044677734,10.1141674805,0.1,0.0,0.0,0.0,0.1,0.0,0.0,0.0,0.1
1446035580522808289,4,1446035580521034955,robocape,14.0215767919,6.9983761345,116.023333616,0.0,10.0,0.0,0.0,0.0,10.0,0.0,0.0,0.0,10.0,0.00479368996214,0.0262321367373,0.00719053494321,1.0,0.0,0.0,0.0,1.0,0.0,0.0,0.0,1.0,0.047900390625,-0.263452148438,10.1273400879,0.1,0.0,0.0,0.0,0.1,0.0,0.0,0.0,0.1
1446035580555963289,5,1446035580554280042,robocape,14.0353828009,7.0370684408,116.04914689,0.0,10.0,0.0,0.0,0.0,10.0,0.0,0.0,0.0,10.0,0.00545948023466,0.0259658206283,0.00732369299772,1.0,0.0,0.0,0.0,1.0,0.0,0.0,0.0,1.0,0.0419128417969,-0.269439697266,10.1381176758,0.1,0.0,0.0,0.0,0.1,0.0,0.0,0.0,0.1
1446035580589853247,6,1446035580588016986,robocape,14.0509415833,7.07534600707,116.074600996,0.0,10.0,0.0,0.0,0.0,10.0,0.0,0.0,0.0,10.0,0.00639158661619,0.0256995045193,0.00719053494321,1.0,0.0,0.0,0.0,1.0,0.0,0.0,0.0,1.0,0.047900390625,-0.263452148438,10.1237475586,0.1,0.0,0.0,0.0,0.1,0.0,0.0,0.0,0.1
1446035580622938622,7,1446035580621120929,robocape,14.0653736815,7.1131562629,116.101002632,0.0,10.0,0.0,0.0,0.0,10.0,0.0,0.0,0.0,10.0,0.00572579634367,0.0255663464648,0.00772316716123,1.0,0.0,0.0,0.0,1.0,0.0,0.0,0.0,1.0,0.0383203125,-0.245489501953,10.1213525391,0.1,0.0,0.0,0.0,0.1,0.0,0.0,0.0,0.1
1446035580655849122,8,1446035580654109001,robocape,14.0788514865,7.15018157314,116.127728331,0.0,10.0,0.0,0.0,0.0,10.0,0.0,0.0,0.0,10.0,0.00519316412565,0.0251668723012,0.00798948327024,1.0,0.0,0.0,0.0,1.0,0.0,0.0,0.0,1.0,0.0586779785156,-0.251477050781,10.1381176758,0.1,0.0,0.0,0.0,0.1,0.0,0.0,0.0,0.1
1446035580689511164,9,1446035580687664031,robocape,14.0919965544,7.18732835782,116.153720064,0.0,10.0,0.0,0.0,0.0,10.0,0.0,0.0,0.0,10.0,0.00506000607115,0.0251668723012,0.00759000910673,1.0,0.0,0.0,0.0,1.0,0.0,0.0,0.0,1.0,0.0431103515625,-0.261057128906,10.136920166,0.1,0.0,0.0,0.0,0.1,0.0,0.0,0.0,0.1
1446035580720756747,10,1446035580718935966,robocape,14.1040787542,7.22544608756,116.179227355,0.0,10.0,0.0,0.0,0.0,10.0,0.0,0.0,0.0,10.0,0.00452737385313,0.0256995045193,0.00719053494321,1.0,0.0,0.0,0.0,1.0,0.0,0.0,0.0,1.0,0.0443078613281,-0.261057128906,10.1261425781,0.1,0.0,0.0,0.0,0.1,0.0,0.0,0.0,0.1
1446035580754322497,11,1446035580752387046,robocape,14.1179453382,7.26309933505,116.204622274,0.0,10.0,0.0,0.0,0.0,10.0,0.0,0.0,0.0,10.0,0.00545948023466,0.0254331884103,0.00719053494321,1.0,0.0,0.0,0.0,1.0,0.0,0.0,0.0,1.0,0.0323327636719,-0.267044677734,10.0985998535,0.1,0.0,0.0,0.0,0.1,0.0,0.0,0.0,0.1
1446035580787886414,12,1446035580786072969,robocape,14.132239469,7.29997173766,116.229282207,0.0,10.0,0.0,0.0,0.0,10.0,0.0,0.0,0.0,10.0,0.00572579634367,0.0249005561922,0.00692421883421,1.0,0.0,0.0,0.0,1.0,0.0,0.0,0.0,1.0,0.0323327636719,-0.24908203125,10.1333276367,0.1,0.0,0.0,0.0,0.1,0.0,0.0,0.0,0.1
1446035580820553997,13,1446035580818742990,robocape,14.146045062,7.33680583956,116.253955302,0.0,10.0,0.0,0.0,0.0,10.0,0.0,0.0,0.0,10.0,0.00545948023466,0.0249005561922,0.00692421883421,1.0,0.0,0.0,0.0,1.0,0.0,0.0,0.0,1.0,0.0335302734375,-0.253872070313,10.1345251465,0.1,0.0,0.0,0.0,0.1,0.0,0.0,0.0,0.1
1446035580853247914,14,1446035580851301908,robocape,14.157728094,7.37449969562,116.279701397,0.0,10.0,0.0,0.0,0.0,10.0,0.0,0.0,0.0,10.0,0.00426105774413,0.0255663464648,0.00732369299772,1.0,0.0,0.0,0.0,1.0,0.0,0.0,0.0,1.0,0.0407153320313,-0.259859619141,10.1357226563,0.1,0.0,0.0,0.0,0.1,0.0,0.0,0.0,0.1
1446035580886857581,15,1446035580885083913,robocape,14.1691260127,7.41178510062,116.305084517,0.0,10.0,0.0,0.0,0.0,10.0,0.0,0.0,0.0,10.0,0.00412789968962,0.0253000303558,0.00719053494321,1.0,0.0,0.0,0.0,1.0,0.0,0.0,0.0,1.0,0.0419128417969,-0.263452148438,10.1057849121,0.1,0.0,0.0,0.0,0.1,0.0,0.0,0.0,0.1
1446035580920110914,16,1446035580918339014,robocape,14.1820100781,7.44934961105,116.330044561,0.0,10.0,0.0,0.0,0.0,10.0,0.0,0.0,0.0,10.0,0.00492684801665,0.0254331884103,0.00692421883421,1.0,0.0,0.0,0.0,1.0,0.0,0.0,0.0,1.0,0.0443078613281,-0.263452148438,10.1153649902,0.1,0.0,0.0,0.0,0.1,0.0,0.0,0.0,0.1
1446035580952942414,17,1446035580951173067,robocape,14.196579511,7.48576422278,116.356011059,0.0,10.0,0.0,0.0,0.0,10.0,0.0,0.0,0.0,10.0,0.00572579634367,0.0249005561922,0.00759000910673,1.0,0.0,0.0,0.0,1.0,0.0,0.0,0.0,1.0,0.0311352539063,-0.259859619141,10.1345251465,0.1,0.0,0.0,0.0,0.1,0.0,0.0,0.0,0.1
1446035580986679831,18,1446035580984935045,robocape,14.2114249624,7.5230366804,116.381994456,0.0,10.0,0.0,0.0,0.0,10.0,0.0,0.0,0.0,10.0,0.00585895439817,0.0254331884103,0.00745685105222,1.0,0.0,0.0,0.0,1.0,0.0,0.0,0.0,1.0,0.0323327636719,-0.250279541016,10.1129699707,0.1,0.0,0.0,0.0,0.1,0.0,0.0,0.0,0.1
1446035581019263873,19,1446035581017524003,robocape,14.2246604007,7.5604295265,116.407244387,0.0,10.0,0.0,0.0,0.0,10.0,0.0,0.0,0.0,10.0,0.00506000607115,0.0254331884103,0.00705737688871,1.0,0.0,0.0,0.0,1.0,0.0,0.0,0.0,1.0,0.0383203125,-0.262254638672,10.1153649902,0.1,0.0,0.0,0.0,0.1,0.0,0.0,0.0,0.1
1446035581052728373,20,1446035581050978899,robocape,14.2383734469,7.59920447853,116.43213939,0.0,10.0,0.0,0.0,0.0,10.0,0.0,0.0,0.0,10.0,0.00532632218016,0.0262321367373,0.0066579027252,1.0,0.0,0.0,0.0,1.0,0.0,0.0,0.0,1.0,0.0395178222656,-0.253872070313,10.1165625,0.1,0.0,0.0,0.0,0.1,0.0,0.0,0.0,0.1
1446035581086449581,21,1446035581084743022,robocape,14.2530929121,7.63693357516,116.458602261,0.0,10.0,0.0,0.0,0.0,10.0,0.0,0.0,0.0,10.0,0.00572579634367,0.0258326625738,0.00759000910673,1.0,0.0,0.0,0.0,1.0,0.0,0.0,0.0,1.0,0.0395178222656,-0.259859619141,10.1189575195,0.1,0.0,0.0,0.0,0.1,0.0,0.0,0.0,0.1
1446035581119450206,22,1446035581117692947,robocape,14.2670974912,7.6734659078,116.485260878,0.0,10.0,0.0,0.0,0.0,10.0,0.0,0.0,0.0,10.0,0.00532632218016,0.0251668723012,0.00785632521573,1.0,0.0,0.0,0.0,1.0,0.0,0.0,0.0,1.0,0.0323327636719,-0.258662109375,10.1213525391,0.1,0.0,0.0,0.0,0.1,0.0,0.0,0.0,0.1
1446035581152582539,23,1446035581150847911,robocape,14.2811170509,7.71012337124,116.510126111,0.0,10.0,0.0,0.0,0.0,10.0,0.0,0.0,0.0,10.0,0.00545948023466,0.0250337142467,0.00692421883421,1.0,0.0,0.0,0.0,1.0,0.0,0.0,0.0,1.0,0.0359252929688,-0.252674560547,10.1105749512,0.1,0.0,0.0,0.0,0.1,0.0,0.0,0.0,0.1
1446035581186049998,24,1446035581184338092,robocape,14.2929051764,7.74758052707,116.535257644,0.0,10.0,0.0,0.0,0.0,10.0,0.0,0.0,0.0,10.0,0.00426105774413,0.0255663464648,0.00692421883421,1.0,0.0,0.0,0.0,1.0,0.0,0.0,0.0,1.0,0.0443078613281,-0.256267089844,10.1081799316,0.1,0.0,0.0,0.0,0.1,0.0,0.0,0.0,0.1
1446035581219310373,25,1446035581217592954,robocape,14.3051957944,7.78526090163,116.560215775,0.0,10.0,0.0,0.0,0.0,10.0,0.0,0.0,0.0,10.0,0.00452737385313,0.0256995045193,0.0067910607797,1.0,0.0,0.0,0.0,1.0,0.0,0.0,0.0,1.0,0.0407153320313,-0.2682421875,10.1225500488,0.1,0.0,0.0,0.0,0.1,0.0,0.0,0.0,0.1
1446035581252673831,26,1446035581250907897,robocape,14.3182337903,7.82295458417,116.58493756,0.0,10.0,0.0,0.0,0.0,10.0,0.0,0.0,0.0,10.0,0.00492684801665,0.0256995045193,0.0066579027252,1.0,0.0,0.0,0.0,1.0,0.0,0.0,0.0,1.0,0.0371228027344,-0.261057128906,10.1165625,0.1,0.0,0.0,0.0,0.1,0.0,0.0,0.0,0.1
1446035581286495081,27,1446035581284425020,robocape,14.333030687,7.86096757769,116.611109641,0.0,10.0,0.0,0.0,0.0,10.0,0.0,0.0,0.0,10.0,0.00572579634367,0.0260989786828,0.00732369299772,1.0,0.0,0.0,0.0,1.0,0.0,0.0,0.0,1.0,0.0443078613281,-0.259859619141,10.1345251465,0.1,0.0,0.0,0.0,0.1,0.0,0.0,0.0,0.1
1446035581319300789,28,1446035581317523956,robocape,14.3478690377,7.89935596882,116.637423913,0.0,10.0,0.0,0.0,0.0,10.0,0.0,0.0,0.0,10.0,0.00572579634367,0.0263652947918,0.00732369299772,1.0,0.0,0.0,0.0,1.0,0.0,0.0,0.0,1.0,0.0443078613281,-0.265847167969,10.1249450684,0.1,0.0,0.0,0.0,0.1,0.0,0.0,0.0,0.1
1446035581355206956,29,1446035581353415966,robocape,14.3626368048,7.93739164172,116.663127297,0.0,10.0,0.0,0.0,0.0,10.0,0.0,0.0,0.0,10.0,0.00572579634367,0.0260989786828,0.00705737688871,1.0,0.0,0.0,0.0,1.0,0.0,0.0,0.0,1.0,0.0359252929688,-0.238304443359,10.1225500488,0.1,0.0,0.0,0.0,0.1,0.0,0.0,0.0,0.1
1446035581386799414,30,1446035581384670019,robocape,14.3771216219,7.97376310232,116.690206442,0.0,10.0,0.0,0.0,0.0,10.0,0.0,0.0,0.0,10.0,0.00545948023466,0.0253000303558,0.00798948327024,1.0,0.0,0.0,0.0,1.0,0.0,0.0,0.0,1.0,0.0419128417969,-0.263452148438,10.1177600098,0.1,0.0,0.0,0.0,0.1,0.0,0.0,0.0,0.1
1446035581419439289,31,1446035581417651891,robocape,14.3912896246,8.00999435434,116.716737281,0.0,10.0,0.0,0.0,0.0,10.0,0.0,0.0,0.0,10.0,0.00532632218016,0.0251668723012,0.00772316716123,1.0,0.0,0.0,0.0,1.0,0.0,0.0,0.0,1.0,0.0323327636719,-0.255069580078,10.1333276367,0.1,0.0,0.0,0.0,0.1,0.0,0.0,0.0,0.1
1446035581452582164,32,1446035581450841903,robocape,14.4050278702,8.04654937981,116.743658879,0.0,10.0,0.0,0.0,0.0,10.0,0.0,0.0,0.0,10.0,0.00506000607115,0.0254331884103,0.00785632521573,1.0,0.0,0.0,0.0,1.0,0.0,0.0,0.0,1.0,0.0263452148438,-0.285007324219,10.1081799316,0.1,0.0,0.0,0.0,0.1,0.0,0.0,0.0,0.1
1446035581486049373,33,1446035581484280109,robocape,14.418617155,8.08286357631,116.769469124,0.0,10.0,0.0,0.0,0.0,10.0,0.0,0.0,0.0,10.0,0.00506000607115,0.0251668723012,0.00732369299772,1.0,0.0,0.0,0.0,1.0,0.0,0.0,0.0,1.0,0.0490979003906,-0.2682421875,10.1189575195,0.1,0.0,0.0,0.0,0.1,0.0,0.0,0.0,0.1
1446035581519830581,34,1446035581517947912,robocape,14.4320409661,8.11970816185,116.795734204,0.0,10.0,0.0,0.0,0.0,10.0,0.0,0.0,0.0,10.0,0.00492684801665,0.0255663464648,0.00745685105222,1.0,0.0,0.0,0.0,1.0,0.0,0.0,0.0,1.0,0.0431103515625,-0.263452148438,10.1033898926,0.1,0.0,0.0,0.0,0.1,0.0,0.0,0.0,0.1
1446035581553129164,35,1446035581551261901,robocape,14.4459422427,8.15645365184,116.823323306,0.0,10.0,0.0,0.0,0.0,10.0,0.0,0.0,0.0,10.0,0.00506000607115,0.0256995045193,0.00812264132474,1.0,0.0,0.0,0.0,1.0,0.0,0.0,0.0,1.0,0.0467028808594,-0.255069580078,10.0997973633,0.1,0.0,0.0,0.0,0.1,0.0,0.0,0.0,0.1
1446035581586010498,36,1446035581584233045,robocape,14.4584025247,8.19342634049,116.849679601,0.0,10.0,0.0,0.0,0.0,10.0,0.0,0.0,0.0,10.0,0.00439421579863,0.0256995045193,0.00745685105222,1.0,0.0,0.0,0.0,1.0,0.0,0.0,0.0,1.0,0.0323327636719,-0.253872070313,10.1345251465,0.1,0.0,0.0,0.0,0.1,0.0,0.0,0.0,0.1
1446035581619353331,37,1446035581617546081,robocape,14.4733097557,8.23061258755,116.876926119,0.0,10.0,0.0,0.0,0.0,10.0,0.0,0.0,0.0,10.0,0.00559263828917,0.0259658206283,0.00785632521573,1.0,0.0,0.0,0.0,1.0,0.0,0.0,0.0,1.0,0.0395178222656,-0.269439697266,10.1261425781,0.1,0.0,0.0,0.0,0.1,0.0,0.0,0.0,0.1
1446035581652671831,38,1446035581650993108,robocape,14.4883445848,8.26553914361,116.90323011,0.0,10.0,0.0,0.0,0.0,10.0,0.0,0.0,0.0,10.0,0.00572579634367,0.0245010820287,0.00772316716123,1.0,0.0,0.0,0.0,1.0,0.0,0.0,0.0,1.0,0.0395178222656,-0.253872070313,10.1057849121,0.1,0.0,0.0,0.0,0.1,0.0,0.0,0.0,0.1
1446035581686391290,39,1446035581684571981,robocape,14.5046175423,8.30270552436,116.929196116,0.0,10.0,0.0,0.0,0.0,10.0,0.0,0.0,0.0,10.0,0.00639158661619,0.0258326625738,0.00719053494321,1.0,0.0,0.0,0.0,1.0,0.0,0.0,0.0,1.0,0.0383203125,-0.262254638672,10.0794396973,0.1,0.0,0.0,0.0,0.1,0.0,0.0,0.0,0.1
1446035581719463915,40,1446035581717645883,robocape,14.520353137,8.33880001528,116.954855146,0.0,10.0,0.0,0.0,0.0,10.0,0.0,0.0,0.0,10.0,0.00612527050718,0.0251668723012,0.00719053494321,1.0,0.0,0.0,0.0,1.0,0.0,0.0,0.0,1.0,0.0263452148438,-0.251477050781,10.1105749512,0.1,0.0,0.0,0.0,0.1,0.0,0.0,0.0,0.1
1446035581753118123,41,1446035581751126050,robocape,14.534135482,8.37521424976,116.98090704,0.0,10.0,0.0,0.0,0.0,10.0,0.0,0.0,0.0,10.0,0.00506000607115,0.0254331884103,0.00732369299772,1.0,0.0,0.0,0.0,1.0,0.0,0.0,0.0,1.0,0.0395178222656,-0.243094482422,10.1417102051,0.1,0.0,0.0,0.0,0.1,0.0,0.0,0.0,0.1
1446035581786494123,42,1446035581784583091,robocape,14.5461506448,8.41226022693,117.00691673,0.0,10.0,0.0,0.0,0.0,10.0,0.0,0.0,0.0,10.0,0.00412789968962,0.0258326625738,0.00719053494321,1.0,0.0,0.0,0.0,1.0,0.0,0.0,0.0,1.0,0.0347277832031,-0.250279541016,10.1129699707,0.1,0.0,0.0,0.0,0.1,0.0,0.0,0.0,0.1
1446035581819706873,43,1446035581817542076,robocape,14.5590994224,8.44884743094,117.033872095,0.0,10.0,0.0,0.0,0.0,10.0,0.0,0.0,0.0,10.0,0.00452737385313,0.0256995045193,0.00772316716123,1.0,0.0,0.0,0.0,1.0,0.0,0.0,0.0,1.0,0.0443078613281,-0.265847167969,10.1141674805,0.1,0.0,0.0,0.0,0.1,0.0,0.0,0.0,0.1
1446035581852642206,44,1446035581850785017,robocape,14.573272829,8.48570701277,117.060407382,0.0,10.0,0.0,0.0,0.0,10.0,0.0,0.0,0.0,10.0,0.00519316412565,0.0258326625738,0.00745685105222,1.0,0.0,0.0,0.0,1.0,0.0,0.0,0.0,1.0,0.0419128417969,-0.263452148438,10.132130127,0.1,0.0,0.0,0.0,0.1,0.0,0.0,0.0,0.1
1446035581886098123,45,1446035581884316921,robocape,14.5887805593,8.52247264181,117.087206969,0.0,10.0,0.0,0.0,0.0,10.0,0.0,0.0,0.0,10.0,0.00585895439817,0.0258326625738,0.00759000910673,1.0,0.0,0.0,0.0,1.0,0.0,0.0,0.0,1.0,0.0371228027344,-0.258662109375,10.1261425781,0.1,0.0,0.0,0.0,0.1,0.0,0.0,0.0,0.1
1446035581919409956,46,1446035581917655944,robocape,14.6039338181,8.55848469444,117.113263285,0.0,10.0,0.0,0.0,0.0,10.0,0.0,0.0,0.0,10.0,0.00572579634367,0.0253000303558,0.00732369299772,1.0,0.0,0.0,0.0,1.0,0.0,0.0,0.0,1.0,0.0347277832031,-0.251477050781,10.1237475586,0.1,0.0,0.0,0.0,0.1,0.0,0.0,0.0,0.1
1446035581952671040,47,1446035581950912952,robocape,14.6190171668,8.5943596676,117.138770555,0.0,10.0,0.0,0.0,0.0,10.0,0.0,0.0,0.0,10.0,0.00572579634367,0.0251668723012,0.00705737688871,1.0,0.0,0.0,0.0,1.0,0.0,0.0,0.0,1.0,0.0455053710938,-0.240699462891,10.1033898926,0.1,0.0,0.0,0.0,0.1,0.0,0.0,0.0,0.1
1446035581986336623,48,1446035581984546899,robocape,14.6330365516,8.63126287619,117.165430954,0.0,10.0,0.0,0.0,0.0,10.0,0.0,0.0,0.0,10.0,0.00506000607115,0.0259658206283,0.00745685105222,1.0,0.0,0.0,0.0,1.0,0.0,0.0,0.0,1.0,0.0371228027344,-0.251477050781,10.1045874023,0.1,0.0,0.0,0.0,0.1,0.0,0.0,0.0,0.1
1446035582021159165,49,1446035582018955945,robocape,14.6477208808,8.66816953905,117.192919531,0.0,10.0,0.0,0.0,0.0,10.0,0.0,0.0,0.0,10.0,0.00532632218016,0.0260989786828,0.00785632521573,1.0,0.0,0.0,0.0,1.0,0.0,0.0,0.0,1.0,0.0347277832031,-0.259859619141,10.100994873,0.1,0.0,0.0,0.0,0.1,0.0,0.0,0.0,0.1
1446035582053015456,50,1446035582051136016,robocape,14.662964475,8.70489370116,117.219045683,0.0,10.0,0.0,0.0,0.0,10.0,0.0,0.0,0.0,10.0,0.00572579634367,0.0258326625738,0.00719053494321,1.0,0.0,0.0,0.0,1.0,0.0,0.0,0.0,1.0,0.028740234375,-0.252674560547,10.1045874023,0.1,0.0,0.0,0.0,0.1,0.0,0.0,0.0,0.1
1446035582087665331,51,1446035582085879087,robocape,14.6768936092,8.74035424043,117.244794741,0.0,10.0,0.0,0.0,0.0,10.0,0.0,0.0,0.0,10.0,0.00506000607115,0.0250337142467,0.00719053494321,1.0,0.0,0.0,0.0,1.0,0.0,0.0,0.0,1.0,0.0419128417969,-0.247884521484,10.1333276367,0.1,0.0,0.0,0.0,0.1,0.0,0.0,0.0,0.1
1446035582121602248,52,1446035582119385004,robocape,14.6902666182,8.77510288867,117.271674013,0.0,10.0,0.0,0.0,0.0,10.0,0.0,0.0,0.0,10.0,0.00466053190764,0.0247673981377,0.00785632521573,1.0,0.0,0.0,0.0,1.0,0.0,0.0,0.0,1.0,0.0251477050781,-0.251477050781,10.1093774414,0.1,0.0,0.0,0.0,0.1,0.0,0.0,0.0,0.1
1446035582154232873,53,1446035582152427911,robocape,14.7014075679,8.81129299536,117.298774339,0.0,10.0,0.0,0.0,0.0,10.0,0.0,0.0,0.0,10.0,0.0034621094171,0.0256995045193,0.00772316716123,1.0,0.0,0.0,0.0,1.0,0.0,0.0,0.0,1.0,0.0335302734375,-0.264649658203,10.1417102051,0.1,0.0,0.0,0.0,0.1,0.0,0.0,0.0,0.1
1446035582188766040,54,1446035582186760902,robocape,14.7143907833,8.84652451892,117.326124525,0.0,10.0,0.0,0.0,0.0,10.0,0.0,0.0,0.0,10.0,0.00439421579863,0.0251668723012,0.00798948327024,1.0,0.0,0.0,0.0,1.0,0.0,0.0,0.0,1.0,0.0311352539063,-0.273032226563,10.1177600098,0.1,0.0,0.0,0.0,0.1,0.0,0.0,0.0,0.1
1446035582220778831,55,1446035582218825101,robocape,14.729242863,8.88239107625,117.352372167,0.0,10.0,0.0,0.0,0.0,10.0,0.0,0.0,0.0,10.0,0.00545948023466,0.0254331884103,0.00732369299772,1.0,0.0,0.0,0.0,1.0,0.0,0.0,0.0,1.0,0.0443078613281,-0.267044677734,10.1273400879,0.1,0.0,0.0,0.0,0.1,0.0,0.0,0.0,0.1
1446035582257084748,56,1446035582254196882,robocape,14.7457498842,8.91851709323,117.379265679,0.0,10.0,0.0,0.0,0.0,10.0,0.0,0.0,0.0,10.0,0.00625842856169,0.0256995045193,0.00759000910673,1.0,0.0,0.0,0.0,1.0,0.0,0.0,0.0,1.0,0.0467028808594,-0.252674560547,10.1129699707,0.1,0.0,0.0,0.0,0.1,0.0,0.0,0.0,0.1
1446035582288425873,57,1446035582286410093,robocape,14.7616551973,8.95496544094,117.405492339,0.0,10.0,0.0,0.0,0.0,10.0,0.0,0.0,0.0,10.0,0.00599211245268,0.0258326625738,0.00719053494321,1.0,0.0,0.0,0.0,1.0,0.0,0.0,0.0,1.0,0.0335302734375,-0.257464599609,10.1165625,0.1,0.0,0.0,0.0,0.1,0.0,0.0,0.0,0.1
1446035582323910748,58,1446035582318500995,robocape,14.7761599149,8.98994513742,117.432337879,0.0,10.0,0.0,0.0,0.0,10.0,0.0,0.0,0.0,10.0,0.00519316412565,0.0250337142467,0.00772316716123,1.0,0.0,0.0,0.0,1.0,0.0,0.0,0.0,1.0,0.0371228027344,-0.244291992188,10.1093774414,0.1,0.0,0.0,0.0,0.1,0.0,0.0,0.0,0.1
1446035582361426165,59,1446035582359463930,robocape,14.7918691897,9.0261958181,117.460158601,0.0,10.0,0.0,0.0,0.0,10.0,0.0,0.0,0.0,10.0,0.00572579634367,0.0259658206283,0.00798948327024,1.0,0.0,0.0,0.0,1.0,0.0,0.0,0.0,1.0,0.0419128417969,-0.261057128906,10.1441052246,0.1,0.0,0.0,0.0,0.1,0.0,0.0,0.0,0.1
1446035582390547873,60,1446035582388603925,robocape,14.8065382455,9.06277951479,117.486247646,0.0,10.0,0.0,0.0,0.0,10.0,0.0,0.0,0.0,10.0,0.00532632218016,0.0259658206283,0.00705737688871,1.0,0.0,0.0,0.0,1.0,0.0,0.0,0.0,1.0,0.0251477050781,-0.256267089844,10.1500927734,0.1,0.0,0.0,0.0,0.1,0.0,0.0,0.0,0.1
1446035582425440457,61,1446035582421964883,robocape,14.8229691149,9.09819461024,117.513586126,0.0,10.0,0.0,0.0,0.0,10.0,0.0,0.0,0.0,10.0,0.00612527050718,0.0254331884103,0.00785632521573,1.0,0.0,0.0,0.0,1.0,0.0,0.0,0.0,1.0,0.0251477050781,-0.255069580078,10.1021923828,0.1,0.0,0.0,0.0,0.1,0.0,0.0,0.0,0.1
1446035582456782123,62,1446035582454406023,robocape,14.8375587225,9.13333939374,117.538994273,0.0,10.0,0.0,0.0,0.0,10.0,0.0,0.0,0.0,10.0,0.00532632218016,0.0250337142467,0.00692421883421,1.0,0.0,0.0,0.0,1.0,0.0,0.0,0.0,1.0,0.0455053710938,-0.252674560547,10.0974023437,0.1,0.0,0.0,0.0,0.1,0.0,0.0,0.0,0.1
1446035582489338873,63,1446035582487108945,robocape,14.8506203594,9.16804367791,117.564283921,0.0,10.0,0.0,0.0,0.0,10.0,0.0,0.0,0.0,10.0,0.00452737385313,0.0247673981377,0.00692421883421,1.0,0.0,0.0,0.0,1.0,0.0,0.0,0.0,1.0,0.0526904296875,-0.256267089844,10.1177600098,0.1,0.0,0.0,0.0,0.1,0.0,0.0,0.0,0.1
1446035582523999373,64,1446035582522181987,robocape,14.8643105382,9.20280571476,117.590152521,0.0,10.0,0.0,0.0,0.0,10.0,0.0,0.0,0.0,10.0,0.00479368996214,0.0249005561922,0.00719053494321,1.0,0.0,0.0,0.0,1.0,0.0,0.0,0.0,1.0,0.0323327636719,-0.255069580078,10.132130127,0.1,0.0,0.0,0.0,0.1,0.0,0.0,0.0,0.1
1446035582556935665,65,1446035582555160045,robocape,14.8789197965,9.23822782571,117.616799835,0.0,10.0,0.0,0.0,0.0,10.0,0.0,0.0,0.0,10.0,0.00519316412565,0.0254331884103,0.00745685105222,1.0,0.0,0.0,0.0,1.0,0.0,0.0,0.0,1.0,0.0455053710938,-0.261057128906,10.1297351074,0.1,0.0,0.0,0.0,0.1,0.0,0.0,0.0,0.1
1446035582590922665,66,1446035582588937997,robocape,14.8954082759,9.27330314502,117.643895713,0.0,10.0,0.0,0.0,0.0,10.0,0.0,0.0,0.0,10.0,0.00612527050718,0.0253000303558,0.00772316716123,1.0,0.0,0.0,0.0,1.0,0.0,0.0,0.0,1.0,0.0431103515625,-0.24908203125,10.1309326172,0.1,0.0,0.0,0.0,0.1,0.0,0.0,0.0,0.1
1446035582623115332,67,1446035582621232032,robocape,14.9123751995,9.30904793986,117.670707955,0.0,10.0,0.0,0.0,0.0,10.0,0.0,0.0,0.0,10.0,0.00639158661619,0.0256995045193,0.00745685105222,1.0,0.0,0.0,0.0,1.0,0.0,0.0,0.0,1.0,0.0371228027344,-0.251477050781,10.1249450684,0.1,0.0,0.0,0.0,0.1,0.0,0.0,0.0,0.1
1446035582657241123,68,1446035582655267000,robocape,14.9272265229,9.34380401777,117.696953745,0.0,10.0,0.0,0.0,0.0,10.0,0.0,0.0,0.0,10.0,0.00532632218016,0.0250337142467,0.00732369299772,1.0,0.0,0.0,0.0,1.0,0.0,0.0,0.0,1.0,0.0251477050781,-0.239501953125,10.1261425781,0.1,0.0,0.0,0.0,0.1,0.0,0.0,0.0,0.1
1446035582690942457,69,1446035582689095020,robocape,14.9401456878,9.37906992436,117.723663193,0.0,10.0,0.0,0.0,0.0,10.0,0.0,0.0,0.0,10.0,0.00426105774413,0.0254331884103,0.00745685105222,1.0,0.0,0.0,0.0,1.0,0.0,0.0,0.0,1.0,0.0335302734375,-0.271834716797,10.1033898926,0.1,0.0,0.0,0.0,0.1,0.0,0.0,0.0,0.1
1446035582723368582,70,1446035582721395015,robocape,14.9531112263,9.41469770203,117.75051963,0.0,10.0,0.0,0.0,0.0,10.0,0.0,0.0,0.0,10.0,0.00426105774413,0.0256995045193,0.00745685105222,1.0,0.0,0.0,0.0,1.0,0.0,0.0,0.0,1.0,0.0502954101563,-0.281414794922,10.1153649902,0.1,0.0,0.0,0.0,0.1,0.0,0.0,0.0,0.1
1446035582755453665,71,1446035582753448963,robocape,14.9677606449,9.45012608963,117.778139919,0.0,10.0,0.0,0.0,0.0,10.0,0.0,0.0,0.0,10.0,0.00506000607115,0.0256995045193,0.00785632521573,1.0,0.0,0.0,0.0,1.0,0.0,0.0,0.0,1.0,0.0443078613281,-0.259859619141,10.1117724609,0.1,0.0,0.0,0.0,0.1,0.0,0.0,0.0,0.1
1446035582789475498,72,1446035582787604093,robocape,14.9838324,9.48502283003,117.805075814,0.0,10.0,0.0,0.0,0.0,10.0,0.0,0.0,0.0,10.0,0.00585895439817,0.0253000303558,0.00759000910673,1.0,0.0,0.0,0.0,1.0,0.0,0.0,0.0,1.0,0.0359252929688,-0.259859619141,10.1165625,0.1,0.0,0.0,0.0,0.1,0.0,0.0,0.0,0.1
1446035582822550748,73,1446035582820704936,robocape,14.9986158801,9.52065356422,117.830412227,0.0,10.0,0.0,0.0,0.0,10.0,0.0,0.0,0.0,10.0,0.00532632218016,0.0255663464648,0.0066579027252,1.0,0.0,0.0,0.0,1.0,0.0,0.0,0.0,1.0,0.0455053710938,-0.250279541016,10.1153649902,0.1,0.0,0.0,0.0,0.1,0.0,0.0,0.0,0.1
1446035582855779915,74,1446035582854032993,robocape,15.0133283994,9.55648307225,117.856647231,0.0,10.0,0.0,0.0,0.0,10.0,0.0,0.0,0.0,10.0,0.00519316412565,0.0258326625738,0.00705737688871,1.0,0.0,0.0,0.0,1.0,0.0,0.0,0.0,1.0,0.0431103515625,-0.252674560547,10.1297351074,0.1,0.0,0.0,0.0,0.1,0.0,0.0,0.0,0.1
1446035582889176207,75,1446035582887432098,robocape,15.0268836279,9.59216598753,117.883396812,0.0,10.0,0.0,0.0,0.0,10.0,0.0,0.0,0.0,10.0,0.00452737385313,0.0258326625738,0.00732369299772,1.0,0.0,0.0,0.0,1.0,0.0,0.0,0.0,1.0,0.0275427246094,-0.258662109375,10.1213525391,0.1,0.0,0.0,0.0,0.1,0.0,0.0,0.0,0.1
1446035582922322123,76,1446035582920619964,robocape,15.0415711086,9.62770245146,117.910661046,0.0,10.0,0.0,0.0,0.0,10.0,0.0,0.0,0.0,10.0,0.00506000607115,0.0258326625738,0.00759000910673,1.0,0.0,0.0,0.0,1.0,0.0,0.0,0.0,1.0,0.0383203125,-0.274229736328,10.1225500488,0.1,0.0,0.0,0.0,0.1,0.0,0.0,0.0,0.1
1446035582955862332,77,1446035582954058885,robocape,15.0575998369,9.66314551524,117.938191074,0.0,10.0,0.0,0.0,0.0,10.0,0.0,0.0,0.0,10.0,0.00572579634367,0.0258326625738,0.00772316716123,1.0,0.0,0.0,0.0,1.0,0.0,0.0,0.0,1.0,0.0395178222656,-0.2682421875,10.1141674805,0.1,0.0,0.0,0.0,0.1,0.0,0.0,0.0,0.1
1446035582989212540,78,1446035582987349033,robocape,15.0738235228,9.69872375539,117.963920906,0.0,10.0,0.0,0.0,0.0,10.0,0.0,0.0,0.0,10.0,0.00599211245268,0.0256995045193,0.0067910607797,1.0,0.0,0.0,0.0,1.0,0.0,0.0,0.0,1.0,0.0490979003906,-0.269439697266,10.1201550293,0.1,0.0,0.0,0.0,0.1,0.0,0.0,0.0,0.1
1446035583021803373,79,1446035583020035982,robocape,15.0888786309,9.73395708035,117.990099225,0.0,10.0,0.0,0.0,0.0,10.0,0.0,0.0,0.0,10.0,0.00532632218016,0.0255663464648,0.00705737688871,1.0,0.0,0.0,0.0,1.0,0.0,0.0,0.0,1.0,0.0514929199219,-0.246687011719,10.1333276367,0.1,0.0,0.0,0.0,0.1,0.0,0.0,0.0,0.1
1446035583054377124,80,1446035583052423000,robocape,15.1031260755,9.76893772949,118.01729252,0.0,10.0,0.0,0.0,0.0,10.0,0.0,0.0,0.0,10.0,0.00479368996214,0.0255663464648,0.00759000910673,1.0,0.0,0.0,0.0,1.0,0.0,0.0,0.0,1.0,0.0467028808594,-0.258662109375,10.1261425781,0.1,0.0,0.0,0.0,0.1,0.0,0.0,0.0,0.1
1446035583087337415,81,1446035583085400104,robocape,15.1165698021,9.80289103927,118.044162884,0.0,10.0,0.0,0.0,0.0,10.0,0.0,0.0,0.0,10.0,0.00439421579863,0.0249005561922,0.00759000910673,1.0,0.0,0.0,0.0,1.0,0.0,0.0,0.0,1.0,0.0443078613281,-0.265847167969,10.1273400879,0.1,0.0,0.0,0.0,0.1,0.0,0.0,0.0,0.1
1446035583121111374,82,1446035583119334936,robocape,15.1334059132,9.83779506587,118.071386283,0.0,10.0,0.0,0.0,0.0,10.0,0.0,0.0,0.0,10.0,0.00612527050718,0.0255663464648,0.00759000910673,1.0,0.0,0.0,0.0,1.0,0.0,0.0,0.0,1.0,0.0502954101563,-0.273032226563,10.096204834,0.1,0.0,0.0,0.0,0.1,0.0,0.0,0.0,0.1
1446035583153899582,83,1446035583152121067,robocape,15.153778252,9.87348531884,118.099716376,0.0,10.0,0.0,0.0,0.0,10.0,0.0,0.0,0.0,10.0,0.00785632521573,0.0262321367373,0.00798948327024,1.0,0.0,0.0,0.0,1.0,0.0,0.0,0.0,1.0,0.0335302734375,-0.258662109375,10.1057849121,0.1,0.0,0.0,0.0,0.1,0.0,0.0,0.0,0.1
1446035583187221707,84,1446035583185298919,robocape,15.1714216315,9.90823787394,118.12829468,0.0,10.0,0.0,0.0,0.0,10.0,0.0,0.0,0.0,10.0,0.00639158661619,0.0256995045193,0.00825579937925,1.0,0.0,0.0,0.0,1.0,0.0,0.0,0.0,1.0,0.0514929199219,-0.253872070313,10.1237475586,0.1,0.0,0.0,0.0,0.1,0.0,0.0,0.0,0.1
1446035583219822582,85,1446035583218036890,robocape,15.1860359049,9.94217997804,118.155550182,0.0,10.0,0.0,0.0,0.0,10.0,0.0,0.0,0.0,10.0,0.00492684801665,0.0250337142467,0.00772316716123,1.0,0.0,0.0,0.0,1.0,0.0,0.0,0.0,1.0,0.0347277832031,-0.252674560547,10.1249450684,0.1,0.0,0.0,0.0,0.1,0.0,0.0,0.0,0.1
1446035583253719915,86,1446035583251965045,robocape,15.199620608,9.97633532749,118.182638065,0.0,10.0,0.0,0.0,0.0,10.0,0.0,0.0,0.0,10.0,0.00439421579863,0.0251668723012,0.00759000910673,1.0,0.0,0.0,0.0,1.0,0.0,0.0,0.0,1.0,0.0383203125,-0.273032226563,10.1069824219,0.1,0.0,0.0,0.0,0.1,0.0,0.0,0.0,0.1
1446035583286548874,87,1446035583284540891,robocape,15.215468686,10.0105065377,118.209490955,0.0,10.0,0.0,0.0,0.0,10.0,0.0,0.0,0.0,10.0,0.00559263828917,0.0251668723012,0.00745685105222,1.0,0.0,0.0,0.0,1.0,0.0,0.0,0.0,1.0,0.0395178222656,-0.273032226563,10.0938098145,0.1,0.0,0.0,0.0,0.1,0.0,0.0,0.0,0.1
1446035583327973207,88,1446035583318044900,robocape,15.230879086,10.044586387,118.236609723,0.0,10.0,0.0,0.0,0.0,10.0,0.0,0.0,0.0,10.0,0.00532632218016,0.0251668723012,0.00759000910673,1.0,0.0,0.0,0.0,1.0,0.0,0.0,0.0,1.0,0.0490979003906,-0.264649658203,10.100994873,0.1,0.0,0.0,0.0,0.1,0.0,0.0,0.0,0.1
1446035583353951290,89,1446035583352221965,robocape,15.2472591972,10.0791274401,118.263380576,0.0,10.0,0.0,0.0,0.0,10.0,0.0,0.0,0.0,10.0,0.00585895439817,0.0254331884103,0.00732369299772,1.0,0.0,0.0,0.0,1.0,0.0,0.0,0.0,1.0,0.0335302734375,-0.264649658203,10.1309326172,0.1,0.0,0.0,0.0,0.1,0.0,0.0,0.0,0.1
1446035583386151165,90,1446035583384252071,robocape,15.2630563286,10.1137365004,118.289667524,0.0,10.0,0.0,0.0,0.0,10.0,0.0,0.0,0.0,10.0,0.00559263828917,0.0254331884103,0.00705737688871,1.0,0.0,0.0,0.0,1.0,0.0,0.0,0.0,1.0,0.047900390625,-0.252674560547,10.1165625,0.1,0.0,0.0,0.0,0.1,0.0,0.0,0.0,0.1
1446035583419604582,91,1446035583417862892,robocape,15.276465953,10.1479511021,118.316651831,0.0,10.0,0.0,0.0,0.0,10.0,0.0,0.0,0.0,10.0,0.00426105774413,0.0253000303558,0.00745685105222,1.0,0.0,0.0,0.0,1.0,0.0,0.0,0.0,1.0,0.0407153320313,-0.262254638672,10.1081799316,0.1,0.0,0.0,0.0,0.1,0.0,0.0,0.0,0.1
1446035583452672790,92,1446035583450921058,robocape,15.2901217362,10.1832128259,118.343492012,0.0,10.0,0.0,0.0,0.0,10.0,0.0,0.0,0.0,10.0,0.00439421579863,0.0259658206283,0.00719053494321,1.0,0.0,0.0,0.0,1.0,0.0,0.0,0.0,1.0,0.0419128417969,-0.2682421875,10.096204834,0.1,0.0,0.0,0.0,0.1,0.0,0.0,0.0,0.1
1446035583486036415,93,1446035583484277009,robocape,15.3047910311,10.2180441693,118.370210599,0.0,10.0,0.0,0.0,0.0,10.0,0.0,0.0,0.0,10.0,0.00492684801665,0.0256995045193,0.00719053494321,1.0,0.0,0.0,0.0,1.0,0.0,0.0,0.0,1.0,0.0419128417969,-0.264649658203,10.1129699707,0.1,0.0,0.0,0.0,0.1,0.0,0.0,0.0,0.1
1446035583519286665,94,1446035583517534971,robocape,15.3209885995,10.2523738713,118.39812785,0.0,10.0,0.0,0.0,0.0,10.0,0.0,0.0,0.0,10.0,0.00559263828917,0.0255663464648,0.00785632521573,1.0,0.0,0.0,0.0,1.0,0.0,0.0,0.0,1.0,0.0251477050781,-0.24908203125,10.1381176758,0.1,0.0,0.0,0.0,0.1,0.0,0.0,0.0,0.1
1446035583552751499,95,1446035583550976991,robocape,15.3368838392,10.2871613728,118.425698412,0.0,10.0,0.0,0.0,0.0,10.0,0.0,0.0,0.0,10.0,0.00545948023466,0.0258326625738,0.00759000910673,1.0,0.0,0.0,0.0,1.0,0.0,0.0,0.0,1.0,0.0371228027344,-0.259859619141,10.1105749512,0.1,0.0,0.0,0.0,0.1,0.0,0.0,0.0,0.1
1446035583585958374,96,1446035583584217071,robocape,15.3450059075,10.3100404863,118.501031827,0.0,10.0,0.0,0.0,0.0,10.0,0.0,0.0,0.0,10.0,-0.00359526747161,0.0247673981377,0.033289513626,1.0,0.0,0.0,0.0,1.0,0.0,0.0,0.0,1.0,0.0419128417969,0.0754431152344,10.1177600098,0.1,0.0,0.0,0.0,0.1,0.0,0.0,0.0,0.1
1446035583619576540,97,1446035583617835044,robocape,15.1715660381,10.2643762346,118.900325988,0.0,10.0,0.0,0.0,0.0,10.0,0.0,0.0,0.0,10.0,-0.132359106177,0.0249005561922,0.205596036154,1.0,0.0,0.0,0.0,1.0,0.0,0.0,0.0,1.0,0.00239501953125,0.130528564453,10.0506994629,0.1,0.0,0.0,0.0,0.1,0.0,0.0,0.0,0.1
1446035583652629665,98,1446035583650902986,robocape,14.8324665895,10.1628647811,119.53578985,0.0,10.0,0.0,0.0,0.0,10.0,0.0,0.0,0.0,10.0,-0.243146607524,0.0199737081756,0.332362504042,1.0,0.0,0.0,0.0,1.0,0.0,0.0,0.0,1.0,-0.0107775878906,-0.453856201172,10.1177600098,0.1,0.0,0.0,0.0,0.1,0.0,0.0,0.0,0.1
1446035583685944665,99,1446035583684253931,robocape,14.5493106816,10.038524112,120.22484775,0.0,10.0,0.0,0.0,0.0,10.0,0.0,0.0,0.0,10.0,-0.218512367441,0.0109189604693,0.362988856578,1.0,0.0,0.0,0.0,1.0,0.0,0.0,0.0,1.0,-0.0395178222656,-1.71603149414,10.1836230469,0.1,0.0,0.0,0.0,0.1,0.0,0.0,0.0,0.1
1446035583719507207,100,1446035583717596054,robocape,14.8154803467,9.99174924983,120.564522587,0.0,10.0,0.0,0.0,0.0,10.0,0.0,0.0,0.0,10.0,0.105061705004,0.0146473859954,0.176567580272,1.0,0.0,0.0,0.0,1.0,0.0,0.0,0.0,1.0,-0.0167651367188,-1.44419677734,10.1177600098,0.1,0.0,0.0,0.0,0.1,0.0,0.0,0.0,0.1
1446035583752773457,101,1446035583751019001,robocape,15.5381152993,10.015655736,120.565253834,0.0,10.0,0.0,0.0,0.0,10.0,0.0,0.0,0.0,10.0,0.378302032846,0.0151800182135,-0.00372842552611,1.0,0.0,0.0,0.0,1.0,0.0,0.0,0.0,1.0,-0.0215551757813,-1.58310791016,10.1105749512,0.1,0.0,0.0,0.0,0.1,0.0,0.0,0.0,0.1
1446035583785965791,102,1446035583784199953,robocape,16.6534962001,10.0931805283,120.314531153,0.0,10.0,0.0,0.0,0.0,10.0,0.0,0.0,0.0,10.0,0.609464415465,0.0130494893414,-0.137818586412,1.0,0.0,0.0,0.0,1.0,0.0,0.0,0.0,1.0,-0.0886157226563,-0.529299316406,10.1429077148,0.1,0.0,0.0,0.0,0.1,0.0,0.0,0.0,0.1
1446035583819289666,103,1446035583817519903,robocape,17.7033228881,10.1650595072,120.054412839,0.0,10.0,0.0,0.0,0.0,10.0,0.0,0.0,0.0,10.0,0.576308059893,0.00559263828917,-0.141547011938,1.0,0.0,0.0,0.0,1.0,0.0,0.0,0.0,1.0,-0.346080322266,0.827479248047,10.0710571289,0.1,0.0,0.0,0.0,0.1,0.0,0.0,0.0,0.1
1446035583852945666,104,1446035583851206064,robocape,18.203810022,10.2244925778,119.892839126,0.0,10.0,0.0,0.0,0.0,10.0,0.0,0.0,0.0,10.0,0.278699808077,0.0115847507418,-0.0909469512262,1.0,0.0,0.0,0.0,1.0,0.0,0.0,0.0,1.0,0.520916748047,2.00103881836,9.96447875977,0.1,0.0,0.0,0.0,0.1,0.0,0.0,0.0,0.1
1446035583886162832,105,1446035583884423017,robocape,18.0774096711,10.2780016643,119.930063358,0.0,10.0,0.0,0.0,0.0,10.0,0.0,0.0,0.0,10.0,-0.0700411366691,0.0394147841332,0.00719053494321,1.0,0.0,0.0,0.0,1.0,0.0,0.0,0.0,1.0,0.645457763672,1.79865966797,10.0902172852,0.1,0.0,0.0,0.0,0.1,0.0,0.0,0.0,0.1
1446035583919431374,106,1446035583917700052,robocape,17.5548123206,10.3353609678,119.951836265,0.0,10.0,0.0,0.0,0.0,10.0,0.0,0.0,0.0,10.0,-0.275903488932,0.0394147841332,-0.000932106381528,1.0,0.0,0.0,0.0,1.0,0.0,0.0,0.0,1.0,-0.0419128417969,0.874182128906,9.9213684082,0.1,0.0,0.0,0.0,0.1,0.0,0.0,0.0,0.1
1446035583952586541,107,1446035583950848102,robocape,16.9587999878,10.4161559572,119.883847768,0.0,10.0,0.0,0.0,0.0,10.0,0.0,0.0,0.0,10.0,-0.304931944814,0.0406132066237,-0.049135322112,1.0,0.0,0.0,0.0,1.0,0.0,0.0,0.0,1.0,0.269439697266,-0.180823974609,10.0411193848,0.1,0.0,0.0,0.0,0.1,0.0,0.0,0.0,0.1
1446035583985929666,108,1446035583984178066,robocape,16.4732915135,10.4968330988,119.784435229,0.0,10.0,0.0,0.0,0.0,10.0,0.0,0.0,0.0,10.0,-0.243679239742,0.0364853069341,-0.0641821822709,1.0,0.0,0.0,0.0,1.0,0.0,0.0,0.0,1.0,-0.216749267578,0.0167651367188,10.2243383789,0.1,0.0,0.0,0.0,0.1,0.0,0.0,0.0,0.1
1446035584019231957,109,1446035584017498970,robocape,16.1087083038,10.5949674055,119.557134158,0.0,10.0,0.0,0.0,0.0,10.0,0.0,0.0,0.0,10.0,-0.166580726184,0.0298274042089,-0.13009541925,1.0,0.0,0.0,0.0,1.0,0.0,0.0,0.0,1.0,-0.403560791016,-1.24062011719,10.0938098145,0.1,0.0,0.0,0.0,0.1,0.0,0.0,0.0,0.1
1446035584053187166,110,1446035584051045894,robocape,16.191147345,10.7454991216,119.099083208,0.0,10.0,0.0,0.0,0.0,10.0,0.0,0.0,0.0,10.0,0.0928111639893,0.0310258266994,-0.253266619667,1.0,0.0,0.0,0.0,1.0,0.0,0.0,0.0,1.0,0.05748046875,-0.960402832031,10.1153649902,0.1,0.0,0.0,0.0,0.1,0.0,0.0,0.0,0.1
1446035584086174499,111,1446035584084232091,robocape,16.3696493974,10.9044040676,118.535618889,0.0,10.0,0.0,0.0,0.0,10.0,0.0,0.0,0.0,10.0,0.155528607661,0.0211721306661,-0.306662999523,1.0,0.0,0.0,0.0,1.0,0.0,0.0,0.0,1.0,0.129331054688,0.790356445313,10.0506994629,0.1,0.0,0.0,0.0,0.1,0.0,0.0,0.0,0.1
1446035584119539832,112,1446035584117643117,robocape,16.1752952906,11.0314839742,118.100546652,0.0,10.0,0.0,0.0,0.0,10.0,0.0,0.0,0.0,10.0,-0.0531300637471,0.0195742340121,-0.237553969235,1.0,0.0,0.0,0.0,1.0,0.0,0.0,0.0,1.0,0.179626464844,0.868194580078,10.0219592285,0.1,0.0,0.0,0.0,0.1,0.0,0.0,0.0,0.1
1446035584152622374,113,1446035584150765895,robocape,15.6735144928,11.1339650231,117.78372914,0.0,10.0,0.0,0.0,0.0,10.0,0.0,0.0,0.0,10.0,-0.226901324875,0.0219710789932,-0.174703367509,1.0,0.0,0.0,0.0,1.0,0.0,0.0,0.0,1.0,0.444276123047,0.486188964844,10.060279541,0.1,0.0,0.0,0.0,0.1,0.0,0.0,0.0,0.1
1446035584186046374,114,1446035584184278011,robocape,14.9307640642,11.1609560939,117.800508124,0.0,10.0,0.0,0.0,0.0,10.0,0.0,0.0,0.0,10.0,-0.390818889969,0.0198405501211,0.0034621094171,1.0,0.0,0.0,0.0,1.0,0.0,0.0,0.0,1.0,0.00598754882813,0.1916015625,10.0471069336,0.1,0.0,0.0,0.0,0.1,0.0,0.0,0.0,0.1
1446035584220335124,115,1446035584218530893,robocape,13.9057956142,11.1436612294,118.033786109,0.0,10.0,0.0,0.0,0.0,10.0,0.0,0.0,0.0,10.0,-0.563258570552,0.0183758115215,0.118377510454,1.0,0.0,0.0,0.0,1.0,0.0,0.0,0.0,1.0,-0.207169189453,-0.233514404297,10.0375268555,0.1,0.0,0.0,0.0,0.1,0.0,0.0,0.0,0.1
1446035584252626624,116,1446035584250859022,robocape,13.1589909141,11.1495393195,118.140702574,0.0,10.0,0.0,0.0,0.0,10.0,0.0,0.0,0.0,10.0,-0.403202589038,0.016644756813,0.0521979573656,1.0,0.0,0.0,0.0,1.0,0.0,0.0,0.0,1.0,-0.326920166016,-2.17467773438,10.1213525391,0.1,0.0,0.0,0.0,0.1,0.0,0.0,0.0,0.1
1446035584286184874,117,1446035584284409046,robocape,12.8007674643,11.1653770792,118.192587402,0.0,10.0,0.0,0.0,0.0,10.0,0.0,0.0,0.0,10.0,-0.193478653194,0.016378440704,0.0234358175927,1.0,0.0,0.0,0.0,1.0,0.0,0.0,0.0,1.0,0.378413085938,-2.07767944336,10.080637207,0.1,0.0,0.0,0.0,0.1,0.0,0.0,0.0,0.1
1446035584322633291,118,1446035584318821907,robocape,12.8420769292,11.2065130234,118.197755321,0.0,10.0,0.0,0.0,0.0,10.0,0.0,0.0,0.0,10.0,0.0210389726116,0.0276968753368,-0.00359526747161,1.0,0.0,0.0,0.0,1.0,0.0,0.0,0.0,1.0,0.110170898438,-2.13635742188,10.0818347168,0.1,0.0,0.0,0.0,0.1,0.0,0.0,0.0,0.1
1446035584354305249,119,1446035584352447986,robocape,13.2023330936,11.2530321335,118.221639376,0.0,10.0,0.0,0.0,0.0,10.0,0.0,0.0,0.0,10.0,0.185888644088,0.0334226716805,0.00479368996214,1.0,0.0,0.0,0.0,1.0,0.0,0.0,0.0,1.0,0.137713623047,-1.53880004883,10.0830322266,0.1,0.0,0.0,0.0,0.1,0.0,0.0,0.0,0.1
1446035584388134957,120,1446035584385863065,robocape,13.7202245794,11.2954398347,118.283360968,0.0,10.0,0.0,0.0,0.0,10.0,0.0,0.0,0.0,10.0,0.264052422081,0.0352868844435,0.0239684498107,1.0,0.0,0.0,0.0,1.0,0.0,0.0,0.0,1.0,0.105380859375,-0.966390380859,10.0914147949,0.1,0.0,0.0,0.0,0.1,0.0,0.0,0.0,0.1
1446035584422732707,121,1446035584420936107,robocape,14.2268577186,11.3184611412,118.371044473,0.0,10.0,0.0,0.0,0.0,10.0,0.0,0.0,0.0,10.0,0.25513083243,0.0259658206283,0.0396811002422,1.0,0.0,0.0,0.0,1.0,0.0,0.0,0.0,1.0,-0.234711914063,-0.192799072266,10.0267492676,0.1,0.0,0.0,0.0,0.1,0.0,0.0,0.0,0.1
1446035584453388833,122,1446035584451180934,robocape,14.7110050057,11.3653205643,118.369617431,0.0,10.0,0.0,0.0,0.0,10.0,0.0,0.0,0.0,10.0,0.25366609383,0.0306263525359,-0.00865527354276,1.0,0.0,0.0,0.0,1.0,0.0,0.0,0.0,1.0,-0.144898681641,-0.155676269531,10.1441052246,0.1,0.0,0.0,0.0,0.1,0.0,0.0,0.0,0.1
1446035584486620958,123,1446035584484827041,robocape,15.2215996207,11.4298282988,118.263247054,0.0,10.0,0.0,0.0,0.0,10.0,0.0,0.0,0.0,10.0,0.279765072513,0.0283626656093,-0.0637827081074,1.0,0.0,0.0,0.0,1.0,0.0,0.0,0.0,1.0,0.143701171875,-0.259859619141,10.1093774414,0.1,0.0,0.0,0.0,0.1,0.0,0.0,0.0,0.1
1446035584521244916,124,1446035584519432067,robocape,15.6981684354,11.4837459899,118.171336255,0.0,10.0,0.0,0.0,0.0,10.0,0.0,0.0,0.0,10.0,0.260323996555,0.0229031853747,-0.0549942765101,1.0,0.0,0.0,0.0,1.0,0.0,0.0,0.0,1.0,0.0299377441406,1.02746337891,10.0997973633,0.1,0.0,0.0,0.0,0.1,0.0,0.0,0.0,0.1
1446035584554394249,125,1446035584552599906,robocape,15.8031882237,11.5193002314,118.182576263,0.0,10.0,0.0,0.0,0.0,10.0,0.0,0.0,0.0,10.0,0.0536626959651,0.0249005561922,-0.00106526443603,1.0,0.0,0.0,0.0,1.0,0.0,0.0,0.0,1.0,0.067060546875,0.827479248047,10.0566870117,0.1,0.0,0.0,0.0,0.1,0.0,0.0,0.0,0.1
1446035584587999999,126,1446035584586227893,robocape,15.6701874778,11.5540315125,118.199476574,0.0,10.0,0.0,0.0,0.0,10.0,0.0,0.0,0.0,10.0,-0.0716390333231,0.0251668723012,0.00186421276306,1.0,0.0,0.0,0.0,1.0,0.0,0.0,0.0,1.0,0.213156738281,0.468226318359,10.0375268555,0.1,0.0,0.0,0.0,0.1,0.0,0.0,0.0,0.1
1446035584624116124,127,1446035584619497060,robocape,15.4201933735,11.587385365,118.207306252,0.0,10.0,0.0,0.0,0.0,10.0,0.0,0.0,0.0,10.0,-0.131826473959,0.0230363434292,-0.00226368692657,1.0,0.0,0.0,0.0,1.0,0.0,0.0,0.0,1.0,-0.0275427246094,-0.118553466797,10.0830322266,0.1,0.0,0.0,0.0,0.1,0.0,0.0,0.0,0.1
1446035584656985041,128,1446035584654652118,robocape,15.0820963794,11.6094094904,118.271666123,0.0,10.0,0.0,0.0,0.0,10.0,0.0,0.0,0.0,10.0,-0.184690221597,0.0231695014837,0.0276968753368,1.0,0.0,0.0,0.0,1.0,0.0,0.0,0.0,1.0,0.0047900390625,-0.246687011719,10.0866247559,0.1,0.0,0.0,0.0,0.1,0.0,0.0,0.0,0.1
1446035584691060833,129,1446035584688606023,robocape,14.6873555765,11.6306120176,118.338418306,0.0,10.0,0.0,0.0,0.0,10.0,0.0,0.0,0.0,10.0,-0.21465078386,0.0227700273202,0.0291616139364,1.0,0.0,0.0,0.0,1.0,0.0,0.0,0.0,1.0,0.0263452148438,-0.0946032714844,10.0926123047,0.1,0.0,0.0,0.0,0.1,0.0,0.0,0.0,0.1
1446035584724917499,130,1446035584722548007,robocape,14.2222298314,11.6508928053,118.406406779,0.0,10.0,0.0,0.0,0.0,10.0,0.0,0.0,0.0,10.0,-0.251668723012,0.0221042370477,0.0300937203179,1.0,0.0,0.0,0.0,1.0,0.0,0.0,0.0,1.0,0.0371228027344,-0.265847167969,10.1165625,0.1,0.0,0.0,0.0,0.1,0.0,0.0,0.0,0.1
1446035584757196416,131,1446035584755213975,robocape,13.8266633125,11.6800076779,118.407032331,0.0,10.0,0.0,0.0,0.0,10.0,0.0,0.0,0.0,10.0,-0.207193932808,0.0194410759576,-0.00452737385313,1.0,0.0,0.0,0.0,1.0,0.0,0.0,0.0,1.0,-0.0694555664063,-0.767603759766,10.1057849121,0.1,0.0,0.0,0.0,0.1,0.0,0.0,0.0,0.1
1446035584791019499,132,1446035584788201093,robocape,13.5589079277,11.711540189,118.406080733,0.0,10.0,0.0,0.0,0.0,10.0,0.0,0.0,0.0,10.0,-0.140082273338,0.0209058145571,-0.00559263828917,1.0,0.0,0.0,0.0,1.0,0.0,0.0,0.0,1.0,-0.00598754882813,-1.31007568359,10.1500927734,0.1,0.0,0.0,0.0,0.1,0.0,0.0,0.0,0.1
1446035584824157666,133,1446035584822076082,robocape,13.4705647145,11.7462981978,118.400139682,0.0,10.0,0.0,0.0,0.0,10.0,0.0,0.0,0.0,10.0,-0.0455400546404,0.0225037112112,-0.00852211548825,1.0,0.0,0.0,0.0,1.0,0.0,0.0,0.0,1.0,0.235909423828,-1.32684082031,10.1249450684,0.1,0.0,0.0,0.0,0.1,0.0,0.0,0.0,0.1
1446035584857357124,134,1446035584855284929,robocape,13.5640418173,11.7860455723,118.408466224,0.0,10.0,0.0,0.0,0.0,10.0,0.0,0.0,0.0,10.0,0.0479368996214,0.0275637172823,-0.00226368692657,1.0,0.0,0.0,0.0,1.0,0.0,0.0,0.0,1.0,0.0455053710938,-1.39509887695,10.1417102051,0.1,0.0,0.0,0.0,0.1,0.0,0.0,0.0,0.1
1446035584890734166,135,1446035584888839006,robocape,13.8003143088,11.8316548924,118.431547748,0.0,10.0,0.0,0.0,0.0,10.0,0.0,0.0,0.0,10.0,0.12090751349,0.033289513626,0.00399474163512,1.0,0.0,0.0,0.0,1.0,0.0,0.0,0.0,1.0,0.120948486328,-1.01429077148,10.459050293,0.1,0.0,0.0,0.0,0.1,0.0,0.0,0.0,0.1
1446035584924816708,136,1446035584922728061,robocape,14.0797189799,11.8967690997,118.445354304,0.0,10.0,0.0,0.0,0.0,10.0,0.0,0.0,0.0,10.0,0.144609647191,0.0452737385313,-0.00399474163512,1.0,0.0,0.0,0.0,1.0,0.0,0.0,0.0,1.0,-3.50630859375,-0.404758300781,10.7620202637,0.1,0.0,0.0,0.0,0.1,0.0,0.0,0.0,0.1
1446035584956178541,137,1446035584954355955,robocape,14.2938510176,11.9994266271,118.383720301,0.0,10.0,0.0,0.0,0.0,10.0,0.0,0.0,0.0,10.0,0.119709090999,0.0611195470173,-0.0478037415669,1.0,0.0,0.0,0.0,1.0,0.0,0.0,0.0,1.0,-6.06778198242,-0.980760498047,10.6698120117,0.1,0.0,0.0,0.0,0.1,0.0,0.0,0.0,0.1
1446035584990380374,138,1446035584988364934,robocape,14.5493370492,12.0331923876,118.154466664,0.0,10.0,0.0,0.0,0.0,10.0,0.0,0.0,0.0,10.0,0.162186510386,-0.00639158661619,-0.118776984618,1.0,0.0,0.0,0.0,1.0,0.0,0.0,0.0,1.0,-5.9815612793,-0.293389892578,10.7440576172,0.1,0.0,0.0,0.0,0.1,0.0,0.0,0.0,0.1
1446035585023442291,139,1446035585021414995,robocape,14.8849836953,12.0392690421,117.879757423,0.0,10.0,0.0,0.0,0.0,10.0,0.0,0.0,0.0,10.0,0.209857093898,-0.0314253008629,-0.136220689758,1.0,0.0,0.0,0.0,1.0,0.0,0.0,0.0,1.0,-8.45322143555,-2.69439697266,10.290201416,0.1,0.0,0.0,0.0,0.1,0.0,0.0,0.0,0.1
1446035585056208708,140,1446035585054229974,robocape,15.2996451014,12.0795236411,117.612821862,0.0,10.0,0.0,0.0,0.0,10.0,0.0,0.0,0.0,10.0,0.250337142467,-0.00838895743375,-0.13835121863,1.0,0.0,0.0,0.0,1.0,0.0,0.0,0.0,1.0,-4.75411376953,0.137713623047,11.5559692383,0.1,0.0,0.0,0.0,0.1,0.0,0.0,0.0,0.1
1446035585089828999,141,1446035585087958097,robocape,16.1949256146,12.023883182,117.334930005,0.0,10.0,0.0,0.0,0.0,10.0,0.0,0.0,0.0,10.0,0.503337446025,-0.0755006169037,-0.125568045397,1.0,0.0,0.0,0.0,1.0,0.0,0.0,0.0,1.0,-5.1768347168,-0.28740234375,10.152487793,0.1,0.0,0.0,0.0,0.1,0.0,0.0,0.0,0.1
1446035585123326166,142,1446035585121396064,robocape,16.9057036115,12.1057715169,117.021520797,0.0,10.0,0.0,0.0,0.0,10.0,0.0,0.0,0.0,10.0,0.411192072308,0.00905474770627,-0.168977571166,1.0,0.0,0.0,0.0,1.0,0.0,0.0,0.0,1.0,-7.01501220703,0.352067871094,10.693762207,0.1,0.0,0.0,0.0,0.1,0.0,0.0,0.0,0.1
1446035585155871625,143,1446035585154033899,robocape,17.6823027159,12.139181074,116.814926349,0.0,10.0,0.0,0.0,0.0,10.0,0.0,0.0,0.0,10.0,0.432497361029,-0.00905474770627,-0.107192233876,1.0,0.0,0.0,0.0,1.0,0.0,0.0,0.0,1.0,-4.50024169922,0.136516113281,11.1500134277,0.1,0.0,0.0,0.0,0.1,0.0,0.0,0.0,0.1
1446035585188856625,144,1446035585187047958,robocape,18.218625022,12.153275516,116.763901795,0.0,10.0,0.0,0.0,0.0,10.0,0.0,0.0,0.0,10.0,0.287221923565,0.00133158054504,-0.0276968753368,1.0,0.0,0.0,0.0,1.0,0.0,0.0,0.0,1.0,-1.88248535156,0.44068359375,8.45801147461,0.1,0.0,0.0,0.0,0.1,0.0,0.0,0.0,0.1
1446035585221801875,145,1446035585220001935,robocape,18.766859051,12.2219046323,116.929620024,0.0,10.0,0.0,0.0,0.0,10.0,0.0,0.0,0.0,10.0,0.266182950953,0.0720385074866,0.0647148144889,1.0,0.0,0.0,0.0,1.0,0.0,0.0,0.0,1.0,-3.23567138672,-0.467028808594,10.2267333984,0.1,0.0,0.0,0.0,0.1,0.0,0.0,0.0,0.1
1446035585255398250,146,1446035585253631114,robocape,19.3991536832,12.1967318409,117.006960154,0.0,10.0,0.0,0.0,0.0,10.0,0.0,0.0,0.0,10.0,0.321310385518,-0.00372842552611,0.0428768935503,1.0,0.0,0.0,0.0,1.0,0.0,0.0,0.0,1.0,-7.4760534668,-0.283809814453,9.06275390625,0.1,0.0,0.0,0.0,0.1,0.0,0.0,0.0,0.1
1446035585288609666,147,1446035585286808013,robocape,20.1818530551,12.2198737066,117.196606564,0.0,10.0,0.0,0.0,0.0,10.0,0.0,0.0,0.0,10.0,0.385892041952,0.0478037415669,0.0852211548825,1.0,0.0,0.0,0.0,1.0,0.0,0.0,0.0,1.0,-2.11480224609,-0.288599853516,11.7308056641,0.1,0.0,0.0,0.0,0.1,0.0,0.0,0.0,0.1
1446035585325054125,148,1446035585323080062,robocape,21.1069961675,12.2184814035,117.241811595,0.0,10.0,0.0,0.0,0.0,10.0,0.0,0.0,0.0,10.0,0.478703205942,0.00719053494321,0.0218379209386,1.0,0.0,0.0,0.0,1.0,0.0,0.0,0.0,1.0,-3.07760009766,-0.542471923828,7.57664428711,0.1,0.0,0.0,0.0,0.1,0.0,0.0,0.0,0.1
1446035585354770041,149,1446035585352997064,robocape,22.234709041,11.9791899954,117.12828443,0.0,10.0,0.0,0.0,0.0,10.0,0.0,0.0,0.0,10.0,0.604670725502,-0.175768631945,0.00772316716123,1.0,0.0,0.0,0.0,1.0,0.0,0.0,0.0,1.0,-1.23942260742,-0.314945068359,11.3739477539,0.1,0.0,0.0,0.0,0.1,0.0,0.0,0.0,0.1
1446035585389225500,150,1446035585386501073,robocape,23.8463959902,11.9079719679,116.968023063,0.0,10.0,0.0,0.0,0.0,10.0,0.0,0.0,0.0,10.0,0.863663141513,-0.0772316716123,-0.0557932248372,1.0,0.0,0.0,0.0,1.0,0.0,0.0,0.0,1.0,-3.05125488281,-1.04422851562,7.78860351563,0.1,0.0,0.0,0.0,0.1,0.0,0.0,0.0,0.1
1446035585422614083,151,1446035585420840024,robocape,25.8465559645,11.9976911228,116.977475427,0.0,10.0,0.0,0.0,0.0,10.0,0.0,0.0,0.0,10.0,1.04622283424,0.0583232278727,-0.0217047628841,1.0,0.0,0.0,0.0,1.0,0.0,0.0,0.0,1.0,2.63691650391,-0.571212158203,10.8853637695,0.1,0.0,0.0,0.0,0.1,0.0,0.0,0.0,0.1
1446035585453876041,152,1446035585452085971,robocape,28.3140728421,12.0605783544,116.912232724,0.0,10.0,0.0,0.0,0.0,10.0,0.0,0.0,0.0,10.0,1.30028840223,0.0237021337017,-0.049401638221,1.0,0.0,0.0,0.0,1.0,0.0,0.0,0.0,1.0,-0.602347412109,-0.689765625,8.56219482422,0.1,0.0,0.0,0.0,0.1,0.0,0.0,0.0,0.1
1446035585487155583,153,1446035585485294103,robocape,31.3316542787,11.746734958,116.632656032,0.0,10.0,0.0,0.0,0.0,10.0,0.0,0.0,0.0,10.0,1.61467456892,-0.258859257956,-0.0157126504315,1.0,0.0,0.0,0.0,1.0,0.0,0.0,0.0,1.0,3.70868774414,-0.837059326172,8.40053100586,0.1,0.0,0.0,0.0,0.1,0.0,0.0,0.0,0.1
1446035585520224458,154,1446035585518409013,robocape,35.2703161307,12.0557611226,116.675563161,0.0,10.0,0.0,0.0,0.0,10.0,0.0,0.0,0.0,10.0,2.0578245743,0.190416017941,-0.0989364344964,1.0,0.0,0.0,0.0,1.0,0.0,0.0,0.0,1.0,-0.355660400391,-1.1076965332,8.67715576172,0.1,0.0,0.0,0.0,0.1,0.0,0.0,0.0,0.1
1446035585553191833,155,1446035585551475048,robocape,40.0534853395,12.1447665864,116.649087807,0.0,10.0,0.0,0.0,0.0,10.0,0.0,0.0,0.0,10.0,2.50923037907,0.0407463646782,-0.0484695318394,1.0,0.0,0.0,0.0,1.0,0.0,0.0,0.0,1.0,4.05596557617,-0.674197998047,8.67595825195,0.1,0.0,0.0,0.0,0.1,0.0,0.0,0.0,0.1
1446035585586726041,156,1446035585584958076,robocape,45.8644387167,12.3610496337,116.772969677,0.0,10.0,0.0,0.0,0.0,10.0,0.0,0.0,0.0,10.0,3.02947889802,0.153531236843,-0.0568584892732,1.0,0.0,0.0,0.0,1.0,0.0,0.0,0.0,1.0,4.65831298828,-1.23822509766,7.21739135742,0.1,0.0,0.0,0.0,0.1,0.0,0.0,0.0,0.1
1446035585620005458,157,1446035585618215084,robocape,51.945495476,11.8452005842,117.779386388,0.0,10.0,0.0,0.0,0.0,10.0,0.0,0.0,0.0,10.0,3.06090419888,0.150335443535,0.607200728538,1.0,0.0,0.0,0.0,1.0,0.0,0.0,0.0,1.0,3.17220336914,9.20525756836,11.0637927246,0.1,0.0,0.0,0.0,0.1,0.0,0.0,0.0,0.1
1446035585653046666,158,1446035585651288986,robocape,53.0908830861,11.1437579345,122.583240971,0.0,10.0,0.0,0.0,0.0,10.0,0.0,0.0,0.0,10.0,0.0331563555715,1.65475514332,1.87180277216,1.0,0.0,0.0,0.0,1.0,0.0,0.0,0.0,1.0,8.30473022461,16.615447998,14.7281726074,0.1,0.0,0.0,0.0,0.1,0.0,0.0,0.0,0.1
1446035585686543458,159,1446035585684768915,robocape,51.3172890112,9.99209540559,128.074523407,0.0,10.0,0.0,0.0,0.0,10.0,0.0,0.0,0.0,10.0,-1.51853445356,1.75742000334,2.3311980602,1.0,0.0,0.0,0.0,1.0,0.0,0.0,0.0,1.0,-2.7626550293,4.47150146484,9.20166503906,0.1,0.0,0.0,0.0,0.1,0.0,0.0,0.0,0.1
1446035585720013250,160,1446035585718261003,robocape,48.9174646134,9.02308536176,132.54692754,0.0,10.0,0.0,0.0,0.0,10.0,0.0,0.0,0.0,10.0,-1.6837835992,1.36766637781,1.95755655926,1.0,0.0,0.0,0.0,1.0,0.0,0.0,0.0,1.0,-1.8429675293,0.844244384766,10.1668579102,0.1,0.0,0.0,0.0,0.1,0.0,0.0,0.0,0.1
1446035585752917666,161,1446035585751118898,robocape,46.3550409359,7.82892334733,135.981276815,0.0,10.0,0.0,0.0,0.0,10.0,0.0,0.0,0.0,10.0,-1.62918879686,0.80800307473,1.75036262645,1.0,0.0,0.0,0.0,1.0,0.0,0.0,0.0,1.0,-2.78061767578,0.426313476563,8.95737304688,0.1,0.0,0.0,0.0,0.1,0.0,0.0,0.0,0.1
1446035585786302916,162,1446035585784481048,robocape,43.7507378726,6.82905708536,139.372886401,0.0,10.0,0.0,0.0,0.0,10.0,0.0,0.0,0.0,10.0,-1.60775035008,0.814927293564,1.67526148371,1.0,0.0,0.0,0.0,1.0,0.0,0.0,0.0,1.0,-0.734073486328,1.05859863281,10.0267492676,0.1,0.0,0.0,0.0,0.1,0.0,0.0,0.0,0.1
1446035585819860958,163,1446035585818084001,robocape,40.3851798757,5.64627950212,142.741805399,0.0,10.0,0.0,0.0,0.0,10.0,0.0,0.0,0.0,10.0,-1.96674446502,0.653007099287,1.77299949572,1.0,0.0,0.0,0.0,1.0,0.0,0.0,0.0,1.0,-0.215551757813,2.25012084961,9.93334350586,0.1,0.0,0.0,0.0,0.1,0.0,0.0,0.0,0.1
1446035585852762667,164,1446035585851008892,robocape,35.7721469194,4.40238410392,146.575182978,0.0,10.0,0.0,0.0,0.0,10.0,0.0,0.0,0.0,10.0,-2.6016420689,0.667787643337,2.01934189655,1.0,0.0,0.0,0.0,1.0,0.0,0.0,0.0,1.0,3.76497070313,2.4489074707,9.03401367187,0.1,0.0,0.0,0.0,0.1,0.0,0.0,0.0,0.1
1446035585886412875,165,1446035585884531021,robocape,29.0542076873,2.96786279282,150.976522078,0.0,10.0,0.0,0.0,0.0,10.0,0.0,0.0,0.0,10.0,-3.67569493653,0.553937506736,2.37873548566,1.0,0.0,0.0,0.0,1.0,0.0,0.0,0.0,1.0,-0.0311352539063,3.30512695313,7.81494873047,0.1,0.0,0.0,0.0,0.1,0.0,0.0,0.0,0.1
1446035585919804583,166,1446035585917973041,robocape,20.9311417355,1.61234992857,155.75868662,0.0,10.0,0.0,0.0,0.0,10.0,0.0,0.0,0.0,10.0,-4.36332312999,0.387623096661,2.58872573761,1.0,0.0,0.0,0.0,1.0,0.0,0.0,0.0,1.0,-5.21276000977,3.86556152344,5.62829589844,0.1,0.0,0.0,0.0,0.1,0.0,0.0,0.0,0.1
1446035585952803125,167,1446035585951077938,robocape,12.6827814876,0.0909762998157,160.42267424,0.0,10.0,0.0,0.0,0.0,10.0,0.0,0.0,0.0,10.0,-4.36332312999,-0.0680437658515,2.57967098991,1.0,0.0,0.0,0.0,1.0,0.0,0.0,0.0,1.0,-3.05604492188,3.61408447266,1.69088378906,0.1,0.0,0.0,0.0,0.1,0.0,0.0,0.0,0.1
1446035585986261917,168,1446035585984522104,robocape,4.30765343132,-1.58248823442,164.81879801,0.0,10.0,0.0,0.0,0.0,10.0,0.0,0.0,0.0,10.0,-4.36332312999,-0.516919567584,2.41189184123,1.0,0.0,0.0,0.0,1.0,0.0,0.0,0.0,1.0,-3.96255981445,2.92791137695,-3.22728881836,0.1,0.0,0.0,0.0,0.1,0.0,0.0,0.0,0.1
1446035586019975375,169,1446035586018258094,robocape,-4.08064698821,-3.36712575469,166.468302645,0.0,10.0,0.0,0.0,0.0,10.0,0.0,0.0,0.0,10.0,-4.36332312999,-0.898017919575,0.86712525093,1.0,0.0,0.0,0.0,1.0,0.0,0.0,0.0,1.0,-3.28237426758,-19.62,-0.839454345703,0.1,0.0,0.0,0.0,0.1,0.0,0.0,0.0,0.1
1446035586052640958,170,1446035586050905942,robocape,-3.11777402368,-2.10388204925,163.842734914,0.0,10.0,0.0,0.0,0.0,10.0,0.0,0.0,0.0,10.0,0.440087370136,0.717588755722,-1.33118107088,1.0,0.0,0.0,0.0,1.0,0.0,0.0,0.0,1.0,18.0321020508,-19.62,17.8261303711,0.1,0.0,0.0,0.0,0.1,0.0,0.0,0.0,0.1
1446035586086200417,171,1446035586084484100,robocape,2.42899161943,1.0249019755,160.612099043,0.0,10.0,0.0,0.0,0.0,10.0,0.0,0.0,0.0,10.0,2.89126083744,1.63624617374,-1.68471570558,1.0,0.0,0.0,0.0,1.0,0.0,0.0,0.0,1.0,5.7133190918,-11.3535900879,3.09676025391,0.1,0.0,0.0,0.0,0.1,0.0,0.0,0.0,0.1
1446035586119631833,172,1446035586117909908,robocape,6.83261089649,3.60749403586,157.445067973,0.0,10.0,0.0,0.0,0.0,10.0,0.0,0.0,0.0,10.0,2.37593916651,1.27458889771,-1.76767317354,1.0,0.0,0.0,0.0,1.0,0.0,0.0,0.0,1.0,-6.08334960938,2.40819213867,4.13260620117,0.1,0.0,0.0,0.0,0.1,0.0,0.0,0.0,0.1
1446035586152494667,173,1446035586150758981,robocape,8.85089755631,5.8193440323,155.539983447,0.0,10.0,0.0,0.0,0.0,10.0,0.0,0.0,0.0,10.0,1.14289558181,1.12305503169,-1.15834191613,1.0,0.0,0.0,0.0,1.0,0.0,0.0,0.0,1.0,-5.70373901367,0.699345703125,10.9176965332,0.1,0.0,0.0,0.0,0.1,0.0,0.0,0.0,0.1
1446035586186077333,174,1446035586184411048,robocape,9.68346275213,7.03007344908,153.96126681,0.0,10.0,0.0,0.0,0.0,10.0,0.0,0.0,0.0,10.0,0.534496430779,0.580968591801,-0.926513743239,1.0,0.0,0.0,0.0,1.0,0.0,0.0,0.0,1.0,-1.89326293945,-0.556842041016,10.5273083496,0.1,0.0,0.0,0.0,0.1,0.0,0.0,0.0,0.1
1446035586220258250,175,1446035586218470096,robocape,9.64903895317,7.99275580382,152.200943624,0.0,10.0,0.0,0.0,0.0,10.0,0.0,0.0,0.0,10.0,0.111852765783,0.42810314523,-0.99868540878,1.0,0.0,0.0,0.0,1.0,0.0,0.0,0.0,1.0,0.772393798828,-1.00351318359,10.6219116211,0.1,0.0,0.0,0.0,0.1,0.0,0.0,0.0,0.1
1446035586252629750,176,1446035586250866889,robocape,9.64771526361,9.22769464746,149.8761525,0.0,10.0,0.0,0.0,0.0,10.0,0.0,0.0,0.0,10.0,0.198272343156,0.565522257478,-1.31453631406,1.0,0.0,0.0,0.0,1.0,0.0,0.0,0.0,1.0,0.809516601563,-2.2261706543,10.2746337891,0.1,0.0,0.0,0.0,0.1,0.0,0.0,0.0,0.1
1446035586286181542,177,1446035586284439086,robocape,10.0913679766,11.2186241378,146.921283123,0.0,10.0,0.0,0.0,0.0,10.0,0.0,0.0,0.0,10.0,0.538224856305,1.03051018381,-1.71946995781,1.0,0.0,0.0,0.0,1.0,0.0,0.0,0.0,1.0,5.97916625977,-3.42727294922,12.5798400879,0.1,0.0,0.0,0.0,0.1,0.0,0.0,0.0,0.1
1446035586319869750,178,1446035586318079948,robocape,11.0381819197,13.0041557584,143.366192446,0.0,10.0,0.0,0.0,0.0,10.0,0.0,0.0,0.0,10.0,0.941161129234,0.888563697705,-2.00549345888,1.0,0.0,0.0,0.0,1.0,0.0,0.0,0.0,1.0,-1.31127319336,-1.66932861328,8.69152587891,0.1,0.0,0.0,0.0,0.1,0.0,0.0,0.0,0.1
1446035586353015583,179,1446035586351212024,robocape,12.4770355174,14.6558237561,139.685164496,0.0,10.0,0.0,0.0,0.0,10.0,0.0,0.0,0.0,10.0,1.29083418036,0.80946781333,-2.06062089345,1.0,0.0,0.0,0.0,1.0,0.0,0.0,0.0,1.0,3.58773925781,-2.94467651367,12.3666833496,0.1,0.0,0.0,0.0,0.1,0.0,0.0,0.0,0.1
1446035586386154958,180,1446035586384210109,robocape,14.4117119587,16.0132773888,135.957229286,0.0,10.0,0.0,0.0,0.0,10.0,0.0,0.0,0.0,10.0,1.62772405826,0.589091233126,-2.04743824605,1.0,0.0,0.0,0.0,1.0,0.0,0.0,0.0,1.0,-0.282612304688,-1.74117919922,7.72992553711,0.1,0.0,0.0,0.0,0.1,0.0,0.0,0.0,0.1
1446035586419976167,181,1446035586418037891,robocape,16.748356414,17.2298133329,132.657254848,0.0,10.0,0.0,0.0,0.0,10.0,0.0,0.0,0.0,10.0,1.82306692421,0.513590616222,-1.8271948239,1.0,0.0,0.0,0.0,1.0,0.0,0.0,0.0,1.0,0.178428955078,-0.528101806641,10.959609375,0.1,0.0,0.0,0.0,0.1,0.0,0.0,0.0,0.1
1446035586452915333,182,1446035586451011896,robocape,19.2827032261,18.2401565688,129.804199708,0.0,10.0,0.0,0.0,0.0,10.0,0.0,0.0,0.0,10.0,1.88818121287,0.384160987244,-1.58218400362,1.0,0.0,0.0,0.0,1.0,0.0,0.0,0.0,1.0,-2.74828491211,-0.905317382813,8.3155078125,0.1,0.0,0.0,0.0,0.1,0.0,0.0,0.0,0.1
1446035586486277125,183,1446035586484375000,robocape,22.1733613218,19.2696025672,127.167389551,0.0,10.0,0.0,0.0,0.0,10.0,0.0,0.0,0.0,10.0,2.06980879921,0.401737850438,-1.50468601589,1.0,0.0,0.0,0.0,1.0,0.0,0.0,0.0,1.0,0.320932617188,-1.38072875977,10.2446960449,0.1,0.0,0.0,0.0,0.1,0.0,0.0,0.0,0.1
1446035586522227667,184,1446035586520441055,robocape,25.5220634268,20.0196280157,124.575560029,0.0,10.0,0.0,0.0,0.0,10.0,0.0,0.0,0.0,10.0,2.33332858907,0.132359106177,-1.40188799782,1.0,0.0,0.0,0.0,1.0,0.0,0.0,0.0,1.0,0.769998779297,-1.79386962891,7.54311401367,0.1,0.0,0.0,0.0,0.1,0.0,0.0,0.0,0.1
1446035586554021917,185,1446035586552241086,robocape,29.6826201326,20.7579799536,122.280717162,0.0,10.0,0.0,0.0,0.0,10.0,0.0,0.0,0.0,10.0,2.71775589243,0.122372252089,-1.27818416518,1.0,0.0,0.0,0.0,1.0,0.0,0.0,0.0,1.0,-2.06450683594,-1.07177124023,9.28549072266,0.1,0.0,0.0,0.0,0.1,0.0,0.0,0.0,0.1
1446035586587162875,186,1446035586585397958,robocape,34.5850052291,21.2931812212,120.353608588,0.0,10.0,0.0,0.0,0.0,10.0,0.0,0.0,0.0,10.0,3.03906627794,-0.0323574072445,-1.03583650599,1.0,0.0,0.0,0.0,1.0,0.0,0.0,0.0,1.0,-2.53991821289,-1.00590820312,7.77303588867,0.1,0.0,0.0,0.0,0.1,0.0,0.0,0.0,0.1
1446035586620845959,187,1446035586619055032,robocape,40.3860458358,21.6372523947,118.797524188,0.0,10.0,0.0,0.0,0.0,10.0,0.0,0.0,0.0,10.0,3.43068411624,-0.163251774822,-0.778175670521,1.0,0.0,0.0,0.0,1.0,0.0,0.0,0.0,1.0,-2.53393066406,-0.165256347656,7.39103027344,0.1,0.0,0.0,0.0,0.1,0.0,0.0,0.0,0.1
1446035586654313917,188,1446035586652533054,robocape,47.046497008,21.8254473802,117.856947852,0.0,10.0,0.0,0.0,0.0,10.0,0.0,0.0,0.0,10.0,3.73148816136,-0.160189139568,-0.443549479553,1.0,0.0,0.0,0.0,1.0,0.0,0.0,0.0,1.0,-2.59500366211,-0.358055419922,8.02571044922,0.1,0.0,0.0,0.0,0.1,0.0,0.0,0.0,0.1
1446035586687679959,189,1446035586685836076,robocape,54.5323501049,21.8709026098,117.616580394,0.0,10.0,0.0,0.0,0.0,10.0,0.0,0.0,0.0,10.0,3.98701846796,-0.0559263828917,-0.105461179167,1.0,0.0,0.0,0.0,1.0,0.0,0.0,0.0,1.0,-2.56506591797,-0.21076171875,4.77926147461,0.1,0.0,0.0,0.0,0.1,0.0,0.0,0.0,0.1
1446035586720393875,190,1446035586718555927,robocape,62.2718914927,21.4860521358,118.707457728,0.0,10.0,0.0,0.0,0.0,10.0,0.0,0.0,0.0,10.0,3.78075664153,0.222640267131,0.593751765033,1.0,0.0,0.0,0.0,1.0,0.0,0.0,0.0,1.0,2.65248413086,14.8826513672,10.024354248,0.1,0.0,0.0,0.0,0.1,0.0,0.0,0.0,0.1
1446035586753342000,191,1446035586751590967,robocape,64.8096416677,20.0216568637,123.481866193,0.0,10.0,0.0,0.0,0.0,10.0,0.0,0.0,0.0,10.0,0.183358641052,1.3615411073,2.2556974433,1.0,0.0,0.0,0.0,1.0,0.0,0.0,0.0,1.0,4.03201538086,19.6194012451,16.3484033203,0.1,0.0,0.0,0.0,0.1,0.0,0.0,0.0,0.1
1446035586786195542,192,1446035586784423112,robocape,63.8680681594,18.556180401,129.337002439,0.0,10.0,0.0,0.0,0.0,10.0,0.0,0.0,0.0,10.0,-1.77273317961,1.94224338299,2.40083972271,1.0,0.0,0.0,0.0,1.0,0.0,0.0,0.0,1.0,-6.00670898438,5.00080078125,9.52499267578,0.1,0.0,0.0,0.0,0.1,0.0,0.0,0.0,0.1
1446035586819870792,193,1446035586818094015,robocape,62.1175819011,17.2804575377,133.607997568,0.0,10.0,0.0,0.0,0.0,10.0,0.0,0.0,0.0,10.0,-1.76740685743,1.351021621,1.90882071131,1.0,0.0,0.0,0.0,1.0,0.0,0.0,0.0,1.0,-2.1040246582,1.37474121094,9.76928466797,0.1,0.0,0.0,0.0,0.1,0.0,0.0,0.0,0.1
1446035586853204042,194,1446035586851459980,robocape,60.1648714762,16.1689064927,137.04573008,0.0,10.0,0.0,0.0,0.0,10.0,0.0,0.0,0.0,10.0,-1.65155935001,1.04209493455,1.60628561148,1.0,0.0,0.0,0.0,1.0,0.0,0.0,0.0,1.0,-2.08007446289,0.387993164063,10.0327368164,0.1,0.0,0.0,0.0,0.1,0.0,0.0,0.0,0.1
