%time,field.header.seq,field.header.stamp,field.header.frame_id,field.magnetic_field.x,field.magnetic_field.y,field.magnetic_field.z,field.magnetic_field_covariance0,field.magnetic_field_covariance1,field.magnetic_field_covariance2,field.magnetic_field_covariance3,field.magnetic_field_covariance4,field.magnetic_field_covariance5,field.magnetic_field_covariance6,field.magnetic_field_covariance7,field.magnetic_field_covariance8
1446039802729993260,1,1446039802718951940,robocape_mag,-23.4,-1.5,-1.05,10.0,0.0,0.0,0.0,10.0,0.0,0.0,0.0,10.0
1446039802754680760,2,1446039802749919891,robocape_mag,-23.4,-1.5,-1.05,10.0,0.0,0.0,0.0,10.0,0.0,0.0,0.0,10.0
1446039802789383385,3,1446039802783587932,robocape_mag,-23.4,-1.5,-1.05,10.0,0.0,0.0,0.0,10.0,0.0,0.0,0.0,10.0
1446039802821660385,4,1446039802816910028,robocape_mag,-17.7,-9.0,2.85,10.0,0.0,0.0,0.0,10.0,0.0,0.0,0.0,10.0
1446039802854729677,5,1446039802849977970,robocape_mag,-17.7,-9.0,2.85,10.0,0.0,0.0,0.0,10.0,0.0,0.0,0.0,10.0
1446039802889132677,6,1446039802883290052,robocape_mag,-17.7,-9.0,2.85,10.0,0.0,0.0,0.0,10.0,0.0,0.0,0.0,10.0
1446039802921868719,7,1446039802916893959,robocape_mag,-17.7,-9.0,2.85,10.0,0.0,0.0,0.0,10.0,0.0,0.0,0.0,10.0
1446039802963200594,8,1446039802958065032,robocape_mag,-11.1,-13.2,2.85,10.0,0.0,0.0,0.0,10.0,0.0,0.0,0.0,10.0
1446039802989177594,9,1446039802983479022,robocape_mag,-11.1,-13.2,2.85,10.0,0.0,0.0,0.0,10.0,0.0,0.0,0.0,10.0
1446039803021831385,10,1446039803016890048,robocape_mag,-11.1,-13.2,2.85,10.0,0.0,0.0,0.0,10.0,0.0,0.0,0.0,10.0
1446039803054744177,11,1446039803049947977,robocape_mag,-11.1,-13.2,2.85,10.0,0.0,0.0,0.0,10.0,0.0,0.0,0.0,10.0
1446039803089594802,12,1446039803083756923,robocape_mag,-11.1,-13.2,2.85,10.0,0.0,0.0,0.0,10.0,0.0,0.0,0.0,10.0
1446039803121657010,13,1446039803116796016,robocape_mag,-0.3,-16.2,5.25,10.0,0.0,0.0,0.0,10.0,0.0,0.0,0.0,10.0
1446039803154855135,14,1446039803150139093,robocape_mag,-0.3,-16.2,5.25,10.0,0.0,0.0,0.0,10.0,0.0,0.0,0.0,10.0
1446039803189289094,15,1446039803183346986,robocape_mag,-0.3,-16.2,5.25,10.0,0.0,0.0,0.0,10.0,0.0,0.0,0.0,10.0
1446039803221812261,16,1446039803216923952,robocape_mag,-0.3,-16.2,5.25,10.0,0.0,0.0,0.0,10.0,0.0,0.0,0.0,10.0
1446039803254848886,17,1446039803250000000,robocape_mag,-0.3,-16.2,5.25,10.0,0.0,0.0,0.0,10.0,0.0,0.0,0.0,10.0
1446039803289400511,18,1446039803283360958,robocape_mag,7.5,-19.8,4.05,10.0,0.0,0.0,0.0,10.0,0.0,0.0,0.0,10.0
1446039803323424886,19,1446039803318542957,robocape_mag,7.5,-19.8,4.05,10.0,0.0,0.0,0.0,10.0,0.0,0.0,0.0,10.0
1446039803363437261,20,1446039803350303888,robocape_mag,7.5,-19.8,4.05,10.0,0.0,0.0,0.0,10.0,0.0,0.0,0.0,10.0
1446039803389410136,21,1446039803383261919,robocape_mag,7.5,-19.8,4.05,10.0,0.0,0.0,0.0,10.0,0.0,0.0,0.0,10.0
1446039803422102552,22,1446039803417115926,robocape_mag,7.5,-19.8,4.05,10.0,0.0,0.0,0.0,10.0,0.0,0.0,0.0,10.0
1446039803455075719,23,1446039803450087070,robocape_mag,12.6,-20.7,2.55,10.0,0.0,0.0,0.0,10.0,0.0,0.0,0.0,10.0
1446039803489067761,24,1446039803483354091,robocape_mag,12.6,-20.7,2.55,10.0,0.0,0.0,0.0,10.0,0.0,0.0,0.0,10.0
1446039803521607886,25,1446039803516685009,robocape_mag,12.6,-20.7,2.55,10.0,0.0,0.0,0.0,10.0,0.0,0.0,0.0,10.0
1446039803554998969,26,1446039803549969911,robocape_mag,12.6,-20.7,2.55,10.0,0.0,0.0,0.0,10.0,0.0,0.0,0.0,10.0
1446039803588597802,27,1446039803583374023,robocape_mag,12.6,-20.7,2.55,10.0,0.0,0.0,0.0,10.0,0.0,0.0,0.0,10.0
1446039803621754011,28,1446039803616843938,robocape_mag,17.1,-21.6,-0.15,10.0,0.0,0.0,0.0,10.0,0.0,0.0,0.0,10.0
1446039803654781136,29,1446039803650060892,robocape_mag,17.1,-21.6,-0.15,10.0,0.0,0.0,0.0,10.0,0.0,0.0,0.0,10.0
1446039803688667927,30,1446039803683204889,robocape_mag,17.1,-21.6,-0.15,10.0,0.0,0.0,0.0,10.0,0.0,0.0,0.0,10.0
1446039803721667927,31,1446039803716773986,robocape_mag,17.1,-21.6,-0.15,10.0,0.0,0.0,0.0,10.0,0.0,0.0,0.0,10.0
1446039803754892636,32,1446039803750149011,robocape_mag,14.7,-21.0,-0.75,10.0,0.0,0.0,0.0,10.0,0.0,0.0,0.0,10.0
1446039803788753844,33,1446039803783222913,robocape_mag,14.7,-21.0,-0.75,10.0,0.0,0.0,0.0,10.0,0.0,0.0,0.0,10.0
1446039803821778427,34,1446039803816798925,robocape_mag,14.7,-21.0,-0.75,10.0,0.0,0.0,0.0,10.0,0.0,0.0,0.0,10.0
1446039803855049886,35,1446039803849955081,robocape_mag,14.7,-21.0,-0.75,10.0,0.0,0.0,0.0,10.0,0.0,0.0,0.0,10.0
1446039803888534136,36,1446039803883264064,robocape_mag,14.7,-21.0,-0.75,10.0,0.0,0.0,0.0,10.0,0.0,0.0,0.0,10.0
1446039803922334178,37,1446039803917284011,robocape_mag,14.7,-19.8,0.45,10.0,0.0,0.0,0.0,10.0,0.0,0.0,0.0,10.0
1446039803954959553,38,1446039803950156927,robocape_mag,14.7,-19.8,0.45,10.0,0.0,0.0,0.0,10.0,0.0,0.0,0.0,10.0
1446039803988677094,39,1446039803983344078,robocape_mag,14.7,-19.8,0.45,10.0,0.0,0.0,0.0,10.0,0.0,0.0,0.0,10.0
1446039804021706178,40,1446039804016751050,robocape_mag,14.7,-19.8,0.45,10.0,0.0,0.0,0.0,10.0,0.0,0.0,0.0,10.0
1446039804054770344,41,1446039804049973011,robocape_mag,14.7,-19.8,0.45,10.0,0.0,0.0,0.0,10.0,0.0,0.0,0.0,10.0
1446039804088436469,42,1446039804083323955,robocape_mag,15.6,-21.9,-0.45,10.0,0.0,0.0,0.0,10.0,0.0,0.0,0.0,10.0
1446039804121720136,43,1446039804116781949,robocape_mag,15.6,-21.9,-0.45,10.0,0.0,0.0,0.0,10.0,0.0,0.0,0.0,10.0
1446039804155050386,44,1446039804150315999,robocape_mag,15.6,-21.9,-0.45,10.0,0.0,0.0,0.0,10.0,0.0,0.0,0.0,10.0
1446039804188398261,45,1446039804183300018,robocape_mag,15.6,-21.9,-0.45,10.0,0.0,0.0,0.0,10.0,0.0,0.0,0.0,10.0
1446039804221741094,46,1446039804216773033,robocape_mag,15.6,-21.9,-0.45,10.0,0.0,0.0,0.0,10.0,0.0,0.0,0.0,10.0
1446039804254774219,47,1446039804249999046,robocape_mag,13.8,-20.7,-2.85,10.0,0.0,0.0,0.0,10.0,0.0,0.0,0.0,10.0
1446039804289026636,48,1446039804283696889,robocape_mag,13.8,-20.7,-2.85,10.0,0.0,0.0,0.0,10.0,0.0,0.0,0.0,10.0
1446039804321695303,49,1446039804316801071,robocape_mag,13.8,-20.7,-2.85,10.0,0.0,0.0,0.0,10.0,0.0,0.0,0.0,10.0
1446039804362118594,50,1446039804350308895,robocape_mag,13.8,-20.7,-2.85,10.0,0.0,0.0,0.0,10.0,0.0,0.0,0.0,10.0
1446039804388432053,51,1446039804383291006,robocape_mag,13.8,-20.7,-2.85,10.0,0.0,0.0,0.0,10.0,0.0,0.0,0.0,10.0
1446039804422398886,52,1446039804417289018,robocape_mag,13.5,-21.0,-1.35,10.0,0.0,0.0,0.0,10.0,0.0,0.0,0.0,10.0
1446039804454904344,53,1446039804450087070,robocape_mag,13.5,-21.0,-1.35,10.0,0.0,0.0,0.0,10.0,0.0,0.0,0.0,10.0
1446039804488589053,54,1446039804483470916,robocape_mag,13.5,-21.0,-1.35,10.0,0.0,0.0,0.0,10.0,0.0,0.0,0.0,10.0
1446039804521712511,55,1446039804516710996,robocape_mag,13.5,-21.0,-1.35,10.0,0.0,0.0,0.0,10.0,0.0,0.0,0.0,10.0
1446039804554819928,56,1446039804550020933,robocape_mag,11.1,-19.8,-1.35,10.0,0.0,0.0,0.0,10.0,0.0,0.0,0.0,10.0
1446039804588737511,57,1446039804583504915,robocape_mag,11.1,-19.8,-1.35,10.0,0.0,0.0,0.0,10.0,0.0,0.0,0.0,10.0
1446039804621720886,58,1446039804616843938,robocape_mag,11.1,-19.8,-1.35,10.0,0.0,0.0,0.0,10.0,0.0,0.0,0.0,10.0
1446039804654754761,59,1446039804650021076,robocape_mag,11.1,-19.8,-1.35,10.0,0.0,0.0,0.0,10.0,0.0,0.0,0.0,10.0
1446039804688543470,60,1446039804683300018,robocape_mag,11.1,-19.8,-1.35,10.0,0.0,0.0,0.0,10.0,0.0,0.0,0.0,10.0
1446039804721643553,61,1446039804716725111,robocape_mag,12.0,-19.5,-1.05,10.0,0.0,0.0,0.0,10.0,0.0,0.0,0.0,10.0
1446039804754947011,62,1446039804750175952,robocape_mag,12.0,-19.5,-1.05,10.0,0.0,0.0,0.0,10.0,0.0,0.0,0.0,10.0
1446039804788576803,63,1446039804783324956,robocape_mag,12.0,-19.5,-1.05,10.0,0.0,0.0,0.0,10.0,0.0,0.0,0.0,10.0
1446039804821809345,64,1446039804816833019,robocape_mag,12.0,-19.5,-1.05,10.0,0.0,0.0,0.0,10.0,0.0,0.0,0.0,10.0
1446039804854771136,65,1446039804849981069,robocape_mag,12.0,-19.5,-1.05,10.0,0.0,0.0,0.0,10.0,0.0,0.0,0.0,10.0
1446039804888332678,66,1446039804883285045,robocape_mag,10.8,-18.3,-2.25,10.0,0.0,0.0,0.0,10.0,0.0,0.0,0.0,10.0
1446039804922265470,67,1446039804917136907,robocape_mag,10.8,-18.3,-2.25,10.0,0.0,0.0,0.0,10.0,0.0,0.0,0.0,10.0
1446039804955663511,68,1446039804949958086,robocape_mag,10.8,-18.3,-2.25,10.0,0.0,0.0,0.0,10.0,0.0,0.0,0.0,10.0
1446039804988682428,69,1446039804983411073,robocape_mag,10.8,-18.3,-2.25,10.0,0.0,0.0,0.0,10.0,0.0,0.0,0.0,10.0
1446039805022477970,70,1446039805016782045,robocape_mag,10.8,-18.3,-2.25,10.0,0.0,0.0,0.0,10.0,0.0,0.0,0.0,10.0
1446039805054824595,71,1446039805050017118,robocape_mag,11.1,-4.8,-13.35,10.0,0.0,0.0,0.0,10.0,0.0,0.0,0.0,10.0
1446039805088477845,72,1446039805083316087,robocape_mag,11.1,-4.8,-13.35,10.0,0.0,0.0,0.0,10.0,0.0,0.0,0.0,10.0
1446039805121748428,73,1446039805116851091,robocape_mag,11.1,-4.8,-13.35,10.0,0.0,0.0,0.0,10.0,0.0,0.0,0.0,10.0
1446039805154818261,74,1446039805150070905,robocape_mag,11.1,-4.8,-13.35,10.0,0.0,0.0,0.0,10.0,0.0,0.0,0.0,10.0
1446039805188434845,75,1446039805183265924,robocape_mag,11.1,-4.8,-13.35,10.0,0.0,0.0,0.0,10.0,0.0,0.0,0.0,10.0
1446039805221718970,76,1446039805216790914,robocape_mag,11.4,-20.7,-16.05,10.0,0.0,0.0,0.0,10.0,0.0,0.0,0.0,10.0
1446039805254940220,77,1446039805250176906,robocape_mag,11.4,-20.7,-16.05,10.0,0.0,0.0,0.0,10.0,0.0,0.0,0.0,10.0
1446039805288494386,78,1446039805283380031,robocape_mag,11.4,-20.7,-16.05,10.0,0.0,0.0,0.0,10.0,0.0,0.0,0.0,10.0
1446039805322725720,79,1446039805317579030,robocape_mag,11.4,-20.7,-16.05,10.0,0.0,0.0,0.0,10.0,0.0,0.0,0.0,10.0
1446039805361822012,80,1446039805349942922,robocape_mag,9.3,-14.4,4.65,10.0,0.0,0.0,0.0,10.0,0.0,0.0,0.0,10.0
1446039805388500053,81,1446039805383271932,robocape_mag,9.3,-14.4,4.65,10.0,0.0,0.0,0.0,10.0,0.0,0.0,0.0,10.0
1446039805423570220,82,1446039805417288064,robocape_mag,9.3,-14.4,4.65,10.0,0.0,0.0,0.0,10.0,0.0,0.0,0.0,10.0
1446039805455011470,83,1446039805450201034,robocape_mag,9.3,-14.4,4.65,10.0,0.0,0.0,0.0,10.0,0.0,0.0,0.0,10.0
1446039805488318595,84,1446039805483406066,robocape_mag,9.3,-14.4,4.65,10.0,0.0,0.0,0.0,10.0,0.0,0.0,0.0,10.0
1446039805521994345,85,1446039805517045021,robocape_mag,10.2,-14.7,4.95,10.0,0.0,0.0,0.0,10.0,0.0,0.0,0.0,10.0
1446039805554833470,86,1446039805550019979,robocape_mag,10.2,-14.7,4.95,10.0,0.0,0.0,0.0,10.0,0.0,0.0,0.0,10.0
1446039805588440720,87,1446039805583252906,robocape_mag,10.2,-14.7,4.95,10.0,0.0,0.0,0.0,10.0,0.0,0.0,0.0,10.0
1446039805621954803,88,1446039805616930961,robocape_mag,10.2,-14.7,4.95,10.0,0.0,0.0,0.0,10.0,0.0,0.0,0.0,10.0
1446039805654885720,89,1446039805650104999,robocape_mag,10.2,-14.7,4.95,10.0,0.0,0.0,0.0,10.0,0.0,0.0,0.0,10.0
1446039805688417428,90,1446039805683271884,robocape_mag,10.5,-13.2,4.05,10.0,0.0,0.0,0.0,10.0,0.0,0.0,0.0,10.0
1446039805721573970,91,1446039805716731071,robocape_mag,10.5,-13.2,4.05,10.0,0.0,0.0,0.0,10.0,0.0,0.0,0.0,10.0
1446039805754873345,92,1446039805749999046,robocape_mag,10.5,-13.2,4.05,10.0,0.0,0.0,0.0,10.0,0.0,0.0,0.0,10.0
1446039805788374303,93,1446039805783225059,robocape_mag,10.5,-13.2,4.05,10.0,0.0,0.0,0.0,10.0,0.0,0.0,0.0,10.0
1446039805821802762,94,1446039805816894054,robocape_mag,10.5,-13.2,4.05,10.0,0.0,0.0,0.0,10.0,0.0,0.0,0.0,10.0
1446039805854823470,95,1446039805849961042,robocape_mag,10.8,-14.7,3.75,10.0,0.0,0.0,0.0,10.0,0.0,0.0,0.0,10.0
1446039805888544553,96,1446039805883296966,robocape_mag,10.8,-14.7,3.75,10.0,0.0,0.0,0.0,10.0,0.0,0.0,0.0,10.0
1446039805922642053,97,1446039805917125940,robocape_mag,10.8,-14.7,3.75,10.0,0.0,0.0,0.0,10.0,0.0,0.0,0.0,10.0
1446039805963177595,98,1446039805958121061,robocape_mag,10.8,-14.7,3.75,10.0,0.0,0.0,0.0,10.0,0.0,0.0,0.0,10.0
1446039805988336470,99,1446039805983390092,robocape_mag,10.8,-14.7,3.75,10.0,0.0,0.0,0.0,10.0,0.0,0.0,0.0,10.0
1446039806021679679,100,1446039806016799926,robocape_mag,13.2,-15.9,3.15,10.0,0.0,0.0,0.0,10.0,0.0,0.0,0.0,10.0
1446039806054958512,101,1446039806050025939,robocape_mag,13.2,-15.9,3.15,10.0,0.0,0.0,0.0,10.0,0.0,0.0,0.0,10.0
1446039806088460179,102,1446039806083237886,robocape_mag,13.2,-15.9,3.15,10.0,0.0,0.0,0.0,10.0,0.0,0.0,0.0,10.0
1446039806121703929,103,1446039806116857051,robocape_mag,13.2,-15.9,3.15,10.0,0.0,0.0,0.0,10.0,0.0,0.0,0.0,10.0
1446039806154892595,104,1446039806150099039,robocape_mag,15.0,-15.9,0.75,10.0,0.0,0.0,0.0,10.0,0.0,0.0,0.0,10.0
1446039806188447720,105,1446039806183293104,robocape_mag,15.0,-15.9,0.75,10.0,0.0,0.0,0.0,10.0,0.0,0.0,0.0,10.0
1446039806222211845,106,1446039806217324018,robocape_mag,15.0,-15.9,0.75,10.0,0.0,0.0,0.0,10.0,0.0,0.0,0.0,10.0
1446039806254758720,107,1446039806249979019,robocape_mag,15.0,-15.9,0.75,10.0,0.0,0.0,0.0,10.0,0.0,0.0,0.0,10.0
1446039806288366762,108,1446039806283189058,robocape_mag,15.0,-15.9,0.75,10.0,0.0,0.0,0.0,10.0,0.0,0.0,0.0,10.0
1446039806322630804,109,1446039806317514896,robocape_mag,11.7,-15.6,1.65,10.0,0.0,0.0,0.0,10.0,0.0,0.0,0.0,10.0
1446039806362798137,110,1446039806349947929,robocape_mag,11.7,-15.6,1.65,10.0,0.0,0.0,0.0,10.0,0.0,0.0,0.0,10.0
1446039806388533762,111,1446039806383264064,robocape_mag,11.7,-15.6,1.65,10.0,0.0,0.0,0.0,10.0,0.0,0.0,0.0,10.0
1446039806423059804,112,1446039806417484998,robocape_mag,11.7,-15.6,1.65,10.0,0.0,0.0,0.0,10.0,0.0,0.0,0.0,10.0
1446039806455188762,113,1446039806450148105,robocape_mag,11.7,-15.6,1.65,10.0,0.0,0.0,0.0,10.0,0.0,0.0,0.0,10.0
1446039806488494220,114,1446039806483483076,robocape_mag,14.7,-14.4,1.65,10.0,0.0,0.0,0.0,10.0,0.0,0.0,0.0,10.0
1446039806522485054,115,1446039806517615079,robocape_mag,14.7,-14.4,1.65,10.0,0.0,0.0,0.0,10.0,0.0,0.0,0.0,10.0
1446039806554872345,116,1446039806550020933,robocape_mag,14.7,-14.4,1.65,10.0,0.0,0.0,0.0,10.0,0.0,0.0,0.0,10.0
1446039806588407387,117,1446039806583221912,robocape_mag,14.7,-14.4,1.65,10.0,0.0,0.0,0.0,10.0,0.0,0.0,0.0,10.0
1446039806622612554,118,1446039806617676019,robocape_mag,14.7,-14.4,1.65,10.0,0.0,0.0,0.0,10.0,0.0,0.0,0.0,10.0
1446039806654898970,119,1446039806650063991,robocape_mag,14.7,-15.0,2.85,10.0,0.0,0.0,0.0,10.0,0.0,0.0,0.0,10.0
1446039806688422637,120,1446039806683249950,robocape_mag,14.7,-15.0,2.85,10.0,0.0,0.0,0.0,10.0,0.0,0.0,0.0,10.0
1446039806722512096,121,1446039806717628002,robocape_mag,14.7,-15.0,2.85,10.0,0.0,0.0,0.0,10.0,0.0,0.0,0.0,10.0
1446039806754743512,122,1446039806749927997,robocape_mag,14.7,-15.0,2.85,10.0,0.0,0.0,0.0,10.0,0.0,0.0,0.0,10.0
1446039806788581221,123,1446039806783252954,robocape_mag,14.7,-15.0,2.85,10.0,0.0,0.0,0.0,10.0,0.0,0.0,0.0,10.0
1446039806822541012,124,1446039806817574977,robocape_mag,13.2,-15.9,1.35,10.0,0.0,0.0,0.0,10.0,0.0,0.0,0.0,10.0
1446039806855119637,125,1446039806849961042,robocape_mag,13.2,-15.9,1.35,10.0,0.0,0.0,0.0,10.0,0.0,0.0,0.0,10.0
1446039806888503096,126,1446039806883250951,robocape_mag,13.2,-15.9,1.35,10.0,0.0,0.0,0.0,10.0,0.0,0.0,0.0,10.0
1446039806923482429,127,1446039806918004989,robocape_mag,13.2,-15.9,1.35,10.0,0.0,0.0,0.0,10.0,0.0,0.0,0.0,10.0
1446039806955156179,128,1446039806950139999,robocape_mag,12.6,-16.5,0.75,10.0,0.0,0.0,0.0,10.0,0.0,0.0,0.0,10.0
1446039806988484929,129,1446039806983336925,robocape_mag,12.6,-16.5,0.75,10.0,0.0,0.0,0.0,10.0,0.0,0.0,0.0,10.0
1446039807022525429,130,1446039807017651081,robocape_mag,12.6,-16.5,0.75,10.0,0.0,0.0,0.0,10.0,0.0,0.0,0.0,10.0
1446039807054927721,131,1446039807050084114,robocape_mag,12.6,-16.5,0.75,10.0,0.0,0.0,0.0,10.0,0.0,0.0,0.0,10.0
1446039807088642096,132,1446039807083296060,robocape_mag,12.6,-16.5,0.75,10.0,0.0,0.0,0.0,10.0,0.0,0.0,0.0,10.0
1446039807125265471,133,1446039807120275974,robocape_mag,13.5,-16.2,1.65,10.0,0.0,0.0,0.0,10.0,0.0,0.0,0.0,10.0
1446039807154717721,134,1446039807149940013,robocape_mag,13.5,-16.2,1.65,10.0,0.0,0.0,0.0,10.0,0.0,0.0,0.0,10.0
1446039807188505429,135,1446039807183284997,robocape_mag,13.5,-16.2,1.65,10.0,0.0,0.0,0.0,10.0,0.0,0.0,0.0,10.0
1446039807222826304,136,1446039807217926025,robocape_mag,13.5,-16.2,1.65,10.0,0.0,0.0,0.0,10.0,0.0,0.0,0.0,10.0
1446039807271766887,137,1446039807266814947,robocape_mag,13.5,-14.7,2.55,10.0,0.0,0.0,0.0,10.0,0.0,0.0,0.0,10.0
1446039807295016137,138,1446039807290177106,robocape_mag,12.6,-14.7,2.55,10.0,0.0,0.0,0.0,10.0,0.0,0.0,0.0,10.0
1446039807322186221,139,1446039807317295074,robocape_mag,12.6,-14.7,2.55,10.0,0.0,0.0,0.0,10.0,0.0,0.0,0.0,10.0
1446039807361926721,140,1446039807350126981,robocape_mag,12.6,-14.7,2.55,10.0,0.0,0.0,0.0,10.0,0.0,0.0,0.0,10.0
1446039807396885179,141,1446039807391344070,robocape_mag,12.6,-14.7,2.55,10.0,0.0,0.0,0.0,10.0,0.0,0.0,0.0,10.0
1446039807422811804,142,1446039807417252063,robocape_mag,12.6,-14.7,2.55,10.0,0.0,0.0,0.0,10.0,0.0,0.0,0.0,10.0
1446039807455398054,143,1446039807450290918,robocape_mag,13.5,-15.6,2.25,10.0,0.0,0.0,0.0,10.0,0.0,0.0,0.0,10.0
1446039807488318971,144,1446039807483297109,robocape_mag,13.5,-15.6,2.25,10.0,0.0,0.0,0.0,10.0,0.0,0.0,0.0,10.0
1446039807522348013,145,1446039807517467975,robocape_mag,13.5,-15.6,2.25,10.0,0.0,0.0,0.0,10.0,0.0,0.0,0.0,10.0
1446039807554914763,146,1446039807550102949,robocape_mag,13.5,-15.6,2.25,10.0,0.0,0.0,0.0,10.0,0.0,0.0,0.0,10.0
1446039807588378679,147,1446039807583329916,robocape_mag,13.5,-15.6,2.25,10.0,0.0,0.0,0.0,10.0,0.0,0.0,0.0,10.0
1446039807622322221,148,1446039807617456912,robocape_mag,15.3,-15.0,1.05,10.0,0.0,0.0,0.0,10.0,0.0,0.0,0.0,10.0
1446039807655195846,149,1446039807650173902,robocape_mag,15.3,-15.0,1.05,10.0,0.0,0.0,0.0,10.0,0.0,0.0,0.0,10.0
1446039807688336013,150,1446039807683309078,robocape_mag,15.3,-15.0,1.05,10.0,0.0,0.0,0.0,10.0,0.0,0.0,0.0,10.0
1446039807722420054,151,1446039807717325925,robocape_mag,15.3,-15.0,1.05,10.0,0.0,0.0,0.0,10.0,0.0,0.0,0.0,10.0
1446039807755094346,152,1446039807749986886,robocape_mag,13.8,-14.7,1.35,10.0,0.0,0.0,0.0,10.0,0.0,0.0,0.0,10.0
1446039807788345679,153,1446039807783313989,robocape_mag,13.8,-14.7,1.35,10.0,0.0,0.0,0.0,10.0,0.0,0.0,0.0,10.0
1446039807822431679,154,1446039807817293882,robocape_mag,13.8,-14.7,1.35,10.0,0.0,0.0,0.0,10.0,0.0,0.0,0.0,10.0
1446039807854803554,155,1446039807849983930,robocape_mag,13.8,-14.7,1.35,10.0,0.0,0.0,0.0,10.0,0.0,0.0,0.0,10.0
1446039807888476138,156,1446039807883332967,robocape_mag,13.8,-14.7,1.35,10.0,0.0,0.0,0.0,10.0,0.0,0.0,0.0,10.0
1446039807922810763,157,1446039807917035102,robocape_mag,13.8,-15.3,1.35,10.0,0.0,0.0,0.0,10.0,0.0,0.0,0.0,10.0
1446039807955532929,158,1446039807950552940,robocape_mag,13.8,-15.3,1.35,10.0,0.0,0.0,0.0,10.0,0.0,0.0,0.0,10.0
1446039807988401846,159,1446039807983243942,robocape_mag,13.8,-15.3,1.35,10.0,0.0,0.0,0.0,10.0,0.0,0.0,0.0,10.0
1446039808022467179,160,1446039808017213106,robocape_mag,13.8,-15.3,1.35,10.0,0.0,0.0,0.0,10.0,0.0,0.0,0.0,10.0
1446039808054847346,161,1446039808050052881,robocape_mag,13.8,-15.3,1.35,10.0,0.0,0.0,0.0,10.0,0.0,0.0,0.0,10.0
1446039808088334263,162,1446039808083267927,robocape_mag,12.6,-16.5,0.15,10.0,0.0,0.0,0.0,10.0,0.0,0.0,0.0,10.0
1446039808122694805,163,1446039808117204904,robocape_mag,12.6,-16.5,0.15,10.0,0.0,0.0,0.0,10.0,0.0,0.0,0.0,10.0
1446039808154826680,164,1446039808150062084,robocape_mag,12.6,-16.5,0.15,10.0,0.0,0.0,0.0,10.0,0.0,0.0,0.0,10.0
1446039808188345013,165,1446039808183352947,robocape_mag,12.6,-16.5,0.15,10.0,0.0,0.0,0.0,10.0,0.0,0.0,0.0,10.0
1446039808222957055,166,1446039808217650890,robocape_mag,12.6,-16.5,0.15,10.0,0.0,0.0,0.0,10.0,0.0,0.0,0.0,10.0
1446039808254779180,167,1446039808249957084,robocape_mag,14.4,-15.3,3.75,10.0,0.0,0.0,0.0,10.0,0.0,0.0,0.0,10.0
1446039808289061055,168,1446039808284085988,robocape_mag,14.4,-15.3,3.75,10.0,0.0,0.0,0.0,10.0,0.0,0.0,0.0,10.0
1446039808322740180,169,1446039808317375898,robocape_mag,14.4,-15.3,3.75,10.0,0.0,0.0,0.0,10.0,0.0,0.0,0.0,10.0
1446039808362992513,170,1446039808350313901,robocape_mag,14.4,-15.3,3.75,10.0,0.0,0.0,0.0,10.0,0.0,0.0,0.0,10.0
1446039808388255263,171,1446039808383280038,robocape_mag,14.4,-15.3,3.75,10.0,0.0,0.0,0.0,10.0,0.0,0.0,0.0,10.0
1446039808423020513,172,1446039808417278051,robocape_mag,13.5,-16.2,1.05,10.0,0.0,0.0,0.0,10.0,0.0,0.0,0.0,10.0
1446039808455123346,173,1446039808450098037,robocape_mag,13.5,-16.2,1.05,10.0,0.0,0.0,0.0,10.0,0.0,0.0,0.0,10.0
1446039808488362305,174,1446039808483258962,robocape_mag,13.5,-16.2,1.05,10.0,0.0,0.0,0.0,10.0,0.0,0.0,0.0,10.0
1446039808522807346,175,1446039808517167091,robocape_mag,13.5,-16.2,1.05,10.0,0.0,0.0,0.0,10.0,0.0,0.0,0.0,10.0
1446039808554785096,176,1446039808549954891,robocape_mag,12.3,-13.8,2.25,10.0,0.0,0.0,0.0,10.0,0.0,0.0,0.0,10.0
1446039808588371638,177,1446039808583372116,robocape_mag,12.3,-13.8,2.25,10.0,0.0,0.0,0.0,10.0,0.0,0.0,0.0,10.0
1446039808622697096,178,1446039808616941928,robocape_mag,12.3,-13.8,2.25,10.0,0.0,0.0,0.0,10.0,0.0,0.0,0.0,10.0
1446039808654819763,179,1446039808650036096,robocape_mag,12.3,-13.8,2.25,10.0,0.0,0.0,0.0,10.0,0.0,0.0,0.0,10.0
1446039808688476346,180,1446039808683463096,robocape_mag,12.3,-13.8,2.25,10.0,0.0,0.0,0.0,10.0,0.0,0.0,0.0,10.0
1446039808722827805,181,1446039808717001914,robocape_mag,12.6,-15.9,1.35,10.0,0.0,0.0,0.0,10.0,0.0,0.0,0.0,10.0
1446039808754635221,182,1446039808749872922,robocape_mag,12.6,-15.9,1.35,10.0,0.0,0.0,0.0,10.0,0.0,0.0,0.0,10.0
1446039808788276930,183,1446039808783375978,robocape_mag,12.6,-15.9,1.35,10.0,0.0,0.0,0.0,10.0,0.0,0.0,0.0,10.0
1446039808822666180,184,1446039808816973924,robocape_mag,12.6,-15.9,1.35,10.0,0.0,0.0,0.0,10.0,0.0,0.0,0.0,10.0
1446039808855084597,185,1446039808849956035,robocape_mag,12.6,-15.9,1.35,10.0,0.0,0.0,0.0,10.0,0.0,0.0,0.0,10.0
1446039808888400555,186,1446039808883402109,robocape_mag,12.0,-15.3,3.15,10.0,0.0,0.0,0.0,10.0,0.0,0.0,0.0,10.0
1446039808923121805,187,1446039808917135953,robocape_mag,12.0,-15.3,3.15,10.0,0.0,0.0,0.0,10.0,0.0,0.0,0.0,10.0
1446039808955099180,188,1446039808950088024,robocape_mag,12.0,-15.3,3.15,10.0,0.0,0.0,0.0,10.0,0.0,0.0,0.0,10.0
1446039808988501847,189,1446039808983429908,robocape_mag,12.0,-15.3,3.15,10.0,0.0,0.0,0.0,10.0,0.0,0.0,0.0,10.0
1446039809022601722,190,1446039809016896009,robocape_mag,12.0,-15.3,3.15,10.0,0.0,0.0,0.0,10.0,0.0,0.0,0.0,10.0
1446039809055029888,191,1446039809050262928,robocape_mag,14.4,-15.3,1.95,10.0,0.0,0.0,0.0,10.0,0.0,0.0,0.0,10.0
1446039809088520680,192,1446039809083327054,robocape_mag,14.4,-15.3,1.95,10.0,0.0,0.0,0.0,10.0,0.0,0.0,0.0,10.0
1446039809122740388,193,1446039809117043018,robocape_mag,14.4,-15.3,1.95,10.0,0.0,0.0,0.0,10.0,0.0,0.0,0.0,10.0
1446039809154877138,194,1446039809150013923,robocape_mag,14.4,-15.3,1.95,10.0,0.0,0.0,0.0,10.0,0.0,0.0,0.0,10.0
1446039809188340180,195,1446039809183284997,robocape_mag,14.4,-15.3,1.95,10.0,0.0,0.0,0.0,10.0,0.0,0.0,0.0,10.0
1446039809222507055,196,1446039809216850042,robocape_mag,13.2,-16.5,1.95,10.0,0.0,0.0,0.0,10.0,0.0,0.0,0.0,10.0
1446039809254751597,197,1446039809249985933,robocape_mag,13.2,-16.5,1.95,10.0,0.0,0.0,0.0,10.0,0.0,0.0,0.0,10.0
1446039809288162805,198,1446039809283303976,robocape_mag,13.2,-16.5,1.95,10.0,0.0,0.0,0.0,10.0,0.0,0.0,0.0,10.0
1446039809321917805,199,1446039809316977024,robocape_mag,13.2,-16.5,1.95,10.0,0.0,0.0,0.0,10.0,0.0,0.0,0.0,10.0
1446039809366206305,200,1446039809361294031,robocape_mag,13.2,-17.1,2.55,10.0,0.0,0.0,0.0,10.0,0.0,0.0,0.0,10.0
1446039809389377097,201,1446039809384474992,robocape_mag,13.2,-17.1,2.55,10.0,0.0,0.0,0.0,10.0,0.0,0.0,0.0,10.0
1446039809422632305,202,1446039809417226076,robocape_mag,13.2,-17.1,2.55,10.0,0.0,0.0,0.0,10.0,0.0,0.0,0.0,10.0
1446039809455398513,203,1446039809450295925,robocape_mag,13.2,-17.1,2.55,10.0,0.0,0.0,0.0,10.0,0.0,0.0,0.0,10.0
1446039809488371388,204,1446039809483344078,robocape_mag,13.2,-17.1,2.55,10.0,0.0,0.0,0.0,10.0,0.0,0.0,0.0,10.0
1446039809522023930,205,1446039809516999006,robocape_mag,12.3,-15.6,1.05,10.0,0.0,0.0,0.0,10.0,0.0,0.0,0.0,10.0
1446039809554920472,206,1446039809550079107,robocape_mag,12.3,-15.6,1.05,10.0,0.0,0.0,0.0,10.0,0.0,0.0,0.0,10.0
1446039809588365972,207,1446039809583390951,robocape_mag,12.3,-15.6,1.05,10.0,0.0,0.0,0.0,10.0,0.0,0.0,0.0,10.0
1446039809622042597,208,1446039809617005109,robocape_mag,12.3,-15.6,1.05,10.0,0.0,0.0,0.0,10.0,0.0,0.0,0.0,10.0
1446039809654793139,209,1446039809650027036,robocape_mag,12.3,-15.6,1.05,10.0,0.0,0.0,0.0,10.0,0.0,0.0,0.0,10.0
1446039809688434264,210,1446039809683463096,robocape_mag,12.6,-15.9,1.95,10.0,0.0,0.0,0.0,10.0,0.0,0.0,0.0,10.0
1446039809722017930,211,1446039809716974020,robocape_mag,12.6,-15.9,1.95,10.0,0.0,0.0,0.0,10.0,0.0,0.0,0.0,10.0
1446039809754827180,212,1446039809749985933,robocape_mag,12.6,-15.9,1.95,10.0,0.0,0.0,0.0,10.0,0.0,0.0,0.0,10.0
1446039809788025639,213,1446039809783230066,robocape_mag,12.6,-15.9,1.95,10.0,0.0,0.0,0.0,10.0,0.0,0.0,0.0,10.0
1446039809822330430,214,1446039809817168951,robocape_mag,12.6,-15.9,1.95,10.0,0.0,0.0,0.0,10.0,0.0,0.0,0.0,10.0
1446039809854774555,215,1446039809849947929,robocape_mag,12.6,-13.5,1.95,10.0,0.0,0.0,0.0,10.0,0.0,0.0,0.0,10.0
1446039809888292055,216,1446039809883428096,robocape_mag,12.6,-13.5,1.95,10.0,0.0,0.0,0.0,10.0,0.0,0.0,0.0,10.0
1446039809922105680,217,1446039809916954040,robocape_mag,12.6,-13.5,1.95,10.0,0.0,0.0,0.0,10.0,0.0,0.0,0.0,10.0
1446039809955133972,218,1446039809950275897,robocape_mag,12.6,-13.5,1.95,10.0,0.0,0.0,0.0,10.0,0.0,0.0,0.0,10.0
1446039809988248347,219,1446039809983357906,robocape_mag,12.6,-13.5,1.95,10.0,0.0,0.0,0.0,10.0,0.0,0.0,0.0,10.0
1446039810022218680,220,1446039810016876935,robocape_mag,13.2,-15.3,2.55,10.0,0.0,0.0,0.0,10.0,0.0,0.0,0.0,10.0
1446039810054870847,221,1446039810050005912,robocape_mag,13.2,-15.3,2.55,10.0,0.0,0.0,0.0,10.0,0.0,0.0,0.0,10.0
1446039810088365680,222,1446039810083575963,robocape_mag,13.2,-15.3,2.55,10.0,0.0,0.0,0.0,10.0,0.0,0.0,0.0,10.0
1446039810121947722,223,1446039810116926908,robocape_mag,13.2,-15.3,2.55,10.0,0.0,0.0,0.0,10.0,0.0,0.0,0.0,10.0
1446039810154827972,224,1446039810150055885,robocape_mag,13.2,-14.7,1.35,10.0,0.0,0.0,0.0,10.0,0.0,0.0,0.0,10.0
1446039810188217347,225,1446039810183343887,robocape_mag,13.2,-14.7,1.35,10.0,0.0,0.0,0.0,10.0,0.0,0.0,0.0,10.0
1446039810222285347,226,1446039810217144012,robocape_mag,13.2,-14.7,1.35,10.0,0.0,0.0,0.0,10.0,0.0,0.0,0.0,10.0
1446039810254780597,227,1446039810250004053,robocape_mag,13.2,-14.7,1.35,10.0,0.0,0.0,0.0,10.0,0.0,0.0,0.0,10.0
1446039810288155889,228,1446039810283344030,robocape_mag,13.2,-14.7,1.35,10.0,0.0,0.0,0.0,10.0,0.0,0.0,0.0,10.0
1446039810322357181,229,1446039810316998958,robocape_mag,12.9,-15.6,1.05,10.0,0.0,0.0,0.0,10.0,0.0,0.0,0.0,10.0
1446039810362881639,230,1446039810350071907,robocape_mag,12.9,-15.6,1.05,10.0,0.0,0.0,0.0,10.0,0.0,0.0,0.0,10.0
1446039810388197847,231,1446039810383305072,robocape_mag,12.9,-15.6,1.05,10.0,0.0,0.0,0.0,10.0,0.0,0.0,0.0,10.0
1446039810424841264,232,1446039810416945934,robocape_mag,12.9,-15.6,1.05,10.0,0.0,0.0,0.0,10.0,0.0,0.0,0.0,10.0
1446039810455915139,233,1446039810450311899,robocape_mag,12.9,-15.6,1.05,10.0,0.0,0.0,0.0,10.0,0.0,0.0,0.0,10.0
1446039810488792306,234,1446039810483561992,robocape_mag,15.9,-16.2,1.05,10.0,0.0,0.0,0.0,10.0,0.0,0.0,0.0,10.0
1446039810522121056,235,1446039810516798019,robocape_mag,15.9,-16.2,1.05,10.0,0.0,0.0,0.0,10.0,0.0,0.0,0.0,10.0
1446039810554878972,236,1446039810550018072,robocape_mag,15.9,-16.2,1.05,10.0,0.0,0.0,0.0,10.0,0.0,0.0,0.0,10.0
1446039810588352306,237,1446039810583522081,robocape_mag,15.9,-16.2,1.05,10.0,0.0,0.0,0.0,10.0,0.0,0.0,0.0,10.0
1446039810622469889,238,1446039810617002964,robocape_mag,15.9,-16.2,1.05,10.0,0.0,0.0,0.0,10.0,0.0,0.0,0.0,10.0
1446039810654809722,239,1446039810650037050,robocape_mag,12.6,-15.3,3.15,10.0,0.0,0.0,0.0,10.0,0.0,0.0,0.0,10.0
1446039810688099139,240,1446039810683309078,robocape_mag,12.6,-15.3,3.15,10.0,0.0,0.0,0.0,10.0,0.0,0.0,0.0,10.0
1446039810722511014,241,1446039810716835021,robocape_mag,12.6,-15.3,3.15,10.0,0.0,0.0,0.0,10.0,0.0,0.0,0.0,10.0
1446039810754940264,242,1446039810750147104,robocape_mag,12.6,-15.3,3.15,10.0,0.0,0.0,0.0,10.0,0.0,0.0,0.0,10.0
1446039810788184222,243,1446039810783298015,robocape_mag,12.6,-15.3,3.15,10.0,0.0,0.0,0.0,10.0,0.0,0.0,0.0,10.0
1446039810822318764,244,1446039810816881895,robocape_mag,11.1,-16.2,2.85,10.0,0.0,0.0,0.0,10.0,0.0,0.0,0.0,10.0
1446039810855244097,245,1446039810850084066,robocape_mag,11.1,-16.2,2.85,10.0,0.0,0.0,0.0,10.0,0.0,0.0,0.0,10.0
1446039810888326764,246,1446039810883289098,robocape_mag,11.1,-16.2,2.85,10.0,0.0,0.0,0.0,10.0,0.0,0.0,0.0,10.0
1446039810922349389,247,1446039810916764974,robocape_mag,11.1,-16.2,2.85,10.0,0.0,0.0,0.0,10.0,0.0,0.0,0.0,10.0
1446039810955137389,248,1446039810950282096,robocape_mag,14.7,-15.6,0.45,10.0,0.0,0.0,0.0,10.0,0.0,0.0,0.0,10.0
1446039810988107848,249,1446039810983282089,robocape_mag,14.7,-15.6,0.45,10.0,0.0,0.0,0.0,10.0,0.0,0.0,0.0,10.0
1446039811022323639,250,1446039811016689062,robocape_mag,14.7,-15.6,0.45,10.0,0.0,0.0,0.0,10.0,0.0,0.0,0.0,10.0
1446039811054871931,251,1446039811050004959,robocape_mag,14.7,-15.6,0.45,10.0,0.0,0.0,0.0,10.0,0.0,0.0,0.0,10.0
1446039811088646764,252,1446039811083744049,robocape_mag,14.7,-15.6,0.45,10.0,0.0,0.0,0.0,10.0,0.0,0.0,0.0,10.0
1446039811122317056,253,1446039811116710901,robocape_mag,11.4,-16.5,0.75,10.0,0.0,0.0,0.0,10.0,0.0,0.0,0.0,10.0
1446039811154805806,254,1446039811150026082,robocape_mag,11.4,-16.5,0.75,10.0,0.0,0.0,0.0,10.0,0.0,0.0,0.0,10.0
1446039811188256598,255,1446039811183433055,robocape_mag,11.4,-16.5,0.75,10.0,0.0,0.0,0.0,10.0,0.0,0.0,0.0,10.0
1446039811222409389,256,1446039811216725111,robocape_mag,11.4,-16.5,0.75,10.0,0.0,0.0,0.0,10.0,0.0,0.0,0.0,10.0
1446039811255922973,257,1446039811251066923,robocape_mag,11.4,-16.5,0.75,10.0,0.0,0.0,0.0,10.0,0.0,0.0,0.0,10.0
1446039811288211306,258,1446039811283426046,robocape_mag,13.8,-15.9,1.95,10.0,0.0,0.0,0.0,10.0,0.0,0.0,0.0,10.0
1446039811322536806,259,1446039811316863059,robocape_mag,13.8,-15.9,1.95,10.0,0.0,0.0,0.0,10.0,0.0,0.0,0.0,10.0
1446039811364133848,260,1446039811351596117,robocape_mag,13.8,-15.9,1.95,10.0,0.0,0.0,0.0,10.0,0.0,0.0,0.0,10.0
1446039811388552889,261,1446039811383582115,robocape_mag,13.8,-15.9,1.95,10.0,0.0,0.0,0.0,10.0,0.0,0.0,0.0,10.0
1446039811422358431,262,1446039811416685104,robocape_mag,13.8,-15.9,1.95,10.0,0.0,0.0,0.0,10.0,0.0,0.0,0.0,10.0
1446039811455218931,263,1446039811450294971,robocape_mag,13.5,-15.6,1.65,10.0,0.0,0.0,0.0,10.0,0.0,0.0,0.0,10.0
1446039811488200473,264,1446039811483304977,robocape_mag,13.5,-15.6,1.65,10.0,0.0,0.0,0.0,10.0,0.0,0.0,0.0,10.0
1446039811522345348,265,1446039811516638040,robocape_mag,13.5,-15.6,1.65,10.0,0.0,0.0,0.0,10.0,0.0,0.0,0.0,10.0
1446039811555407431,266,1446039811550246953,robocape_mag,13.5,-15.6,1.65,10.0,0.0,0.0,0.0,10.0,0.0,0.0,0.0,10.0
1446039811588431348,267,1446039811583672046,robocape_mag,13.5,-15.6,1.65,10.0,0.0,0.0,0.0,10.0,0.0,0.0,0.0,10.0
1446039811622590015,268,1446039811616904973,robocape_mag,14.1,-14.4,2.85,10.0,0.0,0.0,0.0,10.0,0.0,0.0,0.0,10.0
1446039811655194473,269,1446039811650372982,robocape_mag,14.1,-14.4,2.85,10.0,0.0,0.0,0.0,10.0,0.0,0.0,0.0,10.0
1446039811688044723,270,1446039811683274030,robocape_mag,14.1,-14.4,2.85,10.0,0.0,0.0,0.0,10.0,0.0,0.0,0.0,10.0
1446039811722627806,271,1446039811716948032,robocape_mag,14.1,-14.4,2.85,10.0,0.0,0.0,0.0,10.0,0.0,0.0,0.0,10.0
1446039811754888265,272,1446039811750077962,robocape_mag,14.7,-15.0,2.85,10.0,0.0,0.0,0.0,10.0,0.0,0.0,0.0,10.0
1446039811788245931,273,1446039811783459901,robocape_mag,14.7,-15.0,2.85,10.0,0.0,0.0,0.0,10.0,0.0,0.0,0.0,10.0
1446039811822518015,274,1446039811816875934,robocape_mag,14.7,-15.0,2.85,10.0,0.0,0.0,0.0,10.0,0.0,0.0,0.0,10.0
1446039811855088598,275,1446039811850096940,robocape_mag,14.7,-15.0,2.85,10.0,0.0,0.0,0.0,10.0,0.0,0.0,0.0,10.0
1446039811888097181,276,1446039811883306980,robocape_mag,14.7,-15.0,2.85,10.0,0.0,0.0,0.0,10.0,0.0,0.0,0.0,10.0
1446039811923210848,277,1446039811916975021,robocape_mag,12.0,-16.5,2.55,10.0,0.0,0.0,0.0,10.0,0.0,0.0,0.0,10.0
1446039811955376348,278,1446039811950263977,robocape_mag,12.0,-16.5,2.55,10.0,0.0,0.0,0.0,10.0,0.0,0.0,0.0,10.0
1446039811988237973,279,1446039811983417034,robocape_mag,12.0,-16.5,2.55,10.0,0.0,0.0,0.0,10.0,0.0,0.0,0.0,10.0
1446039812022177723,280,1446039812016838073,robocape_mag,12.0,-16.5,2.55,10.0,0.0,0.0,0.0,10.0,0.0,0.0,0.0,10.0
1446039812055167681,281,1446039812050149917,robocape_mag,12.0,-16.5,2.55,10.0,0.0,0.0,0.0,10.0,0.0,0.0,0.0,10.0
1446039812088545431,282,1446039812083394050,robocape_mag,13.8,-14.1,1.35,10.0,0.0,0.0,0.0,10.0,0.0,0.0,0.0,10.0
1446039812122409306,283,1446039812116966009,robocape_mag,13.8,-14.1,1.35,10.0,0.0,0.0,0.0,10.0,0.0,0.0,0.0,10.0
1446039812154951473,284,1446039812150162935,robocape_mag,13.8,-14.1,1.35,10.0,0.0,0.0,0.0,10.0,0.0,0.0,0.0,10.0
1446039812188155140,285,1446039812183397054,robocape_mag,13.8,-14.1,1.35,10.0,0.0,0.0,0.0,10.0,0.0,0.0,0.0,10.0
1446039812222160931,286,1446039812216732025,robocape_mag,13.8,-14.1,1.35,10.0,0.0,0.0,0.0,10.0,0.0,0.0,0.0,10.0
1446039812255170473,287,1446039812250238895,robocape_mag,14.4,-16.5,1.35,10.0,0.0,0.0,0.0,10.0,0.0,0.0,0.0,10.0
1446039812294224181,288,1446039812289344072,robocape_mag,14.4,-16.5,1.35,10.0,0.0,0.0,0.0,10.0,0.0,0.0,0.0,10.0
1446039812321934848,289,1446039812316925048,robocape_mag,14.4,-16.5,1.35,10.0,0.0,0.0,0.0,10.0,0.0,0.0,0.0,10.0
1446039812363668640,290,1446039812350660085,robocape_mag,14.4,-16.5,1.35,10.0,0.0,0.0,0.0,10.0,0.0,0.0,0.0,10.0
1446039812388248682,291,1446039812383337020,robocape_mag,14.4,-16.5,1.35,10.0,0.0,0.0,0.0,10.0,0.0,0.0,0.0,10.0
1446039812422328057,292,1446039812417085886,robocape_mag,13.2,-14.7,2.55,10.0,0.0,0.0,0.0,10.0,0.0,0.0,0.0,10.0
1446039812455553182,293,1446039812450740098,robocape_mag,13.2,-14.7,2.55,10.0,0.0,0.0,0.0,10.0,0.0,0.0,0.0,10.0
1446039812488194015,294,1446039812483329057,robocape_mag,13.2,-14.7,2.55,10.0,0.0,0.0,0.0,10.0,0.0,0.0,0.0,10.0
1446039812521915890,295,1446039812516733884,robocape_mag,13.2,-14.7,2.55,10.0,0.0,0.0,0.0,10.0,0.0,0.0,0.0,10.0
1446039812555445182,296,1446039812550549030,robocape_mag,14.4,-14.7,1.35,10.0,0.0,0.0,0.0,10.0,0.0,0.0,0.0,10.0
1446039812588609223,297,1446039812583554983,robocape_mag,14.4,-14.7,1.35,10.0,0.0,0.0,0.0,10.0,0.0,0.0,0.0,10.0
1446039812622129890,298,1446039812617017984,robocape_mag,14.4,-14.7,1.35,10.0,0.0,0.0,0.0,10.0,0.0,0.0,0.0,10.0
1446039812655536640,299,1446039812650716066,robocape_mag,14.4,-14.7,1.35,10.0,0.0,0.0,0.0,10.0,0.0,0.0,0.0,10.0
1446039812688387098,300,1446039812683525085,robocape_mag,14.4,-14.7,1.35,10.0,0.0,0.0,0.0,10.0,0.0,0.0,0.0,10.0
1446039812722004098,301,1446039812716886997,robocape_mag,13.5,-16.8,0.45,10.0,0.0,0.0,0.0,10.0,0.0,0.0,0.0,10.0
1446039812755473098,302,1446039812750569105,robocape_mag,13.5,-16.8,0.45,10.0,0.0,0.0,0.0,10.0,0.0,0.0,0.0,10.0
1446039812788360390,303,1446039812783426046,robocape_mag,13.5,-16.8,0.45,10.0,0.0,0.0,0.0,10.0,0.0,0.0,0.0,10.0
1446039812822231557,304,1446039812817009925,robocape_mag,13.5,-16.8,0.45,10.0,0.0,0.0,0.0,10.0,0.0,0.0,0.0,10.0
1446039812855716557,305,1446039812850380897,robocape_mag,13.5,-16.8,0.45,10.0,0.0,0.0,0.0,10.0,0.0,0.0,0.0,10.0
1446039812888282390,306,1446039812883260965,robocape_mag,12.6,-14.7,2.55,10.0,0.0,0.0,0.0,10.0,0.0,0.0,0.0,10.0
1446039812921946140,307,1446039812916872024,robocape_mag,12.6,-14.7,2.55,10.0,0.0,0.0,0.0,10.0,0.0,0.0,0.0,10.0
1446039812955356307,308,1446039812950489997,robocape_mag,12.6,-14.7,2.55,10.0,0.0,0.0,0.0,10.0,0.0,0.0,0.0,10.0
1446039812988490973,309,1446039812983437061,robocape_mag,12.6,-14.7,2.55,10.0,0.0,0.0,0.0,10.0,0.0,0.0,0.0,10.0
1446039813021803932,310,1446039813016622066,robocape_mag,12.6,-14.7,2.55,10.0,0.0,0.0,0.0,10.0,0.0,0.0,0.0,10.0
1446039813055412182,311,1446039813050587892,robocape_mag,13.5,-16.2,2.25,10.0,0.0,0.0,0.0,10.0,0.0,0.0,0.0,10.0
1446039813088615932,312,1446039813083398103,robocape_mag,13.5,-16.2,2.25,10.0,0.0,0.0,0.0,10.0,0.0,0.0,0.0,10.0
1446039813121967724,313,1446039813116861104,robocape_mag,13.5,-16.2,2.25,10.0,0.0,0.0,0.0,10.0,0.0,0.0,0.0,10.0
1446039813155479349,314,1446039813150567054,robocape_mag,13.5,-16.2,2.25,10.0,0.0,0.0,0.0,10.0,0.0,0.0,0.0,10.0
1446039813188423849,315,1446039813183433055,robocape_mag,13.5,-16.2,2.25,10.0,0.0,0.0,0.0,10.0,0.0,0.0,0.0,10.0
1446039813221925307,316,1446039813216773033,robocape_mag,12.9,-16.8,1.05,10.0,0.0,0.0,0.0,10.0,0.0,0.0,0.0,10.0
1446039813255157099,317,1446039813250251054,robocape_mag,12.9,-16.8,1.05,10.0,0.0,0.0,0.0,10.0,0.0,0.0,0.0,10.0
1446039813288413640,318,1446039813283437967,robocape_mag,12.9,-16.8,1.05,10.0,0.0,0.0,0.0,10.0,0.0,0.0,0.0,10.0
1446039813322119724,319,1446039813316931009,robocape_mag,12.9,-16.8,1.05,10.0,0.0,0.0,0.0,10.0,0.0,0.0,0.0,10.0
1446039813363851890,320,1446039813351257085,robocape_mag,12.0,-16.5,3.75,10.0,0.0,0.0,0.0,10.0,0.0,0.0,0.0,10.0
1446039813388508265,321,1446039813383270025,robocape_mag,12.0,-16.5,3.75,10.0,0.0,0.0,0.0,10.0,0.0,0.0,0.0,10.0
1446039813422081390,322,1446039813416881084,robocape_mag,12.0,-16.5,3.75,10.0,0.0,0.0,0.0,10.0,0.0,0.0,0.0,10.0
1446039813455609515,323,1446039813450731039,robocape_mag,12.0,-16.5,3.75,10.0,0.0,0.0,0.0,10.0,0.0,0.0,0.0,10.0
1446039813488477599,324,1446039813483426094,robocape_mag,12.0,-16.5,3.75,10.0,0.0,0.0,0.0,10.0,0.0,0.0,0.0,10.0
1446039813521868349,325,1446039813516653060,robocape_mag,12.9,-15.6,2.25,10.0,0.0,0.0,0.0,10.0,0.0,0.0,0.0,10.0
1446039813555227932,326,1446039813550373077,robocape_mag,12.9,-15.6,2.25,10.0,0.0,0.0,0.0,10.0,0.0,0.0,0.0,10.0
1446039813588581390,327,1446039813583306074,robocape_mag,12.9,-15.6,2.25,10.0,0.0,0.0,0.0,10.0,0.0,0.0,0.0,10.0
1446039813622164599,328,1446039813616981983,robocape_mag,12.9,-15.6,2.25,10.0,0.0,0.0,0.0,10.0,0.0,0.0,0.0,10.0
1446039813655396599,329,1446039813650429964,robocape_mag,12.9,-15.6,2.25,10.0,0.0,0.0,0.0,10.0,0.0,0.0,0.0,10.0
1446039813688176265,330,1446039813683249950,robocape_mag,12.9,-14.4,1.65,10.0,0.0,0.0,0.0,10.0,0.0,0.0,0.0,10.0
1446039813722044057,331,1446039813716856956,robocape_mag,12.9,-14.4,1.65,10.0,0.0,0.0,0.0,10.0,0.0,0.0,0.0,10.0
1446039813755646057,332,1446039813750488042,robocape_mag,12.9,-14.4,1.65,10.0,0.0,0.0,0.0,10.0,0.0,0.0,0.0,10.0
1446039813788139724,333,1446039813783226966,robocape_mag,12.9,-14.4,1.65,10.0,0.0,0.0,0.0,10.0,0.0,0.0,0.0,10.0
1446039813822071682,334,1446039813816849946,robocape_mag,12.9,-14.4,1.65,10.0,0.0,0.0,0.0,10.0,0.0,0.0,0.0,10.0
1446039813855881599,335,1446039813850459098,robocape_mag,13.8,-15.3,0.15,10.0,0.0,0.0,0.0,10.0,0.0,0.0,0.0,10.0
1446039813888407474,336,1446039813883258104,robocape_mag,13.8,-15.3,0.15,10.0,0.0,0.0,0.0,10.0,0.0,0.0,0.0,10.0
1446039813922363599,337,1446039813917107105,robocape_mag,13.8,-15.3,0.15,10.0,0.0,0.0,0.0,10.0,0.0,0.0,0.0,10.0
1446039813955604516,338,1446039813950426101,robocape_mag,13.8,-15.3,0.15,10.0,0.0,0.0,0.0,10.0,0.0,0.0,0.0,10.0
1446039813988483224,339,1446039813983489036,robocape_mag,13.8,-15.3,0.15,10.0,0.0,0.0,0.0,10.0,0.0,0.0,0.0,10.0
1446039814022020766,340,1446039814016696929,robocape_mag,11.7,-15.6,3.45,10.0,0.0,0.0,0.0,10.0,0.0,0.0,0.0,10.0
1446039814055390182,341,1446039814050446033,robocape_mag,11.7,-15.6,3.45,10.0,0.0,0.0,0.0,10.0,0.0,0.0,0.0,10.0
1446039814088190474,342,1446039814083209037,robocape_mag,11.7,-15.6,3.45,10.0,0.0,0.0,0.0,10.0,0.0,0.0,0.0,10.0
1446039814122300682,343,1446039814117016077,robocape_mag,11.7,-15.6,3.45,10.0,0.0,0.0,0.0,10.0,0.0,0.0,0.0,10.0
1446039814155978557,344,1446039814150957107,robocape_mag,11.4,-15.3,0.15,10.0,0.0,0.0,0.0,10.0,0.0,0.0,0.0,10.0
1446039814188246307,345,1446039814183238983,robocape_mag,11.4,-15.3,0.15,10.0,0.0,0.0,0.0,10.0,0.0,0.0,0.0,10.0
1446039814222074891,346,1446039814216768980,robocape_mag,11.4,-15.3,0.15,10.0,0.0,0.0,0.0,10.0,0.0,0.0,0.0,10.0
1446039814255890432,347,1446039814250812053,robocape_mag,11.4,-15.3,0.15,10.0,0.0,0.0,0.0,10.0,0.0,0.0,0.0,10.0
1446039814288058682,348,1446039814283229112,robocape_mag,11.4,-15.3,0.15,10.0,0.0,0.0,0.0,10.0,0.0,0.0,0.0,10.0
1446039814322185807,349,1446039814316701889,robocape_mag,12.9,-15.6,1.05,10.0,0.0,0.0,0.0,10.0,0.0,0.0,0.0,10.0
1446039814363490141,350,1446039814350277900,robocape_mag,12.9,-15.6,1.05,10.0,0.0,0.0,0.0,10.0,0.0,0.0,0.0,10.0
1446039814388233307,351,1446039814383269071,robocape_mag,12.9,-15.6,1.05,10.0,0.0,0.0,0.0,10.0,0.0,0.0,0.0,10.0
1446039814422180558,352,1446039814416663885,robocape_mag,12.9,-15.6,1.05,10.0,0.0,0.0,0.0,10.0,0.0,0.0,0.0,10.0
1446039814455704808,353,1446039814450469017,robocape_mag,12.9,-15.6,1.05,10.0,0.0,0.0,0.0,10.0,0.0,0.0,0.0,10.0
1446039814488186974,354,1446039814483284950,robocape_mag,13.8,-15.3,2.55,10.0,0.0,0.0,0.0,10.0,0.0,0.0,0.0,10.0
1446039814522155016,355,1446039814516680002,robocape_mag,13.8,-15.3,2.55,10.0,0.0,0.0,0.0,10.0,0.0,0.0,0.0,10.0
1446039814555457224,356,1446039814550585031,robocape_mag,13.8,-15.3,2.55,10.0,0.0,0.0,0.0,10.0,0.0,0.0,0.0,10.0
1446039814588174266,357,1446039814583368062,robocape_mag,13.8,-15.3,2.55,10.0,0.0,0.0,0.0,10.0,0.0,0.0,0.0,10.0
1446039814622360308,358,1446039814616897106,robocape_mag,13.8,-15.3,2.55,10.0,0.0,0.0,0.0,10.0,0.0,0.0,0.0,10.0
1446039814655393016,359,1446039814650116920,robocape_mag,14.4,-15.9,0.15,10.0,0.0,0.0,0.0,10.0,0.0,0.0,0.0,10.0
1446039814688199808,360,1446039814683357954,robocape_mag,14.4,-15.9,0.15,10.0,0.0,0.0,0.0,10.0,0.0,0.0,0.0,10.0
1446039814725225474,361,1446039814720386028,robocape_mag,14.4,-15.9,0.15,10.0,0.0,0.0,0.0,10.0,0.0,0.0,0.0,10.0
1446039814755402641,362,1446039814749998092,robocape_mag,14.4,-15.9,0.15,10.0,0.0,0.0,0.0,10.0,0.0,0.0,0.0,10.0
1446039814788203224,363,1446039814783370018,robocape_mag,14.4,-15.9,0.15,10.0,0.0,0.0,0.0,10.0,0.0,0.0,0.0,10.0
1446039814822279933,364,1446039814816867113,robocape_mag,13.2,-14.7,0.75,10.0,0.0,0.0,0.0,10.0,0.0,0.0,0.0,10.0
1446039814855943516,365,1446039814850183963,robocape_mag,13.2,-14.7,0.75,10.0,0.0,0.0,0.0,10.0,0.0,0.0,0.0,10.0
1446039814888217058,366,1446039814883366107,robocape_mag,13.2,-14.7,0.75,10.0,0.0,0.0,0.0,10.0,0.0,0.0,0.0,10.0
1446039814922288433,367,1446039814916817903,robocape_mag,13.2,-14.7,0.75,10.0,0.0,0.0,0.0,10.0,0.0,0.0,0.0,10.0
1446039814956006099,368,1446039814950251102,robocape_mag,13.5,-15.6,2.25,10.0,0.0,0.0,0.0,10.0,0.0,0.0,0.0,10.0
1446039814988270183,369,1446039814983412027,robocape_mag,13.5,-15.6,2.25,10.0,0.0,0.0,0.0,10.0,0.0,0.0,0.0,10.0
1446039815022132141,370,1446039815016768932,robocape_mag,13.5,-15.6,2.25,10.0,0.0,0.0,0.0,10.0,0.0,0.0,0.0,10.0
1446039815059513683,371,1446039815054478883,robocape_mag,13.5,-15.6,2.25,10.0,0.0,0.0,0.0,10.0,0.0,0.0,0.0,10.0
1446039815088211266,372,1446039815083405017,robocape_mag,13.5,-15.6,2.25,10.0,0.0,0.0,0.0,10.0,0.0,0.0,0.0,10.0
1446039815122082808,373,1446039815116931915,robocape_mag,13.8,-17.1,-0.45,10.0,0.0,0.0,0.0,10.0,0.0,0.0,0.0,10.0
1446039815155664266,374,1446039815150429964,robocape_mag,13.8,-17.1,-0.45,10.0,0.0,0.0,0.0,10.0,0.0,0.0,0.0,10.0
1446039815188107975,375,1446039815183306932,robocape_mag,13.8,-17.1,-0.45,10.0,0.0,0.0,0.0,10.0,0.0,0.0,0.0,10.0
1446039815222218933,376,1446039815216726064,robocape_mag,13.8,-17.1,-0.45,10.0,0.0,0.0,0.0,10.0,0.0,0.0,0.0,10.0
1446039815255290350,377,1446039815250024080,robocape_mag,13.8,-17.1,-0.45,10.0,0.0,0.0,0.0,10.0,0.0,0.0,0.0,10.0
1446039815288090141,378,1446039815283308029,robocape_mag,14.4,-12.9,1.35,10.0,0.0,0.0,0.0,10.0,0.0,0.0,0.0,10.0
1446039815322195975,379,1446039815316888093,robocape_mag,14.4,-12.9,1.35,10.0,0.0,0.0,0.0,10.0,0.0,0.0,0.0,10.0
1446039815364654183,380,1446039815350089073,robocape_mag,14.4,-12.9,1.35,10.0,0.0,0.0,0.0,10.0,0.0,0.0,0.0,10.0
1446039815388973433,381,1446039815384095907,robocape_mag,14.4,-12.9,1.35,10.0,0.0,0.0,0.0,10.0,0.0,0.0,0.0,10.0
1446039815423238933,382,1446039815416774034,robocape_mag,14.4,-12.9,1.35,10.0,0.0,0.0,0.0,10.0,0.0,0.0,0.0,10.0
1446039815455577433,383,1446039815450032949,robocape_mag,13.8,-15.3,2.55,10.0,0.0,0.0,0.0,10.0,0.0,0.0,0.0,10.0
1446039815488213641,384,1446039815483365058,robocape_mag,13.8,-15.3,2.55,10.0,0.0,0.0,0.0,10.0,0.0,0.0,0.0,10.0
1446039815521977475,385,1446039815516724109,robocape_mag,13.8,-15.3,2.55,10.0,0.0,0.0,0.0,10.0,0.0,0.0,0.0,10.0
1446039815555151183,386,1446039815550184011,robocape_mag,13.8,-15.3,2.55,10.0,0.0,0.0,0.0,10.0,0.0,0.0,0.0,10.0
1446039815588051683,387,1446039815583221912,robocape_mag,13.8,-15.3,2.55,10.0,0.0,0.0,0.0,10.0,0.0,0.0,0.0,10.0
1446039815621959266,388,1446039815616868972,robocape_mag,12.9,-14.4,2.25,10.0,0.0,0.0,0.0,10.0,0.0,0.0,0.0,10.0
1446039815655224725,389,1446039815650145053,robocape_mag,12.9,-14.4,2.25,10.0,0.0,0.0,0.0,10.0,0.0,0.0,0.0,10.0
1446039815689300016,390,1446039815684241056,robocape_mag,12.9,-14.4,2.25,10.0,0.0,0.0,0.0,10.0,0.0,0.0,0.0,10.0
1446039815722858641,391,1446039815717519044,robocape_mag,12.9,-14.4,2.25,10.0,0.0,0.0,0.0,10.0,0.0,0.0,0.0,10.0
1446039815758142183,392,1446039815751113891,robocape_mag,13.5,-15.0,1.05,10.0,0.0,0.0,0.0,10.0,0.0,0.0,0.0,10.0
1446039815789241350,393,1446039815784171104,robocape_mag,13.5,-15.0,1.05,10.0,0.0,0.0,0.0,10.0,0.0,0.0,0.0,10.0
1446039815823074767,394,1446039815817962884,robocape_mag,13.5,-15.0,1.05,10.0,0.0,0.0,0.0,10.0,0.0,0.0,0.0,10.0
1446039815858326808,395,1446039815852150917,robocape_mag,13.5,-15.0,1.05,10.0,0.0,0.0,0.0,10.0,0.0,0.0,0.0,10.0
1446039815888223475,396,1446039815883347988,robocape_mag,13.5,-15.0,1.05,10.0,0.0,0.0,0.0,10.0,0.0,0.0,0.0,10.0
1446039815921706017,397,1446039815916760921,robocape_mag,14.1,-15.6,1.05,10.0,0.0,0.0,0.0,10.0,0.0,0.0,0.0,10.0
1446039815955436767,398,1446039815950087070,robocape_mag,14.1,-15.6,1.05,10.0,0.0,0.0,0.0,10.0,0.0,0.0,0.0,10.0
1446039815988337142,399,1446039815983510017,robocape_mag,14.1,-15.6,1.05,10.0,0.0,0.0,0.0,10.0,0.0,0.0,0.0,10.0
1446039816021523308,400,1446039816016695976,robocape_mag,14.1,-15.6,1.05,10.0,0.0,0.0,0.0,10.0,0.0,0.0,0.0,10.0
1446039816055052475,401,1446039816050086021,robocape_mag,14.1,-15.6,1.05,10.0,0.0,0.0,0.0,10.0,0.0,0.0,0.0,10.0
1446039816088249100,402,1446039816083326101,robocape_mag,12.9,-16.8,1.65,10.0,0.0,0.0,0.0,10.0,0.0,0.0,0.0,10.0
1446039816121659892,403,1446039816116863965,robocape_mag,12.9,-16.8,1.65,10.0,0.0,0.0,0.0,10.0,0.0,0.0,0.0,10.0
1446039816155085142,404,1446039816150057077,robocape_mag,12.9,-16.8,1.65,10.0,0.0,0.0,0.0,10.0,0.0,0.0,0.0,10.0
1446039816188330767,405,1446039816183516025,robocape_mag,12.9,-16.8,1.65,10.0,0.0,0.0,0.0,10.0,0.0,0.0,0.0,10.0
1446039816221501975,406,1446039816216675996,robocape_mag,12.9,-16.8,1.65,10.0,0.0,0.0,0.0,10.0,0.0,0.0,0.0,10.0
1446039816255496517,407,1446039816250173091,robocape_mag,14.4,-16.5,0.75,10.0,0.0,0.0,0.0,10.0,0.0,0.0,0.0,10.0
1446039816288787267,408,1446039816283662080,robocape_mag,14.4,-16.5,0.75,10.0,0.0,0.0,0.0,10.0,0.0,0.0,0.0,10.0
1446039816321543058,409,1446039816316637039,robocape_mag,14.4,-16.5,0.75,10.0,0.0,0.0,0.0,10.0,0.0,0.0,0.0,10.0
1446039816363923642,410,1446039816350250005,robocape_mag,14.4,-16.5,0.75,10.0,0.0,0.0,0.0,10.0,0.0,0.0,0.0,10.0
1446039816389382392,411,1446039816384455919,robocape_mag,14.4,-16.5,0.75,10.0,0.0,0.0,0.0,10.0,0.0,0.0,0.0,10.0
1446039816421940850,412,1446039816416999101,robocape_mag,13.2,-15.3,1.35,10.0,0.0,0.0,0.0,10.0,0.0,0.0,0.0,10.0
1446039816455232267,413,1446039816450089931,robocape_mag,13.2,-15.3,1.35,10.0,0.0,0.0,0.0,10.0,0.0,0.0,0.0,10.0
1446039816488174600,414,1446039816483340024,robocape_mag,13.2,-15.3,1.35,10.0,0.0,0.0,0.0,10.0,0.0,0.0,0.0,10.0
1446039816521564559,415,1446039816516629934,robocape_mag,13.2,-15.3,1.35,10.0,0.0,0.0,0.0,10.0,0.0,0.0,0.0,10.0
1446039816555011434,416,1446039816550071954,robocape_mag,12.3,-15.6,0.45,10.0,0.0,0.0,0.0,10.0,0.0,0.0,0.0,10.0
1446039816588248559,417,1446039816583268880,robocape_mag,12.3,-15.6,0.45,10.0,0.0,0.0,0.0,10.0,0.0,0.0,0.0,10.0
1446039816621833892,418,1446039816617011070,robocape_mag,12.3,-15.6,0.45,10.0,0.0,0.0,0.0,10.0,0.0,0.0,0.0,10.0
1446039816655111017,419,1446039816650121927,robocape_mag,12.3,-15.6,0.45,10.0,0.0,0.0,0.0,10.0,0.0,0.0,0.0,10.0
1446039816688470434,420,1446039816683348894,robocape_mag,12.3,-15.6,0.45,10.0,0.0,0.0,0.0,10.0,0.0,0.0,0.0,10.0
1446039816721700809,421,1446039816716811895,robocape_mag,12.3,-16.2,1.05,10.0,0.0,0.0,0.0,10.0,0.0,0.0,0.0,10.0
1446039816755234059,422,1446039816750231981,robocape_mag,12.3,-16.2,1.05,10.0,0.0,0.0,0.0,10.0,0.0,0.0,0.0,10.0
1446039816788333809,423,1446039816783317089,robocape_mag,12.3,-16.2,1.05,10.0,0.0,0.0,0.0,10.0,0.0,0.0,0.0,10.0
1446039816821658434,424,1446039816816741943,robocape_mag,12.3,-16.2,1.05,10.0,0.0,0.0,0.0,10.0,0.0,0.0,0.0,10.0
1446039816855625267,425,1446039816850176095,robocape_mag,12.3,-16.2,1.05,10.0,0.0,0.0,0.0,10.0,0.0,0.0,0.0,10.0
1446039816888415142,426,1446039816883299112,robocape_mag,14.1,-16.2,2.25,10.0,0.0,0.0,0.0,10.0,0.0,0.0,0.0,10.0
1446039816921545767,427,1446039816916651010,robocape_mag,14.1,-16.2,2.25,10.0,0.0,0.0,0.0,10.0,0.0,0.0,0.0,10.0
1446039816955221475,428,1446039816950112104,robocape_mag,14.1,-16.2,2.25,10.0,0.0,0.0,0.0,10.0,0.0,0.0,0.0,10.0
1446039816988833225,429,1446039816983867883,robocape_mag,14.1,-16.2,2.25,10.0,0.0,0.0,0.0,10.0,0.0,0.0,0.0,10.0
1446039817021591309,430,1446039817016602993,robocape_mag,14.1,-16.2,2.25,10.0,0.0,0.0,0.0,10.0,0.0,0.0,0.0,10.0
1446039817055184934,431,1446039817050064086,robocape_mag,13.2,-14.7,2.55,10.0,0.0,0.0,0.0,10.0,0.0,0.0,0.0,10.0
1446039817088462725,432,1446039817083460092,robocape_mag,13.2,-14.7,2.55,10.0,0.0,0.0,0.0,10.0,0.0,0.0,0.0,10.0
1446039817121603142,433,1446039817116713047,robocape_mag,13.2,-14.7,2.55,10.0,0.0,0.0,0.0,10.0,0.0,0.0,0.0,10.0
1446039817155215350,434,1446039817150027036,robocape_mag,13.2,-14.7,2.55,10.0,0.0,0.0,0.0,10.0,0.0,0.0,0.0,10.0
1446039817188798934,435,1446039817183773040,robocape_mag,13.2,-14.7,2.55,10.0,0.0,0.0,0.0,10.0,0.0,0.0,0.0,10.0
1446039817221677351,436,1446039817216847896,robocape_mag,13.2,-17.1,1.95,10.0,0.0,0.0,0.0,10.0,0.0,0.0,0.0,10.0
1446039817255161684,437,1446039817249995946,robocape_mag,13.2,-17.1,1.95,10.0,0.0,0.0,0.0,10.0,0.0,0.0,0.0,10.0
1446039817288579684,438,1446039817283493995,robocape_mag,13.2,-17.1,1.95,10.0,0.0,0.0,0.0,10.0,0.0,0.0,0.0,10.0
1446039817321593809,439,1446039817316642045,robocape_mag,13.2,-17.1,1.95,10.0,0.0,0.0,0.0,10.0,0.0,0.0,0.0,10.0
1446039817363400017,440,1446039817350102901,robocape_mag,12.0,-15.3,1.35,10.0,0.0,0.0,0.0,10.0,0.0,0.0,0.0,10.0
1446039817388709559,441,1446039817383629083,robocape_mag,12.0,-15.3,1.35,10.0,0.0,0.0,0.0,10.0,0.0,0.0,0.0,10.0
1446039817421782767,442,1446039817416723966,robocape_mag,12.0,-15.3,1.35,10.0,0.0,0.0,0.0,10.0,0.0,0.0,0.0,10.0
1446039817455374976,443,1446039817450042009,robocape_mag,12.0,-15.3,1.35,10.0,0.0,0.0,0.0,10.0,0.0,0.0,0.0,10.0
1446039817488563101,444,1446039817483463048,robocape_mag,12.0,-15.3,1.35,10.0,0.0,0.0,0.0,10.0,0.0,0.0,0.0,10.0
1446039817521896892,445,1446039817516896009,robocape_mag,13.8,-15.3,1.95,10.0,0.0,0.0,0.0,10.0,0.0,0.0,0.0,10.0
1446039817555573601,446,1446039817550236940,robocape_mag,13.8,-15.3,1.95,10.0,0.0,0.0,0.0,10.0,0.0,0.0,0.0,10.0
1446039817588518267,447,1446039817583503007,robocape_mag,13.8,-15.3,1.95,10.0,0.0,0.0,0.0,10.0,0.0,0.0,0.0,10.0
1446039817621725934,448,1446039817616760015,robocape_mag,13.8,-15.3,1.95,10.0,0.0,0.0,0.0,10.0,0.0,0.0,0.0,10.0
1446039817655643059,449,1446039817650352954,robocape_mag,13.8,-15.3,1.95,10.0,0.0,0.0,0.0,10.0,0.0,0.0,0.0,10.0
1446039817688340684,450,1446039817683346986,robocape_mag,13.8,-14.1,1.35,10.0,0.0,0.0,0.0,10.0,0.0,0.0,0.0,10.0
1446039817734182851,451,1446039817723340988,robocape_mag,13.8,-14.1,1.35,10.0,0.0,0.0,0.0,10.0,0.0,0.0,0.0,10.0
1446039817758620809,452,1446039817753720045,robocape_mag,13.8,-14.1,1.35,10.0,0.0,0.0,0.0,10.0,0.0,0.0,0.0,10.0
1446039817788739642,453,1446039817783375978,robocape_mag,13.8,-14.1,1.35,10.0,0.0,0.0,0.0,10.0,0.0,0.0,0.0,10.0
1446039817821551101,454,1446039817816632032,robocape_mag,13.8,-14.1,1.35,10.0,0.0,0.0,0.0,10.0,0.0,0.0,0.0,10.0
1446039817855980851,455,1446039817850326061,robocape_mag,13.2,-14.7,0.75,10.0,0.0,0.0,0.0,10.0,0.0,0.0,0.0,10.0
1446039817888405184,456,1446039817883316993,robocape_mag,13.2,-14.7,0.75,10.0,0.0,0.0,0.0,10.0,0.0,0.0,0.0,10.0
1446039817922613184,457,1446039817917646884,robocape_mag,13.2,-14.7,0.75,10.0,0.0,0.0,0.0,10.0,0.0,0.0,0.0,10.0
1446039817955675018,458,1446039817950444936,robocape_mag,13.2,-14.7,0.75,10.0,0.0,0.0,0.0,10.0,0.0,0.0,0.0,10.0
1446039817988692643,459,1446039817983572006,robocape_mag,13.2,-14.7,0.75,10.0,0.0,0.0,0.0,10.0,0.0,0.0,0.0,10.0
1446039818021637434,460,1446039818016617059,robocape_mag,12.3,-15.6,2.25,10.0,0.0,0.0,0.0,10.0,0.0,0.0,0.0,10.0
1446039818055421184,461,1446039818050174951,robocape_mag,12.3,-15.6,2.25,10.0,0.0,0.0,0.0,10.0,0.0,0.0,0.0,10.0
1446039818088423934,462,1446039818083444118,robocape_mag,12.3,-15.6,2.25,10.0,0.0,0.0,0.0,10.0,0.0,0.0,0.0,10.0
1446039818121628809,463,1446039818116688966,robocape_mag,12.3,-15.6,2.25,10.0,0.0,0.0,0.0,10.0,0.0,0.0,0.0,10.0
1446039818155554851,464,1446039818150163888,robocape_mag,13.2,-17.1,2.55,10.0,0.0,0.0,0.0,10.0,0.0,0.0,0.0,10.0
1446039818188490476,465,1446039818183527946,robocape_mag,13.2,-17.1,2.55,10.0,0.0,0.0,0.0,10.0,0.0,0.0,0.0,10.0
1446039818221633101,466,1446039818216646909,robocape_mag,13.2,-17.1,2.55,10.0,0.0,0.0,0.0,10.0,0.0,0.0,0.0,10.0
1446039818255789809,467,1446039818250423908,robocape_mag,13.2,-17.1,2.55,10.0,0.0,0.0,0.0,10.0,0.0,0.0,0.0,10.0
1446039818288424059,468,1446039818283427000,robocape_mag,13.2,-17.1,2.55,10.0,0.0,0.0,0.0,10.0,0.0,0.0,0.0,10.0
1446039818321649643,469,1446039818316726922,robocape_mag,13.2,-15.3,1.95,10.0,0.0,0.0,0.0,10.0,0.0,0.0,0.0,10.0
1446039818363493601,470,1446039818350298881,robocape_mag,13.2,-15.3,1.95,10.0,0.0,0.0,0.0,10.0,0.0,0.0,0.0,10.0
1446039818389760851,471,1446039818384435892,robocape_mag,13.2,-15.3,1.95,10.0,0.0,0.0,0.0,10.0,0.0,0.0,0.0,10.0
1446039818421838934,472,1446039818416831970,robocape_mag,13.2,-15.3,1.95,10.0,0.0,0.0,0.0,10.0,0.0,0.0,0.0,10.0
1446039818455595018,473,1446039818450361013,robocape_mag,13.2,-15.3,1.95,10.0,0.0,0.0,0.0,10.0,0.0,0.0,0.0,10.0
1446039818488663601,474,1446039818483556985,robocape_mag,15.0,-15.9,1.95,10.0,0.0,0.0,0.0,10.0,0.0,0.0,0.0,10.0
1446039818521666351,475,1446039818516577005,robocape_mag,15.0,-15.9,1.95,10.0,0.0,0.0,0.0,10.0,0.0,0.0,0.0,10.0
1446039818555405018,476,1446039818550275087,robocape_mag,15.0,-15.9,1.95,10.0,0.0,0.0,0.0,10.0,0.0,0.0,0.0,10.0
1446039818588404101,477,1446039818583358049,robocape_mag,15.0,-15.9,1.95,10.0,0.0,0.0,0.0,10.0,0.0,0.0,0.0,10.0
1446039818621692560,478,1446039818616702079,robocape_mag,15.0,-15.9,1.95,10.0,0.0,0.0,0.0,10.0,0.0,0.0,0.0,10.0
1446039818655456435,479,1446039818650310039,robocape_mag,13.5,-15.0,2.25,10.0,0.0,0.0,0.0,10.0,0.0,0.0,0.0,10.0
1446039818688480476,480,1446039818683495044,robocape_mag,13.5,-15.0,2.25,10.0,0.0,0.0,0.0,10.0,0.0,0.0,0.0,10.0
1446039818721864393,481,1446039818716756105,robocape_mag,13.5,-15.0,2.25,10.0,0.0,0.0,0.0,10.0,0.0,0.0,0.0,10.0
1446039818755770726,482,1446039818750488996,robocape_mag,13.5,-15.0,2.25,10.0,0.0,0.0,0.0,10.0,0.0,0.0,0.0,10.0
1446039818788289601,483,1446039818783340930,robocape_mag,13.5,-15.0,2.25,10.0,0.0,0.0,0.0,10.0,0.0,0.0,0.0,10.0
1446039818822200560,484,1446039818816905975,robocape_mag,13.8,-15.3,2.55,10.0,0.0,0.0,0.0,10.0,0.0,0.0,0.0,10.0
1446039818855300935,485,1446039818850086927,robocape_mag,13.8,-15.3,2.55,10.0,0.0,0.0,0.0,10.0,0.0,0.0,0.0,10.0
1446039818888405393,486,1446039818883306026,robocape_mag,13.8,-15.3,2.55,10.0,0.0,0.0,0.0,10.0,0.0,0.0,0.0,10.0
1446039818921872851,487,1446039818916640996,robocape_mag,13.8,-15.3,2.55,10.0,0.0,0.0,0.0,10.0,0.0,0.0,0.0,10.0
1446039818955430893,488,1446039818950429916,robocape_mag,12.6,-16.5,2.55,10.0,0.0,0.0,0.0,10.0,0.0,0.0,0.0,10.0
1446039818988874601,489,1446039818983896970,robocape_mag,12.6,-16.5,2.55,10.0,0.0,0.0,0.0,10.0,0.0,0.0,0.0,10.0
1446039819031546101,490,1446039819026355981,robocape_mag,12.6,-16.5,2.55,10.0,0.0,0.0,0.0,10.0,0.0,0.0,0.0,10.0
1446039819055766351,491,1446039819050754070,robocape_mag,12.6,-16.5,2.55,10.0,0.0,0.0,0.0,10.0,0.0,0.0,0.0,10.0
1446039819088795560,492,1446039819083780050,robocape_mag,12.6,-16.5,2.55,10.0,0.0,0.0,0.0,10.0,0.0,0.0,0.0,10.0
1446039819122049310,493,1446039819116650104,robocape_mag,15.0,-15.3,1.35,10.0,0.0,0.0,0.0,10.0,0.0,0.0,0.0,10.0
1446039819155277018,494,1446039819150316953,robocape_mag,15.0,-15.3,1.35,10.0,0.0,0.0,0.0,10.0,0.0,0.0,0.0,10.0
1446039819188785351,495,1446039819183698892,robocape_mag,15.0,-15.3,1.35,10.0,0.0,0.0,0.0,10.0,0.0,0.0,0.0,10.0
1446039819221899685,496,1446039819216659069,robocape_mag,15.0,-15.3,1.35,10.0,0.0,0.0,0.0,10.0,0.0,0.0,0.0,10.0
1446039819255145351,497,1446039819250176906,robocape_mag,15.0,-15.3,1.35,10.0,0.0,0.0,0.0,10.0,0.0,0.0,0.0,10.0
1446039819288782643,498,1446039819283668994,robocape_mag,12.3,-15.0,1.05,10.0,0.0,0.0,0.0,10.0,0.0,0.0,0.0,10.0
1446039819321610893,499,1446039819316575050,robocape_mag,12.3,-15.0,1.05,10.0,0.0,0.0,0.0,10.0,0.0,0.0,0.0,10.0
1446039819363538477,500,1446039819350116968,robocape_mag,12.3,-15.0,1.05,10.0,0.0,0.0,0.0,10.0,0.0,0.0,0.0,10.0
1446039819388952477,501,1446039819383871078,robocape_mag,12.3,-15.0,1.05,10.0,0.0,0.0,0.0,10.0,0.0,0.0,0.0,10.0
1446039819421863977,502,1446039819416753053,robocape_mag,12.3,-15.0,1.05,10.0,0.0,0.0,0.0,10.0,0.0,0.0,0.0,10.0
1446039819455249852,503,1446039819450244903,robocape_mag,12.9,-15.6,1.65,10.0,0.0,0.0,0.0,10.0,0.0,0.0,0.0,10.0
1446039819488755727,504,1446039819483599901,robocape_mag,12.9,-15.6,1.65,10.0,0.0,0.0,0.0,10.0,0.0,0.0,0.0,10.0
1446039819521679102,505,1446039819516561031,robocape_mag,12.9,-15.6,1.65,10.0,0.0,0.0,0.0,10.0,0.0,0.0,0.0,10.0
1446039819555218393,506,1446039819550246953,robocape_mag,12.9,-15.6,1.65,10.0,0.0,0.0,0.0,10.0,0.0,0.0,0.0,10.0
1446039819588591227,507,1446039819583556890,robocape_mag,12.9,-15.6,1.65,10.0,0.0,0.0,0.0,10.0,0.0,0.0,0.0,10.0
1446039819621752977,508,1446039819616688013,robocape_mag,12.9,-16.8,1.05,10.0,0.0,0.0,0.0,10.0,0.0,0.0,0.0,10.0
1446039819655111935,509,1446039819650160074,robocape_mag,12.9,-16.8,1.05,10.0,0.0,0.0,0.0,10.0,0.0,0.0,0.0,10.0
1446039819688994310,510,1446039819683818101,robocape_mag,12.9,-16.8,1.05,10.0,0.0,0.0,0.0,10.0,0.0,0.0,0.0,10.0
1446039819721776435,511,1446039819716713905,robocape_mag,12.9,-16.8,1.05,10.0,0.0,0.0,0.0,10.0,0.0,0.0,0.0,10.0
1446039819755573602,512,1446039819750543117,robocape_mag,15.0,-14.1,1.35,10.0,0.0,0.0,0.0,10.0,0.0,0.0,0.0,10.0
1446039819788898393,513,1446039819783725976,robocape_mag,15.0,-14.1,1.35,10.0,0.0,0.0,0.0,10.0,0.0,0.0,0.0,10.0
1446039819821650810,514,1446039819816585063,robocape_mag,15.0,-14.1,1.35,10.0,0.0,0.0,0.0,10.0,0.0,0.0,0.0,10.0
1446039819855630435,515,1446039819850321054,robocape_mag,15.0,-14.1,1.35,10.0,0.0,0.0,0.0,10.0,0.0,0.0,0.0,10.0
1446039819888739102,516,1446039819883742094,robocape_mag,15.0,-14.1,1.35,10.0,0.0,0.0,0.0,10.0,0.0,0.0,0.0,10.0
1446039819921592143,517,1446039819916558027,robocape_mag,14.4,-15.3,1.95,10.0,0.0,0.0,0.0,10.0,0.0,0.0,0.0,10.0
1446039819955311560,518,1446039819950304985,robocape_mag,14.4,-15.3,1.95,10.0,0.0,0.0,0.0,10.0,0.0,0.0,0.0,10.0
1446039819988690727,519,1446039819983623981,robocape_mag,14.4,-15.3,1.95,10.0,0.0,0.0,0.0,10.0,0.0,0.0,0.0,10.0
1446039820021627102,520,1446039820016572952,robocape_mag,14.4,-15.3,1.95,10.0,0.0,0.0,0.0,10.0,0.0,0.0,0.0,10.0
1446039820056258352,521,1446039820051120042,robocape_mag,14.4,-15.3,1.95,10.0,0.0,0.0,0.0,10.0,0.0,0.0,0.0,10.0
1446039820088929769,522,1446039820083831071,robocape_mag,13.8,-17.1,4.35,10.0,0.0,0.0,0.0,10.0,0.0,0.0,0.0,10.0
1446039820121845477,523,1446039820116909980,robocape_mag,13.8,-17.1,4.35,10.0,0.0,0.0,0.0,10.0,0.0,0.0,0.0,10.0
1446039820155591894,524,1446039820150619983,robocape_mag,13.8,-17.1,4.35,10.0,0.0,0.0,0.0,10.0,0.0,0.0,0.0,10.0
1446039820188589977,525,1446039820183582067,robocape_mag,13.8,-17.1,4.35,10.0,0.0,0.0,0.0,10.0,0.0,0.0,0.0,10.0
1446039820221966144,526,1446039820216883897,robocape_mag,13.8,-17.1,4.35,10.0,0.0,0.0,0.0,10.0,0.0,0.0,0.0,10.0
1446039820255441352,527,1446039820250436067,robocape_mag,12.9,-15.6,1.05,10.0,0.0,0.0,0.0,10.0,0.0,0.0,0.0,10.0
1446039820288861435,528,1446039820283749103,robocape_mag,12.9,-15.6,1.05,10.0,0.0,0.0,0.0,10.0,0.0,0.0,0.0,10.0
1446039820321491935,529,1446039820316587924,robocape_mag,12.9,-15.6,1.05,10.0,0.0,0.0,0.0,10.0,0.0,0.0,0.0,10.0
1446039820363599560,530,1446039820350416898,robocape_mag,12.9,-15.6,1.05,10.0,0.0,0.0,0.0,10.0,0.0,0.0,0.0,10.0
1446039820388414477,531,1446039820383479118,robocape_mag,12.9,-15.6,1.05,10.0,0.0,0.0,0.0,10.0,0.0,0.0,0.0,10.0
1446039820421744352,532,1446039820416731119,robocape_mag,12.3,-15.0,-0.15,10.0,0.0,0.0,0.0,10.0,0.0,0.0,0.0,10.0
