%time,field.header.seq,field.header.stamp,field.header.frame_id,field.orientation.x,field.orientation.y,field.orientation.z,field.orientation.w,field.orientation_covariance0,field.orientation_covariance1,field.orientation_covariance2,field.orientation_covariance3,field.orientation_covariance4,field.orientation_covariance5,field.orientation_covariance6,field.orientation_covariance7,field.orientation_covariance8,field.angular_velocity.x,field.angular_velocity.y,field.angular_velocity.z,field.angular_velocity_covariance0,field.angular_velocity_covariance1,field.angular_velocity_covariance2,field.angular_velocity_covariance3,field.angular_velocity_covariance4,field.angular_velocity_covariance5,field.angular_velocity_covariance6,field.angular_velocity_covariance7,field.angular_velocity_covariance8,field.linear_acceleration.x,field.linear_acceleration.y,field.linear_acceleration.z,field.linear_acceleration_covariance0,field.linear_acceleration_covariance1,field.linear_acceleration_covariance2,field.linear_acceleration_covariance3,field.linear_acceleration_covariance4,field.linear_acceleration_covariance5,field.linear_acceleration_covariance6,field.linear_acceleration_covariance7,field.linear_acceleration_covariance8
1452008388441869737,1,1452008388437361955,robocape,12.4098586439,2.8331416008,-15.8154926165,0.0,10.0,0.0,0.0,0.0,10.0,0.0,0.0,0.0,10.0,0.00572579634367,0.0222373951022,0.00838895743375,1.0,0.0,0.0,0.0,1.0,0.0,0.0,0.0,1.0,0.0299377441406,-0.0646655273438,10.0075891113,0.1,0.0,0.0,0.0,0.1,0.0,0.0,0.0,0.1
1452008388467231695,2,1452008388464126110,robocape,12.3993025663,2.86299167493,-15.7621559325,0.0,10.0,0.0,0.0,0.0,10.0,0.0,0.0,0.0,10.0,0.00559263828917,0.0223705531567,0.00812264132474,1.0,0.0,0.0,0.0,1.0,0.0,0.0,0.0,1.0,0.0371228027344,-0.0802331542969,9.99202148437,0.1,0.0,0.0,0.0,0.1,0.0,0.0,0.0,0.1
1452008388500817154,3,1452008388497550964,robocape,12.3878171248,2.89276451551,-15.7087309637,0.0,10.0,0.0,0.0,0.0,10.0,0.0,0.0,0.0,10.0,0.00506000607115,0.0223705531567,0.00825579937925,1.0,0.0,0.0,0.0,1.0,0.0,0.0,0.0,1.0,0.0467028808594,-0.0790356445313,10.0111816406,0.1,0.0,0.0,0.0,0.1,0.0,0.0,0.0,0.1
1452008388543363529,4,1452008388532605886,robocape,12.3773795342,2.92255745354,-15.6556752691,0.0,10.0,0.0,0.0,0.0,10.0,0.0,0.0,0.0,10.0,0.00559263828917,0.0223705531567,0.00812264132474,1.0,0.0,0.0,0.0,1.0,0.0,0.0,0.0,1.0,0.0347277832031,-0.076640625,10.0016015625,0.1,0.0,0.0,0.0,0.1,0.0,0.0,0.0,0.1
1452008388567433112,5,1452008388564369916,robocape,12.3687098186,2.95271947297,-15.6034078355,0.0,10.0,0.0,0.0,0.0,10.0,0.0,0.0,0.0,10.0,0.00652474467069,0.0225037112112,0.00772316716123,1.0,0.0,0.0,0.0,1.0,0.0,0.0,0.0,1.0,0.028740234375,-0.076640625,10.0123791504,0.1,0.0,0.0,0.0,0.1,0.0,0.0,0.0,0.1
1452008388600471820,6,1452008388597415924,robocape,12.3581183494,2.98275384148,-15.5508177171,0.0,10.0,0.0,0.0,0.0,10.0,0.0,0.0,0.0,10.0,0.00545948023466,0.0225037112112,0.00798948327024,1.0,0.0,0.0,0.0,1.0,0.0,0.0,0.0,1.0,0.0311352539063,-0.0646655273438,10.0087866211,0.1,0.0,0.0,0.0,0.1,0.0,0.0,0.0,0.1
1452008388634215987,7,1452008388630610942,robocape,12.3478874961,3.01284651162,-15.4975748804,0.0,10.0,0.0,0.0,0.0,10.0,0.0,0.0,0.0,10.0,0.00559263828917,0.0226368692657,0.00838895743375,1.0,0.0,0.0,0.0,1.0,0.0,0.0,0.0,1.0,0.0490979003906,-0.0742456054688,9.98603393555,0.1,0.0,0.0,0.0,0.1,0.0,0.0,0.0,0.1
1452008388667404820,8,1452008388664351940,robocape,12.3371643562,3.04331852157,-15.4451538326,0.0,10.0,0.0,0.0,0.0,10.0,0.0,0.0,0.0,10.0,0.00532632218016,0.0227700273202,0.00798948327024,1.0,0.0,0.0,0.0,1.0,0.0,0.0,0.0,1.0,0.0467028808594,-0.0790356445313,9.99920654297,0.1,0.0,0.0,0.0,0.1,0.0,0.0,0.0,0.1
1452008388700582445,9,1452008388697432994,robocape,12.3257153906,3.072577457,-15.3933972276,0.0,10.0,0.0,0.0,0.0,10.0,0.0,0.0,0.0,10.0,0.00492684801665,0.0221042370477,0.00785632521573,1.0,0.0,0.0,0.0,1.0,0.0,0.0,0.0,1.0,0.0371228027344,-0.0682580566406,9.96447875977,0.1,0.0,0.0,0.0,0.1,0.0,0.0,0.0,0.1
1452008388734085070,10,1452008388730756044,robocape,12.3155621696,3.10185515475,-15.3420008437,0.0,10.0,0.0,0.0,0.0,10.0,0.0,0.0,0.0,10.0,0.00559263828917,0.0221042370477,0.00772316716123,1.0,0.0,0.0,0.0,1.0,0.0,0.0,0.0,1.0,0.0538879394531,-0.0634680175781,9.98363891602,0.1,0.0,0.0,0.0,0.1,0.0,0.0,0.0,0.1
1452008388767394237,11,1452008388764226913,robocape,12.3060104115,3.13198744735,-15.290023165,0.0,10.0,0.0,0.0,0.0,10.0,0.0,0.0,0.0,10.0,0.00585895439817,0.0226368692657,0.00798948327024,1.0,0.0,0.0,0.0,1.0,0.0,0.0,0.0,1.0,0.0467028808594,-0.0706530761719,10.0027990723,0.1,0.0,0.0,0.0,0.1,0.0,0.0,0.0,0.1
1452008388800579320,12,1452008388797509908,robocape,12.2959940928,3.1606042327,-15.238513136,0.0,10.0,0.0,0.0,0.0,10.0,0.0,0.0,0.0,10.0,0.00559263828917,0.0218379209386,0.00798948327024,1.0,0.0,0.0,0.0,1.0,0.0,0.0,0.0,1.0,0.0347277832031,-0.0706530761719,9.9980090332,0.1,0.0,0.0,0.0,0.1,0.0,0.0,0.0,0.1
1452008388835150279,13,1452008388831873893,robocape,12.2854633722,3.18965428627,-15.1880636533,0.0,10.0,0.0,0.0,0.0,10.0,0.0,0.0,0.0,10.0,0.00532632218016,0.0219710789932,0.00745685105222,1.0,0.0,0.0,0.0,1.0,0.0,0.0,0.0,1.0,0.0383203125,-0.0706530761719,9.99202148437,0.1,0.0,0.0,0.0,0.1,0.0,0.0,0.0,0.1
1452008388868157195,14,1452008388864468097,robocape,12.2758203098,3.21945318603,-15.1365385762,0.0,10.0,0.0,0.0,0.0,10.0,0.0,0.0,0.0,10.0,0.00572579634367,0.0225037112112,0.00798948327024,1.0,0.0,0.0,0.0,1.0,0.0,0.0,0.0,1.0,0.0323327636719,-0.0754431152344,9.98962646484,0.1,0.0,0.0,0.0,0.1,0.0,0.0,0.0,0.1
1452008388901989404,15,1452008388898905992,robocape,12.2660291014,3.24881773118,-15.0844701552,0.0,10.0,0.0,0.0,0.0,10.0,0.0,0.0,0.0,10.0,0.00559263828917,0.0223705531567,0.00838895743375,1.0,0.0,0.0,0.0,1.0,0.0,0.0,0.0,1.0,0.0371228027344,-0.0778381347656,10.0051940918,0.1,0.0,0.0,0.0,0.1,0.0,0.0,0.0,0.1
1452008388935977612,16,1452008388932550907,robocape,12.2555385699,3.27815729659,-15.0325443953,0.0,10.0,0.0,0.0,0.0,10.0,0.0,0.0,0.0,10.0,0.00519316412565,0.0223705531567,0.00838895743375,1.0,0.0,0.0,0.0,1.0,0.0,0.0,0.0,1.0,0.0347277832031,-0.0754431152344,10.0016015625,0.1,0.0,0.0,0.0,0.1,0.0,0.0,0.0,0.1
1452008388968132529,17,1452008388964885950,robocape,12.2445598923,3.30708025166,-14.9813549364,0.0,10.0,0.0,0.0,0.0,10.0,0.0,0.0,0.0,10.0,0.00492684801665,0.0221042370477,0.00812264132474,1.0,0.0,0.0,0.0,1.0,0.0,0.0,0.0,1.0,0.0371228027344,-0.0706530761719,10.0016015625,0.1,0.0,0.0,0.0,0.1,0.0,0.0,0.0,0.1
1452008389002265154,18,1452008388999237060,robocape,12.2348522611,3.3373660953,-14.9307388282,0.0,10.0,0.0,0.0,0.0,10.0,0.0,0.0,0.0,10.0,0.00559263828917,0.0227700273202,0.00772316716123,1.0,0.0,0.0,0.0,1.0,0.0,0.0,0.0,1.0,0.0395178222656,-0.067060546875,9.98004638672,0.1,0.0,0.0,0.0,0.1,0.0,0.0,0.0,0.1
1452008389036311820,19,1452008389032437086,robocape,12.2249760846,3.36702134932,-14.879874061,0.0,10.0,0.0,0.0,0.0,10.0,0.0,0.0,0.0,10.0,0.00545948023466,0.0225037112112,0.00798948327024,1.0,0.0,0.0,0.0,1.0,0.0,0.0,0.0,1.0,0.0323327636719,-0.0742456054688,9.99202148437,0.1,0.0,0.0,0.0,0.1,0.0,0.0,0.0,0.1
1452008389075015737,20,1452008389071854114,robocape,12.2164588202,3.39623542279,-14.828440889,0.0,10.0,0.0,0.0,0.0,10.0,0.0,0.0,0.0,10.0,0.00612527050718,0.0223705531567,0.00838895743375,1.0,0.0,0.0,0.0,1.0,0.0,0.0,0.0,1.0,0.0107775878906,-0.0598754882813,10.0231567383,0.1,0.0,0.0,0.0,0.1,0.0,0.0,0.0,0.1
1452008389102614321,21,1452008389099133014,robocape,12.2092740493,3.42456485048,-14.7767917583,0.0,10.0,0.0,0.0,0.0,10.0,0.0,0.0,0.0,10.0,0.0067910607797,0.0219710789932,0.00865527354276,1.0,0.0,0.0,0.0,1.0,0.0,0.0,0.0,1.0,0.0371228027344,-0.0742456054688,9.99561401367,0.1,0.0,0.0,0.0,0.1,0.0,0.0,0.0,0.1
1452008389137921029,22,1452008389134500026,robocape,12.1990927642,3.45348135589,-14.7256914754,0.0,10.0,0.0,0.0,0.0,10.0,0.0,0.0,0.0,10.0,0.00519316412565,0.0222373951022,0.00838895743375,1.0,0.0,0.0,0.0,1.0,0.0,0.0,0.0,1.0,0.047900390625,-0.0610729980469,9.96208374023,0.1,0.0,0.0,0.0,0.1,0.0,0.0,0.0,0.1
1452008389172194196,23,1452008389168534040,robocape,12.1886366917,3.48233206837,-14.675754627,0.0,10.0,0.0,0.0,0.0,10.0,0.0,0.0,0.0,10.0,0.00506000607115,0.0221042370477,0.00785632521573,1.0,0.0,0.0,0.0,1.0,0.0,0.0,0.0,1.0,0.0610729980469,-0.0646655273438,10.0087866211,0.1,0.0,0.0,0.0,0.1,0.0,0.0,0.0,0.1
1452008389204004654,24,1452008389198647022,robocape,12.1782436364,3.51067399767,-14.622469039,0.0,10.0,0.0,0.0,0.0,10.0,0.0,0.0,0.0,10.0,0.00492684801665,0.0222373951022,0.00972053797879,1.0,0.0,0.0,0.0,1.0,0.0,0.0,0.0,1.0,0.0275427246094,-0.086220703125,9.96328125,0.1,0.0,0.0,0.0,0.1,0.0,0.0,0.0,0.1
1452008389238805196,25,1452008389235038042,robocape,12.1685182269,3.54014718672,-14.5710991543,0.0,10.0,0.0,0.0,0.0,10.0,0.0,0.0,0.0,10.0,0.00532632218016,0.0226368692657,0.00865527354276,1.0,0.0,0.0,0.0,1.0,0.0,0.0,0.0,1.0,0.0251477050781,-0.0969982910156,10.024354248,0.1,0.0,0.0,0.0,0.1,0.0,0.0,0.0,0.1
1452008389272066404,26,1452008389268855094,robocape,12.1607879366,3.56899289883,-14.5207249079,0.0,10.0,0.0,0.0,0.0,10.0,0.0,0.0,0.0,10.0,0.00639158661619,0.0222373951022,0.00825579937925,1.0,0.0,0.0,0.0,1.0,0.0,0.0,0.0,1.0,0.0347277832031,-0.0646655273438,10.003996582,0.1,0.0,0.0,0.0,0.1,0.0,0.0,0.0,0.1
1452008389305527446,27,1452008389302289009,robocape,12.1520531324,3.59717404926,-14.4711386635,0.0,10.0,0.0,0.0,0.0,10.0,0.0,0.0,0.0,10.0,0.00585895439817,0.0218379209386,0.00798948327024,1.0,0.0,0.0,0.0,1.0,0.0,0.0,0.0,1.0,0.0203576660156,-0.0634680175781,9.98842895508,0.1,0.0,0.0,0.0,0.1,0.0,0.0,0.0,0.1
1452008389336294487,28,1452008389333275079,robocape,12.1424813131,3.62551633145,-14.4201113377,0.0,10.0,0.0,0.0,0.0,10.0,0.0,0.0,0.0,10.0,0.00532632218016,0.0221042370477,0.00878843159726,1.0,0.0,0.0,0.0,1.0,0.0,0.0,0.0,1.0,0.0455053710938,-0.0634680175781,9.97525634766,0.1,0.0,0.0,0.0,0.1,0.0,0.0,0.0,0.1
1452008389372364529,29,1452008389368717908,robocape,12.1323305027,3.65469362136,-14.370821114,0.0,10.0,0.0,0.0,0.0,10.0,0.0,0.0,0.0,10.0,0.00506000607115,0.0223705531567,0.00785632521573,1.0,0.0,0.0,0.0,1.0,0.0,0.0,0.0,1.0,0.0455053710938,-0.0646655273438,9.98962646484,0.1,0.0,0.0,0.0,0.1,0.0,0.0,0.0,0.1
1452008389404380154,30,1452008389400799989,robocape,12.1227484545,3.68353919475,-14.3214550848,0.0,10.0,0.0,0.0,0.0,10.0,0.0,0.0,0.0,10.0,0.00532632218016,0.0222373951022,0.00798948327024,1.0,0.0,0.0,0.0,1.0,0.0,0.0,0.0,1.0,0.0203576660156,-0.0778381347656,9.99441650391,0.1,0.0,0.0,0.0,0.1,0.0,0.0,0.0,0.1
1452008389438683654,31,1452008389434582948,robocape,12.1127256829,3.71335049039,-14.2720009936,0.0,10.0,0.0,0.0,0.0,10.0,0.0,0.0,0.0,10.0,0.00506000607115,0.0227700273202,0.00798948327024,1.0,0.0,0.0,0.0,1.0,0.0,0.0,0.0,1.0,0.0419128417969,-0.0778381347656,9.9980090332,0.1,0.0,0.0,0.0,0.1,0.0,0.0,0.0,0.1
1452008389471849196,32,1452008389468385934,robocape,12.1037770295,3.74307424256,-14.2224100243,0.0,10.0,0.0,0.0,0.0,10.0,0.0,0.0,0.0,10.0,0.00559263828917,0.0227700273202,0.00812264132474,1.0,0.0,0.0,0.0,1.0,0.0,0.0,0.0,1.0,0.0419128417969,-0.0682580566406,9.99681152344,0.1,0.0,0.0,0.0,0.1,0.0,0.0,0.0,0.1
1452008389505380154,33,1452008389501828908,robocape,12.0946652386,3.77112521042,-14.1725315769,0.0,10.0,0.0,0.0,0.0,10.0,0.0,0.0,0.0,10.0,0.00545948023466,0.0219710789932,0.00852211548825,1.0,0.0,0.0,0.0,1.0,0.0,0.0,0.0,1.0,0.0407153320313,-0.0694555664063,9.98962646484,0.1,0.0,0.0,0.0,0.1,0.0,0.0,0.0,0.1
1452008389537803071,34,1452008389534514904,robocape,12.0472325201,3.79394679566,-14.0975873665,0.0,10.0,0.0,0.0,0.0,10.0,0.0,0.0,0.0,10.0,-0.0159789665405,0.0219710789932,0.0225037112112,1.0,0.0,0.0,0.0,1.0,0.0,0.0,0.0,1.0,0.00838256835938,0.274229736328,9.98244140625,0.1,0.0,0.0,0.0,0.1,0.0,0.0,0.0,0.1
1452008389571291196,35,1452008389568028926,robocape,11.8314747848,3.79939432596,-13.8122157942,0.0,10.0,0.0,0.0,0.0,10.0,0.0,0.0,0.0,10.0,-0.114249610764,0.0352868844435,0.135288583376,1.0,0.0,0.0,0.0,1.0,0.0,0.0,0.0,1.0,0.0598754882813,-0.337697753906,10.0411193848,0.1,0.0,0.0,0.0,0.1,0.0,0.0,0.0,0.1
1452008389603720237,36,1452008389600495100,robocape,11.7300848175,3.85718385215,-13.5195438752,0.0,10.0,0.0,0.0,0.0,10.0,0.0,0.0,0.0,10.0,-0.0540621701286,0.0627174436714,0.132891738395,1.0,0.0,0.0,0.0,1.0,0.0,0.0,0.0,1.0,0.262254638672,-0.802331542969,10.1979931641,0.1,0.0,0.0,0.0,0.1,0.0,0.0,0.0,0.1
1452008389637130112,37,1452008389634095907,robocape,11.9705880207,3.97750228357,-13.3403796383,0.0,10.0,0.0,0.0,0.0,10.0,0.0,0.0,0.0,10.0,0.131959632013,0.083490100174,0.0648479725434,1.0,0.0,0.0,0.0,1.0,0.0,0.0,0.0,1.0,0.219144287109,-0.761616210938,10.1465002441,0.1,0.0,0.0,0.0,0.1,0.0,0.0,0.0,0.1
1452008389669595279,38,1452008389666399002,robocape,12.2363256232,4.07717692295,-13.1725106173,0.0,10.0,0.0,0.0,0.0,10.0,0.0,0.0,0.0,10.0,0.145941227736,0.0721716655411,0.0608532309083,1.0,0.0,0.0,0.0,1.0,0.0,0.0,0.0,1.0,-0.199984130859,0.101788330078,9.83514770508,0.1,0.0,0.0,0.0,0.1,0.0,0.0,0.0,0.1
1452008389702666612,39,1452008389699474096,robocape,12.5464752051,4.16559120901,-13.231421375,0.0,10.0,0.0,0.0,0.0,10.0,0.0,0.0,0.0,10.0,0.179896531635,0.0418116291142,-0.0560595409462,1.0,0.0,0.0,0.0,1.0,0.0,0.0,0.0,1.0,0.107775878906,0.44068359375,9.93334350586,0.1,0.0,0.0,0.0,0.1,0.0,0.0,0.0,0.1
1452008389736777446,40,1452008389733787059,robocape,12.6841814102,4.20863926801,-13.3669980671,0.0,10.0,0.0,0.0,0.0,10.0,0.0,0.0,0.0,10.0,0.0921453737167,0.00958737992429,-0.0896153706812,1.0,0.0,0.0,0.0,1.0,0.0,0.0,0.0,1.0,-0.0383203125,1.05859863281,9.68545898437,0.1,0.0,0.0,0.0,0.1,0.0,0.0,0.0,0.1
1452008389770010696,41,1452008389766911029,robocape,12.5209693916,4.19208048207,-13.4608188243,0.0,10.0,0.0,0.0,0.0,10.0,0.0,0.0,0.0,10.0,-0.0696416625056,-0.016644756813,-0.0589890181453,1.0,0.0,0.0,0.0,1.0,0.0,0.0,0.0,1.0,-0.267044677734,0.839454345703,9.75251953125,0.1,0.0,0.0,0.0,0.1,0.0,0.0,0.0,0.1
1452008389803283321,42,1452008389800265073,robocape,12.0557416411,4.0919381709,-13.5336620099,0.0,10.0,0.0,0.0,0.0,10.0,0.0,0.0,0.0,10.0,-0.231428698728,-0.0573911214912,-0.0364853069341,1.0,0.0,0.0,0.0,1.0,0.0,0.0,0.0,1.0,-0.389190673828,0.684975585938,9.78964233398,0.1,0.0,0.0,0.0,0.1,0.0,0.0,0.0,0.1
1452008389835869446,43,1452008389832808017,robocape,11.5100525964,3.9855403742,-13.6602921809,0.0,10.0,0.0,0.0,0.0,10.0,0.0,0.0,0.0,10.0,-0.272175063406,-0.0661795530885,-0.0637827081074,1.0,0.0,0.0,0.0,1.0,0.0,0.0,0.0,1.0,-0.3065625,-0.265847167969,10.0171691895,0.1,0.0,0.0,0.0,0.1,0.0,0.0,0.0,0.1
1452008389868877946,44,1452008389865622997,robocape,11.1053125373,3.8783175013,-13.7950957395,0.0,10.0,0.0,0.0,0.0,10.0,0.0,0.0,0.0,10.0,-0.197606552884,-0.066845343361,-0.0696416625056,1.0,0.0,0.0,0.0,1.0,0.0,0.0,0.0,1.0,0.276624755859,-0.343685302734,10.1345251465,0.1,0.0,0.0,0.0,0.1,0.0,0.0,0.0,0.1
1452008389902048779,45,1452008389898688077,robocape,10.7073710752,3.79215666354,-13.9002526121,0.0,10.0,0.0,0.0,0.0,10.0,0.0,0.0,0.0,10.0,-0.195609182066,-0.0527305895836,-0.0569916473277,1.0,0.0,0.0,0.0,1.0,0.0,0.0,0.0,1.0,0.380808105469,-0.481398925781,10.233918457,0.1,0.0,0.0,0.0,0.1,0.0,0.0,0.0,0.1
1452008389935470196,46,1452008389932419061,robocape,10.4035769537,3.73274767301,-13.9043266401,0.0,10.0,0.0,0.0,0.0,10.0,0.0,0.0,0.0,10.0,-0.15020228548,-0.0290284558819,-0.00785632521573,1.0,0.0,0.0,0.0,1.0,0.0,0.0,0.0,1.0,0.0934057617188,-0.889749755859,10.2363134766,0.1,0.0,0.0,0.0,0.1,0.0,0.0,0.0,0.1
1452008389968525154,47,1452008389965182065,robocape,10.0641945734,3.71700543655,-13.7146737253,0.0,10.0,0.0,0.0,0.0,10.0,0.0,0.0,0.0,10.0,-0.176967054436,0.0111852765783,0.0893490545722,1.0,0.0,0.0,0.0,1.0,0.0,0.0,0.0,1.0,0.4981640625,-1.23343505859,10.3596569824,0.1,0.0,0.0,0.0,0.1,0.0,0.0,0.0,0.1
1452008390001522488,48,1452008389998450994,robocape,10.0852169696,3.79162471248,-13.4388485337,0.0,10.0,0.0,0.0,0.0,10.0,0.0,0.0,0.0,10.0,0.0099868540878,0.065780078925,0.123970148743,1.0,0.0,0.0,0.0,1.0,0.0,0.0,0.0,1.0,0.530496826172,-1.89805297852,10.4147424316,0.1,0.0,0.0,0.0,0.1,0.0,0.0,0.0,0.1
1452008390034767946,49,1452008390031699895,robocape,10.558655015,3.98701137632,-13.2589227003,0.0,10.0,0.0,0.0,0.0,10.0,0.0,0.0,0.0,10.0,0.253266619667,0.120508039326,0.0595216503633,1.0,0.0,0.0,0.0,1.0,0.0,0.0,0.0,1.0,0.446671142578,-1.12565917969,10.2830163574,0.1,0.0,0.0,0.0,0.1,0.0,0.0,0.0,0.1
1452008390067444654,50,1452008390064265966,robocape,11.2942472592,4.20059421326,-13.183461169,0.0,10.0,0.0,0.0,0.0,10.0,0.0,0.0,0.0,10.0,0.397210476585,0.121040671544,0.000266316109008,1.0,0.0,0.0,0.0,1.0,0.0,0.0,0.0,1.0,0.0730480957031,-0.24908203125,10.0435144043,0.1,0.0,0.0,0.0,0.1,0.0,0.0,0.0,0.1
1452008390100613863,51,1452008390097588062,robocape,11.9322866472,4.36715628542,-13.1141305764,0.0,10.0,0.0,0.0,0.0,10.0,0.0,0.0,0.0,10.0,0.346876731983,0.0965395895154,0.000932106381528,1.0,0.0,0.0,0.0,1.0,0.0,0.0,0.0,1.0,-0.243094482422,0.70892578125,9.94172607422,0.1,0.0,0.0,0.0,0.1,0.0,0.0,0.0,0.1
1452008390134096279,52,1452008390131011962,robocape,12.3412603722,4.48059229927,-13.1199369075,0.0,10.0,0.0,0.0,0.0,10.0,0.0,0.0,0.0,10.0,0.229697644019,0.0611195470173,-0.0316916169719,1.0,0.0,0.0,0.0,1.0,0.0,0.0,0.0,1.0,-0.379610595703,0.853824462891,9.71180419922,0.1,0.0,0.0,0.0,0.1,0.0,0.0,0.0,0.1
1452008390167520279,53,1452008390164449930,robocape,12.4246650404,4.5210138388,-13.09207807,0.0,10.0,0.0,0.0,0.0,10.0,0.0,0.0,0.0,10.0,0.0555269087282,0.0268979270098,-0.00399474163512,1.0,0.0,0.0,0.0,1.0,0.0,0.0,0.0,1.0,-0.259859619141,0.947230224609,9.69623657227,0.1,0.0,0.0,0.0,0.1,0.0,0.0,0.0,0.1
1452008390200479613,54,1452008390197407960,robocape,12.215477069,4.50092519053,-13.0611483636,0.0,10.0,0.0,0.0,0.0,10.0,0.0,0.0,0.0,10.0,-0.100134856987,-0.00426105774413,0.0066579027252,1.0,0.0,0.0,0.0,1.0,0.0,0.0,0.0,1.0,-0.118553466797,0.893342285156,9.71779174805,0.1,0.0,0.0,0.0,0.1,0.0,0.0,0.0,0.1
1452008390234473946,55,1452008390231430053,robocape,11.7446809504,4.40646711085,-13.0716486772,0.0,10.0,0.0,0.0,0.0,10.0,0.0,0.0,0.0,10.0,-0.237420811181,-0.0474042674034,-0.00466053190764,1.0,0.0,0.0,0.0,1.0,0.0,0.0,0.0,1.0,-0.0658630371094,0.705333251953,9.75132202148,0.1,0.0,0.0,0.0,0.1,0.0,0.0,0.0,0.1
1452008390267328738,56,1452008390264143943,robocape,11.208017823,4.29122859668,-13.1230854661,0.0,10.0,0.0,0.0,0.0,10.0,0.0,0.0,0.0,10.0,-0.270843482861,-0.0624511275624,-0.0237021337017,1.0,0.0,0.0,0.0,1.0,0.0,0.0,0.0,1.0,-0.102985839844,-0.15328125,10.0135766602,0.1,0.0,0.0,0.0,0.1,0.0,0.0,0.0,0.1
1452008390300537988,57,1452008390297489881,robocape,10.7992652017,4.19553580246,-13.2065413563,0.0,10.0,0.0,0.0,0.0,10.0,0.0,0.0,0.0,10.0,-0.202000768683,-0.0552605926191,-0.0438089999318,1.0,0.0,0.0,0.0,1.0,0.0,0.0,0.0,1.0,0.129331054688,-0.669407958984,10.1465002441,0.1,0.0,0.0,0.0,0.1,0.0,0.0,0.0,0.1
1452008390333767946,58,1452008390330735921,robocape,10.465811547,4.13289630322,-13.2803887769,0.0,10.0,0.0,0.0,0.0,10.0,0.0,0.0,0.0,10.0,-0.162852300658,-0.0370179391521,-0.0430100516048,1.0,0.0,0.0,0.0,1.0,0.0,0.0,0.0,1.0,0.487386474609,-0.829874267578,10.2387084961,0.1,0.0,0.0,0.0,0.1,0.0,0.0,0.0,0.1
1452008390369988488,59,1452008390366832017,robocape,10.3093409396,4.11352869149,-13.3059280189,0.0,10.0,0.0,0.0,0.0,10.0,0.0,0.0,0.0,10.0,-0.0715058752686,-0.00985369603329,-0.0233026595382,1.0,0.0,0.0,0.0,1.0,0.0,0.0,0.0,1.0,0.223934326172,-0.992735595703,10.2506835938,0.1,0.0,0.0,0.0,0.1,0.0,0.0,0.0,0.1
1452008390401674488,60,1452008390398602008,robocape,10.3103895334,4.14417430425,-13.2744736865,0.0,10.0,0.0,0.0,0.0,10.0,0.0,0.0,0.0,10.0,0.00932106381528,0.0214384467751,0.00066579027252,1.0,0.0,0.0,0.0,1.0,0.0,0.0,0.0,1.0,0.405955810547,-0.959205322266,10.2446960449,0.1,0.0,0.0,0.0,0.1,0.0,0.0,0.0,0.1
1452008390434295446,61,1452008390431313991,robocape,10.471109086,4.2202217754,-13.2028912417,0.0,10.0,0.0,0.0,0.0,10.0,0.0,0.0,0.0,10.0,0.0921453737167,0.048869006003,0.0162452826495,1.0,0.0,0.0,0.0,1.0,0.0,0.0,0.0,1.0,0.190404052734,-0.743653564453,10.1955981445,0.1,0.0,0.0,0.0,0.1,0.0,0.0,0.0,0.1
1452008390467228946,62,1452008390464240074,robocape,10.7234339535,4.3248032842,-13.1199273894,0.0,10.0,0.0,0.0,0.0,10.0,0.0,0.0,0.0,10.0,0.140348589447,0.0649811305979,0.0186421276306,1.0,0.0,0.0,0.0,1.0,0.0,0.0,0.0,1.0,0.171243896484,-0.360450439453,10.0770446777,0.1,0.0,0.0,0.0,0.1,0.0,0.0,0.0,0.1
1452008390500549071,63,1452008390497565031,robocape,10.9581523653,4.42186128099,-13.0403782772,0.0,10.0,0.0,0.0,0.0,10.0,0.0,0.0,0.0,10.0,0.131426999795,0.0609863889628,0.01744370514,1.0,0.0,0.0,0.0,1.0,0.0,0.0,0.0,1.0,0.0538879394531,-0.105380859375,10.0027990723,0.1,0.0,0.0,0.0,0.1,0.0,0.0,0.0,0.1
1452008390533854238,64,1452008390530867099,robocape,11.1228546441,4.49771025725,-12.9698003446,0.0,10.0,0.0,0.0,0.0,10.0,0.0,0.0,0.0,10.0,0.0949416928613,0.0492684801665,0.0151800182135,1.0,0.0,0.0,0.0,1.0,0.0,0.0,0.0,1.0,-0.0706530761719,0.122145996094,9.95250366211,0.1,0.0,0.0,0.0,0.1,0.0,0.0,0.0,0.1
1452008390567244571,65,1452008390564213991,robocape,11.1830852459,4.54564911758,-12.9136073419,0.0,10.0,0.0,0.0,0.0,10.0,0.0,0.0,0.0,10.0,0.0403468905147,0.0334226716805,0.0111852765783,1.0,0.0,0.0,0.0,1.0,0.0,0.0,0.0,1.0,-0.0802331542969,0.223934326172,9.90819580078,0.1,0.0,0.0,0.0,0.1,0.0,0.0,0.0,0.1
1452008390600342405,66,1452008390597337961,robocape,11.1288779064,4.56179535987,-12.8734476973,0.0,10.0,0.0,0.0,0.0,10.0,0.0,0.0,0.0,10.0,-0.0195742340121,0.015313176268,0.00692421883421,1.0,0.0,0.0,0.0,1.0,0.0,0.0,0.0,1.0,-0.0826281738281,0.166453857422,9.93454101563,0.1,0.0,0.0,0.0,0.1,0.0,0.0,0.0,0.1
1452008390633696780,67,1452008390630687952,robocape,10.9829691804,4.55447368386,-12.8440716332,0.0,10.0,0.0,0.0,0.0,10.0,0.0,0.0,0.0,10.0,-0.0677774497425,0.00199737081756,0.00439421579863,1.0,0.0,0.0,0.0,1.0,0.0,0.0,0.0,1.0,-0.0371228027344,0.00598754882813,9.98962646484,0.1,0.0,0.0,0.0,0.1,0.0,0.0,0.0,0.1
1452008390667033363,68,1452008390664045095,robocape,10.790000105,4.52991334063,-12.8220655337,0.0,10.0,0.0,0.0,0.0,10.0,0.0,0.0,0.0,10.0,-0.0925448478803,-0.00772316716123,0.00266316109008,1.0,0.0,0.0,0.0,1.0,0.0,0.0,0.0,1.0,0.0778381347656,-0.174836425781,10.0495019531,0.1,0.0,0.0,0.0,0.1,0.0,0.0,0.0,0.1
1452008390700484946,69,1452008390697386026,robocape,10.6206954058,4.51089500797,-12.8033606393,0.0,10.0,0.0,0.0,0.0,10.0,0.0,0.0,0.0,10.0,-0.0800279907569,-0.00519316412565,0.000266316109008,1.0,0.0,0.0,0.0,1.0,0.0,0.0,0.0,1.0,0.154478759766,-0.433498535156,9.96567626953,0.1,0.0,0.0,0.0,0.1,0.0,0.0,0.0,0.1
1452008390733976238,70,1452008390730895042,robocape,10.5229156302,4.51313893247,-12.7719288618,0.0,10.0,0.0,0.0,0.0,10.0,0.0,0.0,0.0,10.0,-0.0428768935503,0.00705737688871,0.00439421579863,1.0,0.0,0.0,0.0,1.0,0.0,0.0,0.0,1.0,0.182021484375,-0.597557373047,10.132130127,0.1,0.0,0.0,0.0,0.1,0.0,0.0,0.0,0.1
1452008390767279113,71,1452008390764177083,robocape,10.5196138341,4.54309719176,-12.7284137948,0.0,10.0,0.0,0.0,0.0,10.0,0.0,0.0,0.0,10.0,0.00652474467069,0.0226368692657,0.00745685105222,1.0,0.0,0.0,0.0,1.0,0.0,0.0,0.0,1.0,0.219144287109,-0.599952392578,10.1393151855,0.1,0.0,0.0,0.0,0.1,0.0,0.0,0.0,0.1
1452008390800595780,72,1452008390797420024,robocape,10.5981370006,4.6030673534,-12.6773089727,0.0,10.0,0.0,0.0,0.0,10.0,0.0,0.0,0.0,10.0,0.0495347962755,0.0390153099697,0.00798948327024,1.0,0.0,0.0,0.0,1.0,0.0,0.0,0.0,1.0,-0.150886230469,-0.583187255859,10.1668579102,0.1,0.0,0.0,0.0,0.1,0.0,0.0,0.0,0.1
1452008390834016363,73,1452008390830699920,robocape,10.6994941602,4.65907738029,-12.6228067327,0.0,10.0,0.0,0.0,0.0,10.0,0.0,0.0,0.0,10.0,0.0615190211808,0.0374174133156,0.0099868540878,1.0,0.0,0.0,0.0,1.0,0.0,0.0,0.0,1.0,0.245489501953,-0.229921875,10.1249450684,0.1,0.0,0.0,0.0,0.1,0.0,0.0,0.0,0.1
1452008390867806738,74,1452008390864124059,robocape,10.7759943951,4.71096837893,-12.5744348893,0.0,10.0,0.0,0.0,0.0,10.0,0.0,0.0,0.0,10.0,0.0487358479485,0.0347542522255,0.00732369299772,1.0,0.0,0.0,0.0,1.0,0.0,0.0,0.0,1.0,-0.028740234375,-0.209564208984,10.0938098145,0.1,0.0,0.0,0.0,0.1,0.0,0.0,0.0,0.1
1452008390900717280,75,1452008390897352933,robocape,10.8195081638,4.75174049936,-12.515017363,0.0,10.0,0.0,0.0,0.0,10.0,0.0,0.0,0.0,10.0,0.0307595105904,0.0300937203179,0.0143810698864,1.0,0.0,0.0,0.0,1.0,0.0,0.0,0.0,1.0,0.0946032714844,-0.0730480957031,10.0351318359,0.1,0.0,0.0,0.0,0.1,0.0,0.0,0.0,0.1
1452008390933974905,76,1452008390930809020,robocape,10.8110669467,4.77894127163,-12.4737577694,0.0,10.0,0.0,0.0,0.0,10.0,0.0,0.0,0.0,10.0,0.00412789968962,0.0213052887206,0.0066579027252,1.0,0.0,0.0,0.0,1.0,0.0,0.0,0.0,1.0,0.0419128417969,-0.120948486328,10.0099841309,0.1,0.0,0.0,0.0,0.1,0.0,0.0,0.0,0.1
1452008390967412113,77,1452008390964059114,robocape,10.7723662721,4.79651330033,-12.431739375,0.0,10.0,0.0,0.0,0.0,10.0,0.0,0.0,0.0,10.0,-0.0119842249054,0.016378440704,0.00825579937925,1.0,0.0,0.0,0.0,1.0,0.0,0.0,0.0,1.0,0.0107775878906,-0.167651367188,10.0447119141,0.1,0.0,0.0,0.0,0.1,0.0,0.0,0.0,0.1
1452008391000563946,78,1452008390997471094,robocape,10.7031010861,4.80926565991,-12.3952167263,0.0,10.0,0.0,0.0,0.0,10.0,0.0,0.0,0.0,10.0,-0.0279631914458,0.0133158054504,0.00612527050718,1.0,0.0,0.0,0.0,1.0,0.0,0.0,0.0,1.0,0.1149609375,-0.132923583984,10.0471069336,0.1,0.0,0.0,0.0,0.1,0.0,0.0,0.0,0.1
1452008391033858238,79,1452008391030816078,robocape,10.6275235728,4.81229436071,-12.3477055238,0.0,10.0,0.0,0.0,0.0,10.0,0.0,0.0,0.0,10.0,-0.031957933081,0.00932106381528,0.0129163312869,1.0,0.0,0.0,0.0,1.0,0.0,0.0,0.0,1.0,-0.0275427246094,-0.124541015625,9.90939331055,0.1,0.0,0.0,0.0,0.1,0.0,0.0,0.0,0.1
1452008391067375321,80,1452008391064202070,robocape,10.5097718657,4.80730909871,-12.3202467365,0.0,10.0,0.0,0.0,0.0,10.0,0.0,0.0,0.0,10.0,-0.0533963798561,0.0031957933081,0.00359526747161,1.0,0.0,0.0,0.0,1.0,0.0,0.0,0.0,1.0,0.0874182128906,-0.154478759766,9.93094848633,0.1,0.0,0.0,0.0,0.1,0.0,0.0,0.0,0.1
1452008391101007988,81,1452008391097910881,robocape,10.3647831236,4.8091862459,-12.3144010806,0.0,10.0,0.0,0.0,0.0,10.0,0.0,0.0,0.0,10.0,-0.066845343361,0.00466053190764,-0.00812264132474,1.0,0.0,0.0,0.0,1.0,0.0,0.0,0.0,1.0,0.222736816406,-0.373623046875,10.249486084,0.1,0.0,0.0,0.0,0.1,0.0,0.0,0.0,0.1
1452008391134083696,82,1452008391131001949,robocape,10.3133916837,4.82405849165,-12.2732205338,0.0,10.0,0.0,0.0,0.0,10.0,0.0,0.0,0.0,10.0,-0.0191747598486,0.0147805440499,0.00852211548825,1.0,0.0,0.0,0.0,1.0,0.0,0.0,0.0,1.0,-0.09580078125,-0.586779785156,10.2039807129,0.1,0.0,0.0,0.0,0.1,0.0,0.0,0.0,0.1
1452008391168589405,83,1452008391165560007,robocape,10.3355086503,4.86357683775,-12.2344450709,0.0,10.0,0.0,0.0,0.0,10.0,0.0,0.0,0.0,10.0,0.0198405501211,0.0274305592278,0.00452737385313,1.0,0.0,0.0,0.0,1.0,0.0,0.0,0.0,1.0,0.263452148438,-0.513731689453,10.1680554199,0.1,0.0,0.0,0.0,0.1,0.0,0.0,0.0,0.1
1452008391202017113,84,1452008391198987007,robocape,10.4243835532,4.91820041727,-12.1752576153,0.0,10.0,0.0,0.0,0.0,10.0,0.0,0.0,0.0,10.0,0.0541953281831,0.0372842552611,0.0133158054504,1.0,0.0,0.0,0.0,1.0,0.0,0.0,0.0,1.0,0.0395178222656,-0.546064453125,10.0866247559,0.1,0.0,0.0,0.0,0.1,0.0,0.0,0.0,0.1
1452008391235667488,85,1452008391232542037,robocape,10.5435729083,4.98221353338,-12.1154415718,0.0,10.0,0.0,0.0,0.0,10.0,0.0,0.0,0.0,10.0,0.0703074527781,0.0423442613323,0.0125168571234,1.0,0.0,0.0,0.0,1.0,0.0,0.0,0.0,1.0,0.182021484375,-0.204774169922,10.0447119141,0.1,0.0,0.0,0.0,0.1,0.0,0.0,0.0,0.1
1452008391268545863,86,1452008391265366077,robocape,10.5950187733,5.02233932823,-11.9778621843,0.0,10.0,0.0,0.0,0.0,10.0,0.0,0.0,0.0,10.0,0.0304931944814,0.0372842552611,0.0556600667827,1.0,0.0,0.0,0.0,1.0,0.0,0.0,0.0,1.0,-0.0646655273438,0.0634680175781,9.99202148437,0.1,0.0,0.0,0.0,0.1,0.0,0.0,0.0,0.1
1452008391302407780,87,1452008391298959970,robocape,10.4077006368,5.03896877969,-11.7151166029,0.0,10.0,0.0,0.0,0.0,10.0,0.0,0.0,0.0,10.0,-0.102398543914,0.0363521488796,0.124502780961,1.0,0.0,0.0,0.0,1.0,0.0,0.0,0.0,1.0,0.170046386719,-0.320932617188,9.98483642578,0.1,0.0,0.0,0.0,0.1,0.0,0.0,0.0,0.1
1452008391334276988,88,1452008391331233978,robocape,10.3961850338,5.09578841452,-11.5184100087,0.0,10.0,0.0,0.0,0.0,10.0,0.0,0.0,0.0,10.0,-0.00612527050718,0.0511326929295,0.085620629046,1.0,0.0,0.0,0.0,1.0,0.0,0.0,0.0,1.0,0.275427246094,-0.719703369141,10.1584753418,0.1,0.0,0.0,0.0,0.1,0.0,0.0,0.0,0.1
1452008391369062655,89,1452008391365859031,robocape,10.5565751398,5.18471990852,-11.3579482936,0.0,10.0,0.0,0.0,0.0,10.0,0.0,0.0,0.0,10.0,0.0866858934821,0.0648479725434,0.0628506017259,1.0,0.0,0.0,0.0,1.0,0.0,0.0,0.0,1.0,0.208366699219,-0.710123291016,10.132130127,0.1,0.0,0.0,0.0,0.1,0.0,0.0,0.0,0.1
1452008391402076280,90,1452008391399008035,robocape,10.8227988397,5.29532680574,-11.2358476021,0.0,10.0,0.0,0.0,0.0,10.0,0.0,0.0,0.0,10.0,0.1448759633,0.0729706138682,0.0400805744057,1.0,0.0,0.0,0.0,1.0,0.0,0.0,0.0,1.0,0.0562829589844,-0.118553466797,10.0255517578,0.1,0.0,0.0,0.0,0.1,0.0,0.0,0.0,0.1
1452008391440942780,91,1452008391436902999,robocape,11.1093836228,5.39812026877,-11.1709778438,0.0,10.0,0.0,0.0,0.0,10.0,0.0,0.0,0.0,10.0,0.158990717078,0.0637827081074,0.0107858024148,1.0,0.0,0.0,0.0,1.0,0.0,0.0,0.0,1.0,-0.0167651367188,-0.0598754882813,9.96208374023,0.1,0.0,0.0,0.0,0.1,0.0,0.0,0.0,0.1
1452008391468543322,92,1452008391465001106,robocape,11.309118863,5.47484832664,-11.1199374112,0.0,10.0,0.0,0.0,0.0,10.0,0.0,0.0,0.0,10.0,0.113983294655,0.0490021640575,0.00652474467069,1.0,0.0,0.0,0.0,1.0,0.0,0.0,0.0,1.0,0.00119750976563,0.1149609375,9.94771362305,0.1,0.0,0.0,0.0,0.1,0.0,0.0,0.0,0.1
1452008391501523363,93,1452008391498440027,robocape,11.5617340748,5.54267621437,-11.1825112065,0.0,10.0,0.0,0.0,0.0,10.0,0.0,0.0,0.0,10.0,0.148604388826,0.0331563555715,-0.051798483202,1.0,0.0,0.0,0.0,1.0,0.0,0.0,0.0,1.0,-0.0275427246094,0.0347277832031,9.81958007812,0.1,0.0,0.0,0.0,0.1,0.0,0.0,0.0,0.1
1452008391537411155,94,1452008391532134056,robocape,11.5919788719,5.55940677011,-11.2549353445,0.0,10.0,0.0,0.0,0.0,10.0,0.0,0.0,0.0,10.0,0.0314253008629,0.00532632218016,-0.0503337446025,1.0,0.0,0.0,0.0,1.0,0.0,0.0,0.0,1.0,-0.379610595703,0.567619628906,9.7752722168,0.1,0.0,0.0,0.0,0.1,0.0,0.0,0.0,0.1
1452008391571743238,95,1452008391568656921,robocape,11.4450818157,5.53383444294,-11.3845853154,0.0,10.0,0.0,0.0,0.0,10.0,0.0,0.0,0.0,10.0,-0.0593884923088,-0.0226368692657,-0.0744353524677,1.0,0.0,0.0,0.0,1.0,0.0,0.0,0.0,1.0,-0.0347277832031,0.505349121094,9.83155517578,0.1,0.0,0.0,0.0,0.1,0.0,0.0,0.0,0.1
1452008391604710780,96,1452008391601577997,robocape,11.0868644621,5.45990433717,-11.4588750592,0.0,10.0,0.0,0.0,0.0,10.0,0.0,0.0,0.0,10.0,-0.174836525564,-0.0422111032778,-0.0396811002422,1.0,0.0,0.0,0.0,1.0,0.0,0.0,0.0,1.0,-0.177231445313,0.0754431152344,9.93334350586,0.1,0.0,0.0,0.0,0.1,0.0,0.0,0.0,0.1
1452008391637935363,97,1452008391634826898,robocape,10.675146362,5.36437037613,-11.501102775,0.0,10.0,0.0,0.0,0.0,10.0,0.0,0.0,0.0,10.0,-0.205329720045,-0.050200586548,-0.0209058145571,1.0,0.0,0.0,0.0,1.0,0.0,0.0,0.0,1.0,0.0131726074219,-0.120948486328,10.0459094238,0.1,0.0,0.0,0.0,0.1,0.0,0.0,0.0,0.1
1452008391670881863,98,1452008391667623043,robocape,10.2597341787,5.27809718376,-11.5408297737,0.0,10.0,0.0,0.0,0.0,10.0,0.0,0.0,0.0,10.0,-0.207726565026,-0.0451405804768,-0.0209058145571,1.0,0.0,0.0,0.0,1.0,0.0,0.0,0.0,1.0,0.413140869141,-0.55564453125,10.1393151855,0.1,0.0,0.0,0.0,0.1,0.0,0.0,0.0,0.1
1452008391704446738,99,1452008391700143098,robocape,9.98082267575,5.23668579168,-11.5263090589,0.0,10.0,0.0,0.0,0.0,10.0,0.0,0.0,0.0,10.0,-0.138617534739,-0.0167779148675,0.00199737081756,1.0,0.0,0.0,0.0,1.0,0.0,0.0,0.0,1.0,0.162861328125,-0.850231933594,10.3991748047,0.1,0.0,0.0,0.0,0.1,0.0,0.0,0.0,0.1
1452008391737804155,100,1452008391734462022,robocape,9.73025395163,5.25813732671,-11.3658201763,0.0,10.0,0.0,0.0,0.0,10.0,0.0,0.0,0.0,10.0,-0.131426999795,0.0284958236638,0.0719053494321,1.0,0.0,0.0,0.0,1.0,0.0,0.0,0.0,1.0,0.465831298828,-1.50407226563,10.366842041,0.1,0.0,0.0,0.0,0.1,0.0,0.0,0.0,0.1
1452008391772007072,101,1452008391768541097,robocape,9.88931431897,5.35885688276,-11.189334997,0.0,10.0,0.0,0.0,0.0,10.0,0.0,0.0,0.0,10.0,0.0841558904465,0.0716390333231,0.0711064011051,1.0,0.0,0.0,0.0,1.0,0.0,0.0,0.0,1.0,0.477806396484,-1.45736938477,10.362052002,0.1,0.0,0.0,0.0,0.1,0.0,0.0,0.0,0.1
1452008391805066447,102,1452008391801546096,robocape,10.3279992023,5.51887846051,-10.983786961,0.0,10.0,0.0,0.0,0.0,10.0,0.0,0.0,0.0,10.0,0.230629750401,0.105993811385,0.0789627263208,1.0,0.0,0.0,0.0,1.0,0.0,0.0,0.0,1.0,0.214354248047,-0.688568115234,10.2003881836,0.1,0.0,0.0,0.0,0.1,0.0,0.0,0.0,0.1
1452008391838003613,103,1452008391834439992,robocape,10.7317445604,5.67871490061,-10.6872374371,0.0,10.0,0.0,0.0,0.0,10.0,0.0,0.0,0.0,10.0,0.207327090863,0.115181717146,0.125568045397,1.0,0.0,0.0,0.0,1.0,0.0,0.0,0.0,1.0,0.0969982910156,-0.246687011719,10.0363293457,0.1,0.0,0.0,0.0,0.1,0.0,0.0,0.0,0.1
1452008391870909530,104,1452008391867535114,robocape,11.0230765451,5.81964335924,-10.3250988879,0.0,10.0,0.0,0.0,0.0,10.0,0.0,0.0,0.0,10.0,0.144077014973,0.112518556056,0.161387562059,1.0,0.0,0.0,0.0,1.0,0.0,0.0,0.0,1.0,-0.00239501953125,-0.0754431152344,9.97645385742,0.1,0.0,0.0,0.0,0.1,0.0,0.0,0.0,0.1
1452008391904358947,105,1452008391901170969,robocape,11.3785366962,5.95653143342,-10.0610346982,0.0,10.0,0.0,0.0,0.0,10.0,0.0,0.0,0.0,10.0,0.183758115215,0.10199906975,0.110388027184,1.0,0.0,0.0,0.0,1.0,0.0,0.0,0.0,1.0,0.0443078613281,-0.185614013672,9.97645385742,0.1,0.0,0.0,0.0,0.1,0.0,0.0,0.0,0.1
1452008391937434447,106,1452008391934259891,robocape,11.7203630904,6.0659111178,-9.86229805184,0.0,10.0,0.0,0.0,0.0,10.0,0.0,0.0,0.0,10.0,0.180562321907,0.0820253615744,0.0792290424299,1.0,0.0,0.0,0.0,1.0,0.0,0.0,0.0,1.0,0.0119750976563,0.519719238281,9.9249609375,0.1,0.0,0.0,0.0,0.1,0.0,0.0,0.0,0.1
1452008391970043030,107,1452008391966639041,robocape,11.8578334813,6.13427819208,-9.65519697242,0.0,10.0,0.0,0.0,0.0,10.0,0.0,0.0,0.0,10.0,0.0717721913776,0.0617853372898,0.0888164223541,1.0,0.0,0.0,0.0,1.0,0.0,0.0,0.0,1.0,-0.347277832031,0.380808105469,9.81479003906,0.1,0.0,0.0,0.0,0.1,0.0,0.0,0.0,0.1
1452008392004041072,108,1452008392000971078,robocape,11.7918667953,6.15927041902,-9.47279520944,0.0,10.0,0.0,0.0,0.0,10.0,0.0,0.0,0.0,10.0,-0.0347542522255,0.0364853069341,0.0820253615744,1.0,0.0,0.0,0.0,1.0,0.0,0.0,0.0,1.0,-0.0359252929688,0.387993164063,9.82796264648,0.1,0.0,0.0,0.0,0.1,0.0,0.0,0.0,0.1
1452008392036424280,109,1452008392033303976,robocape,11.7370072557,6.18753389683,-9.38288922627,0.0,10.0,0.0,0.0,0.0,10.0,0.0,0.0,0.0,10.0,-0.0233026595382,0.0284958236638,0.0342216200075,1.0,0.0,0.0,0.0,1.0,0.0,0.0,0.0,1.0,0.164058837891,-0.0598754882813,9.99082397461,0.1,0.0,0.0,0.0,0.1,0.0,0.0,0.0,0.1
1452008392069312489,110,1452008392066243886,robocape,11.7299155992,6.21524977353,-9.31328965349,0.0,10.0,0.0,0.0,0.0,10.0,0.0,0.0,0.0,10.0,0.0031957933081,0.0262321367373,0.0237021337017,1.0,0.0,0.0,0.0,1.0,0.0,0.0,0.0,1.0,-0.0323327636719,-0.377215576172,10.0435144043,0.1,0.0,0.0,0.0,0.1,0.0,0.0,0.0,0.1
1452008392103522572,111,1452008392100472927,robocape,11.7111678624,6.24599068395,-9.23423135466,0.0,10.0,0.0,0.0,0.0,10.0,0.0,0.0,0.0,10.0,-0.00359526747161,0.0287621397729,0.0283626656093,1.0,0.0,0.0,0.0,1.0,0.0,0.0,0.0,1.0,-0.135318603516,0.131726074219,9.95849121094,0.1,0.0,0.0,0.0,0.1,0.0,0.0,0.0,0.1
1452008392136838864,112,1452008392133806943,robocape,11.6663786624,6.271602639,-9.14709577536,0.0,10.0,0.0,0.0,0.0,10.0,0.0,0.0,0.0,10.0,-0.017976337358,0.0268979270098,0.033289513626,1.0,0.0,0.0,0.0,1.0,0.0,0.0,0.0,1.0,-0.205971679688,-0.0431103515625,9.94292358398,0.1,0.0,0.0,0.0,0.1,0.0,0.0,0.0,0.1
1452008392170169780,113,1452008392167172908,robocape,11.6015703906,6.31656354494,-9.07464650538,0.0,10.0,0.0,0.0,0.0,10.0,0.0,0.0,0.0,10.0,-0.0276968753368,0.0352868844435,0.0238352917562,1.0,0.0,0.0,0.0,1.0,0.0,0.0,0.0,1.0,-1.20349731445,-0.457448730469,10.0890197754,0.1,0.0,0.0,0.0,0.1,0.0,0.0,0.0,0.1
1452008392202562030,114,1452008392199455022,robocape,11.5858861951,6.33549824096,-9.01439160095,0.0,10.0,0.0,0.0,0.0,10.0,0.0,0.0,0.0,10.0,-0.00106526443603,0.0207726565026,0.0202400242846,1.0,0.0,0.0,0.0,1.0,0.0,0.0,0.0,1.0,-1.94236083984,-0.495769042969,10.100994873,0.1,0.0,0.0,0.0,0.1,0.0,0.0,0.0,0.1
1452008392236313239,115,1452008392233263969,robocape,11.5493984878,6.35502576929,-8.90332922315,0.0,10.0,0.0,0.0,0.0,10.0,0.0,0.0,0.0,10.0,-0.015313176268,0.0262321367373,0.0464721610219,1.0,0.0,0.0,0.0,1.0,0.0,0.0,0.0,1.0,-1.92439819336,-0.367635498047,10.3045715332,0.1,0.0,0.0,0.0,0.1,0.0,0.0,0.0,0.1
1452008392268253822,116,1452008392265249013,robocape,11.4647840561,6.35536218046,-8.7850420545,0.0,10.0,0.0,0.0,0.0,10.0,0.0,0.0,0.0,10.0,-0.0414121549507,0.016911072922,0.0525974315291,1.0,0.0,0.0,0.0,1.0,0.0,0.0,0.0,1.0,-2.51477050781,-0.693358154297,10.0734521484,0.1,0.0,0.0,0.0,0.1,0.0,0.0,0.0,0.1
1452008392301846322,117,1452008392298748970,robocape,11.4631241968,6.27536616895,-8.60946878772,0.0,10.0,0.0,0.0,0.0,10.0,0.0,0.0,0.0,10.0,-0.00133158054504,-0.0185089695761,0.0904143190082,1.0,0.0,0.0,0.0,1.0,0.0,0.0,0.0,1.0,-0.995130615234,-0.529299316406,9.95370117188,0.1,0.0,0.0,0.0,0.1,0.0,0.0,0.0,0.1
1452008392335135072,118,1452008392332061052,robocape,11.5488836338,6.74661297371,-7.99306361287,0.0,10.0,0.0,0.0,0.0,10.0,0.0,0.0,0.0,10.0,0.0183758115215,0.310790899212,0.257660835465,1.0,0.0,0.0,0.0,1.0,0.0,0.0,0.0,1.0,0.872984619141,-0.573607177734,8.29754516602,0.1,0.0,0.0,0.0,0.1,0.0,0.0,0.0,0.1
1452008392369772864,119,1452008392366712093,robocape,10.9134380651,7.07179800751,-8.25126639542,0.0,10.0,0.0,0.0,0.0,10.0,0.0,0.0,0.0,10.0,-0.307595105904,0.145674911627,-0.17177389031,1.0,0.0,0.0,0.0,1.0,0.0,0.0,0.0,1.0,-0.380808105469,-3.01053955078,10.2231408691,0.1,0.0,0.0,0.0,0.1,0.0,0.0,0.0,0.1
1452008392402792614,120,1452008392399720907,robocape,10.7689284991,7.07813070041,-7.76853504718,0.0,10.0,0.0,0.0,0.0,10.0,0.0,0.0,0.0,10.0,-0.0994690667145,0.0545948023466,0.240217130325,1.0,0.0,0.0,0.0,1.0,0.0,0.0,0.0,1.0,-2.78061767578,0.276624755859,10.9859545898,0.1,0.0,0.0,0.0,0.1,0.0,0.0,0.0,0.1
1452008392434980072,121,1452008392431699037,robocape,10.5461752449,7.05243116461,-7.45200124143,0.0,10.0,0.0,0.0,0.0,10.0,0.0,0.0,0.0,10.0,-0.129695945087,0.0214384467751,0.158724400969,1.0,0.0,0.0,0.0,1.0,0.0,0.0,0.0,1.0,-4.3337878418,-0.647852783203,9.22801025391,0.1,0.0,0.0,0.0,0.1,0.0,0.0,0.0,0.1
1452008392467479197,122,1452008392464242935,robocape,9.95133791108,7.01019628871,-6.93980198862,0.0,10.0,0.0,0.0,0.0,10.0,0.0,0.0,0.0,10.0,-0.339819355094,0.0283626656093,0.262587683482,1.0,0.0,0.0,0.0,1.0,0.0,0.0,0.0,1.0,-4.68825073242,0.179626464844,9.63875610352,0.1,0.0,0.0,0.0,0.1,0.0,0.0,0.0,0.1
1452008392501433197,123,1452008392497529029,robocape,8.76671263971,6.89146552377,-6.5143111351,0.0,10.0,0.0,0.0,0.0,10.0,0.0,0.0,0.0,10.0,-0.645417090181,-0.0241016078652,0.226901324875,1.0,0.0,0.0,0.0,1.0,0.0,0.0,0.0,1.0,-3.17459838867,0.179626464844,9.98363891602,0.1,0.0,0.0,0.0,0.1,0.0,0.0,0.0,0.1
1452008392534147489,124,1452008392531099081,robocape,7.86437910353,6.71170933367,-6.5826655402,0.0,10.0,0.0,0.0,0.0,10.0,0.0,0.0,0.0,10.0,-0.464322136055,-0.0953411670248,-0.0249005561922,1.0,0.0,0.0,0.0,1.0,0.0,0.0,0.0,1.0,1.37713623047,1.73998168945,12.6959985352,0.1,0.0,0.0,0.0,0.1,0.0,0.0,0.0,0.1
1452008392567696739,125,1452008392564165115,robocape,5.74425268966,6.65200674711,-6.33770216127,0.0,10.0,0.0,0.0,0.0,10.0,0.0,0.0,0.0,10.0,-1.12491924445,-0.0157126504315,0.129962261196,1.0,0.0,0.0,0.0,1.0,0.0,0.0,0.0,1.0,-0.556842041016,0.215551757813,9.77287719727,0.1,0.0,0.0,0.0,0.1,0.0,0.0,0.0,0.1
1452008392600426197,126,1452008392597414016,robocape,3.16898672119,5.67336016276,-5.43761011172,0.0,10.0,0.0,0.0,0.0,10.0,0.0,0.0,0.0,10.0,-1.40042325922,-0.476439519015,0.509063242369,1.0,0.0,0.0,0.0,1.0,0.0,0.0,0.0,1.0,-1.02866088867,0.439486083984,7.76345581055,0.1,0.0,0.0,0.0,0.1,0.0,0.0,0.0,0.1
1452008392633773864,127,1452008392630774021,robocape,-0.681357138586,5.24808985407,-5.2886978615,0.0,10.0,0.0,0.0,0.0,10.0,0.0,0.0,0.0,10.0,-2.02426874457,-0.220509738259,0.0818922035199,1.0,0.0,0.0,0.0,1.0,0.0,0.0,0.0,1.0,-2.55548583984,0.293389892578,7.8137512207,0.1,0.0,0.0,0.0,0.1,0.0,0.0,0.0,0.1
1452008392667582989,128,1452008392664253950,robocape,-5.50830513675,4.05857924843,-4.39007429721,0.0,10.0,0.0,0.0,0.0,10.0,0.0,0.0,0.0,10.0,-2.56928466165,-0.646216038508,0.433296309356,1.0,0.0,0.0,0.0,1.0,0.0,0.0,0.0,1.0,-0.482596435547,0.621507568359,7.00303710938,0.1,0.0,0.0,0.0,0.1,0.0,0.0,0.0,0.1
1452008392701265239,129,1452008392698160886,robocape,-12.701334075,2.80752082129,-2.44164681286,0.0,10.0,0.0,0.0,0.0,10.0,0.0,0.0,0.0,10.0,-3.85505883594,-0.804807281422,0.899482658174,1.0,0.0,0.0,0.0,1.0,0.0,0.0,0.0,1.0,2.04893920898,1.48970214844,5.9743762207,0.1,0.0,0.0,0.0,0.1,0.0,0.0,0.0,0.1
1452008392734250614,130,1452008392731173992,robocape,-20.7853315071,1.41569966488,-1.13417547182,0.0,10.0,0.0,0.0,0.0,10.0,0.0,0.0,0.0,10.0,-4.36332312999,-0.890827384632,0.440353686245,1.0,0.0,0.0,0.0,1.0,0.0,0.0,0.0,1.0,-0.209564208984,0.635877685547,3.96375732422,0.1,0.0,0.0,0.0,0.1,0.0,0.0,0.0,0.1
1452008392767708406,131,1452008392764384984,robocape,-27.2146024105,-0.578231815718,-6.98759250037,0.0,10.0,0.0,0.0,0.0,10.0,0.0,0.0,0.0,10.0,-3.53081897323,0.309059844504,-3.27954972438,1.0,0.0,0.0,0.0,1.0,0.0,0.0,0.0,1.0,10.8638085938,-19.62,19.6194012451,0.1,0.0,0.0,0.0,0.1,0.0,0.0,0.0,0.1
1452008392800842197,132,1452008392797799110,robocape,-24.9101198211,-3.53639625263,-10.5209862153,0.0,10.0,0.0,0.0,0.0,10.0,0.0,0.0,0.0,10.0,1.1382350499,-0.578971220983,-2.34398123343,1.0,0.0,0.0,0.0,1.0,0.0,0.0,0.0,1.0,10.9153015137,-9.9668737793,10.7548352051,0.1,0.0,0.0,0.0,0.1,0.0,0.0,0.0,0.1
1452008392834026572,133,1452008392830985069,robocape,-23.977538903,-2.49823190446,-13.0563101264,0.0,10.0,0.0,0.0,0.0,10.0,0.0,0.0,0.0,10.0,0.389087835261,1.04449177953,-0.997753302398,1.0,0.0,0.0,0.0,1.0,0.0,0.0,0.0,1.0,4.45952636719,-7.8520715332,7.64729736328,0.1,0.0,0.0,0.0,0.1,0.0,0.0,0.0,0.1
1452008392867938239,134,1452008392864715099,robocape,-22.6023886784,-0.880836931221,-13.2814462816,0.0,10.0,0.0,0.0,0.0,10.0,0.0,0.0,0.0,10.0,0.723847184284,0.823982041271,0.230762908455,1.0,0.0,0.0,0.0,1.0,0.0,0.0,0.0,1.0,3.69671264648,-6.07616455078,8.04247558594,0.1,0.0,0.0,0.0,0.1,0.0,0.0,0.0,0.1
1452008392900601614,135,1452008392897602081,robocape,-21.8258058677,-0.44160990853,-14.51667228,0.0,10.0,0.0,0.0,0.0,10.0,0.0,0.0,0.0,10.0,0.374973081483,0.46032739442,-0.527572211945,1.0,0.0,0.0,0.0,1.0,0.0,0.0,0.0,1.0,-2.72553222656,-0.461041259766,11.9307897949,0.1,0.0,0.0,0.0,0.1,0.0,0.0,0.0,0.1
1452008392933816906,136,1452008392930826902,robocape,-22.2360611227,-0.687462029086,-15.6124243478,0.0,10.0,0.0,0.0,0.0,10.0,0.0,0.0,0.0,10.0,-0.270976640916,0.101599595587,-0.615456527917,1.0,0.0,0.0,0.0,1.0,0.0,0.0,0.0,1.0,-0.164058837891,-2.75067993164,11.0853479004,0.1,0.0,0.0,0.0,0.1,0.0,0.0,0.0,0.1
1452008392967391156,137,1452008392964169025,robocape,-22.5763662127,-0.934783105954,-16.5649129333,0.0,10.0,0.0,0.0,0.0,10.0,0.0,0.0,0.0,10.0,-0.235423440363,0.0759000910673,-0.547146445957,1.0,0.0,0.0,0.0,1.0,0.0,0.0,0.0,1.0,0.929267578125,-4.68825073242,8.25443481445,0.1,0.0,0.0,0.0,0.1,0.0,0.0,0.0,0.1
1452008393000684989,138,1452008392997699022,robocape,-23.2918675854,-1.13066046813,-17.9823351707,0.0,10.0,0.0,0.0,0.0,10.0,0.0,0.0,0.0,10.0,-0.457397917221,0.20279971701,-0.776710931922,1.0,0.0,0.0,0.0,1.0,0.0,0.0,0.0,1.0,4.75052124023,-5.79115722656,10.2782263184,0.1,0.0,0.0,0.0,0.1,0.0,0.0,0.0,0.1
1452008393034237197,139,1452008393031184911,robocape,-23.547361889,-1.11143021889,-19.3690365688,0.0,10.0,0.0,0.0,0.0,10.0,0.0,0.0,0.0,10.0,-0.210256568062,0.30599720925,-0.712928223814,1.0,0.0,0.0,0.0,1.0,0.0,0.0,0.0,1.0,3.12071044922,-5.64386352539,10.4195324707,0.1,0.0,0.0,0.0,0.1,0.0,0.0,0.0,0.1
1452008393071320239,140,1452008393067926883,robocape,-23.7550486188,-1.52863329676,-20.9922247838,0.0,10.0,0.0,0.0,0.0,10.0,0.0,0.0,0.0,10.0,-0.200136555919,0.150335443535,-0.929310062383,1.0,0.0,0.0,0.0,1.0,0.0,0.0,0.0,1.0,1.86332519531,-6.41026977539,10.4015698242,0.1,0.0,0.0,0.0,0.1,0.0,0.0,0.0,0.1
1452008393104273822,141,1452008393101138114,robocape,-23.5974614847,-1.65052282697,-22.5961406091,0.0,10.0,0.0,0.0,0.0,10.0,0.0,0.0,0.0,10.0,-0.00612527050718,0.288020871892,-0.856605764624,1.0,0.0,0.0,0.0,1.0,0.0,0.0,0.0,1.0,3.42847045898,-5.20317993164,10.7308850098,0.1,0.0,0.0,0.0,0.1,0.0,0.0,0.0,0.1
1452008393137437406,142,1452008393134372949,robocape,-23.528083816,-1.77321698398,-23.4988501305,0.0,10.0,0.0,0.0,0.0,10.0,0.0,0.0,0.0,10.0,-0.033023197517,0.137685428357,-0.513723774276,1.0,0.0,0.0,0.0,1.0,0.0,0.0,0.0,1.0,0.178428955078,-3.85598144531,9.32620605469,0.1,0.0,0.0,0.0,0.1,0.0,0.0,0.0,0.1
1452008393170137614,143,1452008393166889905,robocape,-22.9871653797,-1.9691937678,-23.6539999388,0.0,10.0,0.0,0.0,0.0,10.0,0.0,0.0,0.0,10.0,0.252600829394,-0.0585895439817,-0.143943856919,1.0,0.0,0.0,0.0,1.0,0.0,0.0,0.0,1.0,3.29674438477,-5.15288452148,11.1428283691,0.1,0.0,0.0,0.0,0.1,0.0,0.0,0.0,0.1
1452008393203085322,144,1452008393200027942,robocape,-22.5159234783,-2.33023938869,-25.2478826155,0.0,10.0,0.0,0.0,0.0,10.0,0.0,0.0,0.0,10.0,0.152332814353,0.156860188206,-0.91266530557,1.0,0.0,0.0,0.0,1.0,0.0,0.0,0.0,1.0,1.59987304688,-4.22601196289,9.90460327148,0.1,0.0,0.0,0.0,0.1,0.0,0.0,0.0,0.1
1452008393237391406,145,1452008393234355926,robocape,-21.5531274964,-2.34420875634,-26.6392891836,0.0,10.0,0.0,0.0,0.0,10.0,0.0,0.0,0.0,10.0,0.427304196903,0.273240327842,-0.735165618916,1.0,0.0,0.0,0.0,1.0,0.0,0.0,0.0,1.0,1.32564331055,-8.26401489258,9.47709228516,0.1,0.0,0.0,0.0,0.1,0.0,0.0,0.0,0.1
1452008393270192823,146,1452008393267182111,robocape,-21.1508794997,-2.33685398329,-28.1950988041,0.0,10.0,0.0,0.0,0.0,10.0,0.0,0.0,0.0,10.0,0.113051188274,0.309858792831,-0.841425746411,1.0,0.0,0.0,0.0,1.0,0.0,0.0,0.0,1.0,-2.32556396484,-7.95625488281,10.9991271973,0.1,0.0,0.0,0.0,0.1,0.0,0.0,0.0,0.1
1452008393303059739,147,1452008393300065040,robocape,-21.0548821185,-2.44097697018,-28.5117007752,0.0,10.0,0.0,0.0,0.0,10.0,0.0,0.0,0.0,10.0,0.00119842249054,0.0146473859954,-0.231029224564,1.0,0.0,0.0,0.0,1.0,0.0,0.0,0.0,1.0,-2.20341796875,-4.42360107422,9.86029541016,0.1,0.0,0.0,0.0,0.1,0.0,0.0,0.0,0.1
1452008393336925906,148,1452008393333910942,robocape,-21.4084532463,-2.50204424316,-30.2143619812,0.0,10.0,0.0,0.0,0.0,10.0,0.0,0.0,0.0,10.0,-0.312388795866,0.306796157577,-0.965795369317,1.0,0.0,0.0,0.0,1.0,0.0,0.0,0.0,1.0,0.553249511719,-6.75994262695,8.69990844727,0.1,0.0,0.0,0.0,0.1,0.0,0.0,0.0,0.1
1452008393371247489,149,1452008393368155956,robocape,-21.8595019724,-2.61087472712,-31.880802292,0.0,10.0,0.0,0.0,0.0,10.0,0.0,0.0,0.0,10.0,-0.372309920393,0.284825078584,-0.971654323715,1.0,0.0,0.0,0.0,1.0,0.0,0.0,0.0,1.0,-0.536484375,-6.12645996094,10.1021923828,0.1,0.0,0.0,0.0,0.1,0.0,0.0,0.0,0.1
1452008393403902281,150,1452008393400816917,robocape,-21.4206578604,-2.44227527394,-32.6767301396,0.0,10.0,0.0,0.0,0.0,10.0,0.0,0.0,0.0,10.0,0.157659136533,0.245543452505,-0.435559996282,1.0,0.0,0.0,0.0,1.0,0.0,0.0,0.0,1.0,0.550854492188,-6.09771972656,10.1536853027,0.1,0.0,0.0,0.0,0.1,0.0,0.0,0.0,0.1
1452008393435152698,151,1452008393432068109,robocape,-21.1794353141,-2.42937171216,-34.0213480022,0.0,10.0,0.0,0.0,0.0,10.0,0.0,0.0,0.0,10.0,0.0201068662301,0.276968753368,-0.774180928886,1.0,0.0,0.0,0.0,1.0,0.0,0.0,0.0,1.0,4.42240356445,-3.65479980469,8.28916259766,0.1,0.0,0.0,0.0,0.1,0.0,0.0,0.0,0.1
1452008393468090281,152,1452008393464670896,robocape,-21.3051011571,-2.4996825183,-35.5906794088,0.0,10.0,0.0,0.0,0.0,10.0,0.0,0.0,0.0,10.0,-0.196274972339,0.282827707766,-0.935967965108,1.0,0.0,0.0,0.0,1.0,0.0,0.0,0.0,1.0,-2.02019897461,-4.35055297852,10.8278833008,0.1,0.0,0.0,0.0,0.1,0.0,0.0,0.0,0.1
1452008393501323739,153,1452008393498230934,robocape,-21.0437864537,-2.42057757502,-37.8478101724,0.0,10.0,0.0,0.0,0.0,10.0,0.0,0.0,0.0,10.0,-0.0267647689553,0.492152169447,-1.28617364845,1.0,0.0,0.0,0.0,1.0,0.0,0.0,0.0,1.0,3.03209472656,-4.19367919922,11.8984570313,0.1,0.0,0.0,0.0,0.1,0.0,0.0,0.0,0.1
1452008393534883698,154,1452008393531817913,robocape,-20.8626931498,-2.26633741576,-40.3225921511,0.0,10.0,0.0,0.0,0.0,10.0,0.0,0.0,0.0,10.0,-0.0864195773731,0.572845950476,-1.42479118319,1.0,0.0,0.0,0.0,1.0,0.0,0.0,0.0,1.0,-0.664617919922,-3.07760009766,9.21723266602,0.1,0.0,0.0,0.0,0.1,0.0,0.0,0.0,0.1
1452008393567966698,155,1452008393564734935,robocape,-20.2576253099,-2.30784921482,-42.6627403564,0.0,10.0,0.0,0.0,0.0,10.0,0.0,0.0,0.0,10.0,0.145674911627,0.445413692316,-1.40921169082,1.0,0.0,0.0,0.0,1.0,0.0,0.0,0.0,1.0,0.889749755859,-3.78652587891,9.29866333008,0.1,0.0,0.0,0.0,0.1,0.0,0.0,0.0,0.1
1452008393600838281,156,1452008393597752094,robocape,-20.9410466134,-2.37659607049,-44.5595496655,0.0,10.0,0.0,0.0,0.0,10.0,0.0,0.0,0.0,10.0,-0.540355385177,0.355798321635,-1.24276412269,1.0,0.0,0.0,0.0,1.0,0.0,0.0,0.0,1.0,0.828676757813,-4.19367919922,9.8447277832,0.1,0.0,0.0,0.0,0.1,0.0,0.0,0.0,0.1
1452008393634242906,157,1452008393631155014,robocape,-20.7667104123,-2.74468309753,-47.2517782703,0.0,10.0,0.0,0.0,0.0,10.0,0.0,0.0,0.0,10.0,-0.141147537774,0.374307291211,-1.76847212187,1.0,0.0,0.0,0.0,1.0,0.0,0.0,0.0,1.0,3.1039453125,-2.99976196289,11.1847412109,0.1,0.0,0.0,0.0,0.1,0.0,0.0,0.0,0.1
1452008393667818906,158,1452008393664684057,robocape,-21.4469133027,-3.10283936272,-48.81354024,0.0,10.0,0.0,0.0,0.0,10.0,0.0,0.0,0.0,10.0,-0.550608555374,0.163518090931,-1.17685088571,1.0,0.0,0.0,0.0,1.0,0.0,0.0,0.0,1.0,2.98658935547,-2.30640380859,8.87234985352,0.1,0.0,0.0,0.0,0.1,0.0,0.0,0.0,0.1
1452008393700636656,159,1452008393697535991,robocape,-21.3620325903,-2.9644778313,-51.5264942515,0.0,10.0,0.0,0.0,0.0,10.0,0.0,0.0,0.0,10.0,-0.226635008766,0.651675518742,-1.75995000638,1.0,0.0,0.0,0.0,1.0,0.0,0.0,0.0,1.0,0.110170898438,-4.6020300293,9.3082434082,0.1,0.0,0.0,0.0,0.1,0.0,0.0,0.0,0.1
1452008393735237573,160,1452008393732156038,robocape,-20.7352675962,-2.49070390733,-54.4949729133,0.0,10.0,0.0,0.0,0.0,10.0,0.0,0.0,0.0,10.0,0.0529969056926,0.869255779802,-1.88152331014,1.0,0.0,0.0,0.0,1.0,0.0,0.0,0.0,1.0,1.43222167969,-4.60921508789,10.3812121582,0.1,0.0,0.0,0.0,0.1,0.0,0.0,0.0,0.1
1452008393767521448,161,1452008393764388084,robocape,-20.3605187455,-2.92420306249,-56.8078777346,0.0,10.0,0.0,0.0,0.0,10.0,0.0,0.0,0.0,10.0,-0.0525974315291,0.288020871892,-1.75102841673,1.0,0.0,0.0,0.0,1.0,0.0,0.0,0.0,1.0,4.16972900391,-0.797541503906,8.67835327148,0.1,0.0,0.0,0.0,0.1,0.0,0.0,0.0,0.1
1452008393800655406,162,1452008393797578096,robocape,-20.9901750751,-2.53943189508,-58.9466371487,0.0,10.0,0.0,0.0,0.0,10.0,0.0,0.0,0.0,10.0,-0.593485448924,0.669119223882,-1.56713714346,1.0,0.0,0.0,0.0,1.0,0.0,0.0,0.0,1.0,1.2298425293,-3.80568603516,9.04958129883,0.1,0.0,0.0,0.0,0.1,0.0,0.0,0.0,0.1
1452008393834142114,163,1452008393830732107,robocape,-20.8385704879,-2.91675964492,-60.356093484,0.0,10.0,0.0,0.0,0.0,10.0,0.0,0.0,0.0,10.0,-0.123703832634,0.150069127426,-1.25514782175,1.0,0.0,0.0,0.0,1.0,0.0,0.0,0.0,1.0,3.41170532227,-3.08837768555,11.8110388184,0.1,0.0,0.0,0.0,0.1,0.0,0.0,0.0,0.1
1452008393867668656,164,1452008393864481925,robocape,-20.320405875,-4.40296749094,-61.7446229391,0.0,10.0,0.0,0.0,0.0,10.0,0.0,0.0,0.0,10.0,0.0464721610219,-0.406132066237,-1.50388706757,1.0,0.0,0.0,0.0,1.0,0.0,0.0,0.0,1.0,1.69687133789,-3.26441162109,9.40883422852,0.1,0.0,0.0,0.0,0.1,0.0,0.0,0.0,0.1
1452008393901030489,165,1452008393898008108,robocape,-20.9751739755,-4.30043946778,-63.2665538513,0.0,10.0,0.0,0.0,0.0,10.0,0.0,0.0,0.0,10.0,-0.613059682936,0.404933643747,-1.34396424411,1.0,0.0,0.0,0.0,1.0,0.0,0.0,0.0,1.0,2.65128662109,-1.94954589844,9.34297119141,0.1,0.0,0.0,0.0,0.1,0.0,0.0,0.0,0.1
1452008393934384698,166,1452008393931029081,robocape,-21.5174016017,-4.75594084871,-64.8374680995,0.0,10.0,0.0,0.0,0.0,10.0,0.0,0.0,0.0,10.0,-0.582699646509,0.159789665405,-1.54676396112,1.0,0.0,0.0,0.0,1.0,0.0,0.0,0.0,1.0,5.4031640625,-2.7590625,9.70102661133,0.1,0.0,0.0,0.0,0.1,0.0,0.0,0.0,0.1
1452008393967557115,167,1452008393964369058,robocape,-20.9373611805,-5.38283844541,-67.0995561314,0.0,10.0,0.0,0.0,0.0,10.0,0.0,0.0,0.0,10.0,-0.0703074527781,0.223838689621,-2.05702562598,1.0,0.0,0.0,0.0,1.0,0.0,0.0,0.0,1.0,5.87019287109,-3.05604492188,9.99202148437,0.1,0.0,0.0,0.0,0.1,0.0,0.0,0.0,0.1
1452008394000760198,168,1452008393997741937,robocape,-21.020862577,-5.64497774463,-68.5216112973,0.0,10.0,0.0,0.0,0.0,10.0,0.0,0.0,0.0,10.0,-0.347808838364,0.22024342215,-1.47139650227,1.0,0.0,0.0,0.0,1.0,0.0,0.0,0.0,1.0,5.57440795898,-1.64298339844,9.64713867188,0.1,0.0,0.0,0.0,0.1,0.0,0.0,0.0,0.1
1452008394034147031,169,1452008394031097888,robocape,-20.7070964655,-5.46017932203,-70.5275318067,0.0,10.0,0.0,0.0,0.0,10.0,0.0,0.0,0.0,10.0,-0.206261826427,0.567253312187,-1.81294691207,1.0,0.0,0.0,0.0,1.0,0.0,0.0,0.0,1.0,0.554447021484,-5.32891845703,10.7332800293,0.1,0.0,0.0,0.0,0.1,0.0,0.0,0.0,0.1
1452008394067384281,170,1452008394064243078,robocape,-21.6128000587,-5.47445408993,-68.8672504576,0.0,10.0,0.0,0.0,0.0,10.0,0.0,0.0,0.0,10.0,-0.400139953784,-0.316383537501,0.776844089976,1.0,0.0,0.0,0.0,1.0,0.0,0.0,0.0,1.0,0.24908203125,-7.39103027344,6.56953857422,0.1,0.0,0.0,0.0,0.1,0.0,0.0,0.0,0.1
1452008394100633906,171,1452008394097616910,robocape,-21.2507167084,-5.05932178232,-70.2690525685,0.0,10.0,0.0,0.0,0.0,10.0,0.0,0.0,0.0,10.0,-0.0964064314609,0.558997512808,-1.29602734449,1.0,0.0,0.0,0.0,1.0,0.0,0.0,0.0,1.0,2.67643432617,-1.5747253418,11.8493591309,0.1,0.0,0.0,0.0,0.1,0.0,0.0,0.0,0.1
1452008394133718448,172,1452008394130712985,robocape,-21.2137232171,-5.00990535801,-70.7696679068,0.0,10.0,0.0,0.0,0.0,10.0,0.0,0.0,0.0,10.0,-0.166048093966,0.18535601187,-0.765525655343,1.0,0.0,0.0,0.0,1.0,0.0,0.0,0.0,1.0,1.13044921875,-4.15176635742,8.56219482422,0.1,0.0,0.0,0.0,0.1,0.0,0.0,0.0,0.1
1452008394167376198,173,1452008394164243936,robocape,-21.1367962988,-4.86010751729,-71.5734900035,0.0,10.0,0.0,0.0,0.0,10.0,0.0,0.0,0.0,10.0,-0.182293376616,0.303999838433,-0.98124170364,1.0,0.0,0.0,0.0,1.0,0.0,0.0,0.0,1.0,4.42839111328,-3.87873413086,9.77048217773,0.1,0.0,0.0,0.0,0.1,0.0,0.0,0.0,0.1
1452008394200547281,174,1452008394197448015,robocape,-20.9768842398,-5.19350062533,-72.5387325487,0.0,10.0,0.0,0.0,0.0,10.0,0.0,0.0,0.0,10.0,-0.170309151711,0.107458549985,-1.24715833848,1.0,0.0,0.0,0.0,1.0,0.0,0.0,0.0,1.0,5.81989746094,-3.87873413086,10.7524401855,0.1,0.0,0.0,0.0,0.1,0.0,0.0,0.0,0.1
1452008394234197740,175,1452008394231065988,robocape,-21.2399576892,-4.6736729893,-73.3328536639,0.0,10.0,0.0,0.0,0.0,10.0,0.0,0.0,0.0,10.0,-0.369913075412,0.489355850302,-0.951414299431,1.0,0.0,0.0,0.0,1.0,0.0,0.0,0.0,1.0,4.08710083008,-7.41498046875,9.01006347656,0.1,0.0,0.0,0.0,0.1,0.0,0.0,0.0,0.1
1452008394267382781,176,1452008394264170885,robocape,-20.541069101,-4.32534123397,-73.9577272719,0.0,10.0,0.0,0.0,0.0,10.0,0.0,0.0,0.0,10.0,0.183358641052,0.363255172687,-0.798682010915,1.0,0.0,0.0,0.0,1.0,0.0,0.0,0.0,1.0,3.88591918945,-2.81774047852,10.0686621094,0.1,0.0,0.0,0.0,0.1,0.0,0.0,0.0,0.1
1452008394300769865,177,1452008394297537088,robocape,-20.9476193135,-4.35605179496,-73.8138010554,0.0,10.0,0.0,0.0,0.0,10.0,0.0,0.0,0.0,10.0,-0.334226716805,0.0167779148675,-0.38788941277,1.0,0.0,0.0,0.0,1.0,0.0,0.0,0.0,1.0,4.23798706055,-0.650247802734,7.50000366211,0.1,0.0,0.0,0.0,0.1,0.0,0.0,0.0,0.1
1452008394334236073,178,1452008394330708026,robocape,-21.0735560515,-4.73439153468,-74.2986495954,0.0,10.0,0.0,0.0,0.0,10.0,0.0,0.0,0.0,10.0,-0.269511902316,-0.00945422186978,-0.958871150483,1.0,0.0,0.0,0.0,1.0,0.0,0.0,0.0,1.0,1.79386962891,-4.89422241211,11.03625,0.1,0.0,0.0,0.0,0.1,0.0,0.0,0.0,0.1
1452008394369719615,179,1452008394366595029,robocape,-20.8090020492,-4.83041443638,-74.7281187097,0.0,10.0,0.0,0.0,0.0,10.0,0.0,0.0,0.0,10.0,-0.0460726868584,0.110254869129,-0.819587825472,1.0,0.0,0.0,0.0,1.0,0.0,0.0,0.0,1.0,3.60689941406,-6.51924316406,7.45210327148,0.1,0.0,0.0,0.0,0.1,0.0,0.0,0.0,0.1
1452008394400834031,180,1452008394397666931,robocape,-19.8233768156,-4.34234526649,-74.1158076231,0.0,10.0,0.0,0.0,0.0,10.0,0.0,0.0,0.0,10.0,0.498144281899,0.149802811317,0.227300799038,1.0,0.0,0.0,0.0,1.0,0.0,0.0,0.0,1.0,3.22968383789,-5.19000732422,12.088861084,0.1,0.0,0.0,0.0,0.1,0.0,0.0,0.0,0.1
1452008394433961281,181,1452008394430825948,robocape,-19.8372042241,-4.04422918776,-74.8963638374,0.0,10.0,0.0,0.0,0.0,10.0,0.0,0.0,0.0,10.0,-0.220509738259,0.373907817047,-1.02025701361,1.0,0.0,0.0,0.0,1.0,0.0,0.0,0.0,1.0,3.58055419922,-2.87641845703,9.1932824707,0.1,0.0,0.0,0.0,0.1,0.0,0.0,0.0,0.1
1452008394467486865,182,1452008394464313030,robocape,-19.6281968578,-3.47713125815,-75.879886187,0.0,10.0,0.0,0.0,0.0,10.0,0.0,0.0,0.0,10.0,-0.114915401037,0.553804348682,-1.12278871558,1.0,0.0,0.0,0.0,1.0,0.0,0.0,0.0,1.0,4.44755126953,-3.00934204102,11.5296240234,0.1,0.0,0.0,0.0,0.1,0.0,0.0,0.0,0.1
1452008394500516365,183,1452008394497430086,robocape,-19.0172920421,-3.33972981702,-76.2366377106,0.0,10.0,0.0,0.0,0.0,10.0,0.0,0.0,0.0,10.0,0.1744370514,0.204397613664,-0.704406108326,1.0,0.0,0.0,0.0,1.0,0.0,0.0,0.0,1.0,2.90755371094,-4.65591796875,9.45074707031,0.1,0.0,0.0,0.0,0.1,0.0,0.0,0.0,0.1
1452008394533937031,184,1452008394530901908,robocape,-19.2317695768,-2.7388950943,-76.245599344,0.0,10.0,0.0,0.0,0.0,10.0,0.0,0.0,0.0,10.0,-0.228632379583,0.363521488796,-0.377103610355,1.0,0.0,0.0,0.0,1.0,0.0,0.0,0.0,1.0,4.85350708008,-4.67388061523,9.18849243164,0.1,0.0,0.0,0.0,0.1,0.0,0.0,0.0,0.1
1452008394567459740,185,1452008394564426898,robocape,-18.8607755716,-2.60626213513,-76.2885955188,0.0,10.0,0.0,0.0,0.0,10.0,0.0,0.0,0.0,10.0,0.082424835738,0.139017008902,-0.470980038781,1.0,0.0,0.0,0.0,1.0,0.0,0.0,0.0,1.0,1.67771118164,-4.51461181641,11.2649743652,0.1,0.0,0.0,0.0,0.1,0.0,0.0,0.0,0.1
1452008394601059615,186,1452008394597964048,robocape,-19.0030098438,-2.47943086045,-76.3895909729,0.0,10.0,0.0,0.0,0.0,10.0,0.0,0.0,0.0,10.0,-0.201601294519,0.153398078789,-0.560329093353,1.0,0.0,0.0,0.0,1.0,0.0,0.0,0.0,1.0,1.79506713867,-4.88464233398,10.407557373,0.1,0.0,0.0,0.0,0.1,0.0,0.0,0.0,0.1
1452008394634004781,187,1452008394630899906,robocape,-19.3806353337,-2.20005710097,-76.5862708274,0.0,10.0,0.0,0.0,0.0,10.0,0.0,0.0,0.0,10.0,-0.33822145844,0.253932409939,-0.623446011188,1.0,0.0,0.0,0.0,1.0,0.0,0.0,0.0,1.0,3.18777099609,-6.96950683594,9.62558349609,0.1,0.0,0.0,0.0,0.1,0.0,0.0,0.0,0.1
1452008394669815948,188,1452008394666615009,robocape,-18.8855387096,-2.13170988979,-76.6417683883,0.0,10.0,0.0,0.0,0.0,10.0,0.0,0.0,0.0,10.0,0.148870704935,0.113317504383,-0.492817959719,1.0,0.0,0.0,0.0,1.0,0.0,0.0,0.0,1.0,0.144898681641,-5.78876220703,9.09867919922,0.1,0.0,0.0,0.0,0.1,0.0,0.0,0.0,0.1
1452008394701819073,189,1452008394698777914,robocape,-18.4809410947,-1.75115969793,-76.7377850679,0.0,10.0,0.0,0.0,0.0,10.0,0.0,0.0,0.0,10.0,0.103064334186,0.274971382551,-0.462191607183,1.0,0.0,0.0,0.0,1.0,0.0,0.0,0.0,1.0,2.37705688477,-5.2846105957,10.9536218262,0.1,0.0,0.0,0.0,0.1,0.0,0.0,0.0,0.1
1452008394741968823,190,1452008394738867998,robocape,-18.4841046571,-1.65067469286,-76.9118466969,0.0,10.0,0.0,0.0,0.0,10.0,0.0,0.0,0.0,10.0,-0.126100677615,0.158724400969,-0.623446011188,1.0,0.0,0.0,0.0,1.0,0.0,0.0,0.0,1.0,1.26217529297,-6.91322387695,8.12989379883,0.1,0.0,0.0,0.0,0.1,0.0,0.0,0.0,0.1
1452008394768416698,191,1452008394765345096,robocape,-17.9439092686,-0.945797232135,-76.8357432495,0.0,10.0,0.0,0.0,0.0,10.0,0.0,0.0,0.0,10.0,0.199337607592,0.398142582967,-0.242347659197,1.0,0.0,0.0,0.0,1.0,0.0,0.0,0.0,1.0,0.741258544922,-3.67276245117,10.8542285156,0.1,0.0,0.0,0.0,0.1,0.0,0.0,0.0,0.1
1452008394802889532,192,1452008394799335956,robocape,-18.1572503563,-0.870876828191,-76.6630101285,0.0,10.0,0.0,0.0,0.0,10.0,0.0,0.0,0.0,10.0,-0.204663929773,0.0757669330128,-0.351936738054,1.0,0.0,0.0,0.0,1.0,0.0,0.0,0.0,1.0,2.4944128418,-7.22457641602,9.38248901367,0.1,0.0,0.0,0.0,0.1,0.0,0.0,0.0,0.1
1452008394835566573,193,1452008394832448005,robocape,-18.5280333587,-0.680557295862,-76.7273815355,0.0,10.0,0.0,0.0,0.0,10.0,0.0,0.0,0.0,10.0,-0.307994580068,0.186021802142,-0.531833269689,1.0,0.0,0.0,0.0,1.0,0.0,0.0,0.0,1.0,1.17355957031,-3.69791015625,9.05556884766,0.1,0.0,0.0,0.0,0.1,0.0,0.0,0.0,0.1
