%time,field.header.seq,field.header.stamp,field.header.frame_id,field.orientation.x,field.orientation.y,field.orientation.z,field.orientation.w,field.orientation_covariance0,field.orientation_covariance1,field.orientation_covariance2,field.orientation_covariance3,field.orientation_covariance4,field.orientation_covariance5,field.orientation_covariance6,field.orientation_covariance7,field.orientation_covariance8,field.angular_velocity.x,field.angular_velocity.y,field.angular_velocity.z,field.angular_velocity_covariance0,field.angular_velocity_covariance1,field.angular_velocity_covariance2,field.angular_velocity_covariance3,field.angular_velocity_covariance4,field.angular_velocity_covariance5,field.angular_velocity_covariance6,field.angular_velocity_covariance7,field.angular_velocity_covariance8,field.linear_acceleration.x,field.linear_acceleration.y,field.linear_acceleration.z,field.linear_acceleration_covariance0,field.linear_acceleration_covariance1,field.linear_acceleration_covariance2,field.linear_acceleration_covariance3,field.linear_acceleration_covariance4,field.linear_acceleration_covariance5,field.linear_acceleration_covariance6,field.linear_acceleration_covariance7,field.linear_acceleration_covariance8
1446039378207273920,1,1446039378204076051,robocape,10.3750809755,-2.48292971033,-26.7003454269,0.0,10.0,0.0,0.0,0.0,10.0,0.0,0.0,0.0,10.0,-0.0506000607115,0.00452737385313,0.0969390636789,1.0,0.0,0.0,0.0,1.0,0.0,0.0,0.0,1.0,-0.118553466797,-0.913699951172,10.0698596191,0.1,0.0,0.0,0.0,0.1,0.0,0.0,0.0,0.1
1446039378238506962,2,1446039378235490083,robocape,10.5357642067,-2.48021347117,-26.5525132653,0.0,10.0,0.0,0.0,0.0,10.0,0.0,0.0,0.0,10.0,0.09933590866,0.00958737992429,0.0439421579863,1.0,0.0,0.0,0.0,1.0,0.0,0.0,0.0,1.0,-0.290994873047,-0.524509277344,10.0650695801,0.1,0.0,0.0,0.0,0.1,0.0,0.0,0.0,0.1
1446039378271733462,3,1446039378268707990,robocape,10.9559671306,-2.46704781137,-26.4645950698,0.0,10.0,0.0,0.0,0.0,10.0,0.0,0.0,0.0,10.0,0.236089230636,0.00865527354276,0.00772316716123,1.0,0.0,0.0,0.0,1.0,0.0,0.0,0.0,1.0,0.0718505859375,-0.682580566406,10.1105749512,0.1,0.0,0.0,0.0,0.1,0.0,0.0,0.0,0.1
1446039378305000795,4,1446039378301649093,robocape,11.5737605586,-2.467115103,-26.3761124787,0.0,10.0,0.0,0.0,0.0,10.0,0.0,0.0,0.0,10.0,0.341417251748,0.00173105470855,0.00692421883421,1.0,0.0,0.0,0.0,1.0,0.0,0.0,0.0,1.0,0.336500244141,0.0886157226563,10.0207617188,0.1,0.0,0.0,0.0,0.1,0.0,0.0,0.0,0.1
1446039378338341003,5,1446039378335381984,robocape,12.0681159199,-2.49077192357,-26.2146240781,0.0,10.0,0.0,0.0,0.0,10.0,0.0,0.0,0.0,10.0,0.27790085975,-0.00173105470855,0.049934270439,1.0,0.0,0.0,0.0,1.0,0.0,0.0,0.0,1.0,-0.0730480957031,1.07057373047,9.93573852539,0.1,0.0,0.0,0.0,0.1,0.0,0.0,0.0,0.1
1446039378372307962,6,1446039378369019985,robocape,12.374634793,-2.49909956036,-26.0933745642,0.0,10.0,0.0,0.0,0.0,10.0,0.0,0.0,0.0,10.0,0.178698109144,0.00226368692657,0.0286289817184,1.0,0.0,0.0,0.0,1.0,0.0,0.0,0.0,1.0,0.159268798828,1.15679443359,9.96447875977,0.1,0.0,0.0,0.0,0.1,0.0,0.0,0.0,0.1
1446039378406324962,7,1446039378402512073,robocape,12.5303161602,-2.47193860177,-26.0826339854,0.0,10.0,0.0,0.0,0.0,10.0,0.0,0.0,0.0,10.0,0.0980043281149,0.00785632521573,-0.0331563555715,1.0,0.0,0.0,0.0,1.0,0.0,0.0,0.0,1.0,0.246687011719,1.45018432617,9.95489868164,0.1,0.0,0.0,0.0,0.1,0.0,0.0,0.0,0.1
1446039378439143337,8,1446039378435818910,robocape,12.3585994808,-2.431466254,-26.075624949,0.0,10.0,0.0,0.0,0.0,10.0,0.0,0.0,0.0,10.0,-0.0755006169037,0.0150468601589,-0.0326237233535,1.0,0.0,0.0,0.0,1.0,0.0,0.0,0.0,1.0,0.0514929199219,1.57592285156,9.98603393555,0.1,0.0,0.0,0.0,0.1,0.0,0.0,0.0,0.1
1446039378471809337,9,1446039378468676090,robocape,11.9965226556,-2.37200703537,-26.1265708419,0.0,10.0,0.0,0.0,0.0,10.0,0.0,0.0,0.0,10.0,-0.177233370545,0.0186421276306,-0.0635163919984,1.0,0.0,0.0,0.0,1.0,0.0,0.0,0.0,1.0,0.222736816406,1.0382409668,9.96328125,0.1,0.0,0.0,0.0,0.1,0.0,0.0,0.0,0.1
1446039378504781420,10,1446039378501657009,robocape,11.5205039042,-2.30773382962,-26.1888397367,0.0,10.0,0.0,0.0,0.0,10.0,0.0,0.0,0.0,10.0,-0.238086601453,0.0205063403936,-0.068709556124,1.0,0.0,0.0,0.0,1.0,0.0,0.0,0.0,1.0,-0.00838256835938,0.578397216797,10.0099841309,0.1,0.0,0.0,0.0,0.1,0.0,0.0,0.0,0.1
1446039378543750962,11,1446039378540549039,robocape,11.0068743327,-2.25143313107,-26.2382592479,0.0,10.0,0.0,0.0,0.0,10.0,0.0,0.0,0.0,10.0,-0.258326625738,0.0183758115215,-0.0604537567448,1.0,0.0,0.0,0.0,1.0,0.0,0.0,0.0,1.0,0.0718505859375,0.275427246094,9.95370117188,0.1,0.0,0.0,0.0,0.1,0.0,0.0,0.0,0.1
1446039378573645379,12,1446039378570013999,robocape,10.5591476748,-2.21142981156,-26.2478503052,0.0,10.0,0.0,0.0,0.0,10.0,0.0,0.0,0.0,10.0,-0.223572373512,0.0143810698864,-0.0379500455336,1.0,0.0,0.0,0.0,1.0,0.0,0.0,0.0,1.0,0.0167651367188,-0.435893554688,10.0518969727,0.1,0.0,0.0,0.0,0.1,0.0,0.0,0.0,0.1
1446039378607187087,13,1446039378603640079,robocape,10.3207154399,-2.18380572524,-26.2222790603,0.0,10.0,0.0,0.0,0.0,10.0,0.0,0.0,0.0,10.0,-0.113051188274,0.0113184346328,-0.0198405501211,1.0,0.0,0.0,0.0,1.0,0.0,0.0,0.0,1.0,-0.0790356445313,-0.639470214844,10.0938098145,0.1,0.0,0.0,0.0,0.1,0.0,0.0,0.0,0.1
1446039378642503420,14,1446039378639170885,robocape,10.2636117301,-2.16044216774,-26.1773030319,0.0,10.0,0.0,0.0,0.0,10.0,0.0,0.0,0.0,10.0,-0.0173105470855,0.0107858024148,-0.0106526443603,1.0,0.0,0.0,0.0,1.0,0.0,0.0,0.0,1.0,-0.0622705078125,-0.558039550781,10.0626745605,0.1,0.0,0.0,0.0,0.1,0.0,0.0,0.0,0.1
1446039378675726462,15,1446039378671890020,robocape,10.20644721,-2.17552078095,-25.966775857,0.0,10.0,0.0,0.0,0.0,10.0,0.0,0.0,0.0,10.0,-0.015845808486,0.00719053494321,0.0830906260105,1.0,0.0,0.0,0.0,1.0,0.0,0.0,0.0,1.0,0.0263452148438,-0.365240478516,10.0027990723,0.1,0.0,0.0,0.0,0.1,0.0,0.0,0.0,0.1
1446039378706005254,16,1446039378702578067,robocape,10.2497082974,-2.22068973089,-25.6354610539,0.0,10.0,0.0,0.0,0.0,10.0,0.0,0.0,0.0,10.0,0.0383495196971,0.0033289513626,0.150868075753,1.0,0.0,0.0,0.0,1.0,0.0,0.0,0.0,1.0,0.01916015625,-0.86220703125,10.0423168945,0.1,0.0,0.0,0.0,0.1,0.0,0.0,0.0,0.1
1446039378742136795,17,1446039378738533020,robocape,10.6170919929,-2.23931694229,-25.4368596983,0.0,10.0,0.0,0.0,0.0,10.0,0.0,0.0,0.0,10.0,0.208392355299,0.00386158358061,0.0736364041407,1.0,0.0,0.0,0.0,1.0,0.0,0.0,0.0,1.0,-0.301772460938,-0.675395507813,10.0770446777,0.1,0.0,0.0,0.0,0.1,0.0,0.0,0.0,0.1
1446039378774893087,18,1446039378771404981,robocape,11.2481560098,-2.25356329691,-25.2908277512,0.0,10.0,0.0,0.0,0.0,10.0,0.0,0.0,0.0,10.0,0.347941996419,0.000932106381528,0.0420779452233,1.0,0.0,0.0,0.0,1.0,0.0,0.0,0.0,1.0,0.0790356445313,-0.0586779785156,10.0423168945,0.1,0.0,0.0,0.0,0.1,0.0,0.0,0.0,0.1
1446039378808617920,19,1446039378805156946,robocape,11.962820006,-2.25341260396,-25.2495664232,0.0,10.0,0.0,0.0,0.0,10.0,0.0,0.0,0.0,10.0,0.392416786623,-0.00279631914458,-0.0173105470855,1.0,0.0,0.0,0.0,1.0,0.0,0.0,0.0,1.0,0.274229736328,0.668210449219,9.91418334961,0.1,0.0,0.0,0.0,0.1,0.0,0.0,0.0,0.1
1446039378841635754,20,1446039378838088989,robocape,12.4022370778,-2.24555346823,-25.2256641543,0.0,10.0,0.0,0.0,0.0,10.0,0.0,0.0,0.0,10.0,0.247673981377,-0.000399474163512,-0.0250337142467,1.0,0.0,0.0,0.0,1.0,0.0,0.0,0.0,1.0,0.0263452148438,2.11480224609,9.92376342773,0.1,0.0,0.0,0.0,0.1,0.0,0.0,0.0,0.1
1446039378874639087,21,1446039378871329069,robocape,12.4167365675,-2.22275576814,-25.1926999116,0.0,10.0,0.0,0.0,0.0,10.0,0.0,0.0,0.0,10.0,0.0230363434292,0.00918790576077,-0.0170442309765,1.0,0.0,0.0,0.0,1.0,0.0,0.0,0.0,1.0,0.292192382813,2.09803710938,9.91777587891,0.1,0.0,0.0,0.0,0.1,0.0,0.0,0.0,0.1
1446039378908086420,22,1446039378904803037,robocape,12.040372316,-2.18492048766,-25.1319568651,0.0,10.0,0.0,0.0,0.0,10.0,0.0,0.0,0.0,10.0,-0.184024431324,0.0210389726116,0.00106526443603,1.0,0.0,0.0,0.0,1.0,0.0,0.0,0.0,1.0,0.201181640625,1.78069702148,9.94891113281,0.1,0.0,0.0,0.0,0.1,0.0,0.0,0.0,0.1
1446039378941026795,23,1446039378937263965,robocape,11.3033128758,-2.17896034934,-24.9394289062,0.0,10.0,0.0,0.0,0.0,10.0,0.0,0.0,0.0,10.0,-0.374307291211,0.0199737081756,0.0800279907569,1.0,0.0,0.0,0.0,1.0,0.0,0.0,0.0,1.0,0.118553466797,0.924477539063,9.90460327148,0.1,0.0,0.0,0.0,0.1,0.0,0.0,0.0,0.1
1446039378974701670,24,1446039378971158027,robocape,10.6017446175,-2.15918894418,-24.8318091385,0.0,10.0,0.0,0.0,0.0,10.0,0.0,0.0,0.0,10.0,-0.356863586071,0.0170442309765,0.032756881408,1.0,0.0,0.0,0.0,1.0,0.0,0.0,0.0,1.0,-0.0646655273438,-0.831071777344,10.1357226563,0.1,0.0,0.0,0.0,0.1,0.0,0.0,0.0,0.1
1446039379006191295,25,1446039379002890110,robocape,10.2972522942,-2.13675866846,-24.7339977678,0.0,10.0,0.0,0.0,0.0,10.0,0.0,0.0,0.0,10.0,-0.147672282445,0.016378440704,0.0233026595382,1.0,0.0,0.0,0.0,1.0,0.0,0.0,0.0,1.0,-0.0718505859375,-0.825084228516,10.0135766602,0.1,0.0,0.0,0.0,0.1,0.0,0.0,0.0,0.1
1446039379039939004,26,1446039379036761045,robocape,10.3241871602,-2.12254829857,-24.6603810262,0.0,10.0,0.0,0.0,0.0,10.0,0.0,0.0,0.0,10.0,0.0268979270098,0.00918790576077,0.00798948327024,1.0,0.0,0.0,0.0,1.0,0.0,0.0,0.0,1.0,0.00718505859375,-0.985550537109,10.0327368164,0.1,0.0,0.0,0.0,0.1,0.0,0.0,0.0,0.1
1446039379073217254,27,1446039379070137977,robocape,10.6351101745,-2.11239124931,-24.5982790536,0.0,10.0,0.0,0.0,0.0,10.0,0.0,0.0,0.0,10.0,0.176967054436,0.00559263828917,-0.000532632218016,1.0,0.0,0.0,0.0,1.0,0.0,0.0,0.0,1.0,-0.0898132324219,-0.506546630859,10.055489502,0.1,0.0,0.0,0.0,0.1,0.0,0.0,0.0,0.1
1446039379107628212,28,1446039379104582071,robocape,11.1003274613,-2.10765451982,-24.5320512196,0.0,10.0,0.0,0.0,0.0,10.0,0.0,0.0,0.0,10.0,0.259125574065,0.00306263525359,0.000532632218016,1.0,0.0,0.0,0.0,1.0,0.0,0.0,0.0,1.0,0.0251477050781,0.0419128417969,10.075847168,0.1,0.0,0.0,0.0,0.1,0.0,0.0,0.0,0.1
1446039379140869504,29,1446039379137831926,robocape,11.5168319603,-2.11624140858,-24.4035151209,0.0,10.0,0.0,0.0,0.0,10.0,0.0,0.0,0.0,10.0,0.234624492036,0.00306263525359,0.0356863586071,1.0,0.0,0.0,0.0,1.0,0.0,0.0,0.0,1.0,0.129331054688,0.717308349609,9.95849121094,0.1,0.0,0.0,0.0,0.1,0.0,0.0,0.0,0.1
1446039379172927212,30,1446039379169795036,robocape,11.8066272744,-2.11731318445,-24.3013504374,0.0,10.0,0.0,0.0,0.0,10.0,0.0,0.0,0.0,10.0,0.167912306729,0.00452737385313,0.0219710789932,1.0,0.0,0.0,0.0,1.0,0.0,0.0,0.0,1.0,0.0694555664063,0.902922363281,10.003996582,0.1,0.0,0.0,0.0,0.1,0.0,0.0,0.0,0.1
1446039379206143837,31,1446039379202985048,robocape,11.9474941854,-2.10601665108,-24.2369206086,0.0,10.0,0.0,0.0,0.0,10.0,0.0,0.0,0.0,10.0,0.0890827384632,0.00705737688871,0.00199737081756,1.0,0.0,0.0,0.0,1.0,0.0,0.0,0.0,1.0,0.112565917969,0.935255126953,10.0075891113,0.1,0.0,0.0,0.0,0.1,0.0,0.0,0.0,0.1
1446039379238647462,32,1446039379235218048,robocape,12.0136744675,-2.05674182479,-24.3097417171,0.0,10.0,0.0,0.0,0.0,10.0,0.0,0.0,0.0,10.0,0.0486026898939,0.0111852765783,-0.0749679846857,1.0,0.0,0.0,0.0,1.0,0.0,0.0,0.0,1.0,0.105380859375,1.23104003906,10.0135766602,0.1,0.0,0.0,0.0,0.1,0.0,0.0,0.0,0.1
1446039379271293337,33,1446039379268193960,robocape,11.9758060737,-1.96897956295,-24.5351430059,0.0,10.0,0.0,0.0,0.0,10.0,0.0,0.0,0.0,10.0,-0.00745685105222,0.0138484376684,-0.160189139568,1.0,0.0,0.0,0.0,1.0,0.0,0.0,0.0,1.0,0.138911132813,1.24900268555,9.98723144531,0.1,0.0,0.0,0.0,0.1,0.0,0.0,0.0,0.1
1446039379304686546,34,1446039379301376104,robocape,11.8516383205,-1.83447886312,-24.9722779376,0.0,10.0,0.0,0.0,0.0,10.0,0.0,0.0,0.0,10.0,-0.0541953281831,0.0143810698864,-0.278832966131,1.0,0.0,0.0,0.0,1.0,0.0,0.0,0.0,1.0,0.0706530761719,1.42503662109,9.93094848633,0.1,0.0,0.0,0.0,0.1,0.0,0.0,0.0,0.1
1446039379338222837,35,1446039379334738969,robocape,11.5104627601,-1.67854066563,-25.5404453795,0.0,10.0,0.0,0.0,0.0,10.0,0.0,0.0,0.0,10.0,-0.169243887275,0.0123836990689,-0.350605157509,1.0,0.0,0.0,0.0,1.0,0.0,0.0,0.0,1.0,0.129331054688,1.51365234375,9.92376342773,0.1,0.0,0.0,0.0,0.1,0.0,0.0,0.0,0.1
1446039379370941046,36,1446039379367491006,robocape,10.7424254543,-1.58340936941,-25.9087585833,0.0,10.0,0.0,0.0,0.0,10.0,0.0,0.0,0.0,10.0,-0.394147841332,0.00612527050718,-0.232760279273,1.0,0.0,0.0,0.0,1.0,0.0,0.0,0.0,1.0,0.0826281738281,1.71603149414,9.73575439453,0.1,0.0,0.0,0.0,0.1,0.0,0.0,0.0,0.1
1446039379404118171,37,1446039379400990009,robocape,9.53661316177,-1.56598083848,-26.0168895292,0.0,10.0,0.0,0.0,0.0,10.0,0.0,0.0,0.0,10.0,-0.624910749787,-0.00452737385313,-0.0802943068659,1.0,0.0,0.0,0.0,1.0,0.0,0.0,0.0,1.0,-0.067060546875,0.32572265625,10.0279467773,0.1,0.0,0.0,0.0,0.1,0.0,0.0,0.0,0.1
1446039379437394712,38,1446039379434156894,robocape,8.22948408233,-1.62233269738,-25.8773575843,0.0,10.0,0.0,0.0,0.0,10.0,0.0,0.0,0.0,10.0,-0.677508181316,-0.0202400242846,0.0604537567448,1.0,0.0,0.0,0.0,1.0,0.0,0.0,0.0,1.0,-0.328117675781,-0.179626464844,10.1261425781,0.1,0.0,0.0,0.0,0.1,0.0,0.0,0.0,0.1
1446039379470722129,39,1446039379467655897,robocape,7.10169300699,-1.67320361013,-25.75144555,0.0,10.0,0.0,0.0,0.0,10.0,0.0,0.0,0.0,10.0,-0.583631752891,-0.0202400242846,0.0495347962755,1.0,0.0,0.0,0.0,1.0,0.0,0.0,0.0,1.0,-0.166453857422,-0.941242675781,10.0123791504,0.1,0.0,0.0,0.0,0.1,0.0,0.0,0.0,0.1
1446039379503825296,40,1446039379500718116,robocape,6.27528400093,-1.69179240702,-25.6828228052,0.0,10.0,0.0,0.0,0.0,10.0,0.0,0.0,0.0,10.0,-0.426238932467,-0.00852211548825,0.0129163312869,1.0,0.0,0.0,0.0,1.0,0.0,0.0,0.0,1.0,-0.195194091797,-1.59987304688,10.075847168,0.1,0.0,0.0,0.0,0.1,0.0,0.0,0.0,0.1
1446039379537324796,41,1446039379534229040,robocape,5.69573564571,-1.70784828024,-25.6117744347,0.0,10.0,0.0,0.0,0.0,10.0,0.0,0.0,0.0,10.0,-0.297075619598,-0.00759000910673,0.0121173829599,1.0,0.0,0.0,0.0,1.0,0.0,0.0,0.0,1.0,0.215551757813,-1.93278076172,9.99920654297,0.1,0.0,0.0,0.0,0.1,0.0,0.0,0.0,0.1
1446039379570267546,42,1446039379567190885,robocape,5.44840782783,-1.69812206961,-25.5461780986,0.0,10.0,0.0,0.0,0.0,10.0,0.0,0.0,0.0,10.0,-0.123038042362,0.00519316412565,0.00585895439817,1.0,0.0,0.0,0.0,1.0,0.0,0.0,0.0,1.0,0.308957519531,-1.92918823242,10.1141674805,0.1,0.0,0.0,0.0,0.1,0.0,0.0,0.0,0.1
1446039379603813046,43,1446039379600759029,robocape,5.64792883184,-1.66592178231,-25.48223463,0.0,10.0,0.0,0.0,0.0,10.0,0.0,0.0,0.0,10.0,0.111586449674,0.016644756813,0.00159789665405,1.0,0.0,0.0,0.0,1.0,0.0,0.0,0.0,1.0,0.15328125,-1.76991943359,10.0854272461,0.1,0.0,0.0,0.0,0.1,0.0,0.0,0.0,0.1
1446039379637047796,44,1446039379633909940,robocape,6.09467323909,-1.62160562574,-25.4361584954,0.0,10.0,0.0,0.0,0.0,10.0,0.0,0.0,0.0,10.0,0.241681868925,0.0219710789932,-0.0102531701968,1.0,0.0,0.0,0.0,1.0,0.0,0.0,0.0,1.0,0.141306152344,-1.3412109375,10.1129699707,0.1,0.0,0.0,0.0,0.1,0.0,0.0,0.0,0.1
1446039379671303796,45,1446039379668175935,robocape,6.62554848141,-1.58371786197,-25.3596867747,0.0,10.0,0.0,0.0,0.0,10.0,0.0,0.0,0.0,10.0,0.286822449402,0.0205063403936,0.00585895439817,1.0,0.0,0.0,0.0,1.0,0.0,0.0,0.0,1.0,-0.196391601563,-0.829874267578,10.0363293457,0.1,0.0,0.0,0.0,0.1,0.0,0.0,0.0,0.1
1446039379704431879,46,1446039379701280117,robocape,7.27843078076,-1.53236554351,-25.3389297281,0.0,10.0,0.0,0.0,0.0,10.0,0.0,0.0,0.0,10.0,0.351404105836,0.0239684498107,-0.0267647689553,1.0,0.0,0.0,0.0,1.0,0.0,0.0,0.0,1.0,-0.0802331542969,-0.740061035156,10.0423168945,0.1,0.0,0.0,0.0,0.1,0.0,0.0,0.0,0.1
1446039379737592504,47,1446039379734172105,robocape,7.89294219599,-1.4995544554,-25.16736038,0.0,10.0,0.0,0.0,0.0,10.0,0.0,0.0,0.0,10.0,0.333161452369,0.0251668723012,0.0563258570552,1.0,0.0,0.0,0.0,1.0,0.0,0.0,0.0,1.0,0.0215551757813,0.447868652344,10.0722546387,0.1,0.0,0.0,0.0,0.1,0.0,0.0,0.0,0.1
1446039379770747462,48,1446039379767621994,robocape,8.14019467897,-1.54649670564,-24.5657460135,0.0,10.0,0.0,0.0,0.0,10.0,0.0,0.0,0.0,10.0,0.143011750537,0.01744370514,0.298806674307,1.0,0.0,0.0,0.0,1.0,0.0,0.0,0.0,1.0,0.132923583984,-0.444276123047,9.95370117188,0.1,0.0,0.0,0.0,0.1,0.0,0.0,0.0,0.1
1446039379803887254,49,1446039379800605058,robocape,8.53402171233,-1.59856832436,-24.0311180636,0.0,10.0,0.0,0.0,0.0,10.0,0.0,0.0,0.0,10.0,0.22024342215,0.0110521185238,0.262055051264,1.0,0.0,0.0,0.0,1.0,0.0,0.0,0.0,1.0,-0.0383203125,-0.711320800781,10.0219592285,0.1,0.0,0.0,0.0,0.1,0.0,0.0,0.0,0.1
1446039379837327629,50,1446039379834052085,robocape,9.20824118297,-1.62888250388,-23.67901883,0.0,10.0,0.0,0.0,0.0,10.0,0.0,0.0,0.0,10.0,0.367516230431,0.00918790576077,0.159523349296,1.0,0.0,0.0,0.0,1.0,0.0,0.0,0.0,1.0,-0.227526855469,-0.483793945313,10.0099841309,0.1,0.0,0.0,0.0,0.1,0.0,0.0,0.0,0.1
1446039379870568171,51,1446039379867463111,robocape,10.0453737577,-1.65556043069,-23.4792580361,0.0,10.0,0.0,0.0,0.0,10.0,0.0,0.0,0.0,10.0,0.453669491695,-0.000798948327024,0.0753674588492,1.0,0.0,0.0,0.0,1.0,0.0,0.0,0.0,1.0,0.229921875,-0.165256347656,9.98603393555,0.1,0.0,0.0,0.0,0.1,0.0,0.0,0.0,0.1
1446039379903959088,52,1446039379900715112,robocape,10.8571529434,-1.6739032258,-23.3122520387,0.0,10.0,0.0,0.0,0.0,10.0,0.0,0.0,0.0,10.0,0.441552108735,0.00146473859954,0.0565921731642,1.0,0.0,0.0,0.0,1.0,0.0,0.0,0.0,1.0,0.0922082519531,1.29690307617,9.99441650391,0.1,0.0,0.0,0.0,0.1,0.0,0.0,0.0,0.1
1446039379938352129,53,1446039379935126066,robocape,11.2872165974,-1.7734231386,-23.0805628789,0.0,10.0,0.0,0.0,0.0,10.0,0.0,0.0,0.0,10.0,0.241282394761,-0.0323574072445,0.102664860023,1.0,0.0,0.0,0.0,1.0,0.0,0.0,0.0,1.0,0.136516113281,1.39390136719,9.93454101563,0.1,0.0,0.0,0.0,0.1,0.0,0.0,0.0,0.1
1446039379970638588,54,1446039379967582941,robocape,11.5528004441,-1.76592861871,-23.0093668868,0.0,10.0,0.0,0.0,0.0,10.0,0.0,0.0,0.0,10.0,0.153930711007,0.00625842856169,0.00745685105222,1.0,0.0,0.0,0.0,1.0,0.0,0.0,0.0,1.0,0.147293701172,1.29690307617,10.0411193848,0.1,0.0,0.0,0.0,0.1,0.0,0.0,0.0,0.1
1446039380004238379,55,1446039380000859022,robocape,11.5042709888,-1.72733465134,-23.0318327149,0.0,10.0,0.0,0.0,0.0,10.0,0.0,0.0,0.0,10.0,-0.0126500151779,0.0126500151779,-0.0427437354958,1.0,0.0,0.0,0.0,1.0,0.0,0.0,0.0,1.0,0.199984130859,1.84775756836,9.9285534668,0.1,0.0,0.0,0.0,0.1,0.0,0.0,0.0,0.1
1446039380037186754,56,1446039380033845901,robocape,11.1977036903,-1.65702250516,-23.1386859958,0.0,10.0,0.0,0.0,0.0,10.0,0.0,0.0,0.0,10.0,-0.149802811317,0.0205063403936,-0.0885501062451,1.0,0.0,0.0,0.0,1.0,0.0,0.0,0.0,1.0,0.13412109375,1.40467895508,10.0315393066,0.1,0.0,0.0,0.0,0.1,0.0,0.0,0.0,0.1
1446039380070477296,57,1446039380067441940,robocape,10.7816955193,-1.55767596439,-23.3889295718,0.0,10.0,0.0,0.0,0.0,10.0,0.0,0.0,0.0,10.0,-0.208658671408,0.0213052887206,-0.167379674511,1.0,0.0,0.0,0.0,1.0,0.0,0.0,0.0,1.0,0.0802331542969,0.726888427734,10.0027990723,0.1,0.0,0.0,0.0,0.1,0.0,0.0,0.0,0.1
1446039380104220171,58,1446039380100466966,robocape,10.4098520264,-1.42179622084,-23.8898631863,0.0,10.0,0.0,0.0,0.0,10.0,0.0,0.0,0.0,10.0,-0.186421276306,0.016112124595,-0.306796157577,1.0,0.0,0.0,0.0,1.0,0.0,0.0,0.0,1.0,0.101788330078,0.411943359375,9.97286132813,0.1,0.0,0.0,0.0,0.1,0.0,0.0,0.0,0.1
1446039380138177213,59,1446039380135066986,robocape,9.99651144497,-1.29448752615,-24.465678664,0.0,10.0,0.0,0.0,0.0,10.0,0.0,0.0,0.0,10.0,-0.208259197244,0.00652474467069,-0.347409364201,1.0,0.0,0.0,0.0,1.0,0.0,0.0,0.0,1.0,-0.0898132324219,0.771196289063,9.91538085938,0.1,0.0,0.0,0.0,0.1,0.0,0.0,0.0,0.1
1446039380174195338,60,1446039380171036005,robocape,9.24935592868,-1.22799945539,-24.8917972633,0.0,10.0,0.0,0.0,0.0,10.0,0.0,0.0,0.0,10.0,-0.384160987244,-0.00759000910673,-0.259258732119,1.0,0.0,0.0,0.0,1.0,0.0,0.0,0.0,1.0,-0.0215551757813,0.833466796875,9.95729370117,0.1,0.0,0.0,0.0,0.1,0.0,0.0,0.0,0.1
1446039380206678921,61,1446039380203248977,robocape,8.23853680343,-1.2372729808,-25.0412868866,0.0,10.0,0.0,0.0,0.0,10.0,0.0,0.0,0.0,10.0,-0.523044838092,-0.0199737081756,-0.101732753641,1.0,0.0,0.0,0.0,1.0,0.0,0.0,0.0,1.0,0.0107775878906,0.336500244141,10.1141674805,0.1,0.0,0.0,0.0,0.1,0.0,0.0,0.0,0.1
1446039380240048879,62,1446039380236717939,robocape,7.06446131706,-1.30307960861,-24.9357162747,0.0,10.0,0.0,0.0,0.0,10.0,0.0,0.0,0.0,10.0,-0.608665467138,-0.0290284558819,0.0412789968962,1.0,0.0,0.0,0.0,1.0,0.0,0.0,0.0,1.0,-0.1916015625,-0.258662109375,9.95489868164,0.1,0.0,0.0,0.0,0.1,0.0,0.0,0.0,0.1
1446039380273249004,63,1446039380270159959,robocape,6.01895950454,-1.33961293876,-24.884024524,0.0,10.0,0.0,0.0,0.0,10.0,0.0,0.0,0.0,10.0,-0.541953281831,-0.0183758115215,0.00772316716123,1.0,0.0,0.0,0.0,1.0,0.0,0.0,0.0,1.0,-0.299377441406,-1.44299926758,10.0327368164,0.1,0.0,0.0,0.0,0.1,0.0,0.0,0.0,0.1
1446039380307059463,64,1446039380303348064,robocape,5.22025815539,-1.38023576194,-24.8296254236,0.0,10.0,0.0,0.0,0.0,10.0,0.0,0.0,0.0,10.0,-0.412923127017,-0.0209058145571,0.00692421883421,1.0,0.0,0.0,0.0,1.0,0.0,0.0,0.0,1.0,-0.00359252929688,-1.73758666992,10.0135766602,0.1,0.0,0.0,0.0,0.1,0.0,0.0,0.0,0.1
1446039380339385421,65,1446039380335968971,robocape,4.74693155306,-1.39652777447,-24.7900591408,0.0,10.0,0.0,0.0,0.0,10.0,0.0,0.0,0.0,10.0,-0.242747133361,-0.00932106381528,-0.00452737385313,1.0,0.0,0.0,0.0,1.0,0.0,0.0,0.0,1.0,0.368833007813,-1.83338745117,10.0650695801,0.1,0.0,0.0,0.0,0.1,0.0,0.0,0.0,0.1
1446039380372807046,66,1446039380369690895,robocape,4.70051186335,-1.37931050699,-24.7653447653,0.0,10.0,0.0,0.0,0.0,10.0,0.0,0.0,0.0,10.0,-0.0190416017941,0.00732369299772,-0.016112124595,1.0,0.0,0.0,0.0,1.0,0.0,0.0,0.0,1.0,0.197589111328,-2.03696411133,10.0530944824,0.1,0.0,0.0,0.0,0.1,0.0,0.0,0.0,0.1
1446039380406448171,67,1446039380403125047,robocape,4.91773497968,-1.34498980172,-24.6910361626,0.0,10.0,0.0,0.0,0.0,10.0,0.0,0.0,0.0,10.0,0.119842249054,0.0185089695761,0.00918790576077,1.0,0.0,0.0,0.0,1.0,0.0,0.0,0.0,1.0,0.179626464844,-1.76872192383,10.0542919922,0.1,0.0,0.0,0.0,0.1,0.0,0.0,0.0,0.1
1446039380437827963,68,1446039380434457063,robocape,5.28812761368,-1.29968183124,-24.567714838,0.0,10.0,0.0,0.0,0.0,10.0,0.0,0.0,0.0,10.0,0.200935504246,0.0267647689553,0.0347542522255,1.0,0.0,0.0,0.0,1.0,0.0,0.0,0.0,1.0,0.142503662109,-1.24421264648,10.1045874023,0.1,0.0,0.0,0.0,0.1,0.0,0.0,0.0,0.1
1446039380471201379,69,1446039380468146085,robocape,5.82719552959,-1.24299708412,-24.4879381777,0.0,10.0,0.0,0.0,0.0,10.0,0.0,0.0,0.0,10.0,0.289751926601,0.0307595105904,0.00932106381528,1.0,0.0,0.0,0.0,1.0,0.0,0.0,0.0,1.0,0.0407153320313,-0.902922363281,10.1117724609,0.1,0.0,0.0,0.0,0.1,0.0,0.0,0.0,0.1
1446039380504396421,70,1446039380501347064,robocape,6.34049341939,-1.20248122948,-24.3683549335,0.0,10.0,0.0,0.0,0.0,10.0,0.0,0.0,0.0,10.0,0.277101911423,0.0249005561922,0.0315584589174,1.0,0.0,0.0,0.0,1.0,0.0,0.0,0.0,1.0,-0.166453857422,-0.435893554688,10.003996582,0.1,0.0,0.0,0.0,0.1,0.0,0.0,0.0,0.1
1446039380538614213,71,1446039380535362005,robocape,6.81008396146,-1.1697392288,-24.159069714,0.0,10.0,0.0,0.0,0.0,10.0,0.0,0.0,0.0,10.0,0.25513083243,0.0268979270098,0.0808269390839,1.0,0.0,0.0,0.0,1.0,0.0,0.0,0.0,1.0,-0.136516113281,0.193996582031,10.0483044434,0.1,0.0,0.0,0.0,0.1,0.0,0.0,0.0,0.1
1446039380571421171,72,1446039380568276882,robocape,6.92029088439,-1.19517102016,-23.5899431789,0.0,10.0,0.0,0.0,0.0,10.0,0.0,0.0,0.0,10.0,0.0680437658515,0.0207726565026,0.282428233603,1.0,0.0,0.0,0.0,1.0,0.0,0.0,0.0,1.0,0.0455053710938,0.0047900390625,10.039921875,0.1,0.0,0.0,0.0,0.1,0.0,0.0,0.0,0.1
1446039380603972505,73,1446039380600905895,robocape,6.99307626012,-1.23450867548,-22.9853629247,0.0,10.0,0.0,0.0,0.0,10.0,0.0,0.0,0.0,10.0,0.0487358479485,0.016378440704,0.303200890106,1.0,0.0,0.0,0.0,1.0,0.0,0.0,0.0,1.0,0.122145996094,-0.761616210938,10.0459094238,0.1,0.0,0.0,0.0,0.1,0.0,0.0,0.0,0.1
1446039380637270921,74,1446039380634213924,robocape,7.56777424311,-1.2227838678,-22.7389833291,0.0,10.0,0.0,0.0,0.0,10.0,0.0,0.0,0.0,10.0,0.31132353143,0.0197073920666,0.103197492241,1.0,0.0,0.0,0.0,1.0,0.0,0.0,0.0,1.0,0.170046386719,-1.83817749023,10.0674645996,0.1,0.0,0.0,0.0,0.1,0.0,0.0,0.0,0.1
1446039380670470130,75,1446039380667402982,robocape,8.60464959646,-1.16779217185,-22.8391384755,0.0,10.0,0.0,0.0,0.0,10.0,0.0,0.0,0.0,10.0,0.554470138954,0.0170442309765,-0.0908137931717,1.0,0.0,0.0,0.0,1.0,0.0,0.0,0.0,1.0,-0.32572265625,-0.311352539063,10.0099841309,0.1,0.0,0.0,0.0,0.1,0.0,0.0,0.0,0.1
1446039380703802546,76,1446039380700753927,robocape,9.66511802965,-1.11643821736,-23.0225785043,0.0,10.0,0.0,0.0,0.0,10.0,0.0,0.0,0.0,10.0,0.568984366895,0.00652474467069,-0.137552270303,1.0,0.0,0.0,0.0,1.0,0.0,0.0,0.0,1.0,-0.0598754882813,1.07416625977,9.96208374023,0.1,0.0,0.0,0.0,0.1,0.0,0.0,0.0,0.1
1446039380737187296,77,1446039380734005928,robocape,10.2789428089,-1.07779108482,-23.0538697598,0.0,10.0,0.0,0.0,0.0,10.0,0.0,0.0,0.0,10.0,0.335291981241,0.0127831732324,-0.0524642734746,1.0,0.0,0.0,0.0,1.0,0.0,0.0,0.0,1.0,0.399968261719,1.81542480469,9.99681152344,0.1,0.0,0.0,0.0,0.1,0.0,0.0,0.0,0.1
1446039380770755796,78,1446039380767391920,robocape,10.3370394478,-1.08350323973,-22.8636237248,0.0,10.0,0.0,0.0,0.0,10.0,0.0,0.0,0.0,10.0,0.0424774193868,0.0117179087963,0.0753674588492,1.0,0.0,0.0,0.0,1.0,0.0,0.0,0.0,1.0,0.0143701171875,2.28963867188,9.90819580078,0.1,0.0,0.0,0.0,0.1,0.0,0.0,0.0,0.1
1446039380803936630,79,1446039380800827026,robocape,9.64566020263,-1.12618085491,-22.4007334299,0.0,10.0,0.0,0.0,0.0,10.0,0.0,0.0,0.0,10.0,-0.353135160545,0.0186421276306,0.232493963164,1.0,0.0,0.0,0.0,1.0,0.0,0.0,0.0,1.0,0.250279541016,0.907712402344,9.90819580078,0.1,0.0,0.0,0.0,0.1,0.0,0.0,0.0,0.1
1446039380837650796,80,1446039380834561109,robocape,9.06955306606,-1.16188082565,-22.0337159856,0.0,10.0,0.0,0.0,0.0,10.0,0.0,0.0,0.0,10.0,-0.2926814038,0.0110521185238,0.17976337358,1.0,0.0,0.0,0.0,1.0,0.0,0.0,0.0,1.0,0.101788330078,-0.659827880859,10.0375268555,0.1,0.0,0.0,0.0,0.1,0.0,0.0,0.0,0.1
1446039380870377796,81,1446039380867269992,robocape,8.81684815586,-1.17525587129,-21.8683356559,0.0,10.0,0.0,0.0,0.0,10.0,0.0,0.0,0.0,10.0,-0.123038042362,0.00399474163512,0.067377975579,1.0,0.0,0.0,0.0,1.0,0.0,0.0,0.0,1.0,-0.289797363281,-0.647852783203,10.1345251465,0.1,0.0,0.0,0.0,0.1,0.0,0.0,0.0,0.1
1446039380904183255,82,1446039380901084899,robocape,8.81774024634,-1.1544924544,-21.8121580825,0.0,10.0,0.0,0.0,0.0,10.0,0.0,0.0,0.0,10.0,0.0101200121423,0.0122505410144,0.00426105774413,1.0,0.0,0.0,0.0,1.0,0.0,0.0,0.0,1.0,-0.0730480957031,-1.1879296875,10.1285375977,0.1,0.0,0.0,0.0,0.1,0.0,0.0,0.0,0.1
1446039380937691796,83,1446039380934653043,robocape,9.40595499227,-1.03707564197,-22.2976005102,0.0,10.0,0.0,0.0,0.0,10.0,0.0,0.0,0.0,10.0,0.319046698591,0.015579492377,-0.299605622634,1.0,0.0,0.0,0.0,1.0,0.0,0.0,0.0,1.0,-0.305364990234,-0.717308349609,10.0950073242,0.1,0.0,0.0,0.0,0.1,0.0,0.0,0.0,0.1
1446039380970602588,84,1446039380967267990,robocape,10.0892816117,-0.882291289151,-22.7702213956,0.0,10.0,0.0,0.0,0.0,10.0,0.0,0.0,0.0,10.0,0.371510972066,0.0328900394625,-0.299072990416,1.0,0.0,0.0,0.0,1.0,0.0,0.0,0.0,1.0,0.164058837891,1.21307739258,9.85550537109,0.1,0.0,0.0,0.0,0.1,0.0,0.0,0.0,0.1
1446039381003980880,85,1446039381000825881,robocape,10.2811273646,-0.803398172093,-23.1400953957,0.0,10.0,0.0,0.0,0.0,10.0,0.0,0.0,0.0,10.0,0.113450662437,0.00186421276306,-0.234491333981,1.0,0.0,0.0,0.0,1.0,0.0,0.0,0.0,1.0,-0.0263452148438,1.99145874023,9.94172607422,0.1,0.0,0.0,0.0,0.1,0.0,0.0,0.0,0.1
1446039381038832671,86,1446039381035748004,robocape,9.93119333249,-0.75067206518,-23.3960697863,0.0,10.0,0.0,0.0,0.0,10.0,0.0,0.0,0.0,10.0,-0.172705996692,0.0,-0.166580726184,1.0,0.0,0.0,0.0,1.0,0.0,0.0,0.0,1.0,0.205971679688,1.53161499023,9.91298583984,0.1,0.0,0.0,0.0,0.1,0.0,0.0,0.0,0.1
1446039381070574213,87,1446039381067538976,robocape,9.2586024222,-0.715188666289,-23.599724568,0.0,10.0,0.0,0.0,0.0,10.0,0.0,0.0,0.0,10.0,-0.34354778062,-0.00253000303558,-0.134356476994,1.0,0.0,0.0,0.0,1.0,0.0,0.0,0.0,1.0,-0.0634680175781,0.935255126953,9.89382568359,0.1,0.0,0.0,0.0,0.1,0.0,0.0,0.0,0.1
1446039381104937713,88,1446039381101855039,robocape,8.31909052733,-0.734993379766,-23.60714793,0.0,10.0,0.0,0.0,0.0,10.0,0.0,0.0,0.0,10.0,-0.485227950612,-0.0130494893414,-0.0219710789932,1.0,0.0,0.0,0.0,1.0,0.0,0.0,0.0,1.0,-0.0694555664063,0.431103515625,10.0926123047,0.1,0.0,0.0,0.0,0.1,0.0,0.0,0.0,0.1
1446039381140595171,89,1446039381137208938,robocape,7.2952796588,-0.795854979326,-23.5065704647,0.0,10.0,0.0,0.0,0.0,10.0,0.0,0.0,0.0,10.0,-0.530235373035,-0.0262321367373,0.0394147841332,1.0,0.0,0.0,0.0,1.0,0.0,0.0,0.0,1.0,-0.149688720703,-0.350870361328,9.97166381836,0.1,0.0,0.0,0.0,0.1,0.0,0.0,0.0,0.1
1446039381170510880,90,1446039381167448997,robocape,6.30815448673,-0.837117272399,-23.4108885788,0.0,10.0,0.0,0.0,0.0,10.0,0.0,0.0,0.0,10.0,-0.51146008735,-0.0173105470855,0.0342216200075,1.0,0.0,0.0,0.0,1.0,0.0,0.0,0.0,1.0,0.0227526855469,-0.866997070313,10.0315393066,0.1,0.0,0.0,0.0,0.1,0.0,0.0,0.0,0.1
1446039381203752672,91,1446039381200722932,robocape,5.63844095717,-0.88442172909,-23.3596611249,0.0,10.0,0.0,0.0,0.0,10.0,0.0,0.0,0.0,10.0,-0.345278835329,-0.0238352917562,0.00772316716123,1.0,0.0,0.0,0.0,1.0,0.0,0.0,0.0,1.0,-0.241896972656,-1.39749389648,10.0171691895,0.1,0.0,0.0,0.0,0.1,0.0,0.0,0.0,0.1
1446039381237384380,92,1446039381234278917,robocape,5.20629862264,-0.906320581286,-23.2959719109,0.0,10.0,0.0,0.0,0.0,10.0,0.0,0.0,0.0,10.0,-0.220909212422,-0.0102531701968,0.0115847507418,1.0,0.0,0.0,0.0,1.0,0.0,0.0,0.0,1.0,0.350870361328,-1.58909545898,9.99920654297,0.1,0.0,0.0,0.0,0.1,0.0,0.0,0.0,0.1
1446039381270423463,93,1446039381267381906,robocape,5.08649027097,-0.899422383293,-23.2575736782,0.0,10.0,0.0,0.0,0.0,10.0,0.0,0.0,0.0,10.0,-0.0572579634367,0.0033289513626,-0.00506000607115,1.0,0.0,0.0,0.0,1.0,0.0,0.0,0.0,1.0,0.225131835938,-1.83218994141,10.0075891113,0.1,0.0,0.0,0.0,0.1,0.0,0.0,0.0,0.1
1446039381304001088,94,1446039381300844907,robocape,5.24748709539,-0.864935410649,-23.1969274984,0.0,10.0,0.0,0.0,0.0,10.0,0.0,0.0,0.0,10.0,0.0902811609537,0.0187752856851,0.00452737385313,1.0,0.0,0.0,0.0,1.0,0.0,0.0,0.0,1.0,0.0419128417969,-1.59268798828,10.0914147949,0.1,0.0,0.0,0.0,0.1,0.0,0.0,0.0,0.1
1446039381337558463,95,1446039381334074974,robocape,5.57736589283,-0.817346188495,-23.0892653175,0.0,10.0,0.0,0.0,0.0,10.0,0.0,0.0,0.0,10.0,0.179363899417,0.0280963495003,0.0286289817184,1.0,0.0,0.0,0.0,1.0,0.0,0.0,0.0,1.0,0.166453857422,-1.04303100586,10.1620678711,0.1,0.0,0.0,0.0,0.1,0.0,0.0,0.0,0.1
1446039381370742588,96,1446039381367254018,robocape,5.96356604905,-0.771622622532,-22.9128688913,0.0,10.0,0.0,0.0,0.0,10.0,0.0,0.0,0.0,10.0,0.209457619735,0.0311589847539,0.0656469208705,1.0,0.0,0.0,0.0,1.0,0.0,0.0,0.0,1.0,0.0323327636719,-0.611927490234,10.055489502,0.1,0.0,0.0,0.0,0.1,0.0,0.0,0.0,0.1
1446039381403927630,97,1446039381400505065,robocape,6.12495720658,-0.762188273537,-22.4551557846,0.0,10.0,0.0,0.0,0.0,10.0,0.0,0.0,0.0,10.0,0.0920122156622,0.0287621397729,0.22144184464,1.0,0.0,0.0,0.0,1.0,0.0,0.0,0.0,1.0,0.09580078125,-0.328117675781,10.1021923828,0.1,0.0,0.0,0.0,0.1,0.0,0.0,0.0,0.1
1446039381437593588,98,1446039381433971881,robocape,6.28073337465,-0.781488292811,-21.7934746347,0.0,10.0,0.0,0.0,0.0,10.0,0.0,0.0,0.0,10.0,0.0894822126267,0.0263652947918,0.333827242641,1.0,0.0,0.0,0.0,1.0,0.0,0.0,0.0,1.0,-0.0311352539063,-0.953217773438,9.90580078125,0.1,0.0,0.0,0.0,0.1,0.0,0.0,0.0,0.1
1446039381470784297,99,1446039381467081069,robocape,6.60606637404,-0.803701217542,-21.2150686799,0.0,10.0,0.0,0.0,0.0,10.0,0.0,0.0,0.0,10.0,0.178698109144,0.0211721306661,0.288420346056,1.0,0.0,0.0,0.0,1.0,0.0,0.0,0.0,1.0,0.0467028808594,-1.59628051758,10.0303417969,0.1,0.0,0.0,0.0,0.1,0.0,0.0,0.0,0.1
1446039381503697838,100,1446039381500472068,robocape,7.39225318355,-0.784479812814,-20.9835739796,0.0,10.0,0.0,0.0,0.0,10.0,0.0,0.0,0.0,10.0,0.421045768342,0.0226368692657,0.0965395895154,1.0,0.0,0.0,0.0,1.0,0.0,0.0,0.0,1.0,-0.0969982910156,-1.33642089844,10.0375268555,0.1,0.0,0.0,0.0,0.1,0.0,0.0,0.0,0.1
1446039381537932588,101,1446039381534540891,robocape,8.52203452325,-0.742479521799,-20.9326737092,0.0,10.0,0.0,0.0,0.0,10.0,0.0,0.0,0.0,10.0,0.603205986903,0.0226368692657,-0.00506000607115,1.0,0.0,0.0,0.0,1.0,0.0,0.0,0.0,1.0,-0.199984130859,-0.144898681641,10.0626745605,0.1,0.0,0.0,0.0,0.1,0.0,0.0,0.0,0.1
1446039381570511422,102,1446039381567255020,robocape,9.67170006505,-0.723809062618,-20.9049687688,0.0,10.0,0.0,0.0,0.0,10.0,0.0,0.0,0.0,10.0,0.615856002081,0.00865527354276,-0.01744370514,1.0,0.0,0.0,0.0,1.0,0.0,0.0,0.0,1.0,-0.174836425781,0.392783203125,10.0471069336,0.1,0.0,0.0,0.0,0.1,0.0,0.0,0.0,0.1
1446039381603708922,103,1446039381600697040,robocape,10.6803509308,-0.694397014049,-20.9617073553,0.0,10.0,0.0,0.0,0.0,10.0,0.0,0.0,0.0,10.0,0.543817494594,0.00612527050718,-0.0640490242164,1.0,0.0,0.0,0.0,1.0,0.0,0.0,0.0,1.0,0.104183349609,1.30169311523,9.99321899414,0.1,0.0,0.0,0.0,0.1,0.0,0.0,0.0,0.1
1446039381637413338,104,1446039381634160041,robocape,11.1499865472,-0.677172960351,-20.9414977073,0.0,10.0,0.0,0.0,0.0,10.0,0.0,0.0,0.0,10.0,0.260190838501,0.00745685105222,-0.0183758115215,1.0,0.0,0.0,0.0,1.0,0.0,0.0,0.0,1.0,0.180823974609,2.3722668457,9.88783813477,0.1,0.0,0.0,0.0,0.1,0.0,0.0,0.0,0.1
1446039381670540922,105,1446039381667414903,robocape,11.0583268432,-0.650000672611,-20.8823221461,0.0,10.0,0.0,0.0,0.0,10.0,0.0,0.0,0.0,10.0,-0.0364853069341,0.017177389031,0.00625842856169,1.0,0.0,0.0,0.0,1.0,0.0,0.0,0.0,1.0,0.2682421875,2.28724365234,9.9213684082,0.1,0.0,0.0,0.0,0.1,0.0,0.0,0.0,0.1
1446039381703695213,106,1446039381700655937,robocape,10.5461636157,-0.619842601962,-20.8305156987,0.0,10.0,0.0,0.0,0.0,10.0,0.0,0.0,0.0,10.0,-0.259125574065,0.0183758115215,0.00612527050718,1.0,0.0,0.0,0.0,1.0,0.0,0.0,0.0,1.0,0.140108642578,1.32684082031,9.98363891602,0.1,0.0,0.0,0.0,0.1,0.0,0.0,0.0,0.1
1446039381738479838,107,1446039381735260009,robocape,9.86448551094,-0.588867139171,-20.8311706081,0.0,10.0,0.0,0.0,0.0,10.0,0.0,0.0,0.0,10.0,-0.349007260855,0.0138484376684,-0.0202400242846,1.0,0.0,0.0,0.0,1.0,0.0,0.0,0.0,1.0,0.00119750976563,0.507744140625,10.0075891113,0.1,0.0,0.0,0.0,0.1,0.0,0.0,0.0,0.1
1446039381771442297,108,1446039381768280982,robocape,9.18943645656,-0.570532884511,-20.8482285825,0.0,10.0,0.0,0.0,0.0,10.0,0.0,0.0,0.0,10.0,-0.345944625601,0.00599211245268,-0.0279631914458,1.0,0.0,0.0,0.0,1.0,0.0,0.0,0.0,1.0,-0.00239501953125,-0.202379150391,10.0231567383,0.1,0.0,0.0,0.0,0.1,0.0,0.0,0.0,0.1
1446039381804377880,109,1446039381800894021,robocape,8.60487566214,-0.572350985487,-20.8069230363,0.0,10.0,0.0,0.0,0.0,10.0,0.0,0.0,0.0,10.0,-0.298806674307,0.000532632218016,0.00412789968962,1.0,0.0,0.0,0.0,1.0,0.0,0.0,0.0,1.0,0.108973388672,-0.470621337891,10.0530944824,0.1,0.0,0.0,0.0,0.1,0.0,0.0,0.0,0.1
1446039381838730922,110,1446039381835642099,robocape,8.2271368068,-0.565925979143,-20.8032655316,0.0,10.0,0.0,0.0,0.0,10.0,0.0,0.0,0.0,10.0,-0.190149701832,0.00159789665405,-0.018242653467,1.0,0.0,0.0,0.0,1.0,0.0,0.0,0.0,1.0,-0.124541015625,-1.08853637695,10.0614770508,0.1,0.0,0.0,0.0,0.1,0.0,0.0,0.0,0.1
1446039381872418380,111,1446039381868936061,robocape,8.03175804276,-0.557421919833,-20.772681623,0.0,10.0,0.0,0.0,0.0,10.0,0.0,0.0,0.0,10.0,-0.0944090606433,0.00466053190764,-0.00519316412565,1.0,0.0,0.0,0.0,1.0,0.0,0.0,0.0,1.0,-0.292192382813,-1.04303100586,10.0686621094,0.1,0.0,0.0,0.0,0.1,0.0,0.0,0.0,0.1
1446039381905723464,112,1446039381902558088,robocape,8.23322316216,-0.501427732368,-20.9047128881,0.0,10.0,0.0,0.0,0.0,10.0,0.0,0.0,0.0,10.0,0.114915401037,0.0167779148675,-0.0986701183874,1.0,0.0,0.0,0.0,1.0,0.0,0.0,0.0,1.0,-0.09580078125,-1.49329467773,10.0818347168,0.1,0.0,0.0,0.0,0.1,0.0,0.0,0.0,0.1
1446039381939413964,113,1446039381935925960,robocape,8.93829540242,-0.409714229049,-21.3085213542,0.0,10.0,0.0,0.0,0.0,10.0,0.0,0.0,0.0,10.0,0.382030458372,0.0126500151779,-0.251535564958,1.0,0.0,0.0,0.0,1.0,0.0,0.0,0.0,1.0,-0.174836425781,-0.173638916016,10.1105749512,0.1,0.0,0.0,0.0,0.1,0.0,0.0,0.0,0.1
1446039381974863922,114,1446039381970699071,robocape,9.54468252923,-0.335801385867,-21.7447289003,0.0,10.0,0.0,0.0,0.0,10.0,0.0,0.0,0.0,10.0,0.331963029878,-0.00199737081756,-0.268579795934,1.0,0.0,0.0,0.0,1.0,0.0,0.0,0.0,1.0,0.270637207031,0.843046875,9.82317260742,0.1,0.0,0.0,0.0,0.1,0.0,0.0,0.0,0.1
1446039382007321130,115,1446039382002167940,robocape,9.72821609473,-0.296510806117,-21.9945753006,0.0,10.0,0.0,0.0,0.0,10.0,0.0,0.0,0.0,10.0,0.108923288584,-0.00466053190764,-0.163518090931,1.0,0.0,0.0,0.0,1.0,0.0,0.0,0.0,1.0,0.0311352539063,1.96152099609,9.86748046875,0.1,0.0,0.0,0.0,0.1,0.0,0.0,0.0,0.1
1446039382038326339,116,1446039382034923076,robocape,9.36433273125,-0.271043801424,-22.1425514001,0.0,10.0,0.0,0.0,0.0,10.0,0.0,0.0,0.0,10.0,-0.180562321907,-0.00213052887206,-0.10346380835,1.0,0.0,0.0,0.0,1.0,0.0,0.0,0.0,1.0,0.0395178222656,1.64298339844,9.93334350586,0.1,0.0,0.0,0.0,0.1,0.0,0.0,0.0,0.1
1446039382074020089,117,1446039382070642948,robocape,8.64875009234,-0.285361652319,-22.0868337223,0.0,10.0,0.0,0.0,0.0,10.0,0.0,0.0,0.0,10.0,-0.367649388485,-0.00452737385313,0.0121173829599,1.0,0.0,0.0,0.0,1.0,0.0,0.0,0.0,1.0,0.104183349609,0.359252929688,10.1213525391,0.1,0.0,0.0,0.0,0.1,0.0,0.0,0.0,0.1
1446039382103649380,118,1446039382100442886,robocape,7.90066363306,-0.321062630597,-22.011471009,0.0,10.0,0.0,0.0,0.0,10.0,0.0,0.0,0.0,10.0,-0.385359409734,-0.0143810698864,0.0243679239742,1.0,0.0,0.0,0.0,1.0,0.0,0.0,0.0,1.0,0.00598754882813,-0.492176513672,10.0423168945,0.1,0.0,0.0,0.0,0.1,0.0,0.0,0.0,0.1
1446039382140246505,119,1446039382137157917,robocape,7.23082050172,-0.362119699666,-21.9010468675,0.0,10.0,0.0,0.0,0.0,10.0,0.0,0.0,0.0,10.0,-0.344746203111,-0.0151800182135,0.0427437354958,1.0,0.0,0.0,0.0,1.0,0.0,0.0,0.0,1.0,-0.135318603516,-0.493374023438,10.0938098145,0.1,0.0,0.0,0.0,0.1,0.0,0.0,0.0,0.1
1446039382171465547,120,1446039382167710065,robocape,6.63944700916,-0.390534721133,-21.8000650543,0.0,10.0,0.0,0.0,0.0,10.0,0.0,0.0,0.0,10.0,-0.303866680378,-0.00985369603329,0.0360858327706,1.0,0.0,0.0,0.0,1.0,0.0,0.0,0.0,1.0,-0.0359252929688,-0.583187255859,10.0698596191,0.1,0.0,0.0,0.0,0.1,0.0,0.0,0.0,0.1
1446039382203716755,121,1446039382200508117,robocape,6.21730226164,-0.396932748668,-21.7532672998,0.0,10.0,0.0,0.0,0.0,10.0,0.0,0.0,0.0,10.0,-0.215183416078,-0.00213052887206,0.00439421579863,1.0,0.0,0.0,0.0,1.0,0.0,0.0,0.0,1.0,-0.086220703125,-1.15080688477,10.0985998535,0.1,0.0,0.0,0.0,0.1,0.0,0.0,0.0,0.1
1446039382237217464,122,1446039382234133005,robocape,5.9648050301,-0.403925554243,-21.6821789636,0.0,10.0,0.0,0.0,0.0,10.0,0.0,0.0,0.0,10.0,-0.126366993724,-0.00119842249054,0.016644756813,1.0,0.0,0.0,0.0,1.0,0.0,0.0,0.0,1.0,0.143701171875,-1.29331054688,10.080637207,0.1,0.0,0.0,0.0,0.1,0.0,0.0,0.0,0.1
1446039382270435130,123,1446039382267406940,robocape,5.9238873517,-0.388810326283,-21.6294235725,0.0,10.0,0.0,0.0,0.0,10.0,0.0,0.0,0.0,10.0,-0.015313176268,0.00918790576077,0.00452737385313,1.0,0.0,0.0,0.0,1.0,0.0,0.0,0.0,1.0,0.207169189453,-1.2681628418,10.1105749512,0.1,0.0,0.0,0.0,0.1,0.0,0.0,0.0,0.1
1446039382303860214,124,1446039382300582885,robocape,6.01062317417,-0.365974073036,-21.5127881691,0.0,10.0,0.0,0.0,0.0,10.0,0.0,0.0,0.0,10.0,0.0516653251475,0.0167779148675,0.0380832035881,1.0,0.0,0.0,0.0,1.0,0.0,0.0,0.0,1.0,0.0323327636719,-0.948427734375,10.1309326172,0.1,0.0,0.0,0.0,0.1,0.0,0.0,0.0,0.1
1446039382337223172,125,1446039382334121942,robocape,6.17382397837,-0.345209873745,-21.2997517481,0.0,10.0,0.0,0.0,0.0,10.0,0.0,0.0,0.0,10.0,0.0917458995532,0.0213052887206,0.0900148448447,1.0,0.0,0.0,0.0,1.0,0.0,0.0,0.0,1.0,0.199984130859,-1.1148815918,10.0674645996,0.1,0.0,0.0,0.0,0.1,0.0,0.0,0.0,0.1
1446039382370481255,126,1446039382367355108,robocape,6.51538281375,-0.312036094229,-21.1199318458,0.0,10.0,0.0,0.0,0.0,10.0,0.0,0.0,0.0,10.0,0.185755486033,0.0262321367373,0.0705737688871,1.0,0.0,0.0,0.0,1.0,0.0,0.0,0.0,1.0,-0.0658630371094,-0.931662597656,10.1093774414,0.1,0.0,0.0,0.0,0.1,0.0,0.0,0.0,0.1
1446039382403644130,127,1446039382400455951,robocape,7.0009025985,-0.262217538019,-21.0447123774,0.0,10.0,0.0,0.0,0.0,10.0,0.0,0.0,0.0,10.0,0.262188209318,0.0288952978274,0.0122505410144,1.0,0.0,0.0,0.0,1.0,0.0,0.0,0.0,1.0,-0.13412109375,-0.825084228516,10.0878222656,0.1,0.0,0.0,0.0,0.1,0.0,0.0,0.0,0.1
1446039382436964214,128,1446039382433871984,robocape,7.65167552291,-0.203342145056,-21.016571786,0.0,10.0,0.0,0.0,0.0,10.0,0.0,0.0,0.0,10.0,0.350072525291,0.0306263525359,-0.0151800182135,1.0,0.0,0.0,0.0,1.0,0.0,0.0,0.0,1.0,0.0526904296875,-0.523311767578,10.0902172852,0.1,0.0,0.0,0.0,0.1,0.0,0.0,0.0,0.1
1446039382470496714,129,1446039382467334985,robocape,8.29166835134,-0.158615629365,-20.8965834542,0.0,10.0,0.0,0.0,0.0,10.0,0.0,0.0,0.0,10.0,0.344879361165,0.0300937203179,0.0344879361165,1.0,0.0,0.0,0.0,1.0,0.0,0.0,0.0,1.0,0.1149609375,0.228724365234,10.0626745605,0.1,0.0,0.0,0.0,0.1,0.0,0.0,0.0,0.1
1446039382503770255,130,1446039382500545978,robocape,8.836953623,-0.12520211916,-20.7465465182,0.0,10.0,0.0,0.0,0.0,10.0,0.0,0.0,0.0,10.0,0.295610880999,0.0271642431188,0.051532167093,1.0,0.0,0.0,0.0,1.0,0.0,0.0,0.0,1.0,-0.185614013672,0.301772460938,10.0207617188,0.1,0.0,0.0,0.0,0.1,0.0,0.0,0.0,0.1
1446039382537397589,131,1446039382533946990,robocape,9.13549355123,-0.113990824507,-20.4930222415,0.0,10.0,0.0,0.0,0.0,10.0,0.0,0.0,0.0,10.0,0.165382303694,0.0249005561922,0.110254869129,1.0,0.0,0.0,0.0,1.0,0.0,0.0,0.0,1.0,0.243094482422,0.943637695313,9.97525634766,0.1,0.0,0.0,0.0,0.1,0.0,0.0,0.0,0.1
1446039382570571172,132,1446039382567173004,robocape,9.06748234891,-0.161830315469,-19.8684786451,0.0,10.0,0.0,0.0,0.0,10.0,0.0,0.0,0.0,10.0,-0.0300937203179,0.0260989786828,0.316383537501,1.0,0.0,0.0,0.0,1.0,0.0,0.0,0.0,1.0,0.229921875,0.314945068359,10.0231567383,0.1,0.0,0.0,0.0,0.1,0.0,0.0,0.0,0.1
1446039382603982381,133,1446039382600609064,robocape,9.07750352612,-0.212695652159,-19.346500687,0.0,10.0,0.0,0.0,0.0,10.0,0.0,0.0,0.0,10.0,0.0118510668509,0.0157126504315,0.261788735155,1.0,0.0,0.0,0.0,1.0,0.0,0.0,0.0,1.0,-0.0814306640625,-0.689765625,10.0926123047,0.1,0.0,0.0,0.0,0.1,0.0,0.0,0.0,0.1
1446039382637383006,134,1446039382634098052,robocape,9.49044006488,-0.201483633527,-19.203989549,0.0,10.0,0.0,0.0,0.0,10.0,0.0,0.0,0.0,10.0,0.226635008766,0.0159789665405,0.0519316412565,1.0,0.0,0.0,0.0,1.0,0.0,0.0,0.0,1.0,-0.395178222656,-0.781973876953,10.1117724609,0.1,0.0,0.0,0.0,0.1,0.0,0.0,0.0,0.1
1446039382670820797,135,1446039382667615890,robocape,10.1183780269,-0.168119661342,-19.2938744319,0.0,10.0,0.0,0.0,0.0,10.0,0.0,0.0,0.0,10.0,0.342216200075,0.0067910607797,-0.0755006169037,1.0,0.0,0.0,0.0,1.0,0.0,0.0,0.0,1.0,0.0598754882813,0.231119384766,9.95489868164,0.1,0.0,0.0,0.0,0.1,0.0,0.0,0.0,0.1
1446039382703612839,136,1446039382700465917,robocape,10.5871614377,-0.123497464959,-19.3959661244,0.0,10.0,0.0,0.0,0.0,10.0,0.0,0.0,0.0,10.0,0.259258732119,0.0109189604693,-0.0825579937925,1.0,0.0,0.0,0.0,1.0,0.0,0.0,0.0,1.0,0.1149609375,1.79147460938,9.886640625,0.1,0.0,0.0,0.0,0.1,0.0,0.0,0.0,0.1
1446039382737392381,137,1446039382734076023,robocape,10.5357187913,-0.107131995004,-19.3664310657,0.0,10.0,0.0,0.0,0.0,10.0,0.0,0.0,0.0,10.0,-0.0162452826495,0.00932106381528,-0.00612527050718,1.0,0.0,0.0,0.0,1.0,0.0,0.0,0.0,1.0,0.0886157226563,1.62741577148,9.97405883789,0.1,0.0,0.0,0.0,0.1,0.0,0.0,0.0,0.1
1446039382770432464,138,1446039382767266988,robocape,10.1484502972,-0.0974644856286,-19.2685236221,0.0,10.0,0.0,0.0,0.0,10.0,0.0,0.0,0.0,10.0,-0.194410759576,0.0126500151779,0.0336889877895,1.0,0.0,0.0,0.0,1.0,0.0,0.0,0.0,1.0,0.166453857422,1.30887817383,9.95489868164,0.1,0.0,0.0,0.0,0.1,0.0,0.0,0.0,0.1
1446039382803787089,139,1446039382800672054,robocape,9.36288320254,-0.140231441991,-18.9042504561,0.0,10.0,0.0,0.0,0.0,10.0,0.0,0.0,0.0,10.0,-0.40679785651,0.00945422186978,0.183358641052,1.0,0.0,0.0,0.0,1.0,0.0,0.0,0.0,1.0,0.0586779785156,-0.199984130859,10.0147741699,0.1,0.0,0.0,0.0,0.1,0.0,0.0,0.0,0.1
1446039382837230131,140,1446039382833931922,robocape,8.8048976839,-0.177821360211,-18.6071741468,0.0,10.0,0.0,0.0,0.0,10.0,0.0,0.0,0.0,10.0,-0.286556133293,0.00412789968962,0.145674911627,1.0,0.0,0.0,0.0,1.0,0.0,0.0,0.0,1.0,0.177231445313,-0.914897460938,10.1093774414,0.1,0.0,0.0,0.0,0.1,0.0,0.0,0.0,0.1
1446039382871976631,141,1446039382868673086,robocape,8.64740263901,-0.183297664493,-18.5083606341,0.0,10.0,0.0,0.0,0.0,10.0,0.0,0.0,0.0,10.0,-0.0747016685767,0.00359526747161,0.035153726389,1.0,0.0,0.0,0.0,1.0,0.0,0.0,0.0,1.0,-0.250279541016,-1.16397949219,10.0459094238,0.1,0.0,0.0,0.0,0.1,0.0,0.0,0.0,0.1
1446039382904938297,142,1446039382901798963,robocape,8.78426969707,-0.168435069957,-18.4394803873,0.0,10.0,0.0,0.0,0.0,10.0,0.0,0.0,0.0,10.0,0.0805606229749,0.0115847507418,0.015845808486,1.0,0.0,0.0,0.0,1.0,0.0,0.0,0.0,1.0,-0.0215551757813,-0.941242675781,10.0734521484,0.1,0.0,0.0,0.0,0.1,0.0,0.0,0.0,0.1
1446039382938562922,143,1446039382935245037,robocape,9.12643433002,-0.146238342382,-18.4007380711,0.0,10.0,0.0,0.0,0.0,10.0,0.0,0.0,0.0,10.0,0.18921759545,0.0129163312869,-0.00213052887206,1.0,0.0,0.0,0.0,1.0,0.0,0.0,0.0,1.0,-0.119750976563,-0.504151611328,10.0530944824,0.1,0.0,0.0,0.0,0.1,0.0,0.0,0.0,0.1
1446039382972049714,144,1446039382968681097,robocape,9.5566400858,-0.133847369918,-18.3713454617,0.0,10.0,0.0,0.0,0.0,10.0,0.0,0.0,0.0,10.0,0.23622238869,0.00705737688871,-0.00705737688871,1.0,0.0,0.0,0.0,1.0,0.0,0.0,0.0,1.0,-0.0311352539063,-0.132923583984,10.0686621094,0.1,0.0,0.0,0.0,0.1,0.0,0.0,0.0,0.1
1446039383005631256,145,1446039383002074003,robocape,9.94536658509,-0.126814066799,-18.2776997281,0.0,10.0,0.0,0.0,0.0,10.0,0.0,0.0,0.0,10.0,0.214517625806,0.0101200121423,0.0275637172823,1.0,0.0,0.0,0.0,1.0,0.0,0.0,0.0,1.0,0.202379150391,0.341290283203,9.96088623047,0.1,0.0,0.0,0.0,0.1,0.0,0.0,0.0,0.1
1446039383039329464,146,1446039383035816907,robocape,10.377843049,-0.0951394484903,-18.3307795561,0.0,10.0,0.0,0.0,0.0,10.0,0.0,0.0,0.0,10.0,0.239151865889,0.00932106381528,-0.0529969056926,1.0,0.0,0.0,0.0,1.0,0.0,0.0,0.0,1.0,-0.13412109375,0.362845458984,10.0830322266,0.1,0.0,0.0,0.0,0.1,0.0,0.0,0.0,0.1
1446039383072346172,147,1446039383068834066,robocape,10.5947615785,-0.055086041736,-18.4261495218,0.0,10.0,0.0,0.0,0.0,10.0,0.0,0.0,0.0,10.0,0.126100677615,0.00945422186978,-0.0749679846857,1.0,0.0,0.0,0.0,1.0,0.0,0.0,0.0,1.0,0.0610729980469,1.456171875,9.9213684082,0.1,0.0,0.0,0.0,0.1,0.0,0.0,0.0,0.1
1446039383104377714,148,1446039383101192951,robocape,10.4736578944,-0.0170626918498,-18.4962512134,0.0,10.0,0.0,0.0,0.0,10.0,0.0,0.0,0.0,10.0,-0.0525974315291,0.0110521185238,-0.0589890181453,1.0,0.0,0.0,0.0,1.0,0.0,0.0,0.0,1.0,0.09580078125,1.37354370117,9.95370117188,0.1,0.0,0.0,0.0,0.1,0.0,0.0,0.0,0.1
1446039383141935922,149,1446039383137564897,robocape,10.0601248942,0.0218140871767,-18.5855421881,0.0,10.0,0.0,0.0,0.0,10.0,0.0,0.0,0.0,10.0,-0.207193932808,0.0101200121423,-0.0669785014155,1.0,0.0,0.0,0.0,1.0,0.0,0.0,0.0,1.0,0.0934057617188,0.843046875,9.94651611328,0.1,0.0,0.0,0.0,0.1,0.0,0.0,0.0,0.1
1446039383171712131,150,1446039383168411970,robocape,9.55159642811,0.0438935052581,-18.6114743255,0.0,10.0,0.0,0.0,0.0,10.0,0.0,0.0,0.0,10.0,-0.258193467683,0.00772316716123,-0.0311589847539,1.0,0.0,0.0,0.0,1.0,0.0,0.0,0.0,1.0,0.0467028808594,0.0467028808594,10.0231567383,0.1,0.0,0.0,0.0,0.1,0.0,0.0,0.0,0.1
1446039383204574297,151,1446039383201414108,robocape,9.06615996479,0.0523409761623,-18.5716281362,0.0,10.0,0.0,0.0,0.0,10.0,0.0,0.0,0.0,10.0,-0.24687503305,0.00652474467069,0.00479368996214,1.0,0.0,0.0,0.0,1.0,0.0,0.0,0.0,1.0,0.0538879394531,-0.283809814453,10.0506994629,0.1,0.0,0.0,0.0,0.1,0.0,0.0,0.0,0.1
1446039383240370964,152,1446039383237116098,robocape,8.71256525251,0.0492277187472,-18.5219642988,0.0,10.0,0.0,0.0,0.0,10.0,0.0,0.0,0.0,10.0,-0.177766002763,0.00119842249054,0.0101200121423,1.0,0.0,0.0,0.0,1.0,0.0,0.0,0.0,1.0,-0.09580078125,-0.726888427734,10.1764379883,0.1,0.0,0.0,0.0,0.1,0.0,0.0,0.0,0.1
1446039383270276006,153,1446039383267225027,robocape,8.62534875071,0.0677972950286,-18.5306654725,0.0,10.0,0.0,0.0,0.0,10.0,0.0,0.0,0.0,10.0,-0.0371510972066,0.00759000910673,-0.0243679239742,1.0,0.0,0.0,0.0,1.0,0.0,0.0,0.0,1.0,-0.231119384766,-0.882564697266,10.0578845215,0.1,0.0,0.0,0.0,0.1,0.0,0.0,0.0,0.1
1446039383303832506,154,1446039383300745964,robocape,8.69246693161,0.084741697178,-18.4867334238,0.0,10.0,0.0,0.0,0.0,10.0,0.0,0.0,0.0,10.0,0.0438089999318,0.0109189604693,0.00279631914458,1.0,0.0,0.0,0.0,1.0,0.0,0.0,0.0,1.0,0.117355957031,-0.835861816406,10.055489502,0.1,0.0,0.0,0.0,0.1,0.0,0.0,0.0,0.1
1446039383337224589,155,1446039383334085941,robocape,8.90813985813,0.104956415831,-18.4390148362,0.0,10.0,0.0,0.0,0.0,10.0,0.0,0.0,0.0,10.0,0.122239094035,0.0129163312869,0.00359526747161,1.0,0.0,0.0,0.0,1.0,0.0,0.0,0.0,1.0,0.0562829589844,-0.366437988281,10.0363293457,0.1,0.0,0.0,0.0,0.1,0.0,0.0,0.0,0.1
1446039383370568548,156,1446039383367468118,robocape,9.16343252784,0.128038610129,-18.4082343735,0.0,10.0,0.0,0.0,0.0,10.0,0.0,0.0,0.0,10.0,0.143544382755,0.0130494893414,-0.00599211245268,1.0,0.0,0.0,0.0,1.0,0.0,0.0,0.0,1.0,-0.213156738281,0.0371228027344,10.0638720703,0.1,0.0,0.0,0.0,0.1,0.0,0.0,0.0,0.1
1446039383403687548,157,1446039383400579929,robocape,9.39591597838,0.14043966595,-18.3787316188,0.0,10.0,0.0,0.0,0.0,10.0,0.0,0.0,0.0,10.0,0.131826473959,0.00745685105222,-0.00572579634367,1.0,0.0,0.0,0.0,1.0,0.0,0.0,0.0,1.0,0.161663818359,0.0467028808594,10.075847168,0.1,0.0,0.0,0.0,0.1,0.0,0.0,0.0,0.1
1446039383438450339,158,1446039383435349941,robocape,9.4539148233,0.14906866184,-18.2221424781,0.0,10.0,0.0,0.0,0.0,10.0,0.0,0.0,0.0,10.0,0.0388821519152,0.016644756813,0.0632500758894,1.0,0.0,0.0,0.0,1.0,0.0,0.0,0.0,1.0,0.190404052734,1.21906494141,10.0219592285,0.1,0.0,0.0,0.0,0.1,0.0,0.0,0.0,0.1
1446039383470204089,159,1446039383467097043,robocape,9.19290348889,0.100022843744,-17.7590229552,0.0,10.0,0.0,0.0,0.0,10.0,0.0,0.0,0.0,10.0,-0.131959632013,0.0131826473959,0.233292911491,1.0,0.0,0.0,0.0,1.0,0.0,0.0,0.0,1.0,0.0922082519531,-0.245489501953,10.1381176758,0.1,0.0,0.0,0.0,0.1,0.0,0.0,0.0,0.1
1446039383503520048,160,1446039383500441074,robocape,9.29616554076,0.0885788857309,-17.5420402189,0.0,10.0,0.0,0.0,0.0,10.0,0.0,0.0,0.0,10.0,0.0620516533988,0.0111852765783,0.0976048539514,1.0,0.0,0.0,0.0,1.0,0.0,0.0,0.0,1.0,-0.0754431152344,-1.0346484375,10.1273400879,0.1,0.0,0.0,0.0,0.1,0.0,0.0,0.0,0.1
1446039383539845381,161,1446039383536492109,robocape,9.95775732623,0.168685503998,-17.9348670466,0.0,10.0,0.0,0.0,0.0,10.0,0.0,0.0,0.0,10.0,0.362056750196,0.00492684801665,-0.237287653126,1.0,0.0,0.0,0.0,1.0,0.0,0.0,0.0,1.0,-0.410745849609,-0.215551757813,10.1141674805,0.1,0.0,0.0,0.0,0.1,0.0,0.0,0.0,0.1
1446039383570298756,162,1446039383567161083,robocape,10.5946511737,0.26566119517,-18.4296721318,0.0,10.0,0.0,0.0,0.0,10.0,0.0,0.0,0.0,10.0,0.351803579999,0.00146473859954,-0.294279300454,1.0,0.0,0.0,0.0,1.0,0.0,0.0,0.0,1.0,0.384400634766,1.36276611328,9.90101074219,0.1,0.0,0.0,0.0,0.1,0.0,0.0,0.0,0.1
1446039383603602631,163,1446039383600591897,robocape,10.7891026943,0.333787178961,-18.7632040559,0.0,10.0,0.0,0.0,0.0,10.0,0.0,0.0,0.0,10.0,0.117578562127,0.00066579027252,-0.204131297555,1.0,0.0,0.0,0.0,1.0,0.0,0.0,0.0,1.0,0.0155676269531,2.42615478516,9.83874023438,0.1,0.0,0.0,0.0,0.1,0.0,0.0,0.0,0.1
1446039383637878631,164,1446039383634406089,robocape,10.2331466875,0.378390264622,-19.0011695556,0.0,10.0,0.0,0.0,0.0,10.0,0.0,0.0,0.0,10.0,-0.280164546676,-0.00119842249054,-0.145674911627,1.0,0.0,0.0,0.0,1.0,0.0,0.0,0.0,1.0,0.209564208984,1.66214355469,9.88783813477,0.1,0.0,0.0,0.0,0.1,0.0,0.0,0.0,0.1
1446039383670601298,165,1446039383667340993,robocape,9.32717699785,0.389384722332,-19.1533212933,0.0,10.0,0.0,0.0,0.0,10.0,0.0,0.0,0.0,10.0,-0.466452664927,-0.00892158965177,-0.0946753767523,1.0,0.0,0.0,0.0,1.0,0.0,0.0,0.0,1.0,-0.0047900390625,0.936452636719,9.95010864258,0.1,0.0,0.0,0.0,0.1,0.0,0.0,0.0,0.1
1446039383703701214,166,1446039383700438976,robocape,8.05235162647,0.308541634026,-18.9648131473,0.0,10.0,0.0,0.0,0.0,10.0,0.0,0.0,0.0,10.0,-0.664858166138,-0.0274305592278,0.0962732734064,1.0,0.0,0.0,0.0,1.0,0.0,0.0,0.0,1.0,-0.00239501953125,0.0934057617188,10.0626745605,0.1,0.0,0.0,0.0,0.1,0.0,0.0,0.0,0.1
1446039383737664089,167,1446039383733959913,robocape,6.74163890033,0.227462640715,-18.6937460793,0.0,10.0,0.0,0.0,0.0,10.0,0.0,0.0,0.0,10.0,-0.68443240015,-0.0242347659197,0.139150166957,1.0,0.0,0.0,0.0,1.0,0.0,0.0,0.0,1.0,-0.231119384766,-1.08614135742,9.98004638672,0.1,0.0,0.0,0.0,0.1,0.0,0.0,0.0,0.1
1446039383770726881,168,1446039383767455101,robocape,5.89609301963,0.182488634847,-18.6730775297,0.0,10.0,0.0,0.0,0.0,10.0,0.0,0.0,0.0,10.0,-0.438356315427,-0.0229031853747,-0.00066579027252,1.0,0.0,0.0,0.0,1.0,0.0,0.0,0.0,1.0,-0.295784912109,-1.73159912109,10.024354248,0.1,0.0,0.0,0.0,0.1,0.0,0.0,0.0,0.1
1446039383803811214,169,1446039383800549983,robocape,5.32977979694,0.166750701138,-18.6661463816,0.0,10.0,0.0,0.0,0.0,10.0,0.0,0.0,0.0,10.0,-0.292015613527,-0.00852211548825,-0.0114515926873,1.0,0.0,0.0,0.0,1.0,0.0,0.0,0.0,1.0,0.443078613281,-1.92320068359,10.0734521484,0.1,0.0,0.0,0.0,0.1,0.0,0.0,0.0,0.1
1446039383837551839,170,1446039383834074974,robocape,5.29639123644,0.190766764982,-18.7231719189,0.0,10.0,0.0,0.0,0.0,10.0,0.0,0.0,0.0,10.0,-0.0119842249054,0.00905474770627,-0.0500674284935,1.0,0.0,0.0,0.0,1.0,0.0,0.0,0.0,1.0,0.199984130859,-1.98068115234,10.0710571289,0.1,0.0,0.0,0.0,0.1,0.0,0.0,0.0,0.1
1446039383870488714,171,1446039383867297887,robocape,5.5041293342,0.229104421652,-18.7341683397,0.0,10.0,0.0,0.0,0.0,10.0,0.0,0.0,0.0,10.0,0.114515926873,0.0187752856851,-0.0271642431188,1.0,0.0,0.0,0.0,1.0,0.0,0.0,0.0,1.0,0.243094482422,-1.48251708984,10.0926123047,0.1,0.0,0.0,0.0,0.1,0.0,0.0,0.0,0.1
1446039383903808756,172,1446039383900716066,robocape,5.86502373356,0.277224404536,-18.7093938108,0.0,10.0,0.0,0.0,0.0,10.0,0.0,0.0,0.0,10.0,0.195076549848,0.0256995045193,-0.00932106381528,1.0,0.0,0.0,0.0,1.0,0.0,0.0,0.0,1.0,0.0718505859375,-0.990340576172,10.0542919922,0.1,0.0,0.0,0.0,0.1,0.0,0.0,0.0,0.1
1446039383937319381,173,1446039383934016942,robocape,6.31996012753,0.33211812079,-18.705639535,0.0,10.0,0.0,0.0,0.0,10.0,0.0,0.0,0.0,10.0,0.245143978342,0.0280963495003,-0.0217047628841,1.0,0.0,0.0,0.0,1.0,0.0,0.0,0.0,1.0,0.0993933105469,-0.723295898438,10.0447119141,0.1,0.0,0.0,0.0,0.1,0.0,0.0,0.0,0.1
1446039383970336756,174,1446039383967206954,robocape,6.74977280577,0.372279358501,-18.6688570433,0.0,10.0,0.0,0.0,0.0,10.0,0.0,0.0,0.0,10.0,0.232227647055,0.0223705531567,-0.0034621094171,1.0,0.0,0.0,0.0,1.0,0.0,0.0,0.0,1.0,-0.138911132813,-0.414338378906,10.0135766602,0.1,0.0,0.0,0.0,0.1,0.0,0.0,0.0,0.1
1446039384006760840,175,1446039384003691911,robocape,7.16352281886,0.415526677941,-18.6543713542,0.0,10.0,0.0,0.0,0.0,10.0,0.0,0.0,0.0,10.0,0.224504479894,0.0226368692657,-0.015845808486,1.0,0.0,0.0,0.0,1.0,0.0,0.0,0.0,1.0,-0.0993933105469,-0.167651367188,10.0387243652,0.1,0.0,0.0,0.0,0.1,0.0,0.0,0.0,0.1
1446039384038593548,176,1446039384035268068,robocape,7.56673551458,0.457614092742,-18.6486825791,0.0,10.0,0.0,0.0,0.0,10.0,0.0,0.0,0.0,10.0,0.219577631877,0.0214384467751,-0.0207726565026,1.0,0.0,0.0,0.0,1.0,0.0,0.0,0.0,1.0,0.0347277832031,-0.198786621094,10.0890197754,0.1,0.0,0.0,0.0,0.1,0.0,0.0,0.0,0.1
1446039384071469215,177,1446039384068316936,robocape,7.97192476031,0.503037225124,-18.6313725432,0.0,10.0,0.0,0.0,0.0,10.0,0.0,0.0,0.0,10.0,0.221042370477,0.0239684498107,-0.0151800182135,1.0,0.0,0.0,0.0,1.0,0.0,0.0,0.0,1.0,0.0910107421875,-0.0778381347656,10.0926123047,0.1,0.0,0.0,0.0,0.1,0.0,0.0,0.0,0.1
1446039384104232756,178,1446039384100929021,robocape,8.2674651529,0.529315734887,-18.5811861193,0.0,10.0,0.0,0.0,0.0,10.0,0.0,0.0,0.0,10.0,0.163384932876,0.0165115987585,0.00412789968962,1.0,0.0,0.0,0.0,1.0,0.0,0.0,0.0,1.0,0.0167651367188,0.15328125,10.0339343262,0.1,0.0,0.0,0.0,0.1,0.0,0.0,0.0,0.1
1446039384140189756,179,1446039384136615037,robocape,8.45683259018,0.556235849445,-18.5418979127,0.0,10.0,0.0,0.0,0.0,10.0,0.0,0.0,0.0,10.0,0.107858024148,0.016112124595,-0.00119842249054,1.0,0.0,0.0,0.0,1.0,0.0,0.0,0.0,1.0,-0.152083740234,0.393980712891,10.0459094238,0.1,0.0,0.0,0.0,0.1,0.0,0.0,0.0,0.1
1446039384172754548,180,1446039384169255971,robocape,8.53543314511,0.574593734755,-18.4943620878,0.0,10.0,0.0,0.0,0.0,10.0,0.0,0.0,0.0,10.0,0.0495347962755,0.0123836990689,0.00452737385313,1.0,0.0,0.0,0.0,1.0,0.0,0.0,0.0,1.0,0.197589111328,0.350870361328,10.0686621094,0.1,0.0,0.0,0.0,0.1,0.0,0.0,0.0,0.1
1446039384209475715,181,1446039384205471038,robocape,8.46677165895,0.582773955654,-18.4344506497,0.0,10.0,0.0,0.0,0.0,10.0,0.0,0.0,0.0,10.0,-0.0282295075548,0.00812264132474,0.0129163312869,1.0,0.0,0.0,0.0,1.0,0.0,0.0,0.0,1.0,0.0359252929688,0.340092773437,10.0686621094,0.1,0.0,0.0,0.0,0.1,0.0,0.0,0.0,0.1
1446039384238264798,182,1446039384234756946,robocape,8.28537846411,0.585354178014,-18.3764191307,0.0,10.0,0.0,0.0,0.0,10.0,0.0,0.0,0.0,10.0,-0.0877511579181,0.00506000607115,0.0131826473959,1.0,0.0,0.0,0.0,1.0,0.0,0.0,0.0,1.0,-0.0179626464844,0.300574951172,10.0387243652,0.1,0.0,0.0,0.0,0.1,0.0,0.0,0.0,0.1
1446039384272271881,183,1446039384268948078,robocape,8.06666041312,0.586932661877,-18.3319238011,0.0,10.0,0.0,0.0,0.0,10.0,0.0,0.0,0.0,10.0,-0.107458549985,0.0034621094171,0.00639158661619,1.0,0.0,0.0,0.0,1.0,0.0,0.0,0.0,1.0,-0.086220703125,-0.296982421875,10.0387243652,0.1,0.0,0.0,0.0,0.1,0.0,0.0,0.0,0.1
1446039384308395548,184,1446039384304192066,robocape,7.88425987228,0.592776717972,-18.273347164,0.0,10.0,0.0,0.0,0.0,10.0,0.0,0.0,0.0,10.0,-0.0886832642996,0.0066579027252,0.0134489635049,1.0,0.0,0.0,0.0,1.0,0.0,0.0,0.0,1.0,-0.171243896484,-0.475411376953,10.0722546387,0.1,0.0,0.0,0.0,0.1,0.0,0.0,0.0,0.1
1446039384337913506,185,1446039384334706068,robocape,7.75088447252,0.600466711154,-18.2069459334,0.0,10.0,0.0,0.0,0.0,10.0,0.0,0.0,0.0,10.0,-0.0631169178349,0.00812264132474,0.0173105470855,1.0,0.0,0.0,0.0,1.0,0.0,0.0,0.0,1.0,-0.0251477050781,-0.359252929688,10.1261425781,0.1,0.0,0.0,0.0,0.1,0.0,0.0,0.0,0.1
1446039384376548006,186,1446039384372594118,robocape,7.65933475843,0.610149112924,-18.1470422534,0.0,10.0,0.0,0.0,0.0,10.0,0.0,0.0,0.0,10.0,-0.0411458388417,0.00865527354276,0.0135821215594,1.0,0.0,0.0,0.0,1.0,0.0,0.0,0.0,1.0,0.0622705078125,-0.308957519531,10.1237475586,0.1,0.0,0.0,0.0,0.1,0.0,0.0,0.0,0.1
1446039384407346631,187,1446039384402834892,robocape,7.5880797344,0.620878077638,-18.0927255872,0.0,10.0,0.0,0.0,0.0,10.0,0.0,0.0,0.0,10.0,-0.0304931944814,0.00878843159726,0.0105194863058,1.0,0.0,0.0,0.0,1.0,0.0,0.0,0.0,1.0,0.135318603516,-0.304167480469,10.0722546387,0.1,0.0,0.0,0.0,0.1,0.0,0.0,0.0,0.1
1446039384440081298,188,1446039384436326026,robocape,7.4640357967,0.623236513381,-17.9733251284,0.0,10.0,0.0,0.0,0.0,10.0,0.0,0.0,0.0,10.0,-0.0591221761998,0.00892158965177,0.0462058449129,1.0,0.0,0.0,0.0,1.0,0.0,0.0,0.0,1.0,0.119750976563,-0.0730480957031,10.0746496582,0.1,0.0,0.0,0.0,0.1,0.0,0.0,0.0,0.1
1446039384475055006,189,1446039384470248937,robocape,7.30306503651,0.619388162331,-17.8064943126,0.0,10.0,0.0,0.0,0.0,10.0,0.0,0.0,0.0,10.0,-0.0792290424299,0.00878843159726,0.0723048235957,1.0,0.0,0.0,0.0,1.0,0.0,0.0,0.0,1.0,-0.0323327636719,-0.358055419922,10.0518969727,0.1,0.0,0.0,0.0,0.1,0.0,0.0,0.0,0.1
1446039384508230840,190,1446039384505060911,robocape,7.18942439992,0.618468051652,-17.6517406265,0.0,10.0,0.0,0.0,0.0,10.0,0.0,0.0,0.0,10.0,-0.0543284862376,0.00932106381528,0.0656469208705,1.0,0.0,0.0,0.0,1.0,0.0,0.0,0.0,1.0,-0.106578369141,-0.578397216797,10.0411193848,0.1,0.0,0.0,0.0,0.1,0.0,0.0,0.0,0.1
1446039384542835673,191,1446039384539150953,robocape,7.18780697153,0.632526901398,-17.5938446701,0.0,10.0,0.0,0.0,0.0,10.0,0.0,0.0,0.0,10.0,0.00559263828917,0.0106526443603,0.0126500151779,1.0,0.0,0.0,0.0,1.0,0.0,0.0,0.0,1.0,0.0227526855469,-0.544866943359,10.075847168,0.1,0.0,0.0,0.0,0.1,0.0,0.0,0.0,0.1
1446039384574170215,192,1446039384569762945,robocape,7.23611834535,0.652883171251,-17.5435521362,0.0,10.0,0.0,0.0,0.0,10.0,0.0,0.0,0.0,10.0,0.031957933081,0.0134489635049,0.00798948327024,1.0,0.0,0.0,0.0,1.0,0.0,0.0,0.0,1.0,0.0694555664063,-0.391585693359,10.1129699707,0.1,0.0,0.0,0.0,0.1,0.0,0.0,0.0,0.1
