%time,field.header.seq,field.header.stamp,field.header.frame_id,field.orientation.x,field.orientation.y,field.orientation.z,field.orientation.w,field.orientation_covariance0,field.orientation_covariance1,field.orientation_covariance2,field.orientation_covariance3,field.orientation_covariance4,field.orientation_covariance5,field.orientation_covariance6,field.orientation_covariance7,field.orientation_covariance8,field.angular_velocity.x,field.angular_velocity.y,field.angular_velocity.z,field.angular_velocity_covariance0,field.angular_velocity_covariance1,field.angular_velocity_covariance2,field.angular_velocity_covariance3,field.angular_velocity_covariance4,field.angular_velocity_covariance5,field.angular_velocity_covariance6,field.angular_velocity_covariance7,field.angular_velocity_covariance8,field.linear_acceleration.x,field.linear_acceleration.y,field.linear_acceleration.z,field.linear_acceleration_covariance0,field.linear_acceleration_covariance1,field.linear_acceleration_covariance2,field.linear_acceleration_covariance3,field.linear_acceleration_covariance4,field.linear_acceleration_covariance5,field.linear_acceleration_covariance6,field.linear_acceleration_covariance7,field.linear_acceleration_covariance8
1452007976621630749,1,1452007976604000091,robocape,-61.7039213825,-25.9453489953,-19.473471719,0.0,10.0,0.0,0.0,0.0,10.0,0.0,0.0,0.0,10.0,0.00492684801665,0.0209058145571,0.00825579937925,1.0,0.0,0.0,0.0,1.0,0.0,0.0,0.0,1.0,0.0143701171875,0.165256347656,10.1045874023,0.1,0.0,0.0,0.0,0.1,0.0,0.0,0.0,0.1
1452007976642000291,2,1452007976638082981,robocape,-61.2673972976,-25.6905334791,-19.4773569988,0.0,10.0,0.0,0.0,0.0,10.0,0.0,0.0,0.0,10.0,0.00466053190764,0.0206394984481,0.00812264132474,1.0,0.0,0.0,0.0,1.0,0.0,0.0,0.0,1.0,0.0131726074219,0.159268798828,10.0938098145,0.1,0.0,0.0,0.0,0.1,0.0,0.0,0.0,0.1
1452007976662648791,3,1452007976659482002,robocape,-60.8380067116,-25.4381370304,-19.4808330039,0.0,10.0,0.0,0.0,0.0,10.0,0.0,0.0,0.0,10.0,0.00452737385313,0.0215716048296,0.00825579937925,1.0,0.0,0.0,0.0,1.0,0.0,0.0,0.0,1.0,0.0179626464844,0.149688720703,10.1117724609,0.1,0.0,0.0,0.0,0.1,0.0,0.0,0.0,0.1
1452007976698666666,4,1452007976694926023,robocape,-60.4148984846,-25.1894589665,-19.4821685502,0.0,10.0,0.0,0.0,0.0,10.0,0.0,0.0,0.0,10.0,0.00532632218016,0.0214384467751,0.00825579937925,1.0,0.0,0.0,0.0,1.0,0.0,0.0,0.0,1.0,-0.00359252929688,0.15328125,10.0938098145,0.1,0.0,0.0,0.0,0.1,0.0,0.0,0.0,0.1
1452007976730301707,5,1452007976726913928,robocape,-59.9986375662,-24.9447151867,-19.4820877053,0.0,10.0,0.0,0.0,0.0,10.0,0.0,0.0,0.0,10.0,0.00532632218016,0.0214384467751,0.00785632521573,1.0,0.0,0.0,0.0,1.0,0.0,0.0,0.0,1.0,-0.00119750976563,0.154478759766,10.1021923828,0.1,0.0,0.0,0.0,0.1,0.0,0.0,0.0,0.1
1452007976763277374,6,1452007976759828090,robocape,-59.5897470337,-24.7028623892,-19.4793794362,0.0,10.0,0.0,0.0,0.0,10.0,0.0,0.0,0.0,10.0,0.00532632218016,0.0211721306661,0.00825579937925,1.0,0.0,0.0,0.0,1.0,0.0,0.0,0.0,1.0,0.0131726074219,0.164058837891,10.1141674805,0.1,0.0,0.0,0.0,0.1,0.0,0.0,0.0,0.1
1452007976797300957,7,1452007976793895006,robocape,-59.1861719151,-24.464329381,-19.475304967,0.0,10.0,0.0,0.0,0.0,10.0,0.0,0.0,0.0,10.0,0.00625842856169,0.0213052887206,0.00825579937925,1.0,0.0,0.0,0.0,1.0,0.0,0.0,0.0,1.0,-0.00119750976563,0.152083740234,10.0938098145,0.1,0.0,0.0,0.0,0.1,0.0,0.0,0.0,0.1
1452007976830189416,8,1452007976826525926,robocape,-58.7904658174,-24.2282919278,-19.4689785994,0.0,10.0,0.0,0.0,0.0,10.0,0.0,0.0,0.0,10.0,0.00559263828917,0.0211721306661,0.00865527354276,1.0,0.0,0.0,0.0,1.0,0.0,0.0,0.0,1.0,-0.00239501953125,0.149688720703,10.1285375977,0.1,0.0,0.0,0.0,0.1,0.0,0.0,0.0,0.1
1452007976865696707,9,1452007976862082004,robocape,-58.4001992184,-23.9968924965,-19.4615534672,0.0,10.0,0.0,0.0,0.0,10.0,0.0,0.0,0.0,10.0,0.00599211245268,0.0209058145571,0.00785632521573,1.0,0.0,0.0,0.0,1.0,0.0,0.0,0.0,1.0,0.00838256835938,0.156873779297,10.132130127,0.1,0.0,0.0,0.0,0.1,0.0,0.0,0.0,0.1
1452007976899596499,10,1452007976896359920,robocape,-58.0167048568,-23.7680476964,-19.4524279269,0.0,10.0,0.0,0.0,0.0,10.0,0.0,0.0,0.0,10.0,0.00572579634367,0.0209058145571,0.00812264132474,1.0,0.0,0.0,0.0,1.0,0.0,0.0,0.0,1.0,0.00598754882813,0.144898681641,10.1105749512,0.1,0.0,0.0,0.0,0.1,0.0,0.0,0.0,0.1
1452007976933500749,11,1452007976929757118,robocape,-57.6396645994,-23.542140933,-19.4423264808,0.0,10.0,0.0,0.0,0.0,10.0,0.0,0.0,0.0,10.0,0.00532632218016,0.0210389726116,0.00798948327024,1.0,0.0,0.0,0.0,1.0,0.0,0.0,0.0,1.0,0.00598754882813,0.159268798828,10.1201550293,0.1,0.0,0.0,0.0,0.1,0.0,0.0,0.0,0.1
1452007976966101166,12,1452007976962316036,robocape,-57.2673968805,-23.3180327715,-19.4330659309,0.0,10.0,0.0,0.0,0.0,10.0,0.0,0.0,0.0,10.0,0.00559263828917,0.0222373951022,0.00798948327024,1.0,0.0,0.0,0.0,1.0,0.0,0.0,0.0,1.0,0.00119750976563,0.162861328125,10.0974023437,0.1,0.0,0.0,0.0,0.1,0.0,0.0,0.0,0.1
1452007976999640374,13,1452007976995115041,robocape,-56.9010325832,-23.0977084487,-19.420579971,0.0,10.0,0.0,0.0,0.0,10.0,0.0,0.0,0.0,10.0,0.00599211245268,0.0211721306661,0.00812264132474,1.0,0.0,0.0,0.0,1.0,0.0,0.0,0.0,1.0,0.0047900390625,0.159268798828,10.1045874023,0.1,0.0,0.0,0.0,0.1,0.0,0.0,0.0,0.1
1452007977032089291,14,1452007977028171062,robocape,-56.5409162979,-22.8808758694,-19.4065200711,0.0,10.0,0.0,0.0,0.0,10.0,0.0,0.0,0.0,10.0,0.00559263828917,0.0207726565026,0.00785632521573,1.0,0.0,0.0,0.0,1.0,0.0,0.0,0.0,1.0,0.00119750976563,0.164058837891,10.1093774414,0.1,0.0,0.0,0.0,0.1,0.0,0.0,0.0,0.1
1452007977065615374,15,1452007977062038898,robocape,-56.1865226364,-22.665132965,-19.3921433374,0.0,10.0,0.0,0.0,0.0,10.0,0.0,0.0,0.0,10.0,0.00532632218016,0.0215716048296,0.00838895743375,1.0,0.0,0.0,0.0,1.0,0.0,0.0,0.0,1.0,0.0047900390625,0.152083740234,10.1345251465,0.1,0.0,0.0,0.0,0.1,0.0,0.0,0.0,0.1
1452007977099972666,16,1452007977095983028,robocape,-55.8367234169,-22.4525881608,-19.3774011514,0.0,10.0,0.0,0.0,0.0,10.0,0.0,0.0,0.0,10.0,0.00559263828917,0.0217047628841,0.00798948327024,1.0,0.0,0.0,0.0,1.0,0.0,0.0,0.0,1.0,0.0107775878906,0.146096191406,10.1165625,0.1,0.0,0.0,0.0,0.1,0.0,0.0,0.0,0.1
1452007977131525374,17,1452007977128173112,robocape,-55.4927524883,-22.2426914768,-19.3610338745,0.0,10.0,0.0,0.0,0.0,10.0,0.0,0.0,0.0,10.0,0.00532632218016,0.0214384467751,0.00812264132474,1.0,0.0,0.0,0.0,1.0,0.0,0.0,0.0,1.0,0.00239501953125,0.147293701172,10.100994873,0.1,0.0,0.0,0.0,0.1,0.0,0.0,0.0,0.1
1452007977164569791,18,1452007977161317110,robocape,-55.1536590437,-22.0361830189,-19.342977399,0.0,10.0,0.0,0.0,0.0,10.0,0.0,0.0,0.0,10.0,0.00559263828917,0.0209058145571,0.00798948327024,1.0,0.0,0.0,0.0,1.0,0.0,0.0,0.0,1.0,0.0143701171875,0.147293701172,10.100994873,0.1,0.0,0.0,0.0,0.1,0.0,0.0,0.0,0.1
1452007977199052582,19,1452007977195231914,robocape,-54.8192960369,-21.8312166071,-19.3238825005,0.0,10.0,0.0,0.0,0.0,10.0,0.0,0.0,0.0,10.0,0.00585895439817,0.0211721306661,0.00852211548825,1.0,0.0,0.0,0.0,1.0,0.0,0.0,0.0,1.0,-0.00239501953125,0.158071289063,10.1093774414,0.1,0.0,0.0,0.0,0.1,0.0,0.0,0.0,0.1
1452007977233677291,20,1452007977230088949,robocape,-54.4886394662,-21.628176696,-19.3054482533,0.0,10.0,0.0,0.0,0.0,10.0,0.0,0.0,0.0,10.0,0.00625842856169,0.0219710789932,0.00838895743375,1.0,0.0,0.0,0.0,1.0,0.0,0.0,0.0,1.0,-0.130528564453,0.144898681641,10.1357226563,0.1,0.0,0.0,0.0,0.1,0.0,0.0,0.0,0.1
1452007977265563666,21,1452007977262229919,robocape,-54.2571170172,-21.3245107816,-19.2062245786,0.0,10.0,0.0,0.0,0.0,10.0,0.0,0.0,0.0,10.0,-0.0284958236638,0.0215716048296,0.0751011427402,1.0,0.0,0.0,0.0,1.0,0.0,0.0,0.0,1.0,0.00359252929688,0.820294189453,10.1261425781,0.1,0.0,0.0,0.0,0.1,0.0,0.0,0.0,0.1
1452007977297651124,22,1452007977294433116,robocape,-54.4813902552,-20.6860325217,-18.8376255881,0.0,10.0,0.0,0.0,0.0,10.0,0.0,0.0,0.0,10.0,-0.24035028838,0.0127831732324,0.285224552747,1.0,0.0,0.0,0.0,1.0,0.0,0.0,0.0,1.0,-0.110170898438,-0.350870361328,10.0614770508,0.1,0.0,0.0,0.0,0.1,0.0,0.0,0.0,0.1
1452007977330882624,23,1452007977327539920,robocape,-54.5412581138,-20.1411013422,-18.5380668037,0.0,10.0,0.0,0.0,0.0,10.0,0.0,0.0,0.0,10.0,-0.155129133497,0.0143810698864,0.234225017872,1.0,0.0,0.0,0.0,1.0,0.0,0.0,0.0,1.0,0.0922082519531,-1.27175537109,10.1476977539,0.1,0.0,0.0,0.0,0.1,0.0,0.0,0.0,0.1
1452007977365399958,24,1452007977362344026,robocape,-53.921883162,-19.9185330746,-18.4790991569,0.0,10.0,0.0,0.0,0.0,10.0,0.0,0.0,0.0,10.0,0.224371321839,0.0255663464648,0.0596548084178,1.0,0.0,0.0,0.0,1.0,0.0,0.0,0.0,1.0,0.305364990234,-1.31007568359,10.0830322266,0.1,0.0,0.0,0.0,0.1,0.0,0.0,0.0,0.1
1452007977397547499,25,1452007977394516944,robocape,-52.9801053022,-19.9133188275,-18.5658179777,0.0,10.0,0.0,0.0,0.0,10.0,0.0,0.0,0.0,10.0,0.394547315495,0.0214384467751,-0.0628506017259,1.0,0.0,0.0,0.0,1.0,0.0,0.0,0.0,1.0,-0.229921875,-0.372425537109,10.1153649902,0.1,0.0,0.0,0.0,0.1,0.0,0.0,0.0,0.1
1452007977431474291,26,1452007977427813053,robocape,-51.7588532878,-20.1412258228,-18.835560055,0.0,10.0,0.0,0.0,0.0,10.0,0.0,0.0,0.0,10.0,0.523311154201,0.0199737081756,-0.208791829462,1.0,0.0,0.0,0.0,1.0,0.0,0.0,0.0,1.0,-0.293389892578,0.847836914063,10.1297351074,0.1,0.0,0.0,0.0,0.1,0.0,0.0,0.0,0.1
1452007977464230749,27,1452007977461131095,robocape,-50.894460647,-20.165542928,-18.9556367808,0.0,10.0,0.0,0.0,0.0,10.0,0.0,0.0,0.0,10.0,0.33968619704,0.0207726565026,-0.0922785317712,1.0,0.0,0.0,0.0,1.0,0.0,0.0,0.0,1.0,0.150886230469,1.40587646484,10.2363134766,0.1,0.0,0.0,0.0,0.1,0.0,0.0,0.0,0.1
1452007977497751749,28,1452007977494618892,robocape,-50.4916274946,-20.0098080672,-18.9426674397,0.0,10.0,0.0,0.0,0.0,10.0,0.0,0.0,0.0,10.0,0.083223784065,0.0214384467751,0.00226368692657,1.0,0.0,0.0,0.0,1.0,0.0,0.0,0.0,1.0,0.120948486328,1.66932861328,10.0063916016,0.1,0.0,0.0,0.0,0.1,0.0,0.0,0.0,0.1
1452007977530699208,29,1452007977527281045,robocape,-50.3865948207,-19.8025094865,-18.9086354134,0.0,10.0,0.0,0.0,0.0,10.0,0.0,0.0,0.0,10.0,-0.10199906975,0.0246342400832,0.0133158054504,1.0,0.0,0.0,0.0,1.0,0.0,0.0,0.0,1.0,0.067060546875,1.40228393555,10.1081799316,0.1,0.0,0.0,0.0,0.1,0.0,0.0,0.0,0.1
1452007977563663291,30,1452007977560477018,robocape,-50.3498240211,-19.6396251629,-18.9091460219,0.0,10.0,0.0,0.0,0.0,10.0,0.0,0.0,0.0,10.0,-0.157259662369,0.0209058145571,-0.0219710789932,1.0,0.0,0.0,0.0,1.0,0.0,0.0,0.0,1.0,-0.0131726074219,0.547261962891,10.1249450684,0.1,0.0,0.0,0.0,0.1,0.0,0.0,0.0,0.1
1452007977597918791,31,1452007977594914913,robocape,-50.2422404496,-19.5224438833,-18.9451194169,0.0,10.0,0.0,0.0,0.0,10.0,0.0,0.0,0.0,10.0,-0.121440145708,0.0205063403936,-0.0492684801665,1.0,0.0,0.0,0.0,1.0,0.0,0.0,0.0,1.0,-0.0742456054688,0.358055419922,10.0722546387,0.1,0.0,0.0,0.0,0.1,0.0,0.0,0.0,0.1
1452007977629255791,32,1452007977626246929,robocape,-50.1161487318,-19.4313224186,-19.0019726083,0.0,10.0,0.0,0.0,0.0,10.0,0.0,0.0,0.0,10.0,-0.114915401037,0.0201068662301,-0.0664458691975,1.0,0.0,0.0,0.0,1.0,0.0,0.0,0.0,1.0,-0.0131726074219,0.506546630859,10.1189575195,0.1,0.0,0.0,0.0,0.1,0.0,0.0,0.0,0.1
1452007977662447583,33,1452007977659245014,robocape,-50.2014475885,-19.2265522502,-18.9594637116,0.0,10.0,0.0,0.0,0.0,10.0,0.0,0.0,0.0,10.0,-0.221708160749,0.0183758115215,0.00452737385313,1.0,0.0,0.0,0.0,1.0,0.0,0.0,0.0,1.0,0.0383203125,0.993933105469,10.0890197754,0.1,0.0,0.0,0.0,0.1,0.0,0.0,0.0,0.1
1452007977695986749,34,1452007977692825078,robocape,-50.6681744472,-18.7716745974,-18.7033403219,0.0,10.0,0.0,0.0,0.0,10.0,0.0,0.0,0.0,10.0,-0.406664698455,0.0167779148675,0.164716513421,1.0,0.0,0.0,0.0,1.0,0.0,0.0,0.0,1.0,-0.0395178222656,0.880169677734,10.100994873,0.1,0.0,0.0,0.0,0.1,0.0,0.0,0.0,0.1
1452007977728827624,35,1452007977725790977,robocape,-51.1919235332,-18.3250003231,-18.4362394074,0.0,10.0,0.0,0.0,0.0,10.0,0.0,0.0,0.0,10.0,-0.446878430915,0.00719053494321,0.162452826495,1.0,0.0,0.0,0.0,1.0,0.0,0.0,0.0,1.0,-0.0323327636719,-0.706530761719,10.0818347168,0.1,0.0,0.0,0.0,0.1,0.0,0.0,0.0,0.1
1452007977761885791,36,1452007977758797883,robocape,-51.309846791,-17.977951275,-18.2417989708,0.0,10.0,0.0,0.0,0.0,10.0,0.0,0.0,0.0,10.0,-0.205063403936,0.00958737992429,0.120508039326,1.0,0.0,0.0,0.0,1.0,0.0,0.0,0.0,1.0,-0.160466308594,-1.66214355469,10.080637207,0.1,0.0,0.0,0.0,0.1,0.0,0.0,0.0,0.1
1452007977795174916,37,1452007977791897058,robocape,-50.9383569532,-17.7767917547,-18.1881252273,0.0,10.0,0.0,0.0,0.0,10.0,0.0,0.0,0.0,10.0,0.0781637779938,0.0253000303558,0.0403468905147,1.0,0.0,0.0,0.0,1.0,0.0,0.0,0.0,1.0,0.507744140625,-1.75674682617,10.0351318359,0.1,0.0,0.0,0.0,0.1,0.0,0.0,0.0,0.1
1452007977828271291,38,1452007977825035095,robocape,-50.2648656321,-17.6465580327,-18.1867573271,0.0,10.0,0.0,0.0,0.0,10.0,0.0,0.0,0.0,10.0,0.263919264027,0.0284958236638,0.0111852765783,1.0,0.0,0.0,0.0,1.0,0.0,0.0,0.0,1.0,0.112565917969,-0.828676757813,10.0518969727,0.1,0.0,0.0,0.0,0.1,0.0,0.0,0.0,0.1
1452007977862814916,39,1452007977859704971,robocape,-49.3784983768,-17.5904089892,-18.2463475493,0.0,10.0,0.0,0.0,0.0,10.0,0.0,0.0,0.0,10.0,0.388555203043,0.0308926686449,-0.0283626656093,1.0,0.0,0.0,0.0,1.0,0.0,0.0,0.0,1.0,-0.452658691406,-0.295784912109,10.0794396973,0.1,0.0,0.0,0.0,0.1,0.0,0.0,0.0,0.1
1452007977894704499,40,1452007977891650915,robocape,-48.3299508585,-17.7078860552,-18.4570332914,0.0,10.0,0.0,0.0,0.0,10.0,0.0,0.0,0.0,10.0,0.45353633364,0.0282295075548,-0.145941227736,1.0,0.0,0.0,0.0,1.0,0.0,0.0,0.0,1.0,-0.233514404297,0.506546630859,10.0435144043,0.1,0.0,0.0,0.0,0.1,0.0,0.0,0.0,0.1
1452007977928258624,41,1452007977925235033,robocape,-47.3904384405,-17.765467559,-18.6160840041,0.0,10.0,0.0,0.0,0.0,10.0,0.0,0.0,0.0,10.0,0.400273111839,0.0268979270098,-0.10879013053,1.0,0.0,0.0,0.0,1.0,0.0,0.0,0.0,1.0,-0.00598754882813,1.39629638672,10.0770446777,0.1,0.0,0.0,0.0,0.1,0.0,0.0,0.0,0.1
1452007977961490041,42,1452007977958478927,robocape,-46.9142750585,-17.6310093144,-18.6008384838,0.0,10.0,0.0,0.0,0.0,10.0,0.0,0.0,0.0,10.0,0.155262291552,0.0247673981377,0.00825579937925,1.0,0.0,0.0,0.0,1.0,0.0,0.0,0.0,1.0,0.119750976563,1.20110229492,10.1237475586,0.1,0.0,0.0,0.0,0.1,0.0,0.0,0.0,0.1
1452007977994718833,43,1452007977991668939,robocape,-46.6602724333,-17.5025627831,-18.5944742291,0.0,10.0,0.0,0.0,0.0,10.0,0.0,0.0,0.0,10.0,0.0138484376684,0.0218379209386,-0.00932106381528,1.0,0.0,0.0,0.0,1.0,0.0,0.0,0.0,1.0,0.0131726074219,1.22026245117,10.0770446777,0.1,0.0,0.0,0.0,0.1,0.0,0.0,0.0,0.1
1452007978028735666,44,1452007978025669097,robocape,-46.4431093157,-17.4576669053,-18.673662993,0.0,10.0,0.0,0.0,0.0,10.0,0.0,0.0,0.0,10.0,-0.0307595105904,0.0209058145571,-0.0769653555033,1.0,0.0,0.0,0.0,1.0,0.0,0.0,0.0,1.0,0.0275427246094,0.850231933594,10.1273400879,0.1,0.0,0.0,0.0,0.1,0.0,0.0,0.0,0.1
1452007978061729875,45,1452007978058536052,robocape,-46.270320354,-17.5158335998,-18.8536113597,0.0,10.0,0.0,0.0,0.0,10.0,0.0,0.0,0.0,10.0,-0.0849548387735,0.0173105470855,-0.159257033187,1.0,0.0,0.0,0.0,1.0,0.0,0.0,0.0,1.0,-0.0359252929688,1.56155273438,10.0542919922,0.1,0.0,0.0,0.0,0.1,0.0,0.0,0.0,0.1
1452007978095039333,46,1452007978091916084,robocape,-46.402201095,-17.5395897395,-19.0056317817,0.0,10.0,0.0,0.0,0.0,10.0,0.0,0.0,0.0,10.0,-0.270710324807,0.0141147537774,-0.152465972407,1.0,0.0,0.0,0.0,1.0,0.0,0.0,0.0,1.0,0.107775878906,1.81183227539,10.0566870117,0.1,0.0,0.0,0.0,0.1,0.0,0.0,0.0,0.1
1452007978128269250,47,1452007978125189065,robocape,-47.0451023581,-17.292295334,-18.87268899,0.0,10.0,0.0,0.0,0.0,10.0,0.0,0.0,0.0,10.0,-0.522512205874,0.00359526747161,0.0358195166616,1.0,0.0,0.0,0.0,1.0,0.0,0.0,0.0,1.0,-0.247884521484,1.80704223633,10.0004040527,0.1,0.0,0.0,0.0,0.1,0.0,0.0,0.0,0.1
1452007978161573875,48,1452007978158395051,robocape,-48.001307061,-16.9875398569,-18.6629198655,0.0,10.0,0.0,0.0,0.0,10.0,0.0,0.0,0.0,10.0,-0.710664536888,-0.0106526443603,0.0699079786146,1.0,0.0,0.0,0.0,1.0,0.0,0.0,0.0,1.0,-0.409548339844,-0.451461181641,10.1441052246,0.1,0.0,0.0,0.0,0.1,0.0,0.0,0.0,0.1
1452007978194566208,49,1452007978191494941,robocape,-48.5245758122,-16.7927103985,-18.5426452719,0.0,10.0,0.0,0.0,0.0,10.0,0.0,0.0,0.0,10.0,-0.465786874655,-0.0106526443603,0.0147805440499,1.0,0.0,0.0,0.0,1.0,0.0,0.0,0.0,1.0,0.118553466797,-1.9579284668,10.1033898926,0.1,0.0,0.0,0.0,0.1,0.0,0.0,0.0,0.1
1452007978228068041,50,1452007978225011110,robocape,-48.5421092795,-16.6606538067,-18.5227186094,0.0,10.0,0.0,0.0,0.0,10.0,0.0,0.0,0.0,10.0,-0.166980200348,0.0134489635049,-0.0190416017941,1.0,0.0,0.0,0.0,1.0,0.0,0.0,0.0,1.0,0.529299316406,-2.3722668457,9.99202148437,0.1,0.0,0.0,0.0,0.1,0.0,0.0,0.0,0.1
1452007978263315625,51,1452007978260245084,robocape,-48.124984991,-16.5152630189,-18.5076662604,0.0,10.0,0.0,0.0,0.0,10.0,0.0,0.0,0.0,10.0,0.113983294655,0.0286289817184,0.0102531701968,1.0,0.0,0.0,0.0,1.0,0.0,0.0,0.0,1.0,0.00718505859375,-2.1495300293,10.0267492676,0.1,0.0,0.0,0.0,0.1,0.0,0.0,0.0,0.1
1452007978295380791,52,1452007978292378902,robocape,-47.3770226441,-16.3706901336,-18.5062154559,0.0,10.0,0.0,0.0,0.0,10.0,0.0,0.0,0.0,10.0,0.32610407548,0.0402137324602,0.0243679239742,1.0,0.0,0.0,0.0,1.0,0.0,0.0,0.0,1.0,0.28740234375,-1.23942260742,10.0135766602,0.1,0.0,0.0,0.0,0.1,0.0,0.0,0.0,0.1
1452007978328196041,53,1452007978325115919,robocape,-46.4587281954,-16.2528991514,-18.5299864711,0.0,10.0,0.0,0.0,0.0,10.0,0.0,0.0,0.0,10.0,0.430899464375,0.0435426838228,0.0138484376684,1.0,0.0,0.0,0.0,1.0,0.0,0.0,0.0,1.0,0.170046386719,-0.24908203125,10.1021923828,0.1,0.0,0.0,0.0,0.1,0.0,0.0,0.0,0.1
1452007978361484458,54,1452007978358282089,robocape,-45.5494952252,-16.1470147545,-18.5385452587,0.0,10.0,0.0,0.0,0.0,10.0,0.0,0.0,0.0,10.0,0.430100516048,0.034354778062,0.0143810698864,1.0,0.0,0.0,0.0,1.0,0.0,0.0,0.0,1.0,-0.423918457031,0.580792236328,10.2470910645,0.1,0.0,0.0,0.0,0.1,0.0,0.0,0.0,0.1
1452007978394471458,55,1452007978391424894,robocape,-44.8217527371,-16.0788447709,-18.5750243166,0.0,10.0,0.0,0.0,0.0,10.0,0.0,0.0,0.0,10.0,0.311190373376,0.0274305592278,-0.0205063403936,1.0,0.0,0.0,0.0,1.0,0.0,0.0,0.0,1.0,-0.273032226563,1.04422851562,10.1548828125,0.1,0.0,0.0,0.0,0.1,0.0,0.0,0.0,0.1
1452007978427776625,56,1452007978424751996,robocape,-44.3667326262,-15.9567085664,-18.5698227156,0.0,10.0,0.0,0.0,0.0,10.0,0.0,0.0,0.0,10.0,0.153930711007,0.0292947719909,0.0031957933081,1.0,0.0,0.0,0.0,1.0,0.0,0.0,0.0,1.0,0.0383203125,1.05380859375,10.157277832,0.1,0.0,0.0,0.0,0.1,0.0,0.0,0.0,0.1
1452007978461290291,57,1452007978458183050,robocape,-44.1081012692,-15.8135352291,-18.5308466623,0.0,10.0,0.0,0.0,0.0,10.0,0.0,0.0,0.0,10.0,0.0411458388417,0.0230363434292,0.0151800182135,1.0,0.0,0.0,0.0,1.0,0.0,0.0,0.0,1.0,0.239501953125,1.0382409668,10.0662670898,0.1,0.0,0.0,0.0,0.1,0.0,0.0,0.0,0.1
1452007978494888000,58,1452007978491792917,robocape,-44.1264235148,-15.5807683942,-18.3980359605,0.0,10.0,0.0,0.0,0.0,10.0,0.0,0.0,0.0,10.0,-0.107724866094,0.0211721306661,0.0735032460862,1.0,0.0,0.0,0.0,1.0,0.0,0.0,0.0,1.0,0.108973388672,0.93884765625,10.0363293457,0.1,0.0,0.0,0.0,0.1,0.0,0.0,0.0,0.1
1452007978527846833,59,1452007978524776935,robocape,-44.2890393442,-15.3413919172,-18.2585136701,0.0,10.0,0.0,0.0,0.0,10.0,0.0,0.0,0.0,10.0,-0.19600865623,0.0193079179031,0.0724379816502,1.0,0.0,0.0,0.0,1.0,0.0,0.0,0.0,1.0,-0.0299377441406,0.690963134766,10.0830322266,0.1,0.0,0.0,0.0,0.1,0.0,0.0,0.0,0.1
1452007978561557041,60,1452007978558274984,robocape,-44.5214302706,-15.1488422947,-18.1626474735,0.0,10.0,0.0,0.0,0.0,10.0,0.0,0.0,0.0,10.0,-0.250736616631,0.0154463343225,0.0344879361165,1.0,0.0,0.0,0.0,1.0,0.0,0.0,0.0,1.0,-0.141306152344,0.387993164063,10.1357226563,0.1,0.0,0.0,0.0,0.1,0.0,0.0,0.0,0.1
1452007978595389541,61,1452007978591963052,robocape,-44.7225585909,-14.9916179896,-18.0874262587,0.0,10.0,0.0,0.0,0.0,10.0,0.0,0.0,0.0,10.0,-0.237953443399,0.00972053797879,0.0145142279409,1.0,0.0,0.0,0.0,1.0,0.0,0.0,0.0,1.0,-0.0814306640625,-0.0838256835938,10.1429077148,0.1,0.0,0.0,0.0,0.1,0.0,0.0,0.0,0.1
1452007978628352208,62,1452007978624927997,robocape,-44.8043711986,-14.8455615732,-18.0296609314,0.0,10.0,0.0,0.0,0.0,10.0,0.0,0.0,0.0,10.0,-0.168045464784,0.0135821215594,0.00945422186978,1.0,0.0,0.0,0.0,1.0,0.0,0.0,0.0,1.0,-0.117355957031,-0.695753173828,10.096204834,0.1,0.0,0.0,0.0,0.1,0.0,0.0,0.0,0.1
1452007978661363750,63,1452007978658067941,robocape,-44.7227006926,-14.7090338981,-17.9833677882,0.0,10.0,0.0,0.0,0.0,10.0,0.0,0.0,0.0,10.0,-0.068443240015,0.0167779148675,0.00958737992429,1.0,0.0,0.0,0.0,1.0,0.0,0.0,0.0,1.0,0.319735107422,-0.837059326172,10.0650695801,0.1,0.0,0.0,0.0,0.1,0.0,0.0,0.0,0.1
1452007978694751916,64,1452007978691526889,robocape,-44.4715470976,-14.5882259337,-17.9604916352,0.0,10.0,0.0,0.0,0.0,10.0,0.0,0.0,0.0,10.0,0.033289513626,0.0219710789932,0.00306263525359,1.0,0.0,0.0,0.0,1.0,0.0,0.0,0.0,1.0,0.0934057617188,-0.759221191406,10.1117724609,0.1,0.0,0.0,0.0,0.1,0.0,0.0,0.0,0.1
1452007978731462875,65,1452007978727616071,robocape,-44.0508570595,-14.4655356529,-17.9406772859,0.0,10.0,0.0,0.0,0.0,10.0,0.0,0.0,0.0,10.0,0.139949115284,0.0267647689553,0.0111852765783,1.0,0.0,0.0,0.0,1.0,0.0,0.0,0.0,1.0,-0.047900390625,-0.476608886719,10.1057849121,0.1,0.0,0.0,0.0,0.1,0.0,0.0,0.0,0.1
1452007978761455542,66,1452007978758304119,robocape,-43.5921802933,-14.351072672,-17.9309003084,0.0,10.0,0.0,0.0,0.0,10.0,0.0,0.0,0.0,10.0,0.163384932876,0.0282295075548,0.00639158661619,1.0,0.0,0.0,0.0,1.0,0.0,0.0,0.0,1.0,0.161663818359,0.0047900390625,10.0626745605,0.1,0.0,0.0,0.0,0.1,0.0,0.0,0.0,0.1
1452007978794794625,67,1452007978791718959,robocape,-43.1838624203,-14.2317290152,-17.9082469681,0.0,10.0,0.0,0.0,0.0,10.0,0.0,0.0,0.0,10.0,0.136753321976,0.0255663464648,0.0114515926873,1.0,0.0,0.0,0.0,1.0,0.0,0.0,0.0,1.0,-0.214354248047,0.372425537109,10.0614770508,0.1,0.0,0.0,0.0,0.1,0.0,0.0,0.0,0.1
1452007978828032000,68,1452007978824923038,robocape,-42.8760623309,-14.1152193911,-17.8877708897,0.0,10.0,0.0,0.0,0.0,10.0,0.0,0.0,0.0,10.0,0.0761664071763,0.0243679239742,0.00545948023466,1.0,0.0,0.0,0.0,1.0,0.0,0.0,0.0,1.0,0.0359252929688,0.653840332031,10.1896105957,0.1,0.0,0.0,0.0,0.1,0.0,0.0,0.0,0.1
1452007978862912417,69,1452007978859702110,robocape,-42.7102864567,-13.9878107991,-17.8477091852,0.0,10.0,0.0,0.0,0.0,10.0,0.0,0.0,0.0,10.0,-0.00585895439817,0.0205063403936,0.0114515926873,1.0,0.0,0.0,0.0,1.0,0.0,0.0,0.0,1.0,-0.0682580566406,0.665815429688,10.1429077148,0.1,0.0,0.0,0.0,0.1,0.0,0.0,0.0,0.1
1452007978895702083,70,1452007978892585039,robocape,-42.6635034785,-13.859320877,-17.8032832134,0.0,10.0,0.0,0.0,0.0,10.0,0.0,0.0,0.0,10.0,-0.0772316716123,0.018242653467,0.00878843159726,1.0,0.0,0.0,0.0,1.0,0.0,0.0,0.0,1.0,0.0383203125,0.4215234375,10.1249450684,0.1,0.0,0.0,0.0,0.1,0.0,0.0,0.0,0.1
1452007978929299375,71,1452007978926183938,robocape,-42.6645491199,-13.729925525,-17.7563991063,0.0,10.0,0.0,0.0,0.0,10.0,0.0,0.0,0.0,10.0,-0.105727495276,0.01744370514,0.00838895743375,1.0,0.0,0.0,0.0,1.0,0.0,0.0,0.0,1.0,-0.0275427246094,0.028740234375,10.1045874023,0.1,0.0,0.0,0.0,0.1,0.0,0.0,0.0,0.1
1452007978962769458,72,1452007978959505081,robocape,-42.6284656002,-13.5912125984,-17.6991877055,0.0,10.0,0.0,0.0,0.0,10.0,0.0,0.0,0.0,10.0,-0.0805606229749,0.0183758115215,0.017976337358,1.0,0.0,0.0,0.0,1.0,0.0,0.0,0.0,1.0,-0.128133544922,-0.238304443359,10.0698596191,0.1,0.0,0.0,0.0,0.1,0.0,0.0,0.0,0.1
1452007978996430875,73,1452007978992804050,robocape,-42.6399657456,-13.3777625348,-17.555063371,0.0,10.0,0.0,0.0,0.0,10.0,0.0,0.0,0.0,10.0,-0.0920122156622,0.0178431793035,0.0789627263208,1.0,0.0,0.0,0.0,1.0,0.0,0.0,0.0,1.0,0.086220703125,-0.447868652344,10.0770446777,0.1,0.0,0.0,0.0,0.1,0.0,0.0,0.0,0.1
1452007979028553833,74,1452007979025440931,robocape,-42.4398015069,-13.2231169512,-17.4836356371,0.0,10.0,0.0,0.0,0.0,10.0,0.0,0.0,0.0,10.0,0.0239684498107,0.0226368692657,0.0378168874791,1.0,0.0,0.0,0.0,1.0,0.0,0.0,0.0,1.0,0.189206542969,-0.629890136719,10.0662670898,0.1,0.0,0.0,0.0,0.1,0.0,0.0,0.0,0.1
1452007979063316958,75,1452007979059856891,robocape,-42.1042987781,-13.0913607939,-17.4400143672,0.0,10.0,0.0,0.0,0.0,10.0,0.0,0.0,0.0,10.0,0.102664860023,0.0253000303558,0.0245010820287,1.0,0.0,0.0,0.0,1.0,0.0,0.0,0.0,1.0,0.0,-0.340092773437,10.1129699707,0.1,0.0,0.0,0.0,0.1,0.0,0.0,0.0,0.1
1452007979096422042,76,1452007979093041896,robocape,-41.7212398051,-12.9545050159,-17.3916530168,0.0,10.0,0.0,0.0,0.0,10.0,0.0,0.0,0.0,10.0,0.13422331894,0.0268979270098,0.0307595105904,1.0,0.0,0.0,0.0,1.0,0.0,0.0,0.0,1.0,0.0179626464844,-0.0886157226563,10.100994873,0.1,0.0,0.0,0.0,0.1,0.0,0.0,0.0,0.1
1452007979129789542,77,1452007979126485109,robocape,-41.354389043,-12.7997616841,-17.3198009815,0.0,10.0,0.0,0.0,0.0,10.0,0.0,0.0,0.0,10.0,0.130361735359,0.0266316109008,0.0466053190764,1.0,0.0,0.0,0.0,1.0,0.0,0.0,0.0,1.0,-0.165256347656,0.458646240234,10.0698596191,0.1,0.0,0.0,0.0,0.1,0.0,0.0,0.0,0.1
1452007979162308250,78,1452007979158983945,robocape,-41.2088459251,-12.581249854,-17.1607033135,0.0,10.0,0.0,0.0,0.0,10.0,0.0,0.0,0.0,10.0,0.0133158054504,0.0211721306661,0.0968059056244,1.0,0.0,0.0,0.0,1.0,0.0,0.0,0.0,1.0,0.0826281738281,0.489781494141,10.1117724609,0.1,0.0,0.0,0.0,0.1,0.0,0.0,0.0,0.1
1452007979200023750,79,1452007979196053028,robocape,-41.0524595137,-12.3958809028,-17.0428648359,0.0,10.0,0.0,0.0,0.0,10.0,0.0,0.0,0.0,10.0,0.0131826473959,0.0223705531567,0.0692421883421,1.0,0.0,0.0,0.0,1.0,0.0,0.0,0.0,1.0,-0.047900390625,0.0934057617188,10.0985998535,0.1,0.0,0.0,0.0,0.1,0.0,0.0,0.0,0.1
1452007979231257708,80,1452007979227550983,robocape,-40.8491608886,-12.2562350639,-16.9746393598,0.0,10.0,0.0,0.0,0.0,10.0,0.0,0.0,0.0,10.0,0.0334226716805,0.0215716048296,0.0350205683345,1.0,0.0,0.0,0.0,1.0,0.0,0.0,0.0,1.0,0.0215551757813,0.122145996094,10.0926123047,0.1,0.0,0.0,0.0,0.1,0.0,0.0,0.0,0.1
1452007979264928458,81,1452007979261794090,robocape,-40.5973714002,-12.1722972299,-16.9724867892,0.0,10.0,0.0,0.0,0.0,10.0,0.0,0.0,0.0,10.0,0.052064799311,0.0219710789932,-0.00958737992429,1.0,0.0,0.0,0.0,1.0,0.0,0.0,0.0,1.0,-0.0371228027344,0.271834716797,10.1069824219,0.1,0.0,0.0,0.0,0.1,0.0,0.0,0.0,0.1
1452007979298122583,82,1452007979294981002,robocape,-40.2751267849,-12.1856630771,-17.0874919343,0.0,10.0,0.0,0.0,0.0,10.0,0.0,0.0,0.0,10.0,0.0751011427402,0.0221042370477,-0.0893490545722,1.0,0.0,0.0,0.0,1.0,0.0,0.0,0.0,1.0,0.00119750976563,0.45984375,10.1417102051,0.1,0.0,0.0,0.0,0.1,0.0,0.0,0.0,0.1
1452007979332992875,83,1452007979329823017,robocape,-40.0467456013,-12.1967769919,-17.1980533649,0.0,10.0,0.0,0.0,0.0,10.0,0.0,0.0,0.0,10.0,0.0203731823391,0.0203731823391,-0.0904143190082,1.0,0.0,0.0,0.0,1.0,0.0,0.0,0.0,1.0,-0.0131726074219,0.784368896484,10.1057849121,0.1,0.0,0.0,0.0,0.1,0.0,0.0,0.0,0.1
1452007979366245667,84,1452007979362176895,robocape,-40.0014868032,-12.1758868779,-17.2636136539,0.0,10.0,0.0,0.0,0.0,10.0,0.0,0.0,0.0,10.0,-0.0813595713019,0.0167779148675,-0.067644291688,1.0,0.0,0.0,0.0,1.0,0.0,0.0,0.0,1.0,0.0167651367188,0.706530761719,10.1081799316,0.1,0.0,0.0,0.0,0.1,0.0,0.0,0.0,0.1
1452007979402160500,85,1452007979398905038,robocape,-40.1695395997,-12.1075442516,-17.2640857493,0.0,10.0,0.0,0.0,0.0,10.0,0.0,0.0,0.0,10.0,-0.198538659265,0.0127831732324,-0.03222424919,1.0,0.0,0.0,0.0,1.0,0.0,0.0,0.0,1.0,-0.0610729980469,0.0155676269531,10.1249450684,0.1,0.0,0.0,0.0,0.1,0.0,0.0,0.0,0.1
1452007979432352959,86,1452007979428596019,robocape,-40.2536845488,-12.050794758,-17.2824247056,0.0,10.0,0.0,0.0,0.0,10.0,0.0,0.0,0.0,10.0,-0.151800182135,0.0149137021044,-0.0406132066237,1.0,0.0,0.0,0.0,1.0,0.0,0.0,0.0,1.0,-0.189206542969,-0.490979003906,10.0722546387,0.1,0.0,0.0,0.0,0.1,0.0,0.0,0.0,0.1
1452007979465439375,87,1452007979461858034,robocape,-40.2117578209,-12.01106883,-17.3199516269,0.0,10.0,0.0,0.0,0.0,10.0,0.0,0.0,0.0,10.0,-0.0794953585389,0.0157126504315,-0.0498011123845,1.0,0.0,0.0,0.0,1.0,0.0,0.0,0.0,1.0,0.282612304688,-0.501756591797,10.0638720703,0.1,0.0,0.0,0.0,0.1,0.0,0.0,0.0,0.1
1452007979499353834,88,1452007979495892047,robocape,-40.101796154,-11.9502199853,-17.3377611583,0.0,10.0,0.0,0.0,0.0,10.0,0.0,0.0,0.0,10.0,-0.034621094171,0.0186421276306,-0.0315584589174,1.0,0.0,0.0,0.0,1.0,0.0,0.0,0.0,1.0,0.104183349609,-0.431103515625,10.1249450684,0.1,0.0,0.0,0.0,0.1,0.0,0.0,0.0,0.1
1452007979532925917,89,1452007979529613971,robocape,-39.9126396127,-11.8557268786,-17.3192108713,0.0,10.0,0.0,0.0,0.0,10.0,0.0,0.0,0.0,10.0,0.0201068662301,0.0214384467751,-0.00146473859954,1.0,0.0,0.0,0.0,1.0,0.0,0.0,0.0,1.0,-0.104183349609,-0.532891845703,10.1117724609,0.1,0.0,0.0,0.0,0.1,0.0,0.0,0.0,0.1
1452007979565831750,90,1452007979562385082,robocape,-39.6387664,-11.7549944593,-17.2970798994,0.0,10.0,0.0,0.0,0.0,10.0,0.0,0.0,0.0,10.0,0.0727042977592,0.0239684498107,0.00572579634367,1.0,0.0,0.0,0.0,1.0,0.0,0.0,0.0,1.0,0.124541015625,-0.379610595703,10.1033898926,0.1,0.0,0.0,0.0,0.1,0.0,0.0,0.0,0.1
1452007979598381584,91,1452007979595133066,robocape,-39.3312196773,-11.6569252719,-17.2778219459,0.0,10.0,0.0,0.0,0.0,10.0,0.0,0.0,0.0,10.0,0.0936101123163,0.0245010820287,0.00519316412565,1.0,0.0,0.0,0.0,1.0,0.0,0.0,0.0,1.0,0.126936035156,-0.162861328125,10.0866247559,0.1,0.0,0.0,0.0,0.1,0.0,0.0,0.0,0.1
1452007979631371584,92,1452007979628148078,robocape,-39.0125951398,-11.5579882483,-17.2572154235,0.0,10.0,0.0,0.0,0.0,10.0,0.0,0.0,0.0,10.0,0.101732753641,0.0249005561922,0.0067910607797,1.0,0.0,0.0,0.0,1.0,0.0,0.0,0.0,1.0,-0.0359252929688,0.0,10.1237475586,0.1,0.0,0.0,0.0,0.1,0.0,0.0,0.0,0.1
1452007979664808459,93,1452007979661669969,robocape,-38.7170262606,-11.4549397549,-17.2282785868,0.0,10.0,0.0,0.0,0.0,10.0,0.0,0.0,0.0,10.0,0.0905474770627,0.0241016078652,0.0111852765783,1.0,0.0,0.0,0.0,1.0,0.0,0.0,0.0,1.0,-0.117355957031,0.245489501953,10.1249450684,0.1,0.0,0.0,0.0,0.1,0.0,0.0,0.0,0.1
1452007979697880834,94,1452007979694809913,robocape,-38.4943824533,-11.350869642,-17.1934939437,0.0,10.0,0.0,0.0,0.0,10.0,0.0,0.0,0.0,10.0,0.049135322112,0.0223705531567,0.0117179087963,1.0,0.0,0.0,0.0,1.0,0.0,0.0,0.0,1.0,0.0383203125,0.483793945313,10.1429077148,0.1,0.0,0.0,0.0,0.1,0.0,0.0,0.0,0.1
1452007979732292834,95,1452007979729207992,robocape,-38.6776551059,-11.1032880919,-16.9655064099,0.0,10.0,0.0,0.0,0.0,10.0,0.0,0.0,0.0,10.0,-0.160854929841,0.017177389031,0.128231206487,1.0,0.0,0.0,0.0,1.0,0.0,0.0,0.0,1.0,-0.01916015625,0.738863525391,10.1692529297,0.1,0.0,0.0,0.0,0.1,0.0,0.0,0.0,0.1
1452007979764204542,96,1452007979761173963,robocape,-38.8406472166,-10.8286209324,-16.7011952885,0.0,10.0,0.0,0.0,0.0,10.0,0.0,0.0,0.0,10.0,-0.144077014973,0.0167779148675,0.154197027116,1.0,0.0,0.0,0.0,1.0,0.0,0.0,0.0,1.0,-0.202379150391,-0.592767333984,10.0387243652,0.1,0.0,0.0,0.0,0.1,0.0,0.0,0.0,0.1
1452007979797706584,97,1452007979794469118,robocape,-38.769852226,-10.6122453539,-16.5172477003,0.0,10.0,0.0,0.0,0.0,10.0,0.0,0.0,0.0,10.0,-0.0178431793035,0.0205063403936,0.109322762748,1.0,0.0,0.0,0.0,1.0,0.0,0.0,0.0,1.0,0.336500244141,-0.699345703125,10.0638720703,0.1,0.0,0.0,0.0,0.1,0.0,0.0,0.0,0.1
1452007979831491834,98,1452007979828346014,robocape,-38.4953781717,-10.4487269156,-16.4063345517,0.0,10.0,0.0,0.0,0.0,10.0,0.0,0.0,0.0,10.0,0.0928111639893,0.0242347659197,0.068176923906,1.0,0.0,0.0,0.0,1.0,0.0,0.0,0.0,1.0,0.125738525391,-0.735270996094,10.1057849121,0.1,0.0,0.0,0.0,0.1,0.0,0.0,0.0,0.1
1452007979863698000,99,1452007979860594034,robocape,-38.0524185036,-10.3081734333,-16.3303007128,0.0,10.0,0.0,0.0,0.0,10.0,0.0,0.0,0.0,10.0,0.188818121287,0.0278300333913,0.051798483202,1.0,0.0,0.0,0.0,1.0,0.0,0.0,0.0,1.0,-0.0143701171875,-0.182021484375,10.0938098145,0.1,0.0,0.0,0.0,0.1,0.0,0.0,0.0,0.1
1452007979896804334,100,1452007979893552064,robocape,-37.6234278515,-10.1535052369,-16.2296806696,0.0,10.0,0.0,0.0,0.0,10.0,0.0,0.0,0.0,10.0,0.18535601187,0.0266316109008,0.066845343361,1.0,0.0,0.0,0.0,1.0,0.0,0.0,0.0,1.0,-0.192799072266,0.264649658203,10.1033898926,0.1,0.0,0.0,0.0,0.1,0.0,0.0,0.0,0.1
1452007979930067834,101,1452007979927047967,robocape,-37.2230827321,-10.0429783026,-16.1722860949,0.0,10.0,0.0,0.0,0.0,10.0,0.0,0.0,0.0,10.0,0.163251774822,0.0221042370477,0.033289513626,1.0,0.0,0.0,0.0,1.0,0.0,0.0,0.0,1.0,0.0407153320313,0.433498535156,10.1536853027,0.1,0.0,0.0,0.0,0.1,0.0,0.0,0.0,0.1
1452007979962692084,102,1452007979959431886,robocape,-36.9407870306,-9.94488598761,-16.132342149,0.0,10.0,0.0,0.0,0.0,10.0,0.0,0.0,0.0,10.0,0.0925448478803,0.0218379209386,0.0183758115215,1.0,0.0,0.0,0.0,1.0,0.0,0.0,0.0,1.0,-0.0203576660156,0.637075195313,10.1189575195,0.1,0.0,0.0,0.0,0.1,0.0,0.0,0.0,0.1
1452007979995712084,103,1452007979992432117,robocape,-36.7978803874,-9.83666415112,-16.081163456,0.0,10.0,0.0,0.0,0.0,10.0,0.0,0.0,0.0,10.0,0.0131826473959,0.0219710789932,0.0225037112112,1.0,0.0,0.0,0.0,1.0,0.0,0.0,0.0,1.0,0.0347277832031,0.668210449219,10.1069824219,0.1,0.0,0.0,0.0,0.1,0.0,0.0,0.0,0.1
1452007980028933459,104,1452007980025836944,robocape,-36.8054567444,-9.71023715033,-16.0093284347,0.0,10.0,0.0,0.0,0.0,10.0,0.0,0.0,0.0,10.0,-0.0717721913776,0.0225037112112,0.033023197517,1.0,0.0,0.0,0.0,1.0,0.0,0.0,0.0,1.0,0.0658630371094,0.667012939453,10.0926123047,0.1,0.0,0.0,0.0,0.1,0.0,0.0,0.0,0.1
1452007980062430167,105,1452007980059247016,robocape,-36.8843575553,-9.60371669336,-15.9551835913,0.0,10.0,0.0,0.0,0.0,10.0,0.0,0.0,0.0,10.0,-0.116246981582,0.0191747598486,0.0170442309765,1.0,0.0,0.0,0.0,1.0,0.0,0.0,0.0,1.0,-0.748443603516,0.21076171875,10.1237475586,0.1,0.0,0.0,0.0,0.1,0.0,0.0,0.0,0.1
1452007980095180667,106,1452007980092068910,robocape,-37.0603902521,-9.46457693834,-15.8686264421,0.0,10.0,0.0,0.0,0.0,10.0,0.0,0.0,0.0,10.0,-0.16911072922,0.0223705531567,0.0388821519152,1.0,0.0,0.0,0.0,1.0,0.0,0.0,0.0,1.0,-1.24900268555,0.183218994141,10.2423010254,0.1,0.0,0.0,0.0,0.1,0.0,0.0,0.0,0.1
1452007980128500792,107,1452007980125422000,robocape,-37.2421179579,-9.31406269857,-15.7903316714,0.0,10.0,0.0,0.0,0.0,10.0,0.0,0.0,0.0,10.0,-0.173904419182,0.0296942461544,0.0391484680242,1.0,0.0,0.0,0.0,1.0,0.0,0.0,0.0,1.0,-1.95912597656,0.0431103515625,10.4111499023,0.1,0.0,0.0,0.0,0.1,0.0,0.0,0.0,0.1
1452007980161881501,108,1452007980158807992,robocape,-37.5089480335,-9.20225501085,-15.6716531851,0.0,10.0,0.0,0.0,0.0,10.0,0.0,0.0,0.0,10.0,-0.221175528531,0.000266316109008,0.0412789968962,1.0,0.0,0.0,0.0,1.0,0.0,0.0,0.0,1.0,-4.38647827148,0.799936523438,10.2997814941,0.1,0.0,0.0,0.0,0.1,0.0,0.0,0.0,0.1
1452007980194901626,109,1452007980191814899,robocape,-38.0911772334,-8.92658961739,-15.3832230911,0.0,10.0,0.0,0.0,0.0,10.0,0.0,0.0,0.0,10.0,-0.386025200007,0.0127831732324,0.158591242914,1.0,0.0,0.0,0.0,1.0,0.0,0.0,0.0,1.0,-6.59229125977,0.492176513672,10.4937780762,0.1,0.0,0.0,0.0,0.1,0.0,0.0,0.0,0.1
1452007980228341251,110,1452007980225212097,robocape,-39.1286512468,-8.5207039354,-14.7539447925,0.0,10.0,0.0,0.0,0.0,10.0,0.0,0.0,0.0,10.0,-0.620117059825,-0.0483363737849,0.33289513626,1.0,0.0,0.0,0.0,1.0,0.0,0.0,0.0,1.0,-7.22816894531,1.16158447266,9.75850708008,0.1,0.0,0.0,0.0,0.1,0.0,0.0,0.0,0.1
1452007980261279501,111,1452007980258210897,robocape,-40.6627865748,-7.79228847367,-14.2196534018,0.0,10.0,0.0,0.0,0.0,10.0,0.0,0.0,0.0,10.0,-0.931440591255,0.103197492241,0.391218364133,1.0,0.0,0.0,0.0,1.0,0.0,0.0,0.0,1.0,-6.31207397461,0.90052734375,10.8518334961,0.1,0.0,0.0,0.0,0.1,0.0,0.0,0.0,0.1
1452007980294834167,112,1452007980291753053,robocape,-42.7029343961,-7.02399039449,-13.5975318832,0.0,10.0,0.0,0.0,0.0,10.0,0.0,0.0,0.0,10.0,-1.24822360292,0.0741690363587,0.42956788383,1.0,0.0,0.0,0.0,1.0,0.0,0.0,0.0,1.0,-5.38280639648,0.975970458984,10.5740112305,0.1,0.0,0.0,0.0,0.1,0.0,0.0,0.0,0.1
1452007980328218459,113,1452007980325073003,robocape,-45.4762072435,-6.11034856317,-12.7607983003,0.0,10.0,0.0,0.0,0.0,10.0,0.0,0.0,0.0,10.0,-1.70974941983,0.0304931944814,0.54901065872,1.0,0.0,0.0,0.0,1.0,0.0,0.0,0.0,1.0,-2.04654418945,2.40938964844,9.63636108398,0.1,0.0,0.0,0.0,0.1,0.0,0.0,0.0,0.1
1452007980361171001,114,1452007980358088970,robocape,-49.1691568666,-5.26749829585,-11.768559547,0.0,10.0,0.0,0.0,0.0,10.0,0.0,0.0,0.0,10.0,-2.33838859514,-0.0888164223541,0.552472768137,1.0,0.0,0.0,0.0,1.0,0.0,0.0,0.0,1.0,-5.22353759766,2.3794519043,7.6257421875,0.1,0.0,0.0,0.0,0.1,0.0,0.0,0.0,0.1
1452007980394823334,115,1452007980391820907,robocape,-54.1027223658,-4.34500558338,-10.608694173,0.0,10.0,0.0,0.0,0.0,10.0,0.0,0.0,0.0,10.0,-3.2431975755,-0.177366528599,0.598145980832,1.0,0.0,0.0,0.0,1.0,0.0,0.0,0.0,1.0,-4.51580932617,2.22138061523,6.76832519531,0.1,0.0,0.0,0.0,0.1,0.0,0.0,0.0,0.1
1452007980428332417,116,1452007980425245046,robocape,-59.8991628523,-3.44937349639,-9.6217518908,0.0,10.0,0.0,0.0,0.0,10.0,0.0,0.0,0.0,10.0,-4.04960275357,-0.165115987585,0.487491637539,1.0,0.0,0.0,0.0,1.0,0.0,0.0,0.0,1.0,-1.27175537109,1.67651367188,5.0966015625,0.1,0.0,0.0,0.0,0.1,0.0,0.0,0.0,0.1
1452007980461358792,117,1452007980458370923,robocape,-65.5844538037,-3.60693910454,-9.31562016406,0.0,10.0,0.0,0.0,0.0,10.0,0.0,0.0,0.0,10.0,-4.33669151909,-0.146740176063,-0.221042370477,1.0,0.0,0.0,0.0,1.0,0.0,0.0,0.0,1.0,0.380808105469,-13.3534313965,7.76225830078,0.1,0.0,0.0,0.0,0.1,0.0,0.0,0.0,0.1
1452007980494655501,118,1452007980491645097,robocape,-65.925889925,-6.70224587945,-11.491693165,0.0,10.0,0.0,0.0,0.0,10.0,0.0,0.0,0.0,10.0,-0.837031530612,0.392683102732,-2.05875668069,1.0,0.0,0.0,0.0,1.0,0.0,0.0,0.0,1.0,6.27016113281,-19.62,11.9906652832,0.1,0.0,0.0,0.0,0.1,0.0,0.0,0.0,0.1
1452007980528735667,119,1452007980525634050,robocape,-63.636230619,-8.25990660546,-14.4412459517,0.0,10.0,0.0,0.0,0.0,10.0,0.0,0.0,0.0,10.0,0.986301709711,1.03876598319,-1.39363219844,1.0,0.0,0.0,0.0,1.0,0.0,0.0,0.0,1.0,3.56857910156,-8.64961303711,7.35510498047,0.1,0.0,0.0,0.0,0.1,0.0,0.0,0.0,0.1
1452007980561288792,120,1452007980558273077,robocape,-61.6925286355,-9.40471956048,-17.0426497912,0.0,10.0,0.0,0.0,0.0,10.0,0.0,0.0,0.0,10.0,0.715724542959,0.923983740203,-1.1795140468,1.0,0.0,0.0,0.0,1.0,0.0,0.0,0.0,1.0,0.324525146484,1.27654541016,6.31686401367,0.1,0.0,0.0,0.0,0.1,0.0,0.0,0.0,0.1
1452007980596234459,121,1452007980593204021,robocape,-61.2621614759,-10.4071003896,-19.7996151654,0.0,10.0,0.0,0.0,0.0,10.0,0.0,0.0,0.0,10.0,-0.45380264975,1.01586279781,-1.29416313172,1.0,0.0,0.0,0.0,1.0,0.0,0.0,0.0,1.0,0.348475341797,-1.53880004883,10.898536377,0.1,0.0,0.0,0.0,0.1,0.0,0.0,0.0,0.1
1452007980628444626,122,1452007980625359058,robocape,-60.7673459697,-11.3786197978,-22.2506300306,0.0,10.0,0.0,0.0,0.0,10.0,0.0,0.0,0.0,10.0,-0.415719446161,0.874848418091,-1.23064673973,1.0,0.0,0.0,0.0,1.0,0.0,0.0,0.0,1.0,2.57344848633,-4.91218505859,8.90109008789,0.1,0.0,0.0,0.0,0.1,0.0,0.0,0.0,0.1
1452007980661306459,123,1452007980658157110,robocape,-59.9498316297,-12.2107104318,-24.9919069789,0.0,10.0,0.0,0.0,0.0,10.0,0.0,0.0,0.0,10.0,-0.28056402084,1.02811333883,-1.26127309226,1.0,0.0,0.0,0.0,1.0,0.0,0.0,0.0,1.0,3.97333740234,-5.68338134766,10.4542602539,0.1,0.0,0.0,0.0,0.1,0.0,0.0,0.0,0.1
1452007980695025459,124,1452007980691755056,robocape,-58.65167242,-12.9213044073,-27.2514009243,0.0,10.0,0.0,0.0,0.0,10.0,0.0,0.0,0.0,10.0,0.12357067458,0.820253615744,-1.05967179774,1.0,0.0,0.0,0.0,1.0,0.0,0.0,0.0,1.0,1.93038574219,-1.99984130859,7.99697021484,0.1,0.0,0.0,0.0,0.1,0.0,0.0,0.0,0.1
1452007980728090626,125,1452007980725001096,robocape,-57.6546970062,-13.4044477391,-29.5296639954,0.0,10.0,0.0,0.0,0.0,10.0,0.0,0.0,0.0,10.0,-0.109189604693,0.876046840582,-1.02425175524,1.0,0.0,0.0,0.0,1.0,0.0,0.0,0.0,1.0,0.541274414062,-5.72409667969,10.4973706055,0.1,0.0,0.0,0.0,0.1,0.0,0.0,0.0,0.1
1452007980761474459,126,1452007980758300065,robocape,-56.9241270958,-13.8728641021,-31.328904718,0.0,10.0,0.0,0.0,0.0,10.0,0.0,0.0,0.0,10.0,-0.216514996623,0.662594479212,-0.922385843549,1.0,0.0,0.0,0.0,1.0,0.0,0.0,0.0,1.0,1.4597644043,-5.03073852539,7.26888427734,0.1,0.0,0.0,0.0,0.1,0.0,0.0,0.0,0.1
1452007980794770001,127,1452007980791691064,robocape,-56.0861598319,-14.3785045682,-33.5819894561,0.0,10.0,0.0,0.0,0.0,10.0,0.0,0.0,0.0,10.0,-0.274305592278,0.840360481975,-1.11919344811,1.0,0.0,0.0,0.0,1.0,0.0,0.0,0.0,1.0,4.42240356445,-4.72058349609,8.05325317383,0.1,0.0,0.0,0.0,0.1,0.0,0.0,0.0,0.1
1452007980827943334,128,1452007980824837923,robocape,-54.9845886963,-14.7840292476,-35.7727225819,0.0,10.0,0.0,0.0,0.0,10.0,0.0,0.0,0.0,10.0,-0.0937432703708,0.827310992633,-1.06100337829,1.0,0.0,0.0,0.0,1.0,0.0,0.0,0.0,1.0,7.15272583008,-3.06682250977,8.82804199219,0.1,0.0,0.0,0.0,0.1,0.0,0.0,0.0,0.1
1452007980861598543,129,1452007980858125925,robocape,-54.0173981258,-15.4367692914,-37.8519555424,0.0,10.0,0.0,0.0,0.0,10.0,0.0,0.0,0.0,10.0,-0.210123410007,0.695218202565,-1.20215091606,1.0,0.0,0.0,0.0,1.0,0.0,0.0,0.0,1.0,1.05261108398,-5.19838989258,7.62334716797,0.1,0.0,0.0,0.0,0.1,0.0,0.0,0.0,0.1
1452007980895021251,130,1452007980891727924,robocape,-52.5876187219,-15.776618171,-39.7356032479,0.0,10.0,0.0,0.0,0.0,10.0,0.0,0.0,0.0,10.0,0.167113358402,0.684166084041,-0.954610092739,1.0,0.0,0.0,0.0,1.0,0.0,0.0,0.0,1.0,1.75195678711,-5.31215332031,8.49992431641,0.1,0.0,0.0,0.0,0.1,0.0,0.0,0.0,0.1
1452007980928417043,131,1452007980925051927,robocape,-51.3466593305,-15.7815732455,-42.0000285487,0.0,10.0,0.0,0.0,0.0,10.0,0.0,0.0,0.0,10.0,-0.0487358479485,0.935302174836,-1.01306647867,1.0,0.0,0.0,0.0,1.0,0.0,0.0,0.0,1.0,-2.52674560547,-4.03680541992,8.26760742188,0.1,0.0,0.0,0.0,0.1,0.0,0.0,0.0,0.1
1452007980961961543,132,1452007980958637952,robocape,-50.3931382817,-15.7277251828,-43.7970955358,0.0,10.0,0.0,0.0,0.0,10.0,0.0,0.0,0.0,10.0,-0.124103306798,0.760332491218,-0.868589989529,1.0,0.0,0.0,0.0,1.0,0.0,0.0,0.0,1.0,2.23455322266,-4.40563842773,7.72154296875,0.1,0.0,0.0,0.0,0.1,0.0,0.0,0.0,0.1
1452007980994799376,133,1452007980991632938,robocape,-49.539443166,-15.864034867,-45.9767187841,0.0,10.0,0.0,0.0,0.0,10.0,0.0,0.0,0.0,10.0,-0.328234604352,0.851678916607,-1.18617194952,1.0,0.0,0.0,0.0,1.0,0.0,0.0,0.0,1.0,7.50359619141,-7.127578125,8.46280151367,0.1,0.0,0.0,0.0,0.1,0.0,0.0,0.0,0.1
1452007981028030626,134,1452007981024897098,robocape,-48.484187435,-15.7856815427,-47.4977453573,0.0,10.0,0.0,0.0,0.0,10.0,0.0,0.0,0.0,10.0,0.000798948327024,0.64834656738,-0.793888320953,1.0,0.0,0.0,0.0,1.0,0.0,0.0,0.0,1.0,-1.22026245117,-1.17116455078,9.92256591797,0.1,0.0,0.0,0.0,0.1,0.0,0.0,0.0,0.1
1452007981061458001,135,1452007981058247089,robocape,-47.6892604761,-16.1277664204,-48.5929136051,0.0,10.0,0.0,0.0,0.0,10.0,0.0,0.0,0.0,10.0,-0.0982706442239,0.335824613459,-0.860866822368,1.0,0.0,0.0,0.0,1.0,0.0,0.0,0.0,1.0,3.19854858398,-4.30145507813,7.38983276367,0.1,0.0,0.0,0.0,0.1,0.0,0.0,0.0,0.1
1452007981095178793,136,1452007981092071056,robocape,-47.0191872406,-16.0326751005,-50.0214972657,0.0,10.0,0.0,0.0,0.0,10.0,0.0,0.0,0.0,10.0,-0.243146607524,0.613858631263,-0.850746810226,1.0,0.0,0.0,0.0,1.0,0.0,0.0,0.0,1.0,1.41306152344,-5.19120483398,9.60163330078,0.1,0.0,0.0,0.0,0.1,0.0,0.0,0.0,0.1
1452007981128195251,137,1452007981125113010,robocape,-46.0233186568,-16.3023181655,-51.2475780046,0.0,10.0,0.0,0.0,0.0,10.0,0.0,0.0,0.0,10.0,-0.00785632521573,0.398275741021,-0.906406877008,1.0,0.0,0.0,0.0,1.0,0.0,0.0,0.0,1.0,1.3759387207,-7.47365844727,7.02578979492,0.1,0.0,0.0,0.0,0.1,0.0,0.0,0.0,0.1
1452007981161477876,138,1452007981158327102,robocape,-45.2646022908,-16.064248211,-52.3627243516,0.0,10.0,0.0,0.0,0.0,10.0,0.0,0.0,0.0,10.0,-0.0881506320816,0.533164850234,-0.662328163103,1.0,0.0,0.0,0.0,1.0,0.0,0.0,0.0,1.0,-2.04175415039,-9.35973632813,8.29754516602,0.1,0.0,0.0,0.0,0.1,0.0,0.0,0.0,0.1
1452007981196035084,139,1452007981192976951,robocape,-44.5442318707,-15.8905414243,-53.1423591158,0.0,10.0,0.0,0.0,0.0,10.0,0.0,0.0,0.0,10.0,-0.0197073920666,0.382429932535,-0.540754859341,1.0,0.0,0.0,0.0,1.0,0.0,0.0,0.0,1.0,-1.23343505859,-3.7206628418,7.15991088867,0.1,0.0,0.0,0.0,0.1,0.0,0.0,0.0,0.1
1452007981229408043,140,1452007981226351976,robocape,-44.1868420537,-15.327675063,-54.2225213319,0.0,10.0,0.0,0.0,0.0,10.0,0.0,0.0,0.0,10.0,-0.30599720925,0.644884457963,-0.582300172346,1.0,0.0,0.0,0.0,1.0,0.0,0.0,0.0,1.0,-0.323327636719,-1.87889282227,9.67468139648,0.1,0.0,0.0,0.0,0.1,0.0,0.0,0.0,0.1
1452007981262924126,141,1452007981259633064,robocape,-43.6697463114,-15.3460394374,-55.0851811139,0.0,10.0,0.0,0.0,0.0,10.0,0.0,0.0,0.0,10.0,-0.190815492104,0.351803579999,-0.734499828644,1.0,0.0,0.0,0.0,1.0,0.0,0.0,0.0,1.0,1.27534790039,-4.63196777344,4.77447143555,0.1,0.0,0.0,0.0,0.1,0.0,0.0,0.0,0.1
1452007981296126501,142,1452007981293014049,robocape,-42.9827689733,-14.6360870657,-56.7942204801,0.0,10.0,0.0,0.0,0.0,10.0,0.0,0.0,0.0,10.0,-0.257927151574,0.936234281217,-0.852744181043,1.0,0.0,0.0,0.0,1.0,0.0,0.0,0.0,1.0,-2.1423449707,-11.3943054199,9.52858520508,0.1,0.0,0.0,0.0,0.1,0.0,0.0,0.0,0.1
1452007981329366126,143,1452007981326234102,robocape,-41.9946173348,-14.0848344473,-57.5296273447,0.0,10.0,0.0,0.0,0.0,10.0,0.0,0.0,0.0,10.0,0.202400242846,0.509063242369,-0.36511938545,1.0,0.0,0.0,0.0,1.0,0.0,0.0,0.0,1.0,0.376018066406,-5.61272827148,8.21491699219,0.1,0.0,0.0,0.0,0.1,0.0,0.0,0.0,0.1
1452007981363278876,144,1452007981359951972,robocape,-41.4107260137,-13.7648224521,-57.9613837018,0.0,10.0,0.0,0.0,0.0,10.0,0.0,0.0,0.0,10.0,0.0142479118319,0.31957933081,-0.368714652921,1.0,0.0,0.0,0.0,1.0,0.0,0.0,0.0,1.0,2.00223632812,-5.02954101562,7.51557128906,0.1,0.0,0.0,0.0,0.1,0.0,0.0,0.0,0.1
1452007981396416168,145,1452007981393287897,robocape,-41.0170479856,-13.6707916317,-58.4159753003,0.0,10.0,0.0,0.0,0.0,10.0,0.0,0.0,0.0,10.0,-0.127565416215,0.24687503305,-0.518650622293,1.0,0.0,0.0,0.0,1.0,0.0,0.0,0.0,1.0,3.32428710938,-7.92152709961,9.22920776367,0.1,0.0,0.0,0.0,0.1,0.0,0.0,0.0,0.1
1452007981430170543,146,1452007981426958084,robocape,-40.7841052367,-13.3151022229,-58.5258140383,0.0,10.0,0.0,0.0,0.0,10.0,0.0,0.0,0.0,10.0,-0.113583820492,0.223971847676,-0.225037112112,1.0,0.0,0.0,0.0,1.0,0.0,0.0,0.0,1.0,0.0167651367188,-4.03081787109,7.23415649414,0.1,0.0,0.0,0.0,0.1,0.0,0.0,0.0,0.1
1452007981466061459,147,1452007981461962938,robocape,-40.697131591,-12.9974984018,-58.6919185177,0.0,10.0,0.0,0.0,0.0,10.0,0.0,0.0,0.0,10.0,-0.220776054368,0.234624492036,-0.296010355162,1.0,0.0,0.0,0.0,1.0,0.0,0.0,0.0,1.0,1.31366821289,-4.06674316406,8.92384277344,0.1,0.0,0.0,0.0,0.1,0.0,0.0,0.0,0.1
1452007981498490376,148,1452007981494477033,robocape,-40.4300529881,-12.9138580722,-58.8614778102,0.0,10.0,0.0,0.0,0.0,10.0,0.0,0.0,0.0,10.0,-0.124103306798,0.14367754081,-0.378302032846,1.0,0.0,0.0,0.0,1.0,0.0,0.0,0.0,1.0,2.12318481445,-8.71068603516,6.33961669922,0.1,0.0,0.0,0.0,0.1,0.0,0.0,0.0,0.1
1452007981531778168,149,1452007981527756929,robocape,-40.0288072087,-12.7199144517,-58.8001580444,0.0,10.0,0.0,0.0,0.0,10.0,0.0,0.0,0.0,10.0,0.0310258266994,0.0988032764419,-0.173105470855,1.0,0.0,0.0,0.0,1.0,0.0,0.0,0.0,1.0,2.44770996094,-4.76249633789,8.37179077148,0.1,0.0,0.0,0.0,0.1,0.0,0.0,0.0,0.1
1452007981565146085,150,1452007981561909914,robocape,-39.6903163673,-12.4098725714,-58.6401331235,0.0,10.0,0.0,0.0,0.0,10.0,0.0,0.0,0.0,10.0,0.0291616139364,0.109455920802,-0.0691090302876,1.0,0.0,0.0,0.0,1.0,0.0,0.0,0.0,1.0,1.90164550781,-4.46192138672,7.92032958984,0.1,0.0,0.0,0.0,0.1,0.0,0.0,0.0,0.1
1452007981598128001,151,1452007981595055103,robocape,-39.5110077826,-12.0546149462,-58.3493605479,0.0,10.0,0.0,0.0,0.0,10.0,0.0,0.0,0.0,10.0,-0.0307595105904,0.0838895743375,0.0101200121423,1.0,0.0,0.0,0.0,1.0,0.0,0.0,0.0,1.0,1.85254760742,-6.23663085938,7.71196289063,0.1,0.0,0.0,0.0,0.1,0.0,0.0,0.0,0.1
1452007981631212168,152,1452007981627511024,robocape,-39.5326957841,-11.6631009455,-57.8766487308,0.0,10.0,0.0,0.0,0.0,10.0,0.0,0.0,0.0,10.0,-0.106260127494,0.0371510972066,0.110920659402,1.0,0.0,0.0,0.0,1.0,0.0,0.0,0.0,1.0,1.43581420898,-5.3995715332,7.75986328125,0.1,0.0,0.0,0.0,0.1,0.0,0.0,0.0,0.1
1452007981665088918,153,1452007981661866903,robocape,-39.7211696802,-11.2166829245,-57.2380267777,0.0,10.0,0.0,0.0,0.0,10.0,0.0,0.0,0.0,10.0,-0.165515461748,0.00173105470855,0.215050258024,1.0,0.0,0.0,0.0,1.0,0.0,0.0,0.0,1.0,1.25379272461,-6.04383178711,7.86045410156,0.1,0.0,0.0,0.0,0.1,0.0,0.0,0.0,0.1
1452007981698618210,154,1452007981695131063,robocape,-39.7976333787,-10.8196846566,-56.6748435211,0.0,10.0,0.0,0.0,0.0,10.0,0.0,0.0,0.0,10.0,-0.117179087963,0.00639158661619,0.170175993656,1.0,0.0,0.0,0.0,1.0,0.0,0.0,0.0,1.0,0.3448828125,-5.57560546875,8.11073364258,0.1,0.0,0.0,0.0,0.1,0.0,0.0,0.0,0.1
1452007981732798835,155,1452007981729407072,robocape,-39.7276597747,-10.5334606759,-56.2850813487,0.0,10.0,0.0,0.0,0.0,10.0,0.0,0.0,0.0,10.0,-0.0721716655411,0.0226368692657,0.0472711093489,1.0,0.0,0.0,0.0,1.0,0.0,0.0,0.0,1.0,-0.324525146484,-5.80432983398,8.20773193359,0.1,0.0,0.0,0.0,0.1,0.0,0.0,0.0,0.1
1452007981765192501,156,1452007981761692047,robocape,-39.4243378918,-10.2608021627,-56.1171871476,0.0,10.0,0.0,0.0,0.0,10.0,0.0,0.0,0.0,10.0,0.0238352917562,0.0926780059348,-0.0516653251475,1.0,0.0,0.0,0.0,1.0,0.0,0.0,0.0,1.0,-1.09691894531,-6.0582019043,8.29395263672,0.1,0.0,0.0,0.0,0.1,0.0,0.0,0.0,0.1
1452007981798305418,157,1452007981794748067,robocape,-39.1619006501,-9.88833411111,-55.9709568357,0.0,10.0,0.0,0.0,0.0,10.0,0.0,0.0,0.0,10.0,0.00292947719909,0.140881221665,-0.0241016078652,1.0,0.0,0.0,0.0,1.0,0.0,0.0,0.0,1.0,-1.87290527344,-5.19719238281,8.29036010742,0.1,0.0,0.0,0.0,0.1,0.0,0.0,0.0,0.1
1452007981832846543,158,1452007981829591989,robocape,-38.7505286538,-9.75871509127,-55.9314311216,0.0,10.0,0.0,0.0,0.0,10.0,0.0,0.0,0.0,10.0,0.0601874406358,0.0810932551929,-0.165249145639,1.0,0.0,0.0,0.0,1.0,0.0,0.0,0.0,1.0,-2.50638793945,-5.14210693359,7.75148071289,0.1,0.0,0.0,0.0,0.1,0.0,0.0,0.0,0.1
1452007981865800835,159,1452007981861941099,robocape,-38.2549305558,-9.45019346925,-56.0744510274,0.0,10.0,0.0,0.0,0.0,10.0,0.0,0.0,0.0,10.0,0.0870853676456,0.214783941915,-0.185222853815,1.0,0.0,0.0,0.0,1.0,0.0,0.0,0.0,1.0,-2.84408569336,-5.07145385742,8.34065551758,0.1,0.0,0.0,0.0,0.1,0.0,0.0,0.0,0.1
1452007981898622210,160,1452007981895332098,robocape,-37.9227091883,-9.05759652404,-56.3530501547,0.0,10.0,0.0,0.0,0.0,10.0,0.0,0.0,0.0,10.0,-0.0316916169719,0.300404570961,-0.249671352195,1.0,0.0,0.0,0.0,1.0,0.0,0.0,0.0,1.0,-2.14833251953,-6.69647460938,9.24717041016,0.1,0.0,0.0,0.0,0.1,0.0,0.0,0.0,0.1
1452007981931878168,161,1452007981928611040,robocape,-37.6195356304,-8.5610716784,-56.5286664663,0.0,10.0,0.0,0.0,0.0,10.0,0.0,0.0,0.0,10.0,-0.0199737081756,0.307994580068,-0.153531236843,1.0,0.0,0.0,0.0,1.0,0.0,0.0,0.0,1.0,0.761616210938,-4.05476806641,9.47589477539,0.1,0.0,0.0,0.0,0.1,0.0,0.0,0.0,0.1
1452007981965175543,162,1452007981961750984,robocape,-37.3965911283,-8.41025641988,-56.4420706577,0.0,10.0,0.0,0.0,0.0,10.0,0.0,0.0,0.0,10.0,-0.033023197517,0.0802943068659,-0.148338072717,1.0,0.0,0.0,0.0,1.0,0.0,0.0,0.0,1.0,-2.28604614258,-2.13276489258,6.07736206055,0.1,0.0,0.0,0.0,0.1,0.0,0.0,0.0,0.1
1452007981998486751,163,1452007981995400905,robocape,-37.0141184165,-8.1674950455,-56.440558778,0.0,10.0,0.0,0.0,0.0,10.0,0.0,0.0,0.0,10.0,0.0539290120741,0.14367754081,-0.141547011938,1.0,0.0,0.0,0.0,1.0,0.0,0.0,0.0,1.0,-2.66805175781,-7.05333251953,8.2807800293,0.1,0.0,0.0,0.0,0.1,0.0,0.0,0.0,0.1
1452007982031267418,164,1452007982027599096,robocape,-37.0847060001,-7.50318655024,-56.9809394636,0.0,10.0,0.0,0.0,0.0,10.0,0.0,0.0,0.0,10.0,-0.294945090726,0.514256406494,-0.342881990348,1.0,0.0,0.0,0.0,1.0,0.0,0.0,0.0,1.0,3.73024291992,-6.71323974609,6.8593359375,0.1,0.0,0.0,0.0,0.1,0.0,0.0,0.0,0.1
1452007982064951460,165,1452007982061706066,robocape,-36.5773821688,-6.96062231853,-57.1879841487,0.0,10.0,0.0,0.0,0.0,10.0,0.0,0.0,0.0,10.0,0.108523814421,0.339286722876,-0.136087531703,1.0,0.0,0.0,0.0,1.0,0.0,0.0,0.0,1.0,-2.88240600586,-3.48834594727,8.6256628418,0.1,0.0,0.0,0.0,0.1,0.0,0.0,0.0,0.1
1452007982097045126,166,1452007982093868017,robocape,-36.3259716387,-6.55585197401,-57.4943360675,0.0,10.0,0.0,0.0,0.0,10.0,0.0,0.0,0.0,10.0,-0.0640490242164,0.325571443262,-0.278433491968,1.0,0.0,0.0,0.0,1.0,0.0,0.0,0.0,1.0,-2.76624755859,-4.41282348633,7.41617797852,0.1,0.0,0.0,0.0,0.1,0.0,0.0,0.0,0.1
1452007982130075001,167,1452007982126934051,robocape,-36.1871820351,-6.30776042313,-57.7646226135,0.0,10.0,0.0,0.0,0.0,10.0,0.0,0.0,0.0,10.0,-0.129829103141,0.253399777721,-0.332229345987,1.0,0.0,0.0,0.0,1.0,0.0,0.0,0.0,1.0,-3.31949707031,-5.32772094727,10.26984375,0.1,0.0,0.0,0.0,0.1,0.0,0.0,0.0,0.1
1452007982163749585,168,1452007982160456895,robocape,-35.9627237216,-5.98756749373,-58.4056513828,0.0,10.0,0.0,0.0,0.0,10.0,0.0,0.0,0.0,10.0,-0.135554899485,0.411724704526,-0.520381677001,1.0,0.0,0.0,0.0,1.0,0.0,0.0,0.0,1.0,2.91713378906,-4.73375610352,7.48802856445,0.1,0.0,0.0,0.0,0.1,0.0,0.0,0.0,0.1
1452007982196954418,169,1452007982193840026,robocape,-35.4519399507,-5.77444654356,-58.4592021723,0.0,10.0,0.0,0.0,0.0,10.0,0.0,0.0,0.0,10.0,0.126899625942,0.15845808486,-0.184157589379,1.0,0.0,0.0,0.0,1.0,0.0,0.0,0.0,1.0,-3.04047729492,-4.55772216797,6.73718994141,0.1,0.0,0.0,0.0,0.1,0.0,0.0,0.0,0.1
1452007982229718210,170,1452007982226620912,robocape,-35.0438644374,-5.34936172514,-58.8225041217,0.0,10.0,0.0,0.0,0.0,10.0,0.0,0.0,0.0,10.0,0.0294279300454,0.355132531362,-0.30333404816,1.0,0.0,0.0,0.0,1.0,0.0,0.0,0.0,1.0,-1.40946899414,-5.90611816406,9.0088659668,0.1,0.0,0.0,0.0,0.1,0.0,0.0,0.0,0.1
1452007982263739293,171,1452007982260508060,robocape,-35.006786272,-4.7668929794,-58.9694907137,0.0,10.0,0.0,0.0,0.0,10.0,0.0,0.0,0.0,10.0,-0.146207543845,0.356996744125,-0.155661765715,1.0,0.0,0.0,0.0,1.0,0.0,0.0,0.0,1.0,-2.25610839844,-5.69535644531,8.56099731445,0.1,0.0,0.0,0.0,0.1,0.0,0.0,0.0,0.1
1452007982296504877,172,1452007982293401002,robocape,-34.5172446605,-4.27445060029,-59.1660454025,0.0,10.0,0.0,0.0,0.0,10.0,0.0,0.0,0.0,10.0,0.111186975511,0.328101446298,-0.173638103073,1.0,0.0,0.0,0.0,1.0,0.0,0.0,0.0,1.0,-3.84400634766,-4.44036621094,8.47836914063,0.1,0.0,0.0,0.0,0.1,0.0,0.0,0.0,0.1
1452007982327903377,173,1452007982324856042,robocape,-33.9342147523,-3.89446515968,-59.336701664,0.0,10.0,0.0,0.0,0.0,10.0,0.0,0.0,0.0,10.0,0.168844413111,0.271376115079,-0.192013914595,1.0,0.0,0.0,0.0,1.0,0.0,0.0,0.0,1.0,-3.38296508789,-3.49313598633,8.07600585937,0.1,0.0,0.0,0.0,0.1,0.0,0.0,0.0,0.1
1452007982361276377,174,1452007982358201026,robocape,-33.7976410669,-3.54758018714,-59.720046342,0.0,10.0,0.0,0.0,0.0,10.0,0.0,0.0,0.0,10.0,-0.117578562127,0.34088461953,-0.381364668099,1.0,0.0,0.0,0.0,1.0,0.0,0.0,0.0,1.0,-3.86077148438,-3.11352539062,9.32860107422,0.1,0.0,0.0,0.0,0.1,0.0,0.0,0.0,0.1
1452007982394883543,175,1452007982391864061,robocape,-33.754872927,-3.37503107619,-60.6326076379,0.0,10.0,0.0,0.0,0.0,10.0,0.0,0.0,0.0,10.0,-0.247141349159,0.451805278932,-0.787097260173,1.0,0.0,0.0,0.0,1.0,0.0,0.0,0.0,1.0,-0.380808105469,-4.96607299805,7.56586669922,0.1,0.0,0.0,0.0,0.1,0.0,0.0,0.0,0.1
1452007982429318627,176,1452007982426110029,robocape,-33.3962496773,-3.80842803548,-61.9677447773,0.0,10.0,0.0,0.0,0.0,10.0,0.0,0.0,0.0,10.0,-0.146074385791,0.334626190968,-1.25860993117,1.0,0.0,0.0,0.0,1.0,0.0,0.0,0.0,1.0,-2.15791259766,-9.02682861328,11.4242431641,0.1,0.0,0.0,0.0,0.1,0.0,0.0,0.0,0.1
1452007982462751960,177,1452007982459619998,robocape,-32.727603055,-3.01981007213,-63.8094450797,0.0,10.0,0.0,0.0,0.0,10.0,0.0,0.0,0.0,10.0,0.00479368996214,1.01865911696,-1.14808874593,1.0,0.0,0.0,0.0,1.0,0.0,0.0,0.0,1.0,-0.24908203125,-4.47389648438,8.52866455078,0.1,0.0,0.0,0.0,0.1,0.0,0.0,0.0,0.1
1452007982496851252,178,1452007982493254899,robocape,-31.8136269687,-2.58600662016,-65.5532366213,0.0,10.0,0.0,0.0,0.0,10.0,0.0,0.0,0.0,10.0,0.15579492377,0.833036788977,-1.238636223,1.0,0.0,0.0,0.0,1.0,0.0,0.0,0.0,1.0,-0.762813720703,-5.32053588867,11.322454834,0.1,0.0,0.0,0.0,0.1,0.0,0.0,0.0,0.1
1452007982529744377,179,1452007982526688098,robocape,-30.8304674247,-1.71596449802,-66.5918422137,0.0,10.0,0.0,0.0,0.0,10.0,0.0,0.0,0.0,10.0,0.304665628705,0.78376830881,-0.653406573451,1.0,0.0,0.0,0.0,1.0,0.0,0.0,0.0,1.0,-5.42471923828,-2.73032226563,9.25675048828,0.1,0.0,0.0,0.0,0.1,0.0,0.0,0.0,0.1
1452007982562976627,180,1452007982559817075,robocape,-29.7052292521,-0.957761803616,-66.943354843,0.0,10.0,0.0,0.0,0.0,10.0,0.0,0.0,0.0,10.0,0.468716351854,0.508663768205,-0.236888178963,1.0,0.0,0.0,0.0,1.0,0.0,0.0,0.0,1.0,-2.835703125,3.02131713867,8.89510253906,0.1,0.0,0.0,0.0,0.1,0.0,0.0,0.0,0.1
1452007982597414918,181,1452007982594315052,robocape,-30.4755532445,-0.249642533014,-67.5645362745,0.0,10.0,0.0,0.0,0.0,10.0,0.0,0.0,0.0,10.0,-0.62823970115,0.623579169242,-0.626242330332,1.0,0.0,0.0,0.0,1.0,0.0,0.0,0.0,1.0,-1.03225341797,0.0598754882813,7.94906982422,0.1,0.0,0.0,0.0,0.1,0.0,0.0,0.0,0.1
1452007982632860168,182,1452007982629291057,robocape,-30.6777080545,0.087906003711,-68.3248372354,0.0,10.0,0.0,0.0,0.0,10.0,0.0,0.0,0.0,10.0,-0.330897765442,0.50613376517,-0.801611488114,1.0,0.0,0.0,0.0,1.0,0.0,0.0,0.0,1.0,2.20701049805,-2.43812988281,10.3728295898,0.1,0.0,0.0,0.0,0.1,0.0,0.0,0.0,0.1
1452007982663435335,183,1452007982660326004,robocape,-30.9097498893,0.911181398007,-69.5016184019,0.0,10.0,0.0,0.0,0.0,10.0,0.0,0.0,0.0,10.0,-0.373242026775,0.870720518401,-0.946087977251,1.0,0.0,0.0,0.0,1.0,0.0,0.0,0.0,1.0,-3.33985473633,-7.11201049805,8.54782470703,0.1,0.0,0.0,0.0,0.1,0.0,0.0,0.0,0.1
1452007982696194293,184,1452007982693155050,robocape,-30.9817858013,1.64258745843,-70.4926403691,0.0,10.0,0.0,0.0,0.0,10.0,0.0,0.0,0.0,10.0,-0.262587683482,0.777909354412,-0.854075761588,1.0,0.0,0.0,0.0,1.0,0.0,0.0,0.0,1.0,-2.30041625977,-5.97557373047,10.4207299805,0.1,0.0,0.0,0.0,0.1,0.0,0.0,0.0,0.1
1452007982733265460,185,1452007982729720115,robocape,-30.2883273331,1.59297865977,-71.0698235666,0.0,10.0,0.0,0.0,0.0,10.0,0.0,0.0,0.0,10.0,0.188684963232,0.28056402084,-0.769254080869,1.0,0.0,0.0,0.0,1.0,0.0,0.0,0.0,1.0,0.330512695313,-4.60322753906,8.07840087891,0.1,0.0,0.0,0.0,0.1,0.0,0.0,0.0,0.1
1452007982761789460,186,1452007982758599996,robocape,-29.5049256762,1.45956404359,-71.6432699117,0.0,10.0,0.0,0.0,0.0,10.0,0.0,0.0,0.0,10.0,0.239418181998,0.236089230636,-0.799081485078,1.0,0.0,0.0,0.0,1.0,0.0,0.0,0.0,1.0,-0.150886230469,-3.45840820313,6.89645874023,0.1,0.0,0.0,0.0,0.1,0.0,0.0,0.0,0.1
1452007982795046210,187,1452007982791754961,robocape,-29.5471456007,1.79284902463,-72.4484582021,0.0,10.0,0.0,0.0,0.0,10.0,0.0,0.0,0.0,10.0,-0.231162382619,0.54102117545,-0.909203196153,1.0,0.0,0.0,0.0,1.0,0.0,0.0,0.0,1.0,2.39741455078,-3.70030517578,11.0075097656,0.1,0.0,0.0,0.0,0.1,0.0,0.0,0.0,0.1
1452007982828160252,188,1452007982825092077,robocape,-29.2050408425,2.73356133945,-73.1236837097,0.0,10.0,0.0,0.0,0.0,10.0,0.0,0.0,0.0,10.0,0.0125168571234,0.761264597599,-0.595216503633,1.0,0.0,0.0,0.0,1.0,0.0,0.0,0.0,1.0,1.42503662109,-2.6405090332,8.0855859375,0.1,0.0,0.0,0.0,0.1,0.0,0.0,0.0,0.1
1452007982861682793,189,1452007982858329057,robocape,-29.4983303083,3.92696721605,-73.9875765451,0.0,10.0,0.0,0.0,0.0,10.0,0.0,0.0,0.0,10.0,-0.339286722876,0.96499642099,-0.725045606774,1.0,0.0,0.0,0.0,1.0,0.0,0.0,0.0,1.0,-1.80225219727,-1.71842651367,8.91785522461,0.1,0.0,0.0,0.0,0.1,0.0,0.0,0.0,0.1
1452007982895039127,190,1452007982891802072,robocape,-30.2832030757,5.37436611951,-75.1000775266,0.0,10.0,0.0,0.0,0.0,10.0,0.0,0.0,0.0,10.0,-0.610263363792,1.19802301637,-0.881373162762,1.0,0.0,0.0,0.0,1.0,0.0,0.0,0.0,1.0,-2.12438232422,-7.57424926758,9.08790161133,0.1,0.0,0.0,0.0,0.1,0.0,0.0,0.0,0.1
1452007982928424502,191,1452007982925403118,robocape,-30.2045566197,6.10583239523,-75.5722225484,0.0,10.0,0.0,0.0,0.0,10.0,0.0,0.0,0.0,10.0,-0.106393285549,0.648612883489,-0.577905956547,1.0,0.0,0.0,0.0,1.0,0.0,0.0,0.0,1.0,1.15918945312,-3.79490844727,9.08071655273,0.1,0.0,0.0,0.0,0.1,0.0,0.0,0.0,0.1
1452007982961539002,192,1452007982958223104,robocape,-30.1653006218,6.61399449996,-76.2270315821,0.0,10.0,0.0,0.0,0.0,10.0,0.0,0.0,0.0,10.0,-0.132492264231,0.627440752823,-0.801877804223,1.0,0.0,0.0,0.0,1.0,0.0,0.0,0.0,1.0,2.73391479492,-5.27024047852,7.98858764648,0.1,0.0,0.0,0.0,0.1,0.0,0.0,0.0,0.1
1452007982994678585,193,1452007982991509914,robocape,-30.102772108,7.02931895036,-76.5649047488,0.0,10.0,0.0,0.0,0.0,10.0,0.0,0.0,0.0,10.0,-0.10879013053,0.475640570688,-0.603072828848,1.0,0.0,0.0,0.0,1.0,0.0,0.0,0.0,1.0,-0.288599853516,-4.70741088867,7.09883789063,0.1,0.0,0.0,0.0,0.1,0.0,0.0,0.0,0.1
