%time,field.header.seq,field.header.stamp,field.header.frame_id,field.magnetic_field.x,field.magnetic_field.y,field.magnetic_field.z,field.magnetic_field_covariance0,field.magnetic_field_covariance1,field.magnetic_field_covariance2,field.magnetic_field_covariance3,field.magnetic_field_covariance4,field.magnetic_field_covariance5,field.magnetic_field_covariance6,field.magnetic_field_covariance7,field.magnetic_field_covariance8
1446038392966671213,1,1446038392961057901,robocape_mag,6.0,-19.95,1.35,10.0,0.0,0.0,0.0,10.0,0.0,0.0,0.0,10.0
1446038392999282505,2,1446038392994426965,robocape_mag,6.0,-19.95,1.35,10.0,0.0,0.0,0.0,10.0,0.0,0.0,0.0,10.0
1446038393032869421,3,1446038393027832984,robocape_mag,5.7,-19.05,-0.15,10.0,0.0,0.0,0.0,10.0,0.0,0.0,0.0,10.0
1446038393065985588,4,1446038393060972929,robocape_mag,5.7,-19.05,-0.15,10.0,0.0,0.0,0.0,10.0,0.0,0.0,0.0,10.0
1446038393099283088,5,1446038393094393014,robocape_mag,5.7,-19.05,-0.15,10.0,0.0,0.0,0.0,10.0,0.0,0.0,0.0,10.0
1446038393132794588,6,1446038393127736091,robocape_mag,5.7,-19.05,-0.15,10.0,0.0,0.0,0.0,10.0,0.0,0.0,0.0,10.0
1446038393165947421,7,1446038393161021947,robocape_mag,5.7,-19.05,-0.15,10.0,0.0,0.0,0.0,10.0,0.0,0.0,0.0,10.0
1446038393199225171,8,1446038393194341897,robocape_mag,8.4,-19.35,1.35,10.0,0.0,0.0,0.0,10.0,0.0,0.0,0.0,10.0
1446038393232904546,9,1446038393227809906,robocape_mag,8.4,-19.35,1.35,10.0,0.0,0.0,0.0,10.0,0.0,0.0,0.0,10.0
1446038393266086505,10,1446038393261207103,robocape_mag,8.4,-19.35,1.35,10.0,0.0,0.0,0.0,10.0,0.0,0.0,0.0,10.0
1446038393299296922,11,1446038393294526100,robocape_mag,8.4,-19.35,1.35,10.0,0.0,0.0,0.0,10.0,0.0,0.0,0.0,10.0
1446038393333951505,12,1446038393328646898,robocape_mag,12.6,-22.95,0.15,10.0,0.0,0.0,0.0,10.0,0.0,0.0,0.0,10.0
1446038393365743797,13,1446038393361040115,robocape_mag,12.6,-22.95,0.15,10.0,0.0,0.0,0.0,10.0,0.0,0.0,0.0,10.0
1446038393399540755,14,1446038393394706964,robocape_mag,12.6,-22.95,0.15,10.0,0.0,0.0,0.0,10.0,0.0,0.0,0.0,10.0
1446038393433226338,15,1446038393427963972,robocape_mag,12.6,-22.95,0.15,10.0,0.0,0.0,0.0,10.0,0.0,0.0,0.0,10.0
1446038393465832713,16,1446038393461011886,robocape_mag,12.6,-22.95,0.15,10.0,0.0,0.0,0.0,10.0,0.0,0.0,0.0,10.0
1446038393499118922,17,1446038393494394063,robocape_mag,12.3,-21.45,-1.35,10.0,0.0,0.0,0.0,10.0,0.0,0.0,0.0,10.0
1446038393533992547,18,1446038393528640031,robocape_mag,12.3,-21.45,-1.35,10.0,0.0,0.0,0.0,10.0,0.0,0.0,0.0,10.0
1446038393565826922,19,1446038393560996055,robocape_mag,12.3,-21.45,-1.35,10.0,0.0,0.0,0.0,10.0,0.0,0.0,0.0,10.0
1446038393599254755,20,1446038393594400882,robocape_mag,12.3,-21.45,-1.35,10.0,0.0,0.0,0.0,10.0,0.0,0.0,0.0,10.0
1446038393633719630,21,1446038393628402948,robocape_mag,12.3,-21.45,-1.35,10.0,0.0,0.0,0.0,10.0,0.0,0.0,0.0,10.0
1446038393672766880,22,1446038393667956113,robocape_mag,15.3,-22.05,-1.95,10.0,0.0,0.0,0.0,10.0,0.0,0.0,0.0,10.0
1446038393699213880,23,1446038393694310903,robocape_mag,15.3,-22.05,-1.95,10.0,0.0,0.0,0.0,10.0,0.0,0.0,0.0,10.0
1446038393733607213,24,1446038393728396892,robocape_mag,15.3,-22.05,-1.95,10.0,0.0,0.0,0.0,10.0,0.0,0.0,0.0,10.0
1446038393766080005,25,1446038393761121988,robocape_mag,15.3,-22.05,-1.95,10.0,0.0,0.0,0.0,10.0,0.0,0.0,0.0,10.0
1446038393799211213,26,1446038393794441938,robocape_mag,15.3,-22.05,-1.95,10.0,0.0,0.0,0.0,10.0,0.0,0.0,0.0,10.0
1446038393833834505,27,1446038393828663110,robocape_mag,14.7,-22.65,-2.55,10.0,0.0,0.0,0.0,10.0,0.0,0.0,0.0,10.0
1446038393866144130,28,1446038393861129045,robocape_mag,14.7,-22.65,-2.55,10.0,0.0,0.0,0.0,10.0,0.0,0.0,0.0,10.0
1446038393899090713,29,1446038393894403934,robocape_mag,14.7,-22.65,-2.55,10.0,0.0,0.0,0.0,10.0,0.0,0.0,0.0,10.0
1446038393933436338,30,1446038393928258895,robocape_mag,14.7,-22.65,-2.55,10.0,0.0,0.0,0.0,10.0,0.0,0.0,0.0,10.0
1446038393966192547,31,1446038393961252927,robocape_mag,14.7,-22.65,-2.55,10.0,0.0,0.0,0.0,10.0,0.0,0.0,0.0,10.0
1446038393998991422,32,1446038393994384050,robocape_mag,12.0,-21.75,-0.45,10.0,0.0,0.0,0.0,10.0,0.0,0.0,0.0,10.0
1446038394033537172,33,1446038394028366088,robocape_mag,12.0,-21.75,-0.45,10.0,0.0,0.0,0.0,10.0,0.0,0.0,0.0,10.0
1446038394066380672,34,1446038394061386108,robocape_mag,12.0,-21.75,-0.45,10.0,0.0,0.0,0.0,10.0,0.0,0.0,0.0,10.0
1446038394098882047,35,1446038394094290971,robocape_mag,12.0,-21.75,-0.45,10.0,0.0,0.0,0.0,10.0,0.0,0.0,0.0,10.0
1446038394133574672,36,1446038394128422021,robocape_mag,15.3,-21.45,-2.55,10.0,0.0,0.0,0.0,10.0,0.0,0.0,0.0,10.0
1446038394166367047,37,1446038394161348104,robocape_mag,15.3,-21.45,-2.55,10.0,0.0,0.0,0.0,10.0,0.0,0.0,0.0,10.0
1446038394199340839,38,1446038394194474935,robocape_mag,15.3,-21.45,-2.55,10.0,0.0,0.0,0.0,10.0,0.0,0.0,0.0,10.0
1446038394233476214,39,1446038394228513002,robocape_mag,15.3,-21.45,-2.55,10.0,0.0,0.0,0.0,10.0,0.0,0.0,0.0,10.0
1446038394265948880,40,1446038394261109113,robocape_mag,15.3,-21.45,-2.55,10.0,0.0,0.0,0.0,10.0,0.0,0.0,0.0,10.0
1446038394299178214,41,1446038394294567108,robocape_mag,14.7,-17.85,-2.55,10.0,0.0,0.0,0.0,10.0,0.0,0.0,0.0,10.0
1446038394333351214,42,1446038394328447103,robocape_mag,14.7,-17.85,-2.55,10.0,0.0,0.0,0.0,10.0,0.0,0.0,0.0,10.0
1446038394365773339,43,1446038394361021995,robocape_mag,14.7,-17.85,-2.55,10.0,0.0,0.0,0.0,10.0,0.0,0.0,0.0,10.0
1446038394400593672,44,1446038394395567893,robocape_mag,14.7,-17.85,-2.55,10.0,0.0,0.0,0.0,10.0,0.0,0.0,0.0,10.0
1446038394433286130,45,1446038394428230047,robocape_mag,14.7,-17.85,-2.55,10.0,0.0,0.0,0.0,10.0,0.0,0.0,0.0,10.0
1446038394466117922,46,1446038394461289882,robocape_mag,14.7,-19.05,-3.15,10.0,0.0,0.0,0.0,10.0,0.0,0.0,0.0,10.0
1446038394499089589,47,1446038394494302988,robocape_mag,14.7,-19.05,-3.15,10.0,0.0,0.0,0.0,10.0,0.0,0.0,0.0,10.0
1446038394533475422,48,1446038394528369903,robocape_mag,14.7,-19.05,-3.15,10.0,0.0,0.0,0.0,10.0,0.0,0.0,0.0,10.0
1446038394566071922,49,1446038394560970067,robocape_mag,14.7,-19.05,-3.15,10.0,0.0,0.0,0.0,10.0,0.0,0.0,0.0,10.0
1446038394599264297,50,1446038394594460010,robocape_mag,14.7,-19.05,-3.15,10.0,0.0,0.0,0.0,10.0,0.0,0.0,0.0,10.0
1446038394634317797,51,1446038394628331899,robocape_mag,14.1,-20.25,-4.35,10.0,0.0,0.0,0.0,10.0,0.0,0.0,0.0,10.0
1446038394672682547,52,1446038394667876958,robocape_mag,14.1,-20.25,-4.35,10.0,0.0,0.0,0.0,10.0,0.0,0.0,0.0,10.0
1446038394699133672,53,1446038394694381952,robocape_mag,14.1,-20.25,-4.35,10.0,0.0,0.0,0.0,10.0,0.0,0.0,0.0,10.0
1446038394734635672,54,1446038394728266000,robocape_mag,14.1,-20.25,-4.35,10.0,0.0,0.0,0.0,10.0,0.0,0.0,0.0,10.0
1446038394765901797,55,1446038394761091947,robocape_mag,14.1,-20.25,-4.35,10.0,0.0,0.0,0.0,10.0,0.0,0.0,0.0,10.0
1446038394799107547,56,1446038394794401884,robocape_mag,13.5,-20.25,-2.55,10.0,0.0,0.0,0.0,10.0,0.0,0.0,0.0,10.0
1446038394833595339,57,1446038394828151941,robocape_mag,13.5,-20.25,-2.55,10.0,0.0,0.0,0.0,10.0,0.0,0.0,0.0,10.0
1446038394865712131,58,1446038394860912084,robocape_mag,13.5,-20.25,-2.55,10.0,0.0,0.0,0.0,10.0,0.0,0.0,0.0,10.0
1446038394899170756,59,1446038394894500970,robocape_mag,13.5,-20.25,-2.55,10.0,0.0,0.0,0.0,10.0,0.0,0.0,0.0,10.0
1446038394933293922,60,1446038394928175926,robocape_mag,13.2,-19.35,-5.25,10.0,0.0,0.0,0.0,10.0,0.0,0.0,0.0,10.0
1446038394966013631,61,1446038394961157083,robocape_mag,13.2,-19.35,-5.25,10.0,0.0,0.0,0.0,10.0,0.0,0.0,0.0,10.0
1446038394999080506,62,1446038394994398117,robocape_mag,13.2,-19.35,-5.25,10.0,0.0,0.0,0.0,10.0,0.0,0.0,0.0,10.0
1446038395033482422,63,1446038395028335094,robocape_mag,13.2,-19.35,-5.25,10.0,0.0,0.0,0.0,10.0,0.0,0.0,0.0,10.0
1446038395065985172,64,1446038395061144113,robocape_mag,13.2,-19.35,-5.25,10.0,0.0,0.0,0.0,10.0,0.0,0.0,0.0,10.0
1446038395099166881,65,1446038395094482898,robocape_mag,12.6,-19.95,-5.85,10.0,0.0,0.0,0.0,10.0,0.0,0.0,0.0,10.0
1446038395133077297,66,1446038395128035068,robocape_mag,12.6,-19.95,-5.85,10.0,0.0,0.0,0.0,10.0,0.0,0.0,0.0,10.0
1446038395166113547,67,1446038395161323070,robocape_mag,12.6,-19.95,-5.85,10.0,0.0,0.0,0.0,10.0,0.0,0.0,0.0,10.0
1446038395199240506,68,1446038395194540023,robocape_mag,12.6,-19.95,-5.85,10.0,0.0,0.0,0.0,10.0,0.0,0.0,0.0,10.0
1446038395233199589,69,1446038395228214025,robocape_mag,12.6,-19.95,-5.85,10.0,0.0,0.0,0.0,10.0,0.0,0.0,0.0,10.0
1446038395265780339,70,1446038395261015892,robocape_mag,10.2,-31.95,21.15,10.0,0.0,0.0,0.0,10.0,0.0,0.0,0.0,10.0
1446038395299343047,71,1446038395294708967,robocape_mag,10.2,-31.95,21.15,10.0,0.0,0.0,0.0,10.0,0.0,0.0,0.0,10.0
1446038395333336881,72,1446038395328138113,robocape_mag,10.2,-31.95,21.15,10.0,0.0,0.0,0.0,10.0,0.0,0.0,0.0,10.0
1446038395365749964,73,1446038395361015081,robocape_mag,10.2,-31.95,21.15,10.0,0.0,0.0,0.0,10.0,0.0,0.0,0.0,10.0
1446038395399240589,74,1446038395394511938,robocape_mag,10.2,-31.95,21.15,10.0,0.0,0.0,0.0,10.0,0.0,0.0,0.0,10.0
1446038395432924548,75,1446038395428112030,robocape_mag,9.0,-11.55,16.95,10.0,0.0,0.0,0.0,10.0,0.0,0.0,0.0,10.0
1446038395466824631,76,1446038395461067914,robocape_mag,9.0,-11.55,16.95,10.0,0.0,0.0,0.0,10.0,0.0,0.0,0.0,10.0
1446038395499207714,77,1446038395494515895,robocape_mag,9.0,-11.55,16.95,10.0,0.0,0.0,0.0,10.0,0.0,0.0,0.0,10.0
1446038395533500256,78,1446038395528312921,robocape_mag,9.0,-11.55,16.95,10.0,0.0,0.0,0.0,10.0,0.0,0.0,0.0,10.0
1446038395565981548,79,1446038395561026096,robocape_mag,9.0,-11.55,16.95,10.0,0.0,0.0,0.0,10.0,0.0,0.0,0.0,10.0
1446038395599382214,80,1446038395594522953,robocape_mag,12.6,-28.95,17.55,10.0,0.0,0.0,0.0,10.0,0.0,0.0,0.0,10.0
1446038395633109923,81,1446038395628226995,robocape_mag,12.6,-28.95,17.55,10.0,0.0,0.0,0.0,10.0,0.0,0.0,0.0,10.0
1446038395673390423,82,1446038395668401002,robocape_mag,12.6,-28.95,17.55,10.0,0.0,0.0,0.0,10.0,0.0,0.0,0.0,10.0
1446038395699273048,83,1446038395694367885,robocape_mag,12.6,-28.95,17.55,10.0,0.0,0.0,0.0,10.0,0.0,0.0,0.0,10.0
1446038395732923339,84,1446038395728199958,robocape_mag,11.1,-11.85,10.05,10.0,0.0,0.0,0.0,10.0,0.0,0.0,0.0,10.0
1446038395766038089,85,1446038395761113882,robocape_mag,11.1,-11.85,10.05,10.0,0.0,0.0,0.0,10.0,0.0,0.0,0.0,10.0
1446038395799137714,86,1446038395794507980,robocape_mag,11.1,-11.85,10.05,10.0,0.0,0.0,0.0,10.0,0.0,0.0,0.0,10.0
1446038395833249464,87,1446038395827841997,robocape_mag,11.1,-11.85,10.05,10.0,0.0,0.0,0.0,10.0,0.0,0.0,0.0,10.0
1446038395865726631,88,1446038395860908031,robocape_mag,11.1,-11.85,10.05,10.0,0.0,0.0,0.0,10.0,0.0,0.0,0.0,10.0
1446038395899072714,89,1446038395894399881,robocape_mag,11.1,-10.05,0.45,10.0,0.0,0.0,0.0,10.0,0.0,0.0,0.0,10.0
1446038395933013881,90,1446038395927777051,robocape_mag,11.1,-10.05,0.45,10.0,0.0,0.0,0.0,10.0,0.0,0.0,0.0,10.0
1446038395965810714,91,1446038395960952043,robocape_mag,11.1,-10.05,0.45,10.0,0.0,0.0,0.0,10.0,0.0,0.0,0.0,10.0
1446038395999116423,92,1446038395994415998,robocape_mag,11.1,-10.05,0.45,10.0,0.0,0.0,0.0,10.0,0.0,0.0,0.0,10.0
1446038396033319631,93,1446038396027959108,robocape_mag,11.1,-10.05,0.45,10.0,0.0,0.0,0.0,10.0,0.0,0.0,0.0,10.0
1446038396065723340,94,1446038396060995101,robocape_mag,13.2,-13.35,-2.25,10.0,0.0,0.0,0.0,10.0,0.0,0.0,0.0,10.0
1446038396100512715,95,1446038396095787048,robocape_mag,13.2,-13.35,-2.25,10.0,0.0,0.0,0.0,10.0,0.0,0.0,0.0,10.0
1446038396133237590,96,1446038396127969026,robocape_mag,13.2,-13.35,-2.25,10.0,0.0,0.0,0.0,10.0,0.0,0.0,0.0,10.0
1446038396173059381,97,1446038396168266057,robocape_mag,13.2,-13.35,-2.25,10.0,0.0,0.0,0.0,10.0,0.0,0.0,0.0,10.0
1446038396199213715,98,1446038396194431066,robocape_mag,13.2,-13.35,-2.25,10.0,0.0,0.0,0.0,10.0,0.0,0.0,0.0,10.0
1446038396233030631,99,1446038396227899074,robocape_mag,12.0,-13.35,-2.85,10.0,0.0,0.0,0.0,10.0,0.0,0.0,0.0,10.0
1446038396265947131,100,1446038396261059999,robocape_mag,12.0,-13.35,-2.85,10.0,0.0,0.0,0.0,10.0,0.0,0.0,0.0,10.0
1446038396299235631,101,1446038396294508934,robocape_mag,12.0,-13.35,-2.85,10.0,0.0,0.0,0.0,10.0,0.0,0.0,0.0,10.0
1446038396333273340,102,1446038396327923059,robocape_mag,12.0,-13.35,-2.85,10.0,0.0,0.0,0.0,10.0,0.0,0.0,0.0,10.0
1446038396365673590,103,1446038396360938072,robocape_mag,12.0,-13.35,-2.85,10.0,0.0,0.0,0.0,10.0,0.0,0.0,0.0,10.0
1446038396399571256,104,1446038396394659996,robocape_mag,13.5,-12.45,-0.75,10.0,0.0,0.0,0.0,10.0,0.0,0.0,0.0,10.0
1446038396432990965,105,1446038396427865982,robocape_mag,13.5,-12.45,-0.75,10.0,0.0,0.0,0.0,10.0,0.0,0.0,0.0,10.0
1446038396465698006,106,1446038396460951089,robocape_mag,13.5,-12.45,-0.75,10.0,0.0,0.0,0.0,10.0,0.0,0.0,0.0,10.0
1446038396499000673,107,1446038396494357109,robocape_mag,13.5,-12.45,-0.75,10.0,0.0,0.0,0.0,10.0,0.0,0.0,0.0,10.0
1446038396533515631,108,1446038396528119087,robocape_mag,11.7,-12.45,-0.75,10.0,0.0,0.0,0.0,10.0,0.0,0.0,0.0,10.0
1446038396566682173,109,1446038396561960935,robocape_mag,11.7,-12.45,-0.75,10.0,0.0,0.0,0.0,10.0,0.0,0.0,0.0,10.0
1446038396598970215,110,1446038396594356060,robocape_mag,11.7,-12.45,-0.75,10.0,0.0,0.0,0.0,10.0,0.0,0.0,0.0,10.0
1446038396633878798,111,1446038396628029108,robocape_mag,11.7,-12.45,-0.75,10.0,0.0,0.0,0.0,10.0,0.0,0.0,0.0,10.0
1446038396672902465,112,1446038396667977094,robocape_mag,11.7,-12.45,-0.75,10.0,0.0,0.0,0.0,10.0,0.0,0.0,0.0,10.0
1446038396699150048,113,1446038396694396018,robocape_mag,12.6,-12.75,-1.05,10.0,0.0,0.0,0.0,10.0,0.0,0.0,0.0,10.0
1446038396736918757,114,1446038396731086015,robocape_mag,12.6,-12.75,-1.05,10.0,0.0,0.0,0.0,10.0,0.0,0.0,0.0,10.0
1446038396766490007,115,1446038396761708021,robocape_mag,12.6,-12.75,-1.05,10.0,0.0,0.0,0.0,10.0,0.0,0.0,0.0,10.0
1446038396799062340,116,1446038396794421911,robocape_mag,12.6,-12.75,-1.05,10.0,0.0,0.0,0.0,10.0,0.0,0.0,0.0,10.0
1446038396832762590,117,1446038396827970027,robocape_mag,12.6,-12.75,-1.05,10.0,0.0,0.0,0.0,10.0,0.0,0.0,0.0,10.0
1446038396865831673,118,1446038396860974073,robocape_mag,13.8,-12.75,-2.85,10.0,0.0,0.0,0.0,10.0,0.0,0.0,0.0,10.0
1446038396899193423,119,1446038396894530057,robocape_mag,13.8,-12.75,-2.85,10.0,0.0,0.0,0.0,10.0,0.0,0.0,0.0,10.0
1446038396932811840,120,1446038396927954912,robocape_mag,13.8,-12.75,-2.85,10.0,0.0,0.0,0.0,10.0,0.0,0.0,0.0,10.0
1446038396966511882,121,1446038396961523056,robocape_mag,13.8,-12.75,-2.85,10.0,0.0,0.0,0.0,10.0,0.0,0.0,0.0,10.0
1446038396999054340,122,1446038396994446039,robocape_mag,13.8,-12.75,-2.85,10.0,0.0,0.0,0.0,10.0,0.0,0.0,0.0,10.0
1446038397033266257,123,1446038397028198957,robocape_mag,12.0,-14.55,-1.05,10.0,0.0,0.0,0.0,10.0,0.0,0.0,0.0,10.0
1446038397066453840,124,1446038397061465024,robocape_mag,12.0,-14.55,-1.05,10.0,0.0,0.0,0.0,10.0,0.0,0.0,0.0,10.0
1446038397098974173,125,1446038397094351053,robocape_mag,12.0,-14.55,-1.05,10.0,0.0,0.0,0.0,10.0,0.0,0.0,0.0,10.0
1446038397132878382,126,1446038397127999067,robocape_mag,12.0,-14.55,-1.05,10.0,0.0,0.0,0.0,10.0,0.0,0.0,0.0,10.0
1446038397166180507,127,1446038397161284923,robocape_mag,12.0,-14.55,-1.05,10.0,0.0,0.0,0.0,10.0,0.0,0.0,0.0,10.0
1446038397199319007,128,1446038397194534063,robocape_mag,12.9,-11.25,-1.95,10.0,0.0,0.0,0.0,10.0,0.0,0.0,0.0,10.0
1446038397232703507,129,1446038397228040933,robocape_mag,12.9,-11.25,-1.95,10.0,0.0,0.0,0.0,10.0,0.0,0.0,0.0,10.0
1446038397265984757,130,1446038397261184930,robocape_mag,12.9,-11.25,-1.95,10.0,0.0,0.0,0.0,10.0,0.0,0.0,0.0,10.0
1446038397299166132,131,1446038397294492006,robocape_mag,12.9,-11.25,-1.95,10.0,0.0,0.0,0.0,10.0,0.0,0.0,0.0,10.0
1446038397332801257,132,1446038397328107118,robocape_mag,12.9,-12.45,0.45,10.0,0.0,0.0,0.0,10.0,0.0,0.0,0.0,10.0
1446038397365901382,133,1446038397361136913,robocape_mag,12.9,-12.45,0.45,10.0,0.0,0.0,0.0,10.0,0.0,0.0,0.0,10.0
1446038397399231757,134,1446038397394599914,robocape_mag,12.9,-12.45,0.45,10.0,0.0,0.0,0.0,10.0,0.0,0.0,0.0,10.0
1446038397432513882,135,1446038397427876949,robocape_mag,12.9,-12.45,0.45,10.0,0.0,0.0,0.0,10.0,0.0,0.0,0.0,10.0
1446038397465899340,136,1446038397460987091,robocape_mag,12.9,-12.45,0.45,10.0,0.0,0.0,0.0,10.0,0.0,0.0,0.0,10.0
1446038397499248549,137,1446038397494602918,robocape_mag,11.4,-12.75,-2.25,10.0,0.0,0.0,0.0,10.0,0.0,0.0,0.0,10.0
1446038397533705049,138,1446038397528131961,robocape_mag,11.4,-12.75,-2.25,10.0,0.0,0.0,0.0,10.0,0.0,0.0,0.0,10.0
1446038397566196882,139,1446038397561090946,robocape_mag,11.4,-12.75,-2.25,10.0,0.0,0.0,0.0,10.0,0.0,0.0,0.0,10.0
1446038397598981840,140,1446038397594300985,robocape_mag,11.4,-12.75,-2.25,10.0,0.0,0.0,0.0,10.0,0.0,0.0,0.0,10.0
1446038397632737507,141,1446038397627562046,robocape_mag,11.4,-12.75,-2.25,10.0,0.0,0.0,0.0,10.0,0.0,0.0,0.0,10.0
1446038397672812882,142,1446038397667751073,robocape_mag,12.9,-12.45,-0.75,10.0,0.0,0.0,0.0,10.0,0.0,0.0,0.0,10.0
1446038397699423257,143,1446038397694634914,robocape_mag,12.9,-12.45,-0.75,10.0,0.0,0.0,0.0,10.0,0.0,0.0,0.0,10.0
1446038397732716840,144,1446038397727634906,robocape_mag,12.9,-12.45,-0.75,10.0,0.0,0.0,0.0,10.0,0.0,0.0,0.0,10.0
1446038397766017090,145,1446038397761146068,robocape_mag,12.9,-12.45,-0.75,10.0,0.0,0.0,0.0,10.0,0.0,0.0,0.0,10.0
1446038397799359132,146,1446038397794461965,robocape_mag,12.9,-12.45,-0.75,10.0,0.0,0.0,0.0,10.0,0.0,0.0,0.0,10.0
1446038397832775632,147,1446038397827729940,robocape_mag,12.3,-11.25,-2.55,10.0,0.0,0.0,0.0,10.0,0.0,0.0,0.0,10.0
1446038397866019924,148,1446038397861033916,robocape_mag,12.3,-11.25,-2.55,10.0,0.0,0.0,0.0,10.0,0.0,0.0,0.0,10.0
1446038397899155007,149,1446038397894352912,robocape_mag,12.3,-11.25,-2.55,10.0,0.0,0.0,0.0,10.0,0.0,0.0,0.0,10.0
1446038397932643257,150,1446038397927644014,robocape_mag,12.3,-11.25,-2.55,10.0,0.0,0.0,0.0,10.0,0.0,0.0,0.0,10.0
1446038397966007840,151,1446038397961065053,robocape_mag,12.3,-11.25,-2.55,10.0,0.0,0.0,0.0,10.0,0.0,0.0,0.0,10.0
1446038397999213507,152,1446038397994405031,robocape_mag,12.6,-13.35,-1.65,10.0,0.0,0.0,0.0,10.0,0.0,0.0,0.0,10.0
1446038398032976257,153,1446038398027808904,robocape_mag,12.6,-13.35,-1.65,10.0,0.0,0.0,0.0,10.0,0.0,0.0,0.0,10.0
1446038398065992424,154,1446038398061055898,robocape_mag,12.6,-13.35,-1.65,10.0,0.0,0.0,0.0,10.0,0.0,0.0,0.0,10.0
1446038398099357340,155,1446038398094523906,robocape_mag,12.6,-13.35,-1.65,10.0,0.0,0.0,0.0,10.0,0.0,0.0,0.0,10.0
1446038398132809924,156,1446038398127585887,robocape_mag,12.6,-12.75,-1.65,10.0,0.0,0.0,0.0,10.0,0.0,0.0,0.0,10.0
1446038398166074549,157,1446038398161341905,robocape_mag,12.6,-12.75,-1.65,10.0,0.0,0.0,0.0,10.0,0.0,0.0,0.0,10.0
1446038398199496882,158,1446038398194626092,robocape_mag,12.6,-12.75,-1.65,10.0,0.0,0.0,0.0,10.0,0.0,0.0,0.0,10.0
1446038398232911257,159,1446038398227732896,robocape_mag,12.6,-12.75,-1.65,10.0,0.0,0.0,0.0,10.0,0.0,0.0,0.0,10.0
1446038398266063299,160,1446038398261367082,robocape_mag,12.6,-12.75,-1.65,10.0,0.0,0.0,0.0,10.0,0.0,0.0,0.0,10.0
1446038398299535507,161,1446038398294637918,robocape_mag,13.8,-13.35,-0.45,10.0,0.0,0.0,0.0,10.0,0.0,0.0,0.0,10.0
1446038398332702049,162,1446038398327651977,robocape_mag,13.8,-13.35,-0.45,10.0,0.0,0.0,0.0,10.0,0.0,0.0,0.0,10.0
1446038398365907549,163,1446038398361071109,robocape_mag,13.8,-13.35,-0.45,10.0,0.0,0.0,0.0,10.0,0.0,0.0,0.0,10.0
1446038398399596674,164,1446038398394381046,robocape_mag,13.8,-13.35,-0.45,10.0,0.0,0.0,0.0,10.0,0.0,0.0,0.0,10.0
1446038398432866549,165,1446038398427740097,robocape_mag,13.8,-13.35,-0.45,10.0,0.0,0.0,0.0,10.0,0.0,0.0,0.0,10.0
1446038398466161091,166,1446038398461139917,robocape_mag,13.2,-12.15,-2.25,10.0,0.0,0.0,0.0,10.0,0.0,0.0,0.0,10.0
1446038398499138091,167,1446038398494374036,robocape_mag,13.2,-12.15,-2.25,10.0,0.0,0.0,0.0,10.0,0.0,0.0,0.0,10.0
1446038398533080507,168,1446038398527863979,robocape_mag,13.2,-12.15,-2.25,10.0,0.0,0.0,0.0,10.0,0.0,0.0,0.0,10.0
1446038398565943549,169,1446038398560993909,robocape_mag,13.2,-12.15,-2.25,10.0,0.0,0.0,0.0,10.0,0.0,0.0,0.0,10.0
1446038398599265591,170,1446038398594409942,robocape_mag,13.2,-12.15,-2.25,10.0,0.0,0.0,0.0,10.0,0.0,0.0,0.0,10.0
1446038398632726591,171,1446038398627595901,robocape_mag,11.4,-12.15,-2.25,10.0,0.0,0.0,0.0,10.0,0.0,0.0,0.0,10.0
1446038398672858007,172,1446038398667793035,robocape_mag,11.4,-12.15,-2.25,10.0,0.0,0.0,0.0,10.0,0.0,0.0,0.0,10.0
1446038398699244424,173,1446038398694329023,robocape_mag,11.4,-12.15,-2.25,10.0,0.0,0.0,0.0,10.0,0.0,0.0,0.0,10.0
1446038398732789049,174,1446038398727662086,robocape_mag,11.4,-12.15,-2.25,10.0,0.0,0.0,0.0,10.0,0.0,0.0,0.0,10.0
1446038398765963716,175,1446038398761198043,robocape_mag,11.4,-12.15,-2.25,10.0,0.0,0.0,0.0,10.0,0.0,0.0,0.0,10.0
1446038398799360382,176,1446038398794534921,robocape_mag,12.6,-12.75,-1.65,10.0,0.0,0.0,0.0,10.0,0.0,0.0,0.0,10.0
1446038398832894466,177,1446038398827785015,robocape_mag,12.6,-12.75,-1.65,10.0,0.0,0.0,0.0,10.0,0.0,0.0,0.0,10.0
1446038398865883924,178,1446038398860958099,robocape_mag,12.6,-12.75,-1.65,10.0,0.0,0.0,0.0,10.0,0.0,0.0,0.0,10.0
1446038398899292091,179,1446038398894515991,robocape_mag,12.6,-12.75,-1.65,10.0,0.0,0.0,0.0,10.0,0.0,0.0,0.0,10.0
1446038398932788508,180,1446038398927660942,robocape_mag,12.9,-13.05,-1.95,10.0,0.0,0.0,0.0,10.0,0.0,0.0,0.0,10.0
1446038398965970216,181,1446038398960978984,robocape_mag,12.9,-13.05,-1.95,10.0,0.0,0.0,0.0,10.0,0.0,0.0,0.0,10.0
1446038398999230383,182,1446038398994460105,robocape_mag,12.9,-13.05,-1.95,10.0,0.0,0.0,0.0,10.0,0.0,0.0,0.0,10.0
1446038399033005383,183,1446038399027836084,robocape_mag,12.9,-13.05,-1.95,10.0,0.0,0.0,0.0,10.0,0.0,0.0,0.0,10.0
1446038399066150716,184,1446038399060998916,robocape_mag,12.9,-13.05,-1.95,10.0,0.0,0.0,0.0,10.0,0.0,0.0,0.0,10.0
1446038399099371174,185,1446038399094522953,robocape_mag,12.3,-12.45,-2.55,10.0,0.0,0.0,0.0,10.0,0.0,0.0,0.0,10.0
1446038399132328091,186,1446038399127680063,robocape_mag,12.3,-12.45,-2.55,10.0,0.0,0.0,0.0,10.0,0.0,0.0,0.0,10.0
1446038399166105341,187,1446038399161218881,robocape_mag,12.3,-12.45,-2.55,10.0,0.0,0.0,0.0,10.0,0.0,0.0,0.0,10.0
1446038399199361924,188,1446038399194408893,robocape_mag,12.3,-12.45,-2.55,10.0,0.0,0.0,0.0,10.0,0.0,0.0,0.0,10.0
1446038399232282508,189,1446038399227644920,robocape_mag,12.3,-12.45,-2.55,10.0,0.0,0.0,0.0,10.0,0.0,0.0,0.0,10.0
1446038399266454508,190,1446038399261624097,robocape_mag,11.7,-13.05,-1.35,10.0,0.0,0.0,0.0,10.0,0.0,0.0,0.0,10.0
1446038399299414633,191,1446038399294502019,robocape_mag,11.7,-13.05,-1.35,10.0,0.0,0.0,0.0,10.0,0.0,0.0,0.0,10.0
1446038399332374633,192,1446038399327685117,robocape_mag,11.7,-13.05,-1.35,10.0,0.0,0.0,0.0,10.0,0.0,0.0,0.0,10.0
1446038399366443299,193,1446038399361603975,robocape_mag,11.7,-13.05,-1.35,10.0,0.0,0.0,0.0,10.0,0.0,0.0,0.0,10.0
1446038399406453466,194,1446038399401467084,robocape_mag,11.7,-13.05,-1.35,10.0,0.0,0.0,0.0,10.0,0.0,0.0,0.0,10.0
1446038399439682049,195,1446038399429019927,robocape_mag,12.0,-12.75,0.15,10.0,0.0,0.0,0.0,10.0,0.0,0.0,0.0,10.0
1446038399467649424,196,1446038399462629079,robocape_mag,12.0,-12.75,0.15,10.0,0.0,0.0,0.0,10.0,0.0,0.0,0.0,10.0
1446038399500796049,197,1446038399495635986,robocape_mag,12.0,-12.75,0.15,10.0,0.0,0.0,0.0,10.0,0.0,0.0,0.0,10.0
1446038399533675800,198,1446038399528851985,robocape_mag,12.0,-12.75,0.15,10.0,0.0,0.0,0.0,10.0,0.0,0.0,0.0,10.0
1446038399567462550,199,1446038399562263011,robocape_mag,12.0,-12.75,0.15,10.0,0.0,0.0,0.0,10.0,0.0,0.0,0.0,10.0
1446038399601194716,200,1446038399595890998,robocape_mag,12.0,-12.75,-1.65,10.0,0.0,0.0,0.0,10.0,0.0,0.0,0.0,10.0
1446038399633331008,201,1446038399628460884,robocape_mag,12.0,-12.75,-1.65,10.0,0.0,0.0,0.0,10.0,0.0,0.0,0.0,10.0
1446038399669089216,202,1446038399664035081,robocape_mag,12.0,-12.75,-1.65,10.0,0.0,0.0,0.0,10.0,0.0,0.0,0.0,10.0
1446038399702461383,203,1446038399695667028,robocape_mag,12.0,-12.75,-1.65,10.0,0.0,0.0,0.0,10.0,0.0,0.0,0.0,10.0
1446038399733939800,204,1446038399729001045,robocape_mag,12.9,-11.85,-1.95,10.0,0.0,0.0,0.0,10.0,0.0,0.0,0.0,10.0
1446038399766815175,205,1446038399761923074,robocape_mag,12.9,-11.85,-1.95,10.0,0.0,0.0,0.0,10.0,0.0,0.0,0.0,10.0
1446038399801309508,206,1446038399795430898,robocape_mag,12.9,-11.85,-1.95,10.0,0.0,0.0,0.0,10.0,0.0,0.0,0.0,10.0
1446038399833051133,207,1446038399828202962,robocape_mag,12.9,-11.85,-1.95,10.0,0.0,0.0,0.0,10.0,0.0,0.0,0.0,10.0
1446038399866702133,208,1446038399861638069,robocape_mag,12.9,-11.85,-1.95,10.0,0.0,0.0,0.0,10.0,0.0,0.0,0.0,10.0
1446038399900213425,209,1446038399894860029,robocape_mag,11.1,-11.85,-0.75,10.0,0.0,0.0,0.0,10.0,0.0,0.0,0.0,10.0
1446038399933192925,210,1446038399928338050,robocape_mag,11.1,-11.85,-0.75,10.0,0.0,0.0,0.0,10.0,0.0,0.0,0.0,10.0
1446038399966711050,211,1446038399961647033,robocape_mag,11.1,-11.85,-0.75,10.0,0.0,0.0,0.0,10.0,0.0,0.0,0.0,10.0
1446038400001849341,212,1446038399995821952,robocape_mag,11.1,-11.85,-0.75,10.0,0.0,0.0,0.0,10.0,0.0,0.0,0.0,10.0
1446038400034411341,213,1446038400029397964,robocape_mag,11.1,-11.85,-0.75,10.0,0.0,0.0,0.0,10.0,0.0,0.0,0.0,10.0
1446038400067437425,214,1446038400062345027,robocape_mag,11.7,-12.45,-0.75,10.0,0.0,0.0,0.0,10.0,0.0,0.0,0.0,10.0
1446038400101504258,215,1446038400095217943,robocape_mag,11.7,-12.45,-0.75,10.0,0.0,0.0,0.0,10.0,0.0,0.0,0.0,10.0
1446038400135185133,216,1446038400128408908,robocape_mag,11.7,-12.45,-0.75,10.0,0.0,0.0,0.0,10.0,0.0,0.0,0.0,10.0
1446038400167528883,217,1446038400162586927,robocape_mag,11.7,-12.45,-0.75,10.0,0.0,0.0,0.0,10.0,0.0,0.0,0.0,10.0
1446038400207417925,218,1446038400196244001,robocape_mag,11.7,-12.45,-0.75,10.0,0.0,0.0,0.0,10.0,0.0,0.0,0.0,10.0
1446038400234056258,219,1446038400229085922,robocape_mag,12.3,-13.05,-1.35,10.0,0.0,0.0,0.0,10.0,0.0,0.0,0.0,10.0
1446038400271625300,220,1446038400266588926,robocape_mag,12.3,-13.05,-1.35,10.0,0.0,0.0,0.0,10.0,0.0,0.0,0.0,10.0
1446038400300639883,221,1446038400295567035,robocape_mag,12.3,-13.05,-1.35,10.0,0.0,0.0,0.0,10.0,0.0,0.0,0.0,10.0
1446038400333960592,222,1446038400328962087,robocape_mag,12.3,-13.05,-1.35,10.0,0.0,0.0,0.0,10.0,0.0,0.0,0.0,10.0
1446038400369683592,223,1446038400364573955,robocape_mag,12.3,-13.05,-1.35,10.0,0.0,0.0,0.0,10.0,0.0,0.0,0.0,10.0
1446038400399993675,224,1446038400394994020,robocape_mag,12.3,-11.85,-1.35,10.0,0.0,0.0,0.0,10.0,0.0,0.0,0.0,10.0
1446038400432940592,225,1446038400428049087,robocape_mag,12.3,-11.85,-1.35,10.0,0.0,0.0,0.0,10.0,0.0,0.0,0.0,10.0
1446038400467132258,226,1446038400462042093,robocape_mag,12.3,-11.85,-1.35,10.0,0.0,0.0,0.0,10.0,0.0,0.0,0.0,10.0
1446038400499543258,227,1446038400494565963,robocape_mag,12.3,-11.85,-1.35,10.0,0.0,0.0,0.0,10.0,0.0,0.0,0.0,10.0
1446038400533842717,228,1446038400528929948,robocape_mag,12.9,-11.85,-2.55,10.0,0.0,0.0,0.0,10.0,0.0,0.0,0.0,10.0
1446038400567743967,229,1446038400562599897,robocape_mag,12.9,-11.85,-2.55,10.0,0.0,0.0,0.0,10.0,0.0,0.0,0.0,10.0
1446038400601132008,230,1446038400595839977,robocape_mag,12.9,-11.85,-2.55,10.0,0.0,0.0,0.0,10.0,0.0,0.0,0.0,10.0
1446038400633824758,231,1446038400628796100,robocape_mag,12.9,-11.85,-2.55,10.0,0.0,0.0,0.0,10.0,0.0,0.0,0.0,10.0
1446038400670369175,232,1446038400665230989,robocape_mag,12.9,-11.85,-2.55,10.0,0.0,0.0,0.0,10.0,0.0,0.0,0.0,10.0
1446038400702458175,233,1446038400695730924,robocape_mag,13.5,-12.45,-3.75,10.0,0.0,0.0,0.0,10.0,0.0,0.0,0.0,10.0
1446038400733649925,234,1446038400728667020,robocape_mag,13.5,-12.45,-3.75,10.0,0.0,0.0,0.0,10.0,0.0,0.0,0.0,10.0
1446038400766799883,235,1446038400761975049,robocape_mag,13.5,-12.45,-3.75,10.0,0.0,0.0,0.0,10.0,0.0,0.0,0.0,10.0
1446038400800679008,236,1446038400795449972,robocape_mag,13.5,-12.45,-3.75,10.0,0.0,0.0,0.0,10.0,0.0,0.0,0.0,10.0
1446038400836282508,237,1446038400831073999,robocape_mag,13.5,-12.45,-3.75,10.0,0.0,0.0,0.0,10.0,0.0,0.0,0.0,10.0
1446038400870105758,238,1446038400861485958,robocape_mag,11.7,-12.45,-0.75,10.0,0.0,0.0,0.0,10.0,0.0,0.0,0.0,10.0
1446038400899418008,239,1446038400894370079,robocape_mag,11.7,-12.45,-0.75,10.0,0.0,0.0,0.0,10.0,0.0,0.0,0.0,10.0
1446038400933953009,240,1446038400928896903,robocape_mag,11.7,-12.45,-0.75,10.0,0.0,0.0,0.0,10.0,0.0,0.0,0.0,10.0
1446038400967380759,241,1446038400962251901,robocape_mag,11.7,-12.45,-0.75,10.0,0.0,0.0,0.0,10.0,0.0,0.0,0.0,10.0
1446038400999724884,242,1446038400994704008,robocape_mag,11.7,-12.45,-0.75,10.0,0.0,0.0,0.0,10.0,0.0,0.0,0.0,10.0
1446038401035113800,243,1446038401028084039,robocape_mag,12.6,-12.75,-1.05,10.0,0.0,0.0,0.0,10.0,0.0,0.0,0.0,10.0
1446038401067508717,244,1446038401062345981,robocape_mag,12.6,-12.75,-1.05,10.0,0.0,0.0,0.0,10.0,0.0,0.0,0.0,10.0
1446038401103813425,245,1446038401095556974,robocape_mag,12.6,-12.75,-1.05,10.0,0.0,0.0,0.0,10.0,0.0,0.0,0.0,10.0
1446038401133824842,246,1446038401128875970,robocape_mag,12.6,-12.75,-1.05,10.0,0.0,0.0,0.0,10.0,0.0,0.0,0.0,10.0
1446038401166792509,247,1446038401161911964,robocape_mag,12.6,-12.75,-1.05,10.0,0.0,0.0,0.0,10.0,0.0,0.0,0.0,10.0
1446038401200920800,248,1446038401195529937,robocape_mag,12.9,-12.45,-0.75,10.0,0.0,0.0,0.0,10.0,0.0,0.0,0.0,10.0
1446038401233923759,249,1446038401228703022,robocape_mag,12.9,-12.45,-0.75,10.0,0.0,0.0,0.0,10.0,0.0,0.0,0.0,10.0
1446038401267115884,250,1446038401262140035,robocape_mag,12.9,-12.45,-0.75,10.0,0.0,0.0,0.0,10.0,0.0,0.0,0.0,10.0
1446038401301551050,251,1446038401295284032,robocape_mag,12.9,-12.45,-0.75,10.0,0.0,0.0,0.0,10.0,0.0,0.0,0.0,10.0
1446038401334287300,252,1446038401329082965,robocape_mag,12.3,-13.05,-0.15,10.0,0.0,0.0,0.0,10.0,0.0,0.0,0.0,10.0
1446038401367633217,253,1446038401362211942,robocape_mag,12.3,-13.05,-0.15,10.0,0.0,0.0,0.0,10.0,0.0,0.0,0.0,10.0
1446038401402246842,254,1446038401395406961,robocape_mag,12.3,-13.05,-0.15,10.0,0.0,0.0,0.0,10.0,0.0,0.0,0.0,10.0
1446038401438238759,255,1446038401428920030,robocape_mag,12.3,-13.05,-0.15,10.0,0.0,0.0,0.0,10.0,0.0,0.0,0.0,10.0
1446038401472840009,256,1446038401462835073,robocape_mag,12.3,-13.05,-0.15,10.0,0.0,0.0,0.0,10.0,0.0,0.0,0.0,10.0
1446038401500491342,257,1446038401495484113,robocape_mag,12.6,-12.75,-1.65,10.0,0.0,0.0,0.0,10.0,0.0,0.0,0.0,10.0
1446038401534252050,258,1446038401529038906,robocape_mag,12.6,-12.75,-1.65,10.0,0.0,0.0,0.0,10.0,0.0,0.0,0.0,10.0
1446038401567444050,259,1446038401562403917,robocape_mag,12.6,-12.75,-1.65,10.0,0.0,0.0,0.0,10.0,0.0,0.0,0.0,10.0
1446038401600575842,260,1446038401595616102,robocape_mag,12.6,-12.75,-1.65,10.0,0.0,0.0,0.0,10.0,0.0,0.0,0.0,10.0
1446038401634738259,261,1446038401629028081,robocape_mag,12.6,-12.75,-1.65,10.0,0.0,0.0,0.0,10.0,0.0,0.0,0.0,10.0
1446038401669636842,262,1446038401664721965,robocape_mag,12.9,-13.65,-0.15,10.0,0.0,0.0,0.0,10.0,0.0,0.0,0.0,10.0
1446038401701053259,263,1446038401695930004,robocape_mag,12.9,-13.65,-0.15,10.0,0.0,0.0,0.0,10.0,0.0,0.0,0.0,10.0
1446038401735901884,264,1446038401729176998,robocape_mag,12.9,-13.65,-0.15,10.0,0.0,0.0,0.0,10.0,0.0,0.0,0.0,10.0
1446038401768015426,265,1446038401763227939,robocape_mag,12.9,-13.65,-0.15,10.0,0.0,0.0,0.0,10.0,0.0,0.0,0.0,10.0
1446038401800924426,266,1446038401795840978,robocape_mag,12.9,-13.65,-0.15,10.0,0.0,0.0,0.0,10.0,0.0,0.0,0.0,10.0
1446038401835679759,267,1446038401829022884,robocape_mag,11.4,-12.15,-1.65,10.0,0.0,0.0,0.0,10.0,0.0,0.0,0.0,10.0
1446038401867556176,268,1446038401862478017,robocape_mag,11.4,-12.15,-1.65,10.0,0.0,0.0,0.0,10.0,0.0,0.0,0.0,10.0
1446038401901107634,269,1446038401896219968,robocape_mag,11.4,-12.15,-1.65,10.0,0.0,0.0,0.0,10.0,0.0,0.0,0.0,10.0
1446038401934514426,270,1446038401928877115,robocape_mag,11.4,-12.15,-1.65,10.0,0.0,0.0,0.0,10.0,0.0,0.0,0.0,10.0
1446038401967278301,271,1446038401962168931,robocape_mag,11.4,-12.15,-1.65,10.0,0.0,0.0,0.0,10.0,0.0,0.0,0.0,10.0
1446038401999743176,272,1446038401994852066,robocape_mag,9.9,-11.85,-3.15,10.0,0.0,0.0,0.0,10.0,0.0,0.0,0.0,10.0
1446038402035456051,273,1446038402028832912,robocape_mag,9.9,-11.85,-3.15,10.0,0.0,0.0,0.0,10.0,0.0,0.0,0.0,10.0
1446038402066818967,274,1446038402061677932,robocape_mag,9.9,-11.85,-3.15,10.0,0.0,0.0,0.0,10.0,0.0,0.0,0.0,10.0
1446038402098908301,275,1446038402094327926,robocape_mag,9.9,-11.85,-3.15,10.0,0.0,0.0,0.0,10.0,0.0,0.0,0.0,10.0
1446038402132449759,276,1446038402127666950,robocape_mag,13.5,-13.05,-1.95,10.0,0.0,0.0,0.0,10.0,0.0,0.0,0.0,10.0
1446038402174889884,277,1446038402162319898,robocape_mag,13.5,-13.05,-1.95,10.0,0.0,0.0,0.0,10.0,0.0,0.0,0.0,10.0
1446038402200573551,278,1446038402195785045,robocape_mag,13.5,-13.05,-1.95,10.0,0.0,0.0,0.0,10.0,0.0,0.0,0.0,10.0
1446038402240123717,279,1446038402235130071,robocape_mag,13.5,-13.05,-1.95,10.0,0.0,0.0,0.0,10.0,0.0,0.0,0.0,10.0
1446038402270067801,280,1446038402265193939,robocape_mag,13.5,-13.05,-1.95,10.0,0.0,0.0,0.0,10.0,0.0,0.0,0.0,10.0
1446038402307674467,281,1446038402299767017,robocape_mag,11.7,-12.45,-1.95,10.0,0.0,0.0,0.0,10.0,0.0,0.0,0.0,10.0
1446038402338856384,282,1446038402331307888,robocape_mag,11.7,-12.45,-1.95,10.0,0.0,0.0,0.0,10.0,0.0,0.0,0.0,10.0
1446038402368332051,283,1446038402363140106,robocape_mag,11.7,-12.45,-1.95,10.0,0.0,0.0,0.0,10.0,0.0,0.0,0.0,10.0
1446038402406054259,284,1446038402400572061,robocape_mag,11.7,-12.45,-1.95,10.0,0.0,0.0,0.0,10.0,0.0,0.0,0.0,10.0
1446038402443819509,285,1446038402433363914,robocape_mag,11.7,-12.45,-1.95,10.0,0.0,0.0,0.0,10.0,0.0,0.0,0.0,10.0
1446038402475557426,286,1446038402463150978,robocape_mag,11.1,-11.85,-1.95,10.0,0.0,0.0,0.0,10.0,0.0,0.0,0.0,10.0
1446038402505833426,287,1446038402496069908,robocape_mag,11.1,-11.85,-1.95,10.0,0.0,0.0,0.0,10.0,0.0,0.0,0.0,10.0
1446038402552014676,288,1446038402536936044,robocape_mag,11.1,-11.85,-1.95,10.0,0.0,0.0,0.0,10.0,0.0,0.0,0.0,10.0
1446038402571982384,289,1446038402567114114,robocape_mag,11.1,-11.85,-1.95,10.0,0.0,0.0,0.0,10.0,0.0,0.0,0.0,10.0
1446038402604607926,290,1446038402599775075,robocape_mag,11.1,-11.85,-1.95,10.0,0.0,0.0,0.0,10.0,0.0,0.0,0.0,10.0
1446038402651222509,291,1446038402632672071,robocape_mag,13.5,-13.65,0.45,10.0,0.0,0.0,0.0,10.0,0.0,0.0,0.0,10.0
1446038402699958884,292,1446038402679536104,robocape_mag,13.5,-13.65,0.45,10.0,0.0,0.0,0.0,10.0,0.0,0.0,0.0,10.0
1446038402729381551,293,1446038402715764999,robocape_mag,13.5,-13.65,0.45,10.0,0.0,0.0,0.0,10.0,0.0,0.0,0.0,10.0
1446038402759967259,294,1446038402749674081,robocape_mag,13.5,-13.65,0.45,10.0,0.0,0.0,0.0,10.0,0.0,0.0,0.0,10.0
1446038402792856843,295,1446038402783833980,robocape_mag,12.0,-10.35,-2.25,10.0,0.0,0.0,0.0,10.0,0.0,0.0,0.0,10.0
1446038402825542301,296,1446038402818304061,robocape_mag,12.0,-10.35,-2.25,10.0,0.0,0.0,0.0,10.0,0.0,0.0,0.0,10.0
1446038402859994843,297,1446038402846947908,robocape_mag,12.0,-10.35,-2.25,10.0,0.0,0.0,0.0,10.0,0.0,0.0,0.0,10.0
1446038402882769509,298,1446038402877461910,robocape_mag,12.0,-10.35,-2.25,10.0,0.0,0.0,0.0,10.0,0.0,0.0,0.0,10.0
1446038402910769843,299,1446038402901566028,robocape_mag,12.0,-10.35,-2.25,10.0,0.0,0.0,0.0,10.0,0.0,0.0,0.0,10.0
1446038402936808968,300,1446038402931730985,robocape_mag,14.1,-13.05,-1.95,10.0,0.0,0.0,0.0,10.0,0.0,0.0,0.0,10.0
1446038402976143843,301,1446038402967573881,robocape_mag,14.1,-13.05,-1.95,10.0,0.0,0.0,0.0,10.0,0.0,0.0,0.0,10.0
1446038403004489551,302,1446038402999291896,robocape_mag,14.1,-13.05,-1.95,10.0,0.0,0.0,0.0,10.0,0.0,0.0,0.0,10.0
1446038403037731468,303,1446038403032130956,robocape_mag,14.1,-13.05,-1.95,10.0,0.0,0.0,0.0,10.0,0.0,0.0,0.0,10.0
1446038403073871135,304,1446038403065603017,robocape_mag,14.1,-13.05,-1.95,10.0,0.0,0.0,0.0,10.0,0.0,0.0,0.0,10.0
1446038403108375593,305,1446038403100750923,robocape_mag,12.9,-13.05,-0.75,10.0,0.0,0.0,0.0,10.0,0.0,0.0,0.0,10.0
1446038403143270635,306,1446038403133706092,robocape_mag,12.9,-13.05,-0.75,10.0,0.0,0.0,0.0,10.0,0.0,0.0,0.0,10.0
1446038403170389926,307,1446038403165021896,robocape_mag,12.9,-13.05,-0.75,10.0,0.0,0.0,0.0,10.0,0.0,0.0,0.0,10.0
1446038403207500801,308,1446038403199758052,robocape_mag,12.9,-13.05,-0.75,10.0,0.0,0.0,0.0,10.0,0.0,0.0,0.0,10.0
1446038403238881718,309,1446038403230567932,robocape_mag,12.9,-13.05,-0.75,10.0,0.0,0.0,0.0,10.0,0.0,0.0,0.0,10.0
1446038403271607885,310,1446038403264971971,robocape_mag,12.3,-14.25,-1.35,10.0,0.0,0.0,0.0,10.0,0.0,0.0,0.0,10.0
1446038403305729510,311,1446038403300304889,robocape_mag,12.3,-14.25,-1.35,10.0,0.0,0.0,0.0,10.0,0.0,0.0,0.0,10.0
1446038403335938760,312,1446038403330430984,robocape_mag,12.3,-14.25,-1.35,10.0,0.0,0.0,0.0,10.0,0.0,0.0,0.0,10.0
1446038403371974343,313,1446038403362941980,robocape_mag,12.3,-14.25,-1.35,10.0,0.0,0.0,0.0,10.0,0.0,0.0,0.0,10.0
1446038403400916968,314,1446038403395735025,robocape_mag,12.3,-14.25,-1.35,10.0,0.0,0.0,0.0,10.0,0.0,0.0,0.0,10.0
1446038403443198718,315,1446038403434465885,robocape_mag,14.1,-13.05,-1.35,10.0,0.0,0.0,0.0,10.0,0.0,0.0,0.0,10.0
1446038403473555760,316,1446038403465426921,robocape_mag,14.1,-13.05,-1.35,10.0,0.0,0.0,0.0,10.0,0.0,0.0,0.0,10.0
1446038403505078218,317,1446038403498385906,robocape_mag,14.1,-13.05,-1.35,10.0,0.0,0.0,0.0,10.0,0.0,0.0,0.0,10.0
1446038403537035510,318,1446038403531130075,robocape_mag,14.1,-13.05,-1.35,10.0,0.0,0.0,0.0,10.0,0.0,0.0,0.0,10.0
1446038403570391885,319,1446038403564090013,robocape_mag,14.1,-13.05,-1.35,10.0,0.0,0.0,0.0,10.0,0.0,0.0,0.0,10.0
1446038403604380676,320,1446038403596709012,robocape_mag,12.3,-12.45,-1.35,10.0,0.0,0.0,0.0,10.0,0.0,0.0,0.0,10.0
1446038403637705176,321,1446038403632354974,robocape_mag,12.3,-12.45,-1.35,10.0,0.0,0.0,0.0,10.0,0.0,0.0,0.0,10.0
1446038403681509385,322,1446038403666125059,robocape_mag,12.3,-12.45,-1.35,10.0,0.0,0.0,0.0,10.0,0.0,0.0,0.0,10.0
1446038403709691301,323,1446038403700593948,robocape_mag,12.3,-12.45,-1.35,10.0,0.0,0.0,0.0,10.0,0.0,0.0,0.0,10.0
1446038403737610843,324,1446038403732361078,robocape_mag,12.3,-12.45,-2.55,10.0,0.0,0.0,0.0,10.0,0.0,0.0,0.0,10.0
1446038403770616010,325,1446038403765304088,robocape_mag,12.3,-12.45,-2.55,10.0,0.0,0.0,0.0,10.0,0.0,0.0,0.0,10.0
1446038403805477968,326,1446038403798055887,robocape_mag,12.3,-12.45,-2.55,10.0,0.0,0.0,0.0,10.0,0.0,0.0,0.0,10.0
1446038403838338135,327,1446038403833103895,robocape_mag,12.3,-12.45,-2.55,10.0,0.0,0.0,0.0,10.0,0.0,0.0,0.0,10.0
1446038403870279593,328,1446038403865077972,robocape_mag,12.3,-12.45,-2.55,10.0,0.0,0.0,0.0,10.0,0.0,0.0,0.0,10.0
1446038403904900843,329,1446038403899691104,robocape_mag,12.0,-12.15,-1.65,10.0,0.0,0.0,0.0,10.0,0.0,0.0,0.0,10.0
1446038403937687552,330,1446038403929620981,robocape_mag,12.0,-12.15,-1.65,10.0,0.0,0.0,0.0,10.0,0.0,0.0,0.0,10.0
1446038403969901510,331,1446038403964517116,robocape_mag,12.0,-12.15,-1.65,10.0,0.0,0.0,0.0,10.0,0.0,0.0,0.0,10.0
1446038404006100302,332,1446038403997031927,robocape_mag,12.0,-12.15,-1.65,10.0,0.0,0.0,0.0,10.0,0.0,0.0,0.0,10.0
1446038404039330093,333,1446038404032432079,robocape_mag,12.0,-12.15,-1.65,10.0,0.0,0.0,0.0,10.0,0.0,0.0,0.0,10.0
1446038404072019927,334,1446038404063137054,robocape_mag,11.1,-13.65,-0.15,10.0,0.0,0.0,0.0,10.0,0.0,0.0,0.0,10.0
1446038404108104135,335,1446038404100444078,robocape_mag,11.1,-13.65,-0.15,10.0,0.0,0.0,0.0,10.0,0.0,0.0,0.0,10.0
1446038404137830218,336,1446038404130194902,robocape_mag,11.1,-13.65,-0.15,10.0,0.0,0.0,0.0,10.0,0.0,0.0,0.0,10.0
1446038404171502052,337,1446038404166143894,robocape_mag,11.1,-13.65,-0.15,10.0,0.0,0.0,0.0,10.0,0.0,0.0,0.0,10.0
1446038404207426677,338,1446038404200253963,robocape_mag,11.1,-13.65,-0.15,10.0,0.0,0.0,0.0,10.0,0.0,0.0,0.0,10.0
1446038404241136927,339,1446038404232177972,robocape_mag,12.6,-13.95,-0.45,10.0,0.0,0.0,0.0,10.0,0.0,0.0,0.0,10.0
1446038404270277552,340,1446038404264837980,robocape_mag,12.6,-13.95,-0.45,10.0,0.0,0.0,0.0,10.0,0.0,0.0,0.0,10.0
1446038404309061468,341,1446038404302083969,robocape_mag,12.6,-13.95,-0.45,10.0,0.0,0.0,0.0,10.0,0.0,0.0,0.0,10.0
1446038404336736510,342,1446038404331434965,robocape_mag,12.6,-13.95,-0.45,10.0,0.0,0.0,0.0,10.0,0.0,0.0,0.0,10.0
1446038404375224218,343,1446038404367552042,robocape_mag,12.6,-13.95,-0.45,10.0,0.0,0.0,0.0,10.0,0.0,0.0,0.0,10.0
1446038404406441635,344,1446038404396884918,robocape_mag,13.2,-12.75,-0.45,10.0,0.0,0.0,0.0,10.0,0.0,0.0,0.0,10.0
1446038404438465094,345,1446038404432354927,robocape_mag,13.2,-12.75,-0.45,10.0,0.0,0.0,0.0,10.0,0.0,0.0,0.0,10.0
1446038404470976344,346,1446038404464823961,robocape_mag,13.2,-12.75,-0.45,10.0,0.0,0.0,0.0,10.0,0.0,0.0,0.0,10.0
1446038404505437969,347,1446038404499911069,robocape_mag,13.2,-12.75,-0.45,10.0,0.0,0.0,0.0,10.0,0.0,0.0,0.0,10.0
1446038404540143677,348,1446038404531965017,robocape_mag,11.4,-12.15,-0.45,10.0,0.0,0.0,0.0,10.0,0.0,0.0,0.0,10.0
1446038404575262552,349,1446038404567389011,robocape_mag,11.4,-12.15,-0.45,10.0,0.0,0.0,0.0,10.0,0.0,0.0,0.0,10.0
1446038404603394135,350,1446038404597809076,robocape_mag,11.4,-12.15,-0.45,10.0,0.0,0.0,0.0,10.0,0.0,0.0,0.0,10.0
1446038404639433469,351,1446038404630743026,robocape_mag,11.4,-12.15,-0.45,10.0,0.0,0.0,0.0,10.0,0.0,0.0,0.0,10.0
1446038404680720385,352,1446038404670706033,robocape_mag,11.4,-12.15,-0.45,10.0,0.0,0.0,0.0,10.0,0.0,0.0,0.0,10.0
1446038404710648677,353,1446038404700521945,robocape_mag,12.0,-12.75,-1.05,10.0,0.0,0.0,0.0,10.0,0.0,0.0,0.0,10.0
1446038404739637344,354,1446038404734407901,robocape_mag,12.0,-12.75,-1.05,10.0,0.0,0.0,0.0,10.0,0.0,0.0,0.0,10.0
1446038404772543010,355,1446038404765856027,robocape_mag,12.0,-12.75,-1.05,10.0,0.0,0.0,0.0,10.0,0.0,0.0,0.0,10.0
1446038404805230094,356,1446038404796088933,robocape_mag,12.0,-12.75,-1.05,10.0,0.0,0.0,0.0,10.0,0.0,0.0,0.0,10.0
1446038404837465885,357,1446038404831866979,robocape_mag,12.0,-12.75,-1.05,10.0,0.0,0.0,0.0,10.0,0.0,0.0,0.0,10.0
1446038404872313219,358,1446038404867163896,robocape_mag,10.8,-12.75,-1.65,10.0,0.0,0.0,0.0,10.0,0.0,0.0,0.0,10.0
1446038404905143510,359,1446038404899463891,robocape_mag,10.8,-12.75,-1.65,10.0,0.0,0.0,0.0,10.0,0.0,0.0,0.0,10.0
1446038404939607010,360,1446038404930437088,robocape_mag,10.8,-12.75,-1.65,10.0,0.0,0.0,0.0,10.0,0.0,0.0,0.0,10.0
1446038404971557385,361,1446038404966017961,robocape_mag,10.8,-12.75,-1.65,10.0,0.0,0.0,0.0,10.0,0.0,0.0,0.0,10.0
1446038405006478802,362,1446038404997580051,robocape_mag,10.8,-12.75,-1.65,10.0,0.0,0.0,0.0,10.0,0.0,0.0,0.0,10.0
1446038405040821219,363,1446038405031604051,robocape_mag,10.5,-14.25,-0.15,10.0,0.0,0.0,0.0,10.0,0.0,0.0,0.0,10.0
1446038405069980469,364,1446038405064538002,robocape_mag,10.5,-14.25,-0.15,10.0,0.0,0.0,0.0,10.0,0.0,0.0,0.0,10.0
1446038405105964219,365,1446038405099369049,robocape_mag,10.5,-14.25,-0.15,10.0,0.0,0.0,0.0,10.0,0.0,0.0,0.0,10.0
1446038405138369094,366,1446038405131887912,robocape_mag,10.5,-14.25,-0.15,10.0,0.0,0.0,0.0,10.0,0.0,0.0,0.0,10.0
1446038405177022011,367,1446038405167577028,robocape_mag,10.5,-14.25,-0.15,10.0,0.0,0.0,0.0,10.0,0.0,0.0,0.0,10.0
1446038405206063094,368,1446038405200844049,robocape_mag,10.2,-10.95,-1.05,10.0,0.0,0.0,0.0,10.0,0.0,0.0,0.0,10.0
1446038405240747886,369,1446038405233319044,robocape_mag,10.2,-10.95,-1.05,10.0,0.0,0.0,0.0,10.0,0.0,0.0,0.0,10.0
1446038405271099719,370,1446038405265774011,robocape_mag,10.2,-10.95,-1.05,10.0,0.0,0.0,0.0,10.0,0.0,0.0,0.0,10.0
1446038405302970927,371,1446038405297755002,robocape_mag,10.2,-10.95,-1.05,10.0,0.0,0.0,0.0,10.0,0.0,0.0,0.0,10.0
1446038405341544136,372,1446038405331253051,robocape_mag,10.2,-12.75,-2.85,10.0,0.0,0.0,0.0,10.0,0.0,0.0,0.0,10.0
1446038405369296969,373,1446038405363950967,robocape_mag,10.2,-12.75,-2.85,10.0,0.0,0.0,0.0,10.0,0.0,0.0,0.0,10.0
1446038405409322052,374,1446038405400993108,robocape_mag,10.2,-12.75,-2.85,10.0,0.0,0.0,0.0,10.0,0.0,0.0,0.0,10.0
1446038405439449261,375,1446038405431273937,robocape_mag,10.2,-12.75,-2.85,10.0,0.0,0.0,0.0,10.0,0.0,0.0,0.0,10.0
1446038405470283052,376,1446038405464993000,robocape_mag,10.2,-12.75,-2.85,10.0,0.0,0.0,0.0,10.0,0.0,0.0,0.0,10.0
1446038405506564844,377,1446038405498152017,robocape_mag,12.9,-13.65,-4.35,10.0,0.0,0.0,0.0,10.0,0.0,0.0,0.0,10.0
1446038405540812011,378,1446038405532728910,robocape_mag,12.9,-13.65,-4.35,10.0,0.0,0.0,0.0,10.0,0.0,0.0,0.0,10.0
1446038405576622636,379,1446038405565023899,robocape_mag,12.9,-13.65,-4.35,10.0,0.0,0.0,0.0,10.0,0.0,0.0,0.0,10.0
1446038405604803302,380,1446038405598715066,robocape_mag,12.9,-13.65,-4.35,10.0,0.0,0.0,0.0,10.0,0.0,0.0,0.0,10.0
1446038405638707927,381,1446038405630578041,robocape_mag,12.9,-13.65,-4.35,10.0,0.0,0.0,0.0,10.0,0.0,0.0,0.0,10.0
1446038405675156927,382,1446038405664202928,robocape_mag,9.6,-12.15,-0.45,10.0,0.0,0.0,0.0,10.0,0.0,0.0,0.0,10.0
1446038405706074927,383,1446038405698153018,robocape_mag,9.6,-12.15,-0.45,10.0,0.0,0.0,0.0,10.0,0.0,0.0,0.0,10.0
1446038405744265969,384,1446038405734755039,robocape_mag,9.6,-12.15,-0.45,10.0,0.0,0.0,0.0,10.0,0.0,0.0,0.0,10.0
1446038405772484594,385,1446038405764722108,robocape_mag,9.6,-12.15,-0.45,10.0,0.0,0.0,0.0,10.0,0.0,0.0,0.0,10.0
1446038405807818927,386,1446038405801808118,robocape_mag,9.6,-12.15,-0.45,10.0,0.0,0.0,0.0,10.0,0.0,0.0,0.0,10.0
1446038405839029053,387,1446038405831774950,robocape_mag,12.3,-14.85,-0.15,10.0,0.0,0.0,0.0,10.0,0.0,0.0,0.0,10.0
1446038405872403969,388,1446038405864207029,robocape_mag,12.3,-14.85,-0.15,10.0,0.0,0.0,0.0,10.0,0.0,0.0,0.0,10.0
1446038405906252594,389,1446038405899230957,robocape_mag,12.3,-14.85,-0.15,10.0,0.0,0.0,0.0,10.0,0.0,0.0,0.0,10.0
1446038405940049594,390,1446038405932599067,robocape_mag,12.3,-14.85,-0.15,10.0,0.0,0.0,0.0,10.0,0.0,0.0,0.0,10.0
1446038405972728969,391,1446038405963617086,robocape_mag,12.3,-14.85,-0.15,10.0,0.0,0.0,0.0,10.0,0.0,0.0,0.0,10.0
1446038406007428553,392,1446038405999552965,robocape_mag,10.8,-11.55,0.15,10.0,0.0,0.0,0.0,10.0,0.0,0.0,0.0,10.0
1446038406041235178,393,1446038406031405925,robocape_mag,10.8,-11.55,0.15,10.0,0.0,0.0,0.0,10.0,0.0,0.0,0.0,10.0
1446038406072249261,394,1446038406066890001,robocape_mag,10.8,-11.55,0.15,10.0,0.0,0.0,0.0,10.0,0.0,0.0,0.0,10.0
1446038406106126594,395,1446038406098433971,robocape_mag,10.8,-11.55,0.15,10.0,0.0,0.0,0.0,10.0,0.0,0.0,0.0,10.0
1446038406139993178,396,1446038406132025957,robocape_mag,9.9,-14.25,19.65,10.0,0.0,0.0,0.0,10.0,0.0,0.0,0.0,10.0
1446038406172028969,397,1446038406163816928,robocape_mag,9.9,-14.25,19.65,10.0,0.0,0.0,0.0,10.0,0.0,0.0,0.0,10.0
1446038406207758261,398,1446038406199672937,robocape_mag,9.9,-14.25,19.65,10.0,0.0,0.0,0.0,10.0,0.0,0.0,0.0,10.0
1446038406242400511,399,1446038406232569932,robocape_mag,9.9,-14.25,19.65,10.0,0.0,0.0,0.0,10.0,0.0,0.0,0.0,10.0
1446038406273400136,400,1446038406265923023,robocape_mag,9.9,-14.25,19.65,10.0,0.0,0.0,0.0,10.0,0.0,0.0,0.0,10.0
1446038406308573469,401,1446038406299292087,robocape_mag,12.6,-9.75,15.15,10.0,0.0,0.0,0.0,10.0,0.0,0.0,0.0,10.0
1446038406341317636,402,1446038406335458040,robocape_mag,12.6,-9.75,15.15,10.0,0.0,0.0,0.0,10.0,0.0,0.0,0.0,10.0
1446038406375752053,403,1446038406365890979,robocape_mag,12.6,-9.75,15.15,10.0,0.0,0.0,0.0,10.0,0.0,0.0,0.0,10.0
1446038406406323969,404,1446038406397936105,robocape_mag,12.6,-9.75,15.15,10.0,0.0,0.0,0.0,10.0,0.0,0.0,0.0,10.0
1446038406445361594,405,1446038406434770107,robocape_mag,12.6,-9.75,15.15,10.0,0.0,0.0,0.0,10.0,0.0,0.0,0.0,10.0
1446038406473176678,406,1446038406465568065,robocape_mag,22.2,-28.35,1.95,10.0,0.0,0.0,0.0,10.0,0.0,0.0,0.0,10.0
1446038406510339178,407,1446038406502408981,robocape_mag,22.2,-28.35,1.95,10.0,0.0,0.0,0.0,10.0,0.0,0.0,0.0,10.0
1446038406539436095,408,1446038406531714916,robocape_mag,22.2,-28.35,1.95,10.0,0.0,0.0,0.0,10.0,0.0,0.0,0.0,10.0
1446038406573956303,409,1446038406566536903,robocape_mag,22.2,-28.35,1.95,10.0,0.0,0.0,0.0,10.0,0.0,0.0,0.0,10.0
1446038406604565970,410,1446038406596153974,robocape_mag,22.2,-28.35,1.95,10.0,0.0,0.0,0.0,10.0,0.0,0.0,0.0,10.0
1446038406640221345,411,1446038406632731914,robocape_mag,24.3,-22.65,10.65,10.0,0.0,0.0,0.0,10.0,0.0,0.0,0.0,10.0
1446038406675170011,412,1446038406664230108,robocape_mag,24.3,-22.65,10.65,10.0,0.0,0.0,0.0,10.0,0.0,0.0,0.0,10.0
1446038406703309886,413,1446038406697967052,robocape_mag,24.3,-22.65,10.65,10.0,0.0,0.0,0.0,10.0,0.0,0.0,0.0,10.0
1446038406741929428,414,1446038406733875989,robocape_mag,24.3,-22.65,10.65,10.0,0.0,0.0,0.0,10.0,0.0,0.0,0.0,10.0
1446038406768960970,415,1446038406763837099,robocape_mag,24.3,-22.65,10.65,10.0,0.0,0.0,0.0,10.0,0.0,0.0,0.0,10.0
1446038406802565595,416,1446038406797116994,robocape_mag,39.6,-27.75,1.35,10.0,0.0,0.0,0.0,10.0,0.0,0.0,0.0,10.0
1446038406841563345,417,1446038406833283901,robocape_mag,39.6,-27.75,1.35,10.0,0.0,0.0,0.0,10.0,0.0,0.0,0.0,10.0
1446038406874877261,418,1446038406866444110,robocape_mag,39.6,-27.75,1.35,10.0,0.0,0.0,0.0,10.0,0.0,0.0,0.0,10.0
1446038406905888720,419,1446038406897383928,robocape_mag,39.6,-27.75,1.35,10.0,0.0,0.0,0.0,10.0,0.0,0.0,0.0,10.0
1446038406939872178,420,1446038406932610034,robocape_mag,38.4,-24.75,3.75,10.0,0.0,0.0,0.0,10.0,0.0,0.0,0.0,10.0
1446038406970402178,421,1446038406965137004,robocape_mag,38.4,-24.75,3.75,10.0,0.0,0.0,0.0,10.0,0.0,0.0,0.0,10.0
1446038407005373553,422,1446038406999857902,robocape_mag,38.4,-24.75,3.75,10.0,0.0,0.0,0.0,10.0,0.0,0.0,0.0,10.0
1446038407040662178,423,1446038407031979084,robocape_mag,38.4,-24.75,3.75,10.0,0.0,0.0,0.0,10.0,0.0,0.0,0.0,10.0
1446038407069739095,424,1446038407064690113,robocape_mag,38.4,-24.75,3.75,10.0,0.0,0.0,0.0,10.0,0.0,0.0,0.0,10.0
1446038407109443720,425,1446038407101566076,robocape_mag,16.2,-7.35,11.55,10.0,0.0,0.0,0.0,10.0,0.0,0.0,0.0,10.0
1446038407136648928,426,1446038407129487037,robocape_mag,16.2,-7.35,11.55,10.0,0.0,0.0,0.0,10.0,0.0,0.0,0.0,10.0
1446038407178197553,427,1446038407166614055,robocape_mag,16.2,-7.35,11.55,10.0,0.0,0.0,0.0,10.0,0.0,0.0,0.0,10.0
1446038407202464428,428,1446038407196765899,robocape_mag,16.2,-7.35,11.55,10.0,0.0,0.0,0.0,10.0,0.0,0.0,0.0,10.0
1446038407241802512,429,1446038407233704090,robocape_mag,16.2,-7.35,11.55,10.0,0.0,0.0,0.0,10.0,0.0,0.0,0.0,10.0
1446038407270292095,430,1446038407265181064,robocape_mag,7.2,3.45,17.55,10.0,0.0,0.0,0.0,10.0,0.0,0.0,0.0,10.0
1446038407305952803,431,1446038407298052072,robocape_mag,7.2,3.45,17.55,10.0,0.0,0.0,0.0,10.0,0.0,0.0,0.0,10.0
1446038407339672845,432,1446038407331649065,robocape_mag,7.2,3.45,17.55,10.0,0.0,0.0,0.0,10.0,0.0,0.0,0.0,10.0
1446038407371182845,433,1446038407365587949,robocape_mag,7.2,3.45,17.55,10.0,0.0,0.0,0.0,10.0,0.0,0.0,0.0,10.0
1446038407406588553,434,1446038407398292064,robocape_mag,7.2,3.45,17.55,10.0,0.0,0.0,0.0,10.0,0.0,0.0,0.0,10.0
1446038407438573220,435,1446038407432866096,robocape_mag,11.4,1.05,18.75,10.0,0.0,0.0,0.0,10.0,0.0,0.0,0.0,10.0
1446038407471749345,436,1446038407466662883,robocape_mag,11.4,1.05,18.75,10.0,0.0,0.0,0.0,10.0,0.0,0.0,0.0,10.0
1446038407507561720,437,1446038407499725103,robocape_mag,11.4,1.05,18.75,10.0,0.0,0.0,0.0,10.0,0.0,0.0,0.0,10.0
1446038407541050095,438,1446038407531187057,robocape_mag,11.4,1.05,18.75,10.0,0.0,0.0,0.0,10.0,0.0,0.0,0.0,10.0
1446038407567931928,439,1446038407562638998,robocape_mag,11.4,1.05,18.75,10.0,0.0,0.0,0.0,10.0,0.0,0.0,0.0,10.0
1446038407605144845,440,1446038407596729040,robocape_mag,51.9,-10.65,-0.15,10.0,0.0,0.0,0.0,10.0,0.0,0.0,0.0,10.0
1446038407636054053,441,1446038407630881071,robocape_mag,51.9,-10.65,-0.15,10.0,0.0,0.0,0.0,10.0,0.0,0.0,0.0,10.0
1446038407676881387,442,1446038407665534019,robocape_mag,51.9,-10.65,-0.15,10.0,0.0,0.0,0.0,10.0,0.0,0.0,0.0,10.0
1446038407706279053,443,1446038407700679063,robocape_mag,51.9,-10.65,-0.15,10.0,0.0,0.0,0.0,10.0,0.0,0.0,0.0,10.0
1446038407736755595,444,1446038407731270074,robocape_mag,17.7,-6.45,13.05,10.0,0.0,0.0,0.0,10.0,0.0,0.0,0.0,10.0
1446038407772015220,445,1446038407766875982,robocape_mag,17.7,-6.45,13.05,10.0,0.0,0.0,0.0,10.0,0.0,0.0,0.0,10.0
1446038407805394470,446,1446038407797297954,robocape_mag,17.7,-6.45,13.05,10.0,0.0,0.0,0.0,10.0,0.0,0.0,0.0,10.0
1446038407839570845,447,1446038407833203077,robocape_mag,17.7,-6.45,13.05,10.0,0.0,0.0,0.0,10.0,0.0,0.0,0.0,10.0
1446038407872459345,448,1446038407864408016,robocape_mag,17.7,-6.45,13.05,10.0,0.0,0.0,0.0,10.0,0.0,0.0,0.0,10.0
1446038407908524303,449,1446038407898137092,robocape_mag,34.2,-13.35,13.95,10.0,0.0,0.0,0.0,10.0,0.0,0.0,0.0,10.0
1446038407936444012,450,1446038407931341886,robocape_mag,34.2,-13.35,13.95,10.0,0.0,0.0,0.0,10.0,0.0,0.0,0.0,10.0
1446038407975912887,451,1446038407968094110,robocape_mag,34.2,-13.35,13.95,10.0,0.0,0.0,0.0,10.0,0.0,0.0,0.0,10.0
1446038408003863179,452,1446038407998167037,robocape_mag,34.2,-13.35,13.95,10.0,0.0,0.0,0.0,10.0,0.0,0.0,0.0,10.0
1446038408036929679,453,1446038408028284072,robocape_mag,34.2,-13.35,13.95,10.0,0.0,0.0,0.0,10.0,0.0,0.0,0.0,10.0
1446038408073741304,454,1446038408065112113,robocape_mag,34.8,-0.15,-5.85,10.0,0.0,0.0,0.0,10.0,0.0,0.0,0.0,10.0
1446038408106787345,455,1446038408098419904,robocape_mag,34.8,-0.15,-5.85,10.0,0.0,0.0,0.0,10.0,0.0,0.0,0.0,10.0
1446038408133100429,456,1446038408127881050,robocape_mag,34.8,-0.15,-5.85,10.0,0.0,0.0,0.0,10.0,0.0,0.0,0.0,10.0
1446038408174245512,457,1446038408166018962,robocape_mag,34.8,-0.15,-5.85,10.0,0.0,0.0,0.0,10.0,0.0,0.0,0.0,10.0
1446038408203367470,458,1446038408197973966,robocape_mag,34.8,-0.15,-5.85,10.0,0.0,0.0,0.0,10.0,0.0,0.0,0.0,10.0
1446038408240552512,459,1446038408232793092,robocape_mag,24.0,-4.95,3.15,10.0,0.0,0.0,0.0,10.0,0.0,0.0,0.0,10.0
1446038408270085470,460,1446038408263320922,robocape_mag,24.0,-4.95,3.15,10.0,0.0,0.0,0.0,10.0,0.0,0.0,0.0,10.0
1446038408311173720,461,1446038408301992893,robocape_mag,24.0,-4.95,3.15,10.0,0.0,0.0,0.0,10.0,0.0,0.0,0.0,10.0
1446038408341028804,462,1446038408330534934,robocape_mag,24.0,-4.95,3.15,10.0,0.0,0.0,0.0,10.0,0.0,0.0,0.0,10.0
1446038408367090262,463,1446038408361565113,robocape_mag,24.0,-4.95,3.15,10.0,0.0,0.0,0.0,10.0,0.0,0.0,0.0,10.0
1446038408407502804,464,1446038408399421930,robocape_mag,45.6,6.45,4.35,10.0,0.0,0.0,0.0,10.0,0.0,0.0,0.0,10.0
1446038408435883054,465,1446038408430684089,robocape_mag,45.6,6.45,4.35,10.0,0.0,0.0,0.0,10.0,0.0,0.0,0.0,10.0
1446038408469102595,466,1446038408461165904,robocape_mag,45.6,6.45,4.35,10.0,0.0,0.0,0.0,10.0,0.0,0.0,0.0,10.0
1446038408505740887,467,1446038408495995044,robocape_mag,45.6,6.45,4.35,10.0,0.0,0.0,0.0,10.0,0.0,0.0,0.0,10.0
1446038408537649012,468,1446038408530075073,robocape_mag,48.9,-3.45,4.05,10.0,0.0,0.0,0.0,10.0,0.0,0.0,0.0,10.0
1446038408574917804,469,1446038408565768003,robocape_mag,48.9,-3.45,4.05,10.0,0.0,0.0,0.0,10.0,0.0,0.0,0.0,10.0
1446038408606133512,470,1446038408598731040,robocape_mag,48.9,-3.45,4.05,10.0,0.0,0.0,0.0,10.0,0.0,0.0,0.0,10.0
1446038408640522012,471,1446038408631735086,robocape_mag,48.9,-3.45,4.05,10.0,0.0,0.0,0.0,10.0,0.0,0.0,0.0,10.0
1446038408673484096,472,1446038408664659976,robocape_mag,48.9,-3.45,4.05,10.0,0.0,0.0,0.0,10.0,0.0,0.0,0.0,10.0
1446038408706119387,473,1446038408698029994,robocape_mag,30.0,-2.55,-5.25,10.0,0.0,0.0,0.0,10.0,0.0,0.0,0.0,10.0
1446038408734976637,474,1446038408729744911,robocape_mag,30.0,-2.55,-5.25,10.0,0.0,0.0,0.0,10.0,0.0,0.0,0.0,10.0
1446038408769090804,475,1446038408763788938,robocape_mag,30.0,-2.55,-5.25,10.0,0.0,0.0,0.0,10.0,0.0,0.0,0.0,10.0
1446038408807429762,476,1446038408798252105,robocape_mag,30.0,-2.55,-5.25,10.0,0.0,0.0,0.0,10.0,0.0,0.0,0.0,10.0
1446038408839072637,477,1446038408830535888,robocape_mag,30.0,-2.55,-5.25,10.0,0.0,0.0,0.0,10.0,0.0,0.0,0.0,10.0
1446038408877378137,478,1446038408868550062,robocape_mag,27.9,4.95,-5.55,10.0,0.0,0.0,0.0,10.0,0.0,0.0,0.0,10.0
1446038408907580054,479,1446038408898005008,robocape_mag,27.9,4.95,-5.55,10.0,0.0,0.0,0.0,10.0,0.0,0.0,0.0,10.0
1446038408935260512,480,1446038408929930925,robocape_mag,27.9,4.95,-5.55,10.0,0.0,0.0,0.0,10.0,0.0,0.0,0.0,10.0
1446038408971360429,481,1446038408966178894,robocape_mag,27.9,4.95,-5.55,10.0,0.0,0.0,0.0,10.0,0.0,0.0,0.0,10.0
1446038409006394346,482,1446038408999376058,robocape_mag,27.9,4.95,-5.55,10.0,0.0,0.0,0.0,10.0,0.0,0.0,0.0,10.0
1446038409037378221,483,1446038409029515027,robocape_mag,40.2,7.65,11.55,10.0,0.0,0.0,0.0,10.0,0.0,0.0,0.0,10.0
1446038409070048971,484,1446038409064821958,robocape_mag,40.2,7.65,11.55,10.0,0.0,0.0,0.0,10.0,0.0,0.0,0.0,10.0
1446038409108584179,485,1446038409100653886,robocape_mag,40.2,7.65,11.55,10.0,0.0,0.0,0.0,10.0,0.0,0.0,0.0,10.0
1446038409139624929,486,1446038409131434917,robocape_mag,40.2,7.65,11.55,10.0,0.0,0.0,0.0,10.0,0.0,0.0,0.0,10.0
1446038409172177637,487,1446038409164499044,robocape_mag,40.2,7.65,11.55,10.0,0.0,0.0,0.0,10.0,0.0,0.0,0.0,10.0
1446038409206830096,488,1446038409198792934,robocape_mag,21.6,11.85,8.55,10.0,0.0,0.0,0.0,10.0,0.0,0.0,0.0,10.0
1446038409236976304,489,1446038409231354951,robocape_mag,21.6,11.85,8.55,10.0,0.0,0.0,0.0,10.0,0.0,0.0,0.0,10.0
1446038409273643929,490,1446038409264586925,robocape_mag,21.6,11.85,8.55,10.0,0.0,0.0,0.0,10.0,0.0,0.0,0.0,10.0
1446038409306383762,491,1446038409297894001,robocape_mag,21.6,11.85,8.55,10.0,0.0,0.0,0.0,10.0,0.0,0.0,0.0,10.0
1446038409335791554,492,1446038409330462932,robocape_mag,15.3,10.35,8.25,10.0,0.0,0.0,0.0,10.0,0.0,0.0,0.0,10.0
1446038409370733888,493,1446038409365184068,robocape_mag,15.3,10.35,8.25,10.0,0.0,0.0,0.0,10.0,0.0,0.0,0.0,10.0
1446038409405835804,494,1446038409397742033,robocape_mag,15.3,10.35,8.25,10.0,0.0,0.0,0.0,10.0,0.0,0.0,0.0,10.0
1446038409439626013,495,1446038409431699991,robocape_mag,15.3,10.35,8.25,10.0,0.0,0.0,0.0,10.0,0.0,0.0,0.0,10.0
1446038409467998013,496,1446038409462614059,robocape_mag,15.3,10.35,8.25,10.0,0.0,0.0,0.0,10.0,0.0,0.0,0.0,10.0
1446038409510419388,497,1446038409501693964,robocape_mag,20.1,7.95,5.25,10.0,0.0,0.0,0.0,10.0,0.0,0.0,0.0,10.0
1446038409539937888,498,1446038409534037113,robocape_mag,20.1,7.95,5.25,10.0,0.0,0.0,0.0,10.0,0.0,0.0,0.0,10.0
1446038409571817388,499,1446038409566071033,robocape_mag,20.1,7.95,5.25,10.0,0.0,0.0,0.0,10.0,0.0,0.0,0.0,10.0
1446038409606426513,500,1446038409598284959,robocape_mag,20.1,7.95,5.25,10.0,0.0,0.0,0.0,10.0,0.0,0.0,0.0,10.0
1446038409633409888,501,1446038409628091096,robocape_mag,20.1,7.95,5.25,10.0,0.0,0.0,0.0,10.0,0.0,0.0,0.0,10.0
1446038409669152054,502,1446038409663975000,robocape_mag,25.5,10.35,8.85,10.0,0.0,0.0,0.0,10.0,0.0,0.0,0.0,10.0
1446038409702118013,503,1446038409694570064,robocape_mag,25.5,10.35,8.85,10.0,0.0,0.0,0.0,10.0,0.0,0.0,0.0,10.0
1446038409735579638,504,1446038409727787017,robocape_mag,25.5,10.35,8.85,10.0,0.0,0.0,0.0,10.0,0.0,0.0,0.0,10.0
1446038409772963596,505,1446038409764944076,robocape_mag,25.5,10.35,8.85,10.0,0.0,0.0,0.0,10.0,0.0,0.0,0.0,10.0
1446038409803088763,506,1446038409797833919,robocape_mag,25.5,10.35,8.85,10.0,0.0,0.0,0.0,10.0,0.0,0.0,0.0,10.0
1446038409837639513,507,1446038409832288980,robocape_mag,15.0,10.05,9.75,10.0,0.0,0.0,0.0,10.0,0.0,0.0,0.0,10.0
1446038409875337638,508,1446038409865340948,robocape_mag,15.0,10.05,9.75,10.0,0.0,0.0,0.0,10.0,0.0,0.0,0.0,10.0
1446038409907217596,509,1446038409899600028,robocape_mag,15.0,10.05,9.75,10.0,0.0,0.0,0.0,10.0,0.0,0.0,0.0,10.0
1446038409937561429,510,1446038409932204961,robocape_mag,15.0,10.05,9.75,10.0,0.0,0.0,0.0,10.0,0.0,0.0,0.0,10.0
1446038409971981679,511,1446038409966756105,robocape_mag,15.0,10.05,13.05,10.0,0.0,0.0,0.0,10.0,0.0,0.0,0.0,10.0
1446038410002955471,512,1446038409995116949,robocape_mag,14.7,3.75,13.05,10.0,0.0,0.0,0.0,10.0,0.0,0.0,0.0,10.0
1446038410033259513,513,1446038410027894020,robocape_mag,14.7,3.75,13.05,10.0,0.0,0.0,0.0,10.0,0.0,0.0,0.0,10.0
1446038410066752805,514,1446038410061609983,robocape_mag,14.7,3.75,13.05,10.0,0.0,0.0,0.0,10.0,0.0,0.0,0.0,10.0
1446038410099837638,515,1446038410094414949,robocape_mag,14.7,3.75,13.05,10.0,0.0,0.0,0.0,10.0,0.0,0.0,0.0,10.0
1446038410139416430,516,1446038410131474971,robocape_mag,17.7,9.15,11.25,10.0,0.0,0.0,0.0,10.0,0.0,0.0,0.0,10.0
1446038410171487263,517,1446038410166158914,robocape_mag,17.7,9.15,11.25,10.0,0.0,0.0,0.0,10.0,0.0,0.0,0.0,10.0
1446038410205373763,518,1446038410198168039,robocape_mag,17.7,9.15,11.25,10.0,0.0,0.0,0.0,10.0,0.0,0.0,0.0,10.0
1446038410240845930,519,1446038410231754064,robocape_mag,17.7,9.15,11.25,10.0,0.0,0.0,0.0,10.0,0.0,0.0,0.0,10.0
1446038410266622888,520,1446038410261499881,robocape_mag,17.7,9.15,11.25,10.0,0.0,0.0,0.0,10.0,0.0,0.0,0.0,10.0
1446038410300439513,521,1446038410294919967,robocape_mag,29.1,6.15,16.65,10.0,0.0,0.0,0.0,10.0,0.0,0.0,0.0,10.0
1446038410333217013,522,1446038410328089952,robocape_mag,29.1,6.15,16.65,10.0,0.0,0.0,0.0,10.0,0.0,0.0,0.0,10.0
1446038410369899888,523,1446038410364748954,robocape_mag,29.1,6.15,16.65,10.0,0.0,0.0,0.0,10.0,0.0,0.0,0.0,10.0
1446038410409642305,524,1446038410399142980,robocape_mag,29.1,6.15,16.65,10.0,0.0,0.0,0.0,10.0,0.0,0.0,0.0,10.0
1446038410438181305,525,1446038410432787895,robocape_mag,29.1,6.15,16.65,10.0,0.0,0.0,0.0,10.0,0.0,0.0,0.0,10.0
