%time,field.header.seq,field.header.stamp,field.header.frame_id,field.magnetic_field.x,field.magnetic_field.y,field.magnetic_field.z,field.magnetic_field_covariance0,field.magnetic_field_covariance1,field.magnetic_field_covariance2,field.magnetic_field_covariance3,field.magnetic_field_covariance4,field.magnetic_field_covariance5,field.magnetic_field_covariance6,field.magnetic_field_covariance7,field.magnetic_field_covariance8
1446038274859887474,1,1446038274504225015,robocape_mag,4.35,16.35,25.2,10.0,0.0,0.0,0.0,10.0,0.0,0.0,0.0,10.0
1446038274897902057,2,1446038274529819011,robocape_mag,4.35,16.35,25.2,10.0,0.0,0.0,0.0,10.0,0.0,0.0,0.0,10.0
1446038274897965849,3,1446038274567543029,robocape_mag,10.95,14.55,24.6,10.0,0.0,0.0,0.0,10.0,0.0,0.0,0.0,10.0
1446038274898000974,4,1446038274598387002,robocape_mag,10.95,14.55,24.6,10.0,0.0,0.0,0.0,10.0,0.0,0.0,0.0,10.0
1446038274898403682,5,1446038274640933036,robocape_mag,10.95,14.55,24.6,10.0,0.0,0.0,0.0,10.0,0.0,0.0,0.0,10.0
1446038274898447515,6,1446038274665703058,robocape_mag,10.95,14.55,24.6,10.0,0.0,0.0,0.0,10.0,0.0,0.0,0.0,10.0
1446038274898479432,7,1446038274694766998,robocape_mag,10.95,14.55,24.6,10.0,0.0,0.0,0.0,10.0,0.0,0.0,0.0,10.0
1446038274898515724,8,1446038274727190017,robocape_mag,7.95,18.75,25.2,10.0,0.0,0.0,0.0,10.0,0.0,0.0,0.0,10.0
1446038274899635974,9,1446038274762428998,robocape_mag,7.95,18.75,25.2,10.0,0.0,0.0,0.0,10.0,0.0,0.0,0.0,10.0
1446038274910134682,10,1446038274825244903,robocape_mag,7.95,18.75,25.2,10.0,0.0,0.0,0.0,10.0,0.0,0.0,0.0,10.0
1446038274911605599,11,1446038274851248025,robocape_mag,7.95,18.75,25.2,10.0,0.0,0.0,0.0,10.0,0.0,0.0,0.0,10.0
1446038274911650849,12,1446038274876449108,robocape_mag,11.55,12.15,28.2,10.0,0.0,0.0,0.0,10.0,0.0,0.0,0.0,10.0
1446038274911715807,13,1446038274900898933,robocape_mag,11.55,12.15,28.2,10.0,0.0,0.0,0.0,10.0,0.0,0.0,0.0,10.0
1446038274932874890,14,1446038274929297924,robocape_mag,11.55,12.15,28.2,10.0,0.0,0.0,0.0,10.0,0.0,0.0,0.0,10.0
1446038274968926390,15,1446038274963623046,robocape_mag,11.55,12.15,28.2,10.0,0.0,0.0,0.0,10.0,0.0,0.0,0.0,10.0
1446038274999022182,16,1446038274994242906,robocape_mag,11.55,12.15,28.2,10.0,0.0,0.0,0.0,10.0,0.0,0.0,0.0,10.0
1446038275032272224,17,1446038275027580022,robocape_mag,4.65,17.85,24.3,10.0,0.0,0.0,0.0,10.0,0.0,0.0,0.0,10.0
1446038275068079182,18,1446038275062927961,robocape_mag,4.65,17.85,24.3,10.0,0.0,0.0,0.0,10.0,0.0,0.0,0.0,10.0
1446038275098648141,19,1446038275093897104,robocape_mag,4.65,17.85,24.3,10.0,0.0,0.0,0.0,10.0,0.0,0.0,0.0,10.0
1446038275131454724,20,1446038275126585960,robocape_mag,4.65,17.85,24.3,10.0,0.0,0.0,0.0,10.0,0.0,0.0,0.0,10.0
1446038275165261766,21,1446038275160279989,robocape_mag,4.65,17.85,24.3,10.0,0.0,0.0,0.0,10.0,0.0,0.0,0.0,10.0
1446038275198434141,22,1446038275193700075,robocape_mag,3.15,18.15,24.0,10.0,0.0,0.0,0.0,10.0,0.0,0.0,0.0,10.0
1446038275231689432,23,1446038275226423978,robocape_mag,3.15,18.15,24.0,10.0,0.0,0.0,0.0,10.0,0.0,0.0,0.0,10.0
1446038275264851891,24,1446038275259875059,robocape_mag,3.15,18.15,24.0,10.0,0.0,0.0,0.0,10.0,0.0,0.0,0.0,10.0
1446038275297768974,25,1446038275293018102,robocape_mag,3.15,18.15,24.0,10.0,0.0,0.0,0.0,10.0,0.0,0.0,0.0,10.0
1446038275330730099,26,1446038275325968980,robocape_mag,3.15,18.15,24.0,10.0,0.0,0.0,0.0,10.0,0.0,0.0,0.0,10.0
1446038275364919057,27,1446038275359755039,robocape_mag,13.65,14.25,22.5,10.0,0.0,0.0,0.0,10.0,0.0,0.0,0.0,10.0
1446038275397855891,28,1446038275392908096,robocape_mag,13.65,14.25,22.5,10.0,0.0,0.0,0.0,10.0,0.0,0.0,0.0,10.0
1446038275430801432,29,1446038275426040887,robocape_mag,13.65,14.25,22.5,10.0,0.0,0.0,0.0,10.0,0.0,0.0,0.0,10.0
1446038275465078557,30,1446038275459840059,robocape_mag,13.65,14.25,22.5,10.0,0.0,0.0,0.0,10.0,0.0,0.0,0.0,10.0
1446038275497745974,31,1446038275492909908,robocape_mag,13.65,14.25,22.5,10.0,0.0,0.0,0.0,10.0,0.0,0.0,0.0,10.0
1446038275531051432,32,1446038275526204109,robocape_mag,4.95,18.15,25.8,10.0,0.0,0.0,0.0,10.0,0.0,0.0,0.0,10.0
1446038275568399057,33,1446038275559535980,robocape_mag,4.95,18.15,25.8,10.0,0.0,0.0,0.0,10.0,0.0,0.0,0.0,10.0
1446038275597701266,34,1446038275592840909,robocape_mag,4.95,18.15,25.8,10.0,0.0,0.0,0.0,10.0,0.0,0.0,0.0,10.0
1446038275631018057,35,1446038275626200914,robocape_mag,4.95,18.15,25.8,10.0,0.0,0.0,0.0,10.0,0.0,0.0,0.0,10.0
1446038275667028432,36,1446038275659723997,robocape_mag,6.75,17.55,24.6,10.0,0.0,0.0,0.0,10.0,0.0,0.0,0.0,10.0
1446038275697789599,37,1446038275693001031,robocape_mag,6.75,17.55,24.6,10.0,0.0,0.0,0.0,10.0,0.0,0.0,0.0,10.0
1446038275730699182,38,1446038275725946903,robocape_mag,6.75,17.55,24.6,10.0,0.0,0.0,0.0,10.0,0.0,0.0,0.0,10.0
1446038275764394099,39,1446038275759567022,robocape_mag,6.75,17.55,24.6,10.0,0.0,0.0,0.0,10.0,0.0,0.0,0.0,10.0
1446038275797538933,40,1446038275792694091,robocape_mag,6.75,17.55,24.6,10.0,0.0,0.0,0.0,10.0,0.0,0.0,0.0,10.0
1446038275831469224,41,1446038275825932025,robocape_mag,11.55,16.35,23.4,10.0,0.0,0.0,0.0,10.0,0.0,0.0,0.0,10.0
1446038275873001808,42,1446038275860800981,robocape_mag,11.55,16.35,23.4,10.0,0.0,0.0,0.0,10.0,0.0,0.0,0.0,10.0
1446038275898962683,43,1446038275893889904,robocape_mag,11.55,16.35,23.4,10.0,0.0,0.0,0.0,10.0,0.0,0.0,0.0,10.0
1446038275931191849,44,1446038275926126956,robocape_mag,11.55,16.35,23.4,10.0,0.0,0.0,0.0,10.0,0.0,0.0,0.0,10.0
1446038275966267224,45,1446038275960269927,robocape_mag,11.55,16.35,23.4,10.0,0.0,0.0,0.0,10.0,0.0,0.0,0.0,10.0
1446038275998165058,46,1446038275993021011,robocape_mag,10.65,14.85,26.1,10.0,0.0,0.0,0.0,10.0,0.0,0.0,0.0,10.0
1446038276031353933,47,1446038276026182889,robocape_mag,10.65,14.85,26.1,10.0,0.0,0.0,0.0,10.0,0.0,0.0,0.0,10.0
1446038276064725724,48,1446038276059432983,robocape_mag,10.65,14.85,26.1,10.0,0.0,0.0,0.0,10.0,0.0,0.0,0.0,10.0
1446038276098011933,49,1446038276093029022,robocape_mag,10.65,14.85,26.1,10.0,0.0,0.0,0.0,10.0,0.0,0.0,0.0,10.0
1446038276130933391,50,1446038276125931024,robocape_mag,10.65,14.85,26.1,10.0,0.0,0.0,0.0,10.0,0.0,0.0,0.0,10.0
1446038276164449849,51,1446038276159420013,robocape_mag,10.95,13.35,26.4,10.0,0.0,0.0,0.0,10.0,0.0,0.0,0.0,10.0
1446038276197676183,52,1446038276192842960,robocape_mag,10.95,13.35,26.4,10.0,0.0,0.0,0.0,10.0,0.0,0.0,0.0,10.0
1446038276230724599,53,1446038276225984096,robocape_mag,10.95,13.35,26.4,10.0,0.0,0.0,0.0,10.0,0.0,0.0,0.0,10.0
1446038276264516391,54,1446038276259716033,robocape_mag,10.95,13.35,26.4,10.0,0.0,0.0,0.0,10.0,0.0,0.0,0.0,10.0
1446038276299288183,55,1446038276294455051,robocape_mag,10.95,13.35,26.4,10.0,0.0,0.0,0.0,10.0,0.0,0.0,0.0,10.0
1446038276333706016,56,1446038276327174901,robocape_mag,10.35,15.75,25.8,10.0,0.0,0.0,0.0,10.0,0.0,0.0,0.0,10.0
1446038276365911099,57,1446038276360879898,robocape_mag,10.35,15.75,25.8,10.0,0.0,0.0,0.0,10.0,0.0,0.0,0.0,10.0
1446038276398123974,58,1446038276393285989,robocape_mag,10.35,15.75,25.8,10.0,0.0,0.0,0.0,10.0,0.0,0.0,0.0,10.0
1446038276432732474,59,1446038276427640914,robocape_mag,10.35,15.75,25.8,10.0,0.0,0.0,0.0,10.0,0.0,0.0,0.0,10.0
1446038276466684308,60,1446038276461389064,robocape_mag,11.25,16.05,22.5,10.0,0.0,0.0,0.0,10.0,0.0,0.0,0.0,10.0
1446038276499496016,61,1446038276494388103,robocape_mag,11.25,16.05,22.5,10.0,0.0,0.0,0.0,10.0,0.0,0.0,0.0,10.0
1446038276532006725,62,1446038276526623010,robocape_mag,11.25,16.05,22.5,10.0,0.0,0.0,0.0,10.0,0.0,0.0,0.0,10.0
1446038276566149891,63,1446038276561115980,robocape_mag,11.25,16.05,22.5,10.0,0.0,0.0,0.0,10.0,0.0,0.0,0.0,10.0
1446038276603816058,64,1446038276596259117,robocape_mag,11.25,16.05,22.5,10.0,0.0,0.0,0.0,10.0,0.0,0.0,0.0,10.0
1446038276636725266,65,1446038276628987073,robocape_mag,5.25,18.45,21.9,10.0,0.0,0.0,0.0,10.0,0.0,0.0,0.0,10.0
1446038276668437516,66,1446038276660661935,robocape_mag,5.25,18.45,21.9,10.0,0.0,0.0,0.0,10.0,0.0,0.0,0.0,10.0
1446038276707344600,67,1446038276695822000,robocape_mag,5.25,18.45,21.9,10.0,0.0,0.0,0.0,10.0,0.0,0.0,0.0,10.0
1446038276735586558,68,1446038276729170083,robocape_mag,5.25,18.45,21.9,10.0,0.0,0.0,0.0,10.0,0.0,0.0,0.0,10.0
1446038276774091808,69,1446038276763473987,robocape_mag,5.25,18.45,21.9,10.0,0.0,0.0,0.0,10.0,0.0,0.0,0.0,10.0
1446038276801649683,70,1446038276795963048,robocape_mag,4.95,18.75,23.4,10.0,0.0,0.0,0.0,10.0,0.0,0.0,0.0,10.0
1446038276836686100,71,1446038276831526041,robocape_mag,4.95,18.75,23.4,10.0,0.0,0.0,0.0,10.0,0.0,0.0,0.0,10.0
1446038276873994808,72,1446038276862548112,robocape_mag,4.95,18.75,23.4,10.0,0.0,0.0,0.0,10.0,0.0,0.0,0.0,10.0
1446038276905403141,73,1446038276896725893,robocape_mag,4.95,18.75,23.4,10.0,0.0,0.0,0.0,10.0,0.0,0.0,0.0,10.0
1446038276934747391,74,1446038276929629087,robocape_mag,4.95,18.75,23.4,10.0,0.0,0.0,0.0,10.0,0.0,0.0,0.0,10.0
1446038276969110183,75,1446038276962887048,robocape_mag,10.05,17.25,24.3,10.0,0.0,0.0,0.0,10.0,0.0,0.0,0.0,10.0
1446038277002737558,76,1446038276996798038,robocape_mag,10.05,17.25,24.3,10.0,0.0,0.0,0.0,10.0,0.0,0.0,0.0,10.0
1446038277035306725,77,1446038277030426979,robocape_mag,10.05,17.25,24.3,10.0,0.0,0.0,0.0,10.0,0.0,0.0,0.0,10.0
1446038277068319266,78,1446038277063142061,robocape_mag,10.05,17.25,24.3,10.0,0.0,0.0,0.0,10.0,0.0,0.0,0.0,10.0
1446038277101305433,79,1446038277096242904,robocape_mag,10.05,17.25,26.1,10.0,0.0,0.0,0.0,10.0,0.0,0.0,0.0,10.0
1446038277134500683,80,1446038277129611015,robocape_mag,5.85,16.65,26.1,10.0,0.0,0.0,0.0,10.0,0.0,0.0,0.0,10.0
1446038277167046183,81,1446038277162058115,robocape_mag,5.85,16.65,26.1,10.0,0.0,0.0,0.0,10.0,0.0,0.0,0.0,10.0
1446038277201015933,82,1446038277195964097,robocape_mag,5.85,16.65,26.1,10.0,0.0,0.0,0.0,10.0,0.0,0.0,0.0,10.0
1446038277234454308,83,1446038277229598999,robocape_mag,5.85,16.65,26.1,10.0,0.0,0.0,0.0,10.0,0.0,0.0,0.0,10.0
1446038277267395183,84,1446038277262481927,robocape_mag,7.95,16.35,25.8,10.0,0.0,0.0,0.0,10.0,0.0,0.0,0.0,10.0
1446038277300509267,85,1446038277295434951,robocape_mag,7.95,16.35,25.8,10.0,0.0,0.0,0.0,10.0,0.0,0.0,0.0,10.0
1446038277332841933,86,1446038277328097105,robocape_mag,7.95,16.35,25.8,10.0,0.0,0.0,0.0,10.0,0.0,0.0,0.0,10.0
1446038277366115392,87,1446038277361004114,robocape_mag,7.95,16.35,25.8,10.0,0.0,0.0,0.0,10.0,0.0,0.0,0.0,10.0
1446038277399053683,88,1446038277394268035,robocape_mag,7.95,16.35,25.8,10.0,0.0,0.0,0.0,10.0,0.0,0.0,0.0,10.0
1446038277431636892,89,1446038277426760911,robocape_mag,10.35,16.95,21.6,10.0,0.0,0.0,0.0,10.0,0.0,0.0,0.0,10.0
1446038277465510933,90,1446038277460499048,robocape_mag,10.35,16.95,21.6,10.0,0.0,0.0,0.0,10.0,0.0,0.0,0.0,10.0
1446038277498640642,91,1446038277493859052,robocape_mag,10.35,16.95,21.6,10.0,0.0,0.0,0.0,10.0,0.0,0.0,0.0,10.0
1446038277531299433,92,1446038277526454925,robocape_mag,10.35,16.95,21.6,10.0,0.0,0.0,0.0,10.0,0.0,0.0,0.0,10.0
1446038277564938558,93,1446038277559746980,robocape_mag,10.35,16.95,21.6,10.0,0.0,0.0,0.0,10.0,0.0,0.0,0.0,10.0
1446038277598090267,94,1446038277593313932,robocape_mag,8.85,16.05,26.1,10.0,0.0,0.0,0.0,10.0,0.0,0.0,0.0,10.0
1446038277631273850,95,1446038277626507043,robocape_mag,8.85,16.05,26.1,10.0,0.0,0.0,0.0,10.0,0.0,0.0,0.0,10.0
1446038277668277475,96,1446038277659564971,robocape_mag,8.85,16.05,26.1,10.0,0.0,0.0,0.0,10.0,0.0,0.0,0.0,10.0
1446038277698016558,97,1446038277693214893,robocape_mag,8.85,16.05,26.1,10.0,0.0,0.0,0.0,10.0,0.0,0.0,0.0,10.0
1446038277730955183,98,1446038277726183891,robocape_mag,8.85,16.05,26.1,10.0,0.0,0.0,0.0,10.0,0.0,0.0,0.0,10.0
1446038277769723975,99,1446038277759510040,robocape_mag,10.65,14.25,24.3,10.0,0.0,0.0,0.0,10.0,0.0,0.0,0.0,10.0
1446038277797911725,100,1446038277793128967,robocape_mag,10.65,14.25,24.3,10.0,0.0,0.0,0.0,10.0,0.0,0.0,0.0,10.0
1446038277831057142,101,1446038277826258897,robocape_mag,10.65,14.25,24.3,10.0,0.0,0.0,0.0,10.0,0.0,0.0,0.0,10.0
1446038277869765350,102,1446038277861488103,robocape_mag,10.65,14.25,24.3,10.0,0.0,0.0,0.0,10.0,0.0,0.0,0.0,10.0
1446038277899447309,103,1446038277894668102,robocape_mag,10.65,14.25,24.3,10.0,0.0,0.0,0.0,10.0,0.0,0.0,0.0,10.0
1446038277932829809,104,1446038277928045034,robocape_mag,7.35,21.15,22.2,10.0,0.0,0.0,0.0,10.0,0.0,0.0,0.0,10.0
1446038277964792434,105,1446038277959471940,robocape_mag,7.35,21.15,22.2,10.0,0.0,0.0,0.0,10.0,0.0,0.0,0.0,10.0
1446038277999454225,106,1446038277994471073,robocape_mag,7.35,21.15,22.2,10.0,0.0,0.0,0.0,10.0,0.0,0.0,0.0,10.0
1446038278030860392,107,1446038278026045083,robocape_mag,7.35,21.15,22.2,10.0,0.0,0.0,0.0,10.0,0.0,0.0,0.0,10.0
1446038278066894184,108,1446038278061131954,robocape_mag,9.45,16.65,24.9,10.0,0.0,0.0,0.0,10.0,0.0,0.0,0.0,10.0
1446038278099129892,109,1446038278092648029,robocape_mag,9.45,16.65,24.9,10.0,0.0,0.0,0.0,10.0,0.0,0.0,0.0,10.0
1446038278130978475,110,1446038278126045942,robocape_mag,9.45,16.65,24.9,10.0,0.0,0.0,0.0,10.0,0.0,0.0,0.0,10.0
1446038278165625350,111,1446038278159427881,robocape_mag,9.45,16.65,24.9,10.0,0.0,0.0,0.0,10.0,0.0,0.0,0.0,10.0
1446038278199526767,112,1446038278192778110,robocape_mag,9.45,16.65,24.9,10.0,0.0,0.0,0.0,10.0,0.0,0.0,0.0,10.0
1446038278232780225,113,1446038278226139068,robocape_mag,8.85,16.65,20.1,10.0,0.0,0.0,0.0,10.0,0.0,0.0,0.0,10.0
1446038278265241309,114,1446038278259896993,robocape_mag,8.85,16.65,20.1,10.0,0.0,0.0,0.0,10.0,0.0,0.0,0.0,10.0
1446038278297896809,115,1446038278292834997,robocape_mag,8.85,16.65,20.1,10.0,0.0,0.0,0.0,10.0,0.0,0.0,0.0,10.0
1446038278331058725,116,1446038278326020956,robocape_mag,8.85,16.65,20.1,10.0,0.0,0.0,0.0,10.0,0.0,0.0,0.0,10.0
1446038278366362475,117,1446038278359509944,robocape_mag,8.85,16.65,20.1,10.0,0.0,0.0,0.0,10.0,0.0,0.0,0.0,10.0
1446038278398373184,118,1446038278393146991,robocape_mag,37.35,-21.45,-21.0,10.0,0.0,0.0,0.0,10.0,0.0,0.0,0.0,10.0
1446038278431122434,119,1446038278426125049,robocape_mag,37.35,-21.45,-21.0,10.0,0.0,0.0,0.0,10.0,0.0,0.0,0.0,10.0
1446038278464524684,120,1446038278459340095,robocape_mag,37.35,-21.45,-21.0,10.0,0.0,0.0,0.0,10.0,0.0,0.0,0.0,10.0
1446038278497891475,121,1446038278492834091,robocape_mag,37.35,-21.45,-21.0,10.0,0.0,0.0,0.0,10.0,0.0,0.0,0.0,10.0
1446038278531161059,122,1446038278526272058,robocape_mag,37.35,-21.45,-21.0,10.0,0.0,0.0,0.0,10.0,0.0,0.0,0.0,10.0
1446038278564554100,123,1446038278559561967,robocape_mag,14.55,6.75,12.0,10.0,0.0,0.0,0.0,10.0,0.0,0.0,0.0,10.0
1446038278597933934,124,1446038278592910051,robocape_mag,14.55,6.75,12.0,10.0,0.0,0.0,0.0,10.0,0.0,0.0,0.0,10.0
1446038278631166934,125,1446038278626355886,robocape_mag,14.55,6.75,12.0,10.0,0.0,0.0,0.0,10.0,0.0,0.0,0.0,10.0
1446038278667757017,126,1446038278660780906,robocape_mag,14.55,6.75,12.0,10.0,0.0,0.0,0.0,10.0,0.0,0.0,0.0,10.0
1446038278699031892,127,1446038278694093942,robocape_mag,14.55,6.75,12.0,10.0,0.0,0.0,0.0,10.0,0.0,0.0,0.0,10.0
1446038278731018351,128,1446038278726243019,robocape_mag,20.25,-7.35,4.5,10.0,0.0,0.0,0.0,10.0,0.0,0.0,0.0,10.0
1446038278764908226,129,1446038278759859085,robocape_mag,20.25,-7.35,4.5,10.0,0.0,0.0,0.0,10.0,0.0,0.0,0.0,10.0
1446038278801732392,130,1446038278796793937,robocape_mag,20.25,-7.35,4.5,10.0,0.0,0.0,0.0,10.0,0.0,0.0,0.0,10.0
1446038278831701934,131,1446038278826867103,robocape_mag,20.25,-7.35,4.5,10.0,0.0,0.0,0.0,10.0,0.0,0.0,0.0,10.0
1446038278871962017,132,1446038278859694004,robocape_mag,20.85,2.25,-0.9,10.0,0.0,0.0,0.0,10.0,0.0,0.0,0.0,10.0
1446038278899572559,133,1446038278894634008,robocape_mag,20.85,2.25,-0.9,10.0,0.0,0.0,0.0,10.0,0.0,0.0,0.0,10.0
1446038278931099934,134,1446038278926243066,robocape_mag,20.85,2.25,-0.9,10.0,0.0,0.0,0.0,10.0,0.0,0.0,0.0,10.0
1446038278964512184,135,1446038278959409952,robocape_mag,20.85,2.25,-0.9,10.0,0.0,0.0,0.0,10.0,0.0,0.0,0.0,10.0
1446038278997666726,136,1446038278992813110,robocape_mag,20.85,2.25,-0.9,10.0,0.0,0.0,0.0,10.0,0.0,0.0,0.0,10.0
1446038279031181226,137,1446038279026345014,robocape_mag,39.45,-2.55,-1.5,10.0,0.0,0.0,0.0,10.0,0.0,0.0,0.0,10.0
1446038279064613809,138,1446038279059643983,robocape_mag,39.45,-2.55,-1.5,10.0,0.0,0.0,0.0,10.0,0.0,0.0,0.0,10.0
1446038279097833017,139,1446038279092905998,robocape_mag,39.45,-2.55,-1.5,10.0,0.0,0.0,0.0,10.0,0.0,0.0,0.0,10.0
1446038279131250101,140,1446038279126470088,robocape_mag,39.45,-2.55,-1.5,10.0,0.0,0.0,0.0,10.0,0.0,0.0,0.0,10.0
1446038279167250976,141,1446038279159691095,robocape_mag,39.45,-2.55,-1.5,10.0,0.0,0.0,0.0,10.0,0.0,0.0,0.0,10.0
1446038279197673392,142,1446038279192903995,robocape_mag,49.95,6.75,3.6,10.0,0.0,0.0,0.0,10.0,0.0,0.0,0.0,10.0
1446038279231332726,143,1446038279226300001,robocape_mag,49.95,6.75,3.6,10.0,0.0,0.0,0.0,10.0,0.0,0.0,0.0,10.0
1446038279267106017,144,1446038279259423017,robocape_mag,49.95,6.75,3.6,10.0,0.0,0.0,0.0,10.0,0.0,0.0,0.0,10.0
1446038279297652768,145,1446038279292752027,robocape_mag,49.95,6.75,3.6,10.0,0.0,0.0,0.0,10.0,0.0,0.0,0.0,10.0
1446038279331813726,146,1446038279325970888,robocape_mag,49.95,6.75,3.6,10.0,0.0,0.0,0.0,10.0,0.0,0.0,0.0,10.0
1446038279366648643,147,1446038279359287977,robocape_mag,43.05,18.45,1.5,10.0,0.0,0.0,0.0,10.0,0.0,0.0,0.0,10.0
1446038279397865518,148,1446038279392693996,robocape_mag,43.05,18.45,1.5,10.0,0.0,0.0,0.0,10.0,0.0,0.0,0.0,10.0
1446038279434379768,149,1446038279428570985,robocape_mag,43.05,18.45,1.5,10.0,0.0,0.0,0.0,10.0,0.0,0.0,0.0,10.0
1446038279467412393,150,1446038279462421894,robocape_mag,43.05,18.45,1.5,10.0,0.0,0.0,0.0,10.0,0.0,0.0,0.0,10.0
1446038279501050434,151,1446038279495858907,robocape_mag,43.05,18.45,1.5,10.0,0.0,0.0,0.0,10.0,0.0,0.0,0.0,10.0
1446038279533100059,152,1446038279527749061,robocape_mag,15.45,17.25,1.5,10.0,0.0,0.0,0.0,10.0,0.0,0.0,0.0,10.0
1446038279567164643,153,1446038279562037944,robocape_mag,15.45,17.25,1.5,10.0,0.0,0.0,0.0,10.0,0.0,0.0,0.0,10.0
1446038279600449601,154,1446038279595482110,robocape_mag,15.45,17.25,1.5,10.0,0.0,0.0,0.0,10.0,0.0,0.0,0.0,10.0
1446038279633359434,155,1446038279628057956,robocape_mag,15.45,17.25,1.5,10.0,0.0,0.0,0.0,10.0,0.0,0.0,0.0,10.0
1446038279666618684,156,1446038279661513090,robocape_mag,-3.45,27.15,18.6,10.0,0.0,0.0,0.0,10.0,0.0,0.0,0.0,10.0
1446038279698974809,157,1446038279693734884,robocape_mag,-3.45,27.15,18.6,10.0,0.0,0.0,0.0,10.0,0.0,0.0,0.0,10.0
1446038279732194934,158,1446038279727376937,robocape_mag,-3.45,27.15,18.6,10.0,0.0,0.0,0.0,10.0,0.0,0.0,0.0,10.0
1446038279766041643,159,1446038279760855913,robocape_mag,-3.45,27.15,18.6,10.0,0.0,0.0,0.0,10.0,0.0,0.0,0.0,10.0
1446038279798988684,160,1446038279793889045,robocape_mag,-3.45,27.15,18.6,10.0,0.0,0.0,0.0,10.0,0.0,0.0,0.0,10.0
1446038279831297059,161,1446038279826528072,robocape_mag,-3.75,0.45,17.1,10.0,0.0,0.0,0.0,10.0,0.0,0.0,0.0,10.0
1446038279872097934,162,1446038279861371040,robocape_mag,-3.75,0.45,17.1,10.0,0.0,0.0,0.0,10.0,0.0,0.0,0.0,10.0
1446038279899158934,163,1446038279894373893,robocape_mag,-3.75,0.45,17.1,10.0,0.0,0.0,0.0,10.0,0.0,0.0,0.0,10.0
1446038279931270851,164,1446038279926351070,robocape_mag,-3.75,0.45,17.1,10.0,0.0,0.0,0.0,10.0,0.0,0.0,0.0,10.0
1446038279964518726,165,1446038279959575891,robocape_mag,-3.75,0.45,17.1,10.0,0.0,0.0,0.0,10.0,0.0,0.0,0.0,10.0
1446038279997810226,166,1446038279992780923,robocape_mag,-1.65,-0.45,13.2,10.0,0.0,0.0,0.0,10.0,0.0,0.0,0.0,10.0
1446038280032938560,167,1446038280028088092,robocape_mag,-1.65,-0.45,13.2,10.0,0.0,0.0,0.0,10.0,0.0,0.0,0.0,10.0
1446038280064466101,168,1446038280059401035,robocape_mag,-1.65,-0.45,13.2,10.0,0.0,0.0,0.0,10.0,0.0,0.0,0.0,10.0
1446038280097725476,169,1446038280092660903,robocape_mag,-1.65,-0.45,13.2,10.0,0.0,0.0,0.0,10.0,0.0,0.0,0.0,10.0
1446038280131130935,170,1446038280126384973,robocape_mag,-1.65,-0.45,13.2,10.0,0.0,0.0,0.0,10.0,0.0,0.0,0.0,10.0
1446038280164364810,171,1446038280159569978,robocape_mag,26.25,19.05,6.3,10.0,0.0,0.0,0.0,10.0,0.0,0.0,0.0,10.0
1446038280201240976,172,1446038280196177005,robocape_mag,26.25,19.05,6.3,10.0,0.0,0.0,0.0,10.0,0.0,0.0,0.0,10.0
1446038280240587643,173,1446038280234381914,robocape_mag,26.25,19.05,6.3,10.0,0.0,0.0,0.0,10.0,0.0,0.0,0.0,10.0
1446038280269255685,174,1446038280262356996,robocape_mag,26.25,19.05,6.3,10.0,0.0,0.0,0.0,10.0,0.0,0.0,0.0,10.0
1446038280304067768,175,1446038280296276092,robocape_mag,26.25,19.05,6.3,10.0,0.0,0.0,0.0,10.0,0.0,0.0,0.0,10.0
1446038280336077310,176,1446038280330835103,robocape_mag,20.25,5.25,0.9,10.0,0.0,0.0,0.0,10.0,0.0,0.0,0.0,10.0
1446038280368529560,177,1446038280362799882,robocape_mag,20.25,5.25,0.9,10.0,0.0,0.0,0.0,10.0,0.0,0.0,0.0,10.0
1446038280401878685,178,1446038280396641969,robocape_mag,20.25,5.25,0.9,10.0,0.0,0.0,0.0,10.0,0.0,0.0,0.0,10.0
1446038280435233018,179,1446038280430394887,robocape_mag,20.25,5.25,0.9,10.0,0.0,0.0,0.0,10.0,0.0,0.0,0.0,10.0
1446038280464222768,180,1446038280459315061,robocape_mag,13.05,1.65,9.3,10.0,0.0,0.0,0.0,10.0,0.0,0.0,0.0,10.0
1446038280498378560,181,1446038280492650032,robocape_mag,13.05,1.65,9.3,10.0,0.0,0.0,0.0,10.0,0.0,0.0,0.0,10.0
1446038280535478560,182,1446038280526171922,robocape_mag,13.05,1.65,9.3,10.0,0.0,0.0,0.0,10.0,0.0,0.0,0.0,10.0
1446038280566850185,183,1446038280561758995,robocape_mag,13.05,1.65,9.3,10.0,0.0,0.0,0.0,10.0,0.0,0.0,0.0,10.0
1446038280597817643,184,1446038280592601060,robocape_mag,13.05,1.65,9.3,10.0,0.0,0.0,0.0,10.0,0.0,0.0,0.0,10.0
1446038280631115810,185,1446038280625957965,robocape_mag,43.95,18.15,5.4,10.0,0.0,0.0,0.0,10.0,0.0,0.0,0.0,10.0
1446038280667150643,186,1446038280662295103,robocape_mag,43.95,18.15,5.4,10.0,0.0,0.0,0.0,10.0,0.0,0.0,0.0,10.0
1446038280699616477,187,1446038280692691087,robocape_mag,43.95,18.15,5.4,10.0,0.0,0.0,0.0,10.0,0.0,0.0,0.0,10.0
1446038280731799727,188,1446038280726516962,robocape_mag,43.95,18.15,5.4,10.0,0.0,0.0,0.0,10.0,0.0,0.0,0.0,10.0
1446038280764713102,189,1446038280759609937,robocape_mag,43.95,18.15,5.4,10.0,0.0,0.0,0.0,10.0,0.0,0.0,0.0,10.0
1446038280797669185,190,1446038280792644977,robocape_mag,41.25,8.25,-0.3,10.0,0.0,0.0,0.0,10.0,0.0,0.0,0.0,10.0
1446038280830738560,191,1446038280825947046,robocape_mag,41.25,8.25,-0.3,10.0,0.0,0.0,0.0,10.0,0.0,0.0,0.0,10.0
1446038280873855227,192,1446038280860749959,robocape_mag,41.25,8.25,-0.3,10.0,0.0,0.0,0.0,10.0,0.0,0.0,0.0,10.0
1446038280897845768,193,1446038280892695903,robocape_mag,41.25,8.25,-0.3,10.0,0.0,0.0,0.0,10.0,0.0,0.0,0.0,10.0
1446038280931969518,194,1446038280927196979,robocape_mag,41.25,8.25,-0.3,10.0,0.0,0.0,0.0,10.0,0.0,0.0,0.0,10.0
1446038280964974143,195,1446038280959956884,robocape_mag,22.35,16.35,-10.2,10.0,0.0,0.0,0.0,10.0,0.0,0.0,0.0,10.0
1446038281002198268,196,1446038280993290901,robocape_mag,22.35,16.35,-10.2,10.0,0.0,0.0,0.0,10.0,0.0,0.0,0.0,10.0
1446038281031062477,197,1446038281026267051,robocape_mag,22.35,16.35,-10.2,10.0,0.0,0.0,0.0,10.0,0.0,0.0,0.0,10.0
1446038281064703352,198,1446038281059706926,robocape_mag,22.35,16.35,-10.2,10.0,0.0,0.0,0.0,10.0,0.0,0.0,0.0,10.0
1446038281097671768,199,1446038281092849969,robocape_mag,22.35,16.35,-10.2,10.0,0.0,0.0,0.0,10.0,0.0,0.0,0.0,10.0
1446038281131447935,200,1446038281126364946,robocape_mag,10.65,16.05,5.7,10.0,0.0,0.0,0.0,10.0,0.0,0.0,0.0,10.0
1446038281164463393,201,1446038281159588098,robocape_mag,10.65,16.05,5.7,10.0,0.0,0.0,0.0,10.0,0.0,0.0,0.0,10.0
1446038281197543768,202,1446038281192753076,robocape_mag,10.65,16.05,5.7,10.0,0.0,0.0,0.0,10.0,0.0,0.0,0.0,10.0
1446038281231253518,203,1446038281226224899,robocape_mag,10.65,16.05,5.7,10.0,0.0,0.0,0.0,10.0,0.0,0.0,0.0,10.0
1446038281264445227,204,1446038281259562969,robocape_mag,-32.55,28.05,3.9,10.0,0.0,0.0,0.0,10.0,0.0,0.0,0.0,10.0
1446038281298070560,205,1446038281293097972,robocape_mag,-32.55,28.05,3.9,10.0,0.0,0.0,0.0,10.0,0.0,0.0,0.0,10.0
1446038281331401018,206,1446038281326548099,robocape_mag,-32.55,28.05,3.9,10.0,0.0,0.0,0.0,10.0,0.0,0.0,0.0,10.0
1446038281364763893,207,1446038281359585046,robocape_mag,-32.55,28.05,3.9,10.0,0.0,0.0,0.0,10.0,0.0,0.0,0.0,10.0
1446038281397943060,208,1446038281393054008,robocape_mag,-32.55,28.05,3.9,10.0,0.0,0.0,0.0,10.0,0.0,0.0,0.0,10.0
1446038281431131769,209,1446038281426212072,robocape_mag,1.65,19.65,17.1,10.0,0.0,0.0,0.0,10.0,0.0,0.0,0.0,10.0
1446038281464398227,210,1446038281459469079,robocape_mag,1.65,19.65,17.1,10.0,0.0,0.0,0.0,10.0,0.0,0.0,0.0,10.0
1446038281497676477,211,1446038281492820024,robocape_mag,1.65,19.65,17.1,10.0,0.0,0.0,0.0,10.0,0.0,0.0,0.0,10.0
1446038281533367352,212,1446038281527677059,robocape_mag,1.65,19.65,17.1,10.0,0.0,0.0,0.0,10.0,0.0,0.0,0.0,10.0
1446038281564270560,213,1446038281559350967,robocape_mag,1.65,19.65,17.1,10.0,0.0,0.0,0.0,10.0,0.0,0.0,0.0,10.0
1446038281597416894,214,1446038281592605113,robocape_mag,-23.25,31.95,9.6,10.0,0.0,0.0,0.0,10.0,0.0,0.0,0.0,10.0
1446038281633628852,215,1446038281626055955,robocape_mag,-23.25,31.95,9.6,10.0,0.0,0.0,0.0,10.0,0.0,0.0,0.0,10.0
1446038281666086102,216,1446038281659275054,robocape_mag,-23.25,31.95,9.6,10.0,0.0,0.0,0.0,10.0,0.0,0.0,0.0,10.0
1446038281699538019,217,1446038281692722082,robocape_mag,-23.25,31.95,9.6,10.0,0.0,0.0,0.0,10.0,0.0,0.0,0.0,10.0
1446038281731335935,218,1446038281726077079,robocape_mag,-23.25,31.95,9.6,10.0,0.0,0.0,0.0,10.0,0.0,0.0,0.0,10.0
1446038281764303810,219,1446038281759411096,robocape_mag,-28.05,18.75,7.2,10.0,0.0,0.0,0.0,10.0,0.0,0.0,0.0,10.0
1446038281798208810,220,1446038281792829036,robocape_mag,-28.05,18.75,7.2,10.0,0.0,0.0,0.0,10.0,0.0,0.0,0.0,10.0
1446038281831438894,221,1446038281826003074,robocape_mag,-28.05,18.75,7.2,10.0,0.0,0.0,0.0,10.0,0.0,0.0,0.0,10.0
1446038281874888852,222,1446038281863430023,robocape_mag,-28.05,18.75,7.2,10.0,0.0,0.0,0.0,10.0,0.0,0.0,0.0,10.0
1446038281900809102,223,1446038281895716905,robocape_mag,-28.05,18.75,7.2,10.0,0.0,0.0,0.0,10.0,0.0,0.0,0.0,10.0
1446038281937488435,224,1446038281928545951,robocape_mag,-23.25,27.15,9.6,10.0,0.0,0.0,0.0,10.0,0.0,0.0,0.0,10.0
1446038281966692977,225,1446038281961611032,robocape_mag,-23.25,27.15,9.6,10.0,0.0,0.0,0.0,10.0,0.0,0.0,0.0,10.0
1446038281999621269,226,1446038281994801998,robocape_mag,-23.25,27.15,9.6,10.0,0.0,0.0,0.0,10.0,0.0,0.0,0.0,10.0
1446038282032090894,227,1446038282027019023,robocape_mag,-23.25,27.15,9.6,10.0,0.0,0.0,0.0,10.0,0.0,0.0,0.0,10.0
1446038282065160144,228,1446038282060293912,robocape_mag,-12.75,28.65,15.3,10.0,0.0,0.0,0.0,10.0,0.0,0.0,0.0,10.0
1446038282098271894,229,1446038282093472003,robocape_mag,-12.75,28.65,15.3,10.0,0.0,0.0,0.0,10.0,0.0,0.0,0.0,10.0
1446038282131713602,230,1446038282126946926,robocape_mag,-12.75,28.65,15.3,10.0,0.0,0.0,0.0,10.0,0.0,0.0,0.0,10.0
1446038282165394144,231,1446038282160499095,robocape_mag,-12.75,28.65,15.3,10.0,0.0,0.0,0.0,10.0,0.0,0.0,0.0,10.0
1446038282198993519,232,1446038282194160938,robocape_mag,-12.75,28.65,15.3,10.0,0.0,0.0,0.0,10.0,0.0,0.0,0.0,10.0
1446038282233336144,233,1446038282227499008,robocape_mag,-19.05,23.55,12.0,10.0,0.0,0.0,0.0,10.0,0.0,0.0,0.0,10.0
1446038282265023936,234,1446038282259879112,robocape_mag,-19.05,23.55,12.0,10.0,0.0,0.0,0.0,10.0,0.0,0.0,0.0,10.0
1446038282299547227,235,1446038282294322967,robocape_mag,-19.05,23.55,12.0,10.0,0.0,0.0,0.0,10.0,0.0,0.0,0.0,10.0
1446038282330950102,236,1446038282326096057,robocape_mag,-19.05,23.55,12.0,10.0,0.0,0.0,0.0,10.0,0.0,0.0,0.0,10.0
1446038282369745977,237,1446038282359220981,robocape_mag,-19.05,23.55,12.0,10.0,0.0,0.0,0.0,10.0,0.0,0.0,0.0,10.0
1446038282397407519,238,1446038282392620086,robocape_mag,-9.75,24.45,20.7,10.0,0.0,0.0,0.0,10.0,0.0,0.0,0.0,10.0
1446038282431150394,239,1446038282426248073,robocape_mag,-9.75,24.45,20.7,10.0,0.0,0.0,0.0,10.0,0.0,0.0,0.0,10.0
1446038282468971727,240,1446038282459328889,robocape_mag,-9.75,24.45,20.7,10.0,0.0,0.0,0.0,10.0,0.0,0.0,0.0,10.0
1446038282497663602,241,1446038282492791891,robocape_mag,-9.75,24.45,20.7,10.0,0.0,0.0,0.0,10.0,0.0,0.0,0.0,10.0
1446038282530970394,242,1446038282525965929,robocape_mag,-9.75,24.45,20.7,10.0,0.0,0.0,0.0,10.0,0.0,0.0,0.0,10.0
1446038282564139269,243,1446038282559179067,robocape_mag,-10.35,20.85,20.7,10.0,0.0,0.0,0.0,10.0,0.0,0.0,0.0,10.0
1446038282597452186,244,1446038282592601060,robocape_mag,-10.35,20.85,20.7,10.0,0.0,0.0,0.0,10.0,0.0,0.0,0.0,10.0
1446038282635277852,245,1446038282630072116,robocape_mag,-10.35,20.85,20.7,10.0,0.0,0.0,0.0,10.0,0.0,0.0,0.0,10.0
1446038282668423727,246,1446038282663539886,robocape_mag,-10.35,20.85,20.7,10.0,0.0,0.0,0.0,10.0,0.0,0.0,0.0,10.0
1446038282697338644,247,1446038282692470073,robocape_mag,-10.35,20.85,20.7,10.0,0.0,0.0,0.0,10.0,0.0,0.0,0.0,10.0
1446038282731060477,248,1446038282725913047,robocape_mag,-6.15,19.05,22.5,10.0,0.0,0.0,0.0,10.0,0.0,0.0,0.0,10.0
1446038282764725644,249,1446038282759547948,robocape_mag,-6.15,19.05,22.5,10.0,0.0,0.0,0.0,10.0,0.0,0.0,0.0,10.0
1446038282797340394,250,1446038282792573928,robocape_mag,-6.15,19.05,22.5,10.0,0.0,0.0,0.0,10.0,0.0,0.0,0.0,10.0
1446038282830674936,251,1446038282825886011,robocape_mag,-6.15,19.05,22.5,10.0,0.0,0.0,0.0,10.0,0.0,0.0,0.0,10.0
1446038282876511269,252,1446038282865567922,robocape_mag,-21.75,15.45,9.9,10.0,0.0,0.0,0.0,10.0,0.0,0.0,0.0,10.0
1446038282901355436,253,1446038282896233081,robocape_mag,-21.75,15.45,9.9,10.0,0.0,0.0,0.0,10.0,0.0,0.0,0.0,10.0
1446038282930729353,254,1446038282925892114,robocape_mag,-21.75,15.45,9.9,10.0,0.0,0.0,0.0,10.0,0.0,0.0,0.0,10.0
1446038282966393686,255,1446038282959553956,robocape_mag,-21.75,15.45,9.9,10.0,0.0,0.0,0.0,10.0,0.0,0.0,0.0,10.0
1446038282997575811,256,1446038282992645978,robocape_mag,-21.75,15.45,9.9,10.0,0.0,0.0,0.0,10.0,0.0,0.0,0.0,10.0
1446038283031014478,257,1446038283026031970,robocape_mag,-22.35,10.65,9.9,10.0,0.0,0.0,0.0,10.0,0.0,0.0,0.0,10.0
1446038283063979394,258,1446038283059184074,robocape_mag,-22.35,10.65,9.9,10.0,0.0,0.0,0.0,10.0,0.0,0.0,0.0,10.0
1446038283097682936,259,1446038283092850923,robocape_mag,-22.35,10.65,9.9,10.0,0.0,0.0,0.0,10.0,0.0,0.0,0.0,10.0
1446038283130827686,260,1446038283125942945,robocape_mag,-22.35,10.65,9.9,10.0,0.0,0.0,0.0,10.0,0.0,0.0,0.0,10.0
1446038283167585478,261,1446038283162502050,robocape_mag,-22.35,10.65,9.9,10.0,0.0,0.0,0.0,10.0,0.0,0.0,0.0,10.0
1446038283197748936,262,1446038283192708015,robocape_mag,-21.75,5.85,9.9,10.0,0.0,0.0,0.0,10.0,0.0,0.0,0.0,10.0
1446038283231081353,263,1446038283225930929,robocape_mag,-21.75,5.85,9.9,10.0,0.0,0.0,0.0,10.0,0.0,0.0,0.0,10.0
1446038283266175269,264,1446038283261163949,robocape_mag,-21.75,5.85,9.9,10.0,0.0,0.0,0.0,10.0,0.0,0.0,0.0,10.0
1446038283298885811,265,1446038283293862104,robocape_mag,-21.75,5.85,9.9,10.0,0.0,0.0,0.0,10.0,0.0,0.0,0.0,10.0
1446038283330720644,266,1446038283325886964,robocape_mag,-21.75,5.85,9.9,10.0,0.0,0.0,0.0,10.0,0.0,0.0,0.0,10.0
1446038283364375853,267,1446038283359262943,robocape_mag,-22.05,6.75,8.4,10.0,0.0,0.0,0.0,10.0,0.0,0.0,0.0,10.0
1446038283397614436,268,1446038283392898082,robocape_mag,-22.05,6.75,8.4,10.0,0.0,0.0,0.0,10.0,0.0,0.0,0.0,10.0
1446038283431541603,269,1446038283425964117,robocape_mag,-22.05,6.75,8.4,10.0,0.0,0.0,0.0,10.0,0.0,0.0,0.0,10.0
1446038283464852894,270,1446038283459814071,robocape_mag,-22.05,6.75,8.4,10.0,0.0,0.0,0.0,10.0,0.0,0.0,0.0,10.0
1446038283497594520,271,1446038283492753982,robocape_mag,-22.05,6.75,8.4,10.0,0.0,0.0,0.0,10.0,0.0,0.0,0.0,10.0
1446038283530719936,272,1446038283525857925,robocape_mag,-18.15,8.85,10.5,10.0,0.0,0.0,0.0,10.0,0.0,0.0,0.0,10.0
1446038283565834603,273,1446038283559395074,robocape_mag,-18.15,8.85,10.5,10.0,0.0,0.0,0.0,10.0,0.0,0.0,0.0,10.0
1446038283597602936,274,1446038283592798948,robocape_mag,-18.15,8.85,10.5,10.0,0.0,0.0,0.0,10.0,0.0,0.0,0.0,10.0
1446038283630737811,275,1446038283625930070,robocape_mag,-18.15,8.85,10.5,10.0,0.0,0.0,0.0,10.0,0.0,0.0,0.0,10.0
1446038283664516561,276,1446038283659548044,robocape_mag,-13.35,1.65,12.9,10.0,0.0,0.0,0.0,10.0,0.0,0.0,0.0,10.0
1446038283697772853,277,1446038283692992925,robocape_mag,-13.35,1.65,12.9,10.0,0.0,0.0,0.0,10.0,0.0,0.0,0.0,10.0
1446038283730608645,278,1446038283725899934,robocape_mag,-13.35,1.65,12.9,10.0,0.0,0.0,0.0,10.0,0.0,0.0,0.0,10.0
1446038283764215103,279,1446038283759402990,robocape_mag,-13.35,1.65,12.9,10.0,0.0,0.0,0.0,10.0,0.0,0.0,0.0,10.0
1446038283797486103,280,1446038283792763948,robocape_mag,-13.35,1.65,12.9,10.0,0.0,0.0,0.0,10.0,0.0,0.0,0.0,10.0
1446038283830743561,281,1446038283826023101,robocape_mag,-6.45,4.35,9.6,10.0,0.0,0.0,0.0,10.0,0.0,0.0,0.0,10.0
1446038283870103895,282,1446038283861376047,robocape_mag,-6.45,4.35,9.6,10.0,0.0,0.0,0.0,10.0,0.0,0.0,0.0,10.0
1446038283898106478,283,1446038283893280982,robocape_mag,-6.45,4.35,9.6,10.0,0.0,0.0,0.0,10.0,0.0,0.0,0.0,10.0
1446038283930848936,284,1446038283926100969,robocape_mag,-6.45,4.35,9.6,10.0,0.0,0.0,0.0,10.0,0.0,0.0,0.0,10.0
1446038283964093436,285,1446038283959328889,robocape_mag,-6.45,4.35,9.6,10.0,0.0,0.0,0.0,10.0,0.0,0.0,0.0,10.0
1446038283997798561,286,1446038283992763042,robocape_mag,2.25,0.45,8.1,10.0,0.0,0.0,0.0,10.0,0.0,0.0,0.0,10.0
1446038284032092311,287,1446038284026037931,robocape_mag,2.25,0.45,8.1,10.0,0.0,0.0,0.0,10.0,0.0,0.0,0.0,10.0
1446038284064667895,288,1446038284059428930,robocape_mag,2.25,0.45,8.1,10.0,0.0,0.0,0.0,10.0,0.0,0.0,0.0,10.0
1446038284097771561,289,1446038284092745065,robocape_mag,2.25,0.45,8.1,10.0,0.0,0.0,0.0,10.0,0.0,0.0,0.0,10.0
1446038284131144686,290,1446038284126048088,robocape_mag,2.25,0.45,8.1,10.0,0.0,0.0,0.0,10.0,0.0,0.0,0.0,10.0
1446038284164477978,291,1446038284159322977,robocape_mag,43.95,-0.45,5.4,10.0,0.0,0.0,0.0,10.0,0.0,0.0,0.0,10.0
1446038284197869687,292,1446038284192751884,robocape_mag,43.95,-0.45,5.4,10.0,0.0,0.0,0.0,10.0,0.0,0.0,0.0,10.0
1446038284232897270,293,1446038284226017951,robocape_mag,43.95,-0.45,5.4,10.0,0.0,0.0,0.0,10.0,0.0,0.0,0.0,10.0
1446038284296610187,294,1446038284262157917,robocape_mag,43.95,-0.45,5.4,10.0,0.0,0.0,0.0,10.0,0.0,0.0,0.0,10.0
1446038284315594937,295,1446038284310720920,robocape_mag,32.55,7.35,-6.0,10.0,0.0,0.0,0.0,10.0,0.0,0.0,0.0,10.0
1446038284337467937,296,1446038284332577943,robocape_mag,32.55,7.35,-6.0,10.0,0.0,0.0,0.0,10.0,0.0,0.0,0.0,10.0
1446038284365156562,297,1446038284360053062,robocape_mag,32.55,7.35,-6.0,10.0,0.0,0.0,0.0,10.0,0.0,0.0,0.0,10.0
1446038284399370270,298,1446038284394473075,robocape_mag,32.55,7.35,-6.0,10.0,0.0,0.0,0.0,10.0,0.0,0.0,0.0,10.0
1446038284432272145,299,1446038284427361965,robocape_mag,32.55,7.35,-6.0,10.0,0.0,0.0,0.0,10.0,0.0,0.0,0.0,10.0
1446038284465211812,300,1446038284460412025,robocape_mag,28.95,3.75,-4.8,10.0,0.0,0.0,0.0,10.0,0.0,0.0,0.0,10.0
1446038284498182812,301,1446038284493172883,robocape_mag,28.95,3.75,-4.8,10.0,0.0,0.0,0.0,10.0,0.0,0.0,0.0,10.0
1446038284531778853,302,1446038284526911020,robocape_mag,28.95,3.75,-4.8,10.0,0.0,0.0,0.0,10.0,0.0,0.0,0.0,10.0
1446038284564297270,303,1446038284559446096,robocape_mag,28.95,3.75,-4.8,10.0,0.0,0.0,0.0,10.0,0.0,0.0,0.0,10.0
1446038284598233228,304,1446038284593226909,robocape_mag,28.95,3.75,-4.8,10.0,0.0,0.0,0.0,10.0,0.0,0.0,0.0,10.0
1446038284630869270,305,1446038284626032114,robocape_mag,41.25,5.25,0.9,10.0,0.0,0.0,0.0,10.0,0.0,0.0,0.0,10.0
1446038284664505520,306,1446038284659336090,robocape_mag,41.25,5.25,0.9,10.0,0.0,0.0,0.0,10.0,0.0,0.0,0.0,10.0
1446038284697937020,307,1446038284692991018,robocape_mag,41.25,5.25,0.9,10.0,0.0,0.0,0.0,10.0,0.0,0.0,0.0,10.0
1446038284730867978,308,1446038284726074934,robocape_mag,41.25,5.25,0.9,10.0,0.0,0.0,0.0,10.0,0.0,0.0,0.0,10.0
1446038284764722395,309,1446038284759469032,robocape_mag,41.25,5.25,0.9,10.0,0.0,0.0,0.0,10.0,0.0,0.0,0.0,10.0
1446038284797711895,310,1446038284792905092,robocape_mag,30.45,16.65,-2.1,10.0,0.0,0.0,0.0,10.0,0.0,0.0,0.0,10.0
1446038284830857478,311,1446038284826107025,robocape_mag,30.45,16.65,-2.1,10.0,0.0,0.0,0.0,10.0,0.0,0.0,0.0,10.0
1446038284871900937,312,1446038284860858917,robocape_mag,30.45,16.65,-2.1,10.0,0.0,0.0,0.0,10.0,0.0,0.0,0.0,10.0
1446038284898703687,313,1446038284893904924,robocape_mag,30.45,16.65,-2.1,10.0,0.0,0.0,0.0,10.0,0.0,0.0,0.0,10.0
1446038284930840062,314,1446038284926150083,robocape_mag,30.45,16.65,-2.1,10.0,0.0,0.0,0.0,10.0,0.0,0.0,0.0,10.0
1446038284964425312,315,1446038284959275960,robocape_mag,26.25,11.85,-7.5,10.0,0.0,0.0,0.0,10.0,0.0,0.0,0.0,10.0
1446038284997845312,316,1446038284992943048,robocape_mag,26.25,11.85,-7.5,10.0,0.0,0.0,0.0,10.0,0.0,0.0,0.0,10.0
1446038285030822395,317,1446038285025953054,robocape_mag,26.25,11.85,-7.5,10.0,0.0,0.0,0.0,10.0,0.0,0.0,0.0,10.0
1446038285068478979,318,1446038285063128948,robocape_mag,26.25,11.85,-7.5,10.0,0.0,0.0,0.0,10.0,0.0,0.0,0.0,10.0
1446038285097784729,319,1446038285092955112,robocape_mag,26.25,11.85,-7.5,10.0,0.0,0.0,0.0,10.0,0.0,0.0,0.0,10.0
1446038285130773479,320,1446038285125871896,robocape_mag,32.85,26.85,5.1,10.0,0.0,0.0,0.0,10.0,0.0,0.0,0.0,10.0
1446038285164327145,321,1446038285159435033,robocape_mag,32.85,26.85,5.1,10.0,0.0,0.0,0.0,10.0,0.0,0.0,0.0,10.0
1446038285197831229,322,1446038285192974090,robocape_mag,32.85,26.85,5.1,10.0,0.0,0.0,0.0,10.0,0.0,0.0,0.0,10.0
1446038285231048937,323,1446038285226052045,robocape_mag,32.85,26.85,5.1,10.0,0.0,0.0,0.0,10.0,0.0,0.0,0.0,10.0
1446038285264410229,324,1446038285259442090,robocape_mag,25.35,6.75,-4.8,10.0,0.0,0.0,0.0,10.0,0.0,0.0,0.0,10.0
1446038285297626395,325,1446038285292865991,robocape_mag,25.35,6.75,-4.8,10.0,0.0,0.0,0.0,10.0,0.0,0.0,0.0,10.0
1446038285330799979,326,1446038285326071023,robocape_mag,25.35,6.75,-4.8,10.0,0.0,0.0,0.0,10.0,0.0,0.0,0.0,10.0
1446038285367792645,327,1446038285359253883,robocape_mag,25.35,6.75,-4.8,10.0,0.0,0.0,0.0,10.0,0.0,0.0,0.0,10.0
1446038285397508812,328,1446038285392776966,robocape_mag,25.35,6.75,-4.8,10.0,0.0,0.0,0.0,10.0,0.0,0.0,0.0,10.0
1446038285430655354,329,1446038285425869941,robocape_mag,7.05,29.25,3.9,10.0,0.0,0.0,0.0,10.0,0.0,0.0,0.0,10.0
1446038285464309937,330,1446038285459453105,robocape_mag,7.05,29.25,3.9,10.0,0.0,0.0,0.0,10.0,0.0,0.0,0.0,10.0
1446038285497746479,331,1446038285492909908,robocape_mag,7.05,29.25,3.9,10.0,0.0,0.0,0.0,10.0,0.0,0.0,0.0,10.0
1446038285532040395,332,1446038285527188062,robocape_mag,7.05,29.25,3.9,10.0,0.0,0.0,0.0,10.0,0.0,0.0,0.0,10.0
1446038285563865229,333,1446038285559149026,robocape_mag,7.05,29.25,3.9,10.0,0.0,0.0,0.0,10.0,0.0,0.0,0.0,10.0
1446038285598340646,334,1446038285593442916,robocape_mag,20.25,29.85,1.5,10.0,0.0,0.0,0.0,10.0,0.0,0.0,0.0,10.0
1446038285630966562,335,1446038285626029014,robocape_mag,20.25,29.85,1.5,10.0,0.0,0.0,0.0,10.0,0.0,0.0,0.0,10.0
1446038285664330229,336,1446038285659444093,robocape_mag,20.25,29.85,1.5,10.0,0.0,0.0,0.0,10.0,0.0,0.0,0.0,10.0
1446038285697781521,337,1446038285692997932,robocape_mag,20.25,29.85,1.5,10.0,0.0,0.0,0.0,10.0,0.0,0.0,0.0,10.0
1446038285730881896,338,1446038285726032018,robocape_mag,20.25,29.85,1.5,10.0,0.0,0.0,0.0,10.0,0.0,0.0,0.0,10.0
1446038285764186312,339,1446038285759382009,robocape_mag,19.05,14.85,5.7,10.0,0.0,0.0,0.0,10.0,0.0,0.0,0.0,10.0
1446038285797908312,340,1446038285793085098,robocape_mag,19.05,14.85,5.7,10.0,0.0,0.0,0.0,10.0,0.0,0.0,0.0,10.0
1446038285830824062,341,1446038285826023101,robocape_mag,19.05,14.85,5.7,10.0,0.0,0.0,0.0,10.0,0.0,0.0,0.0,10.0
1446038285869907479,342,1446038285859716892,robocape_mag,19.05,14.85,5.7,10.0,0.0,0.0,0.0,10.0,0.0,0.0,0.0,10.0
1446038285898447312,343,1446038285893587112,robocape_mag,19.05,14.85,5.7,10.0,0.0,0.0,0.0,10.0,0.0,0.0,0.0,10.0
1446038285931067521,344,1446038285926211118,robocape_mag,-4.05,21.75,9.0,10.0,0.0,0.0,0.0,10.0,0.0,0.0,0.0,10.0
1446038285964096604,345,1446038285959326028,robocape_mag,-4.05,21.75,9.0,10.0,0.0,0.0,0.0,10.0,0.0,0.0,0.0,10.0
1446038285998058687,346,1446038285993118047,robocape_mag,-4.05,21.75,9.0,10.0,0.0,0.0,0.0,10.0,0.0,0.0,0.0,10.0
1446038286031116854,347,1446038286026227951,robocape_mag,-4.05,21.75,9.0,10.0,0.0,0.0,0.0,10.0,0.0,0.0,0.0,10.0
1446038286064397562,348,1446038286059629917,robocape_mag,-7.95,28.05,16.5,10.0,0.0,0.0,0.0,10.0,0.0,0.0,0.0,10.0
1446038286097843687,349,1446038286093004941,robocape_mag,-7.95,28.05,16.5,10.0,0.0,0.0,0.0,10.0,0.0,0.0,0.0,10.0
1446038286131327646,350,1446038286126305103,robocape_mag,-7.95,28.05,16.5,10.0,0.0,0.0,0.0,10.0,0.0,0.0,0.0,10.0
1446038286164307229,351,1446038286159512042,robocape_mag,-7.95,28.05,16.5,10.0,0.0,0.0,0.0,10.0,0.0,0.0,0.0,10.0
1446038286197865187,352,1446038286192995071,robocape_mag,-7.95,28.05,16.5,10.0,0.0,0.0,0.0,10.0,0.0,0.0,0.0,10.0
1446038286230945396,353,1446038286225967884,robocape_mag,26.55,3.75,3.6,10.0,0.0,0.0,0.0,10.0,0.0,0.0,0.0,10.0
1446038286264496021,354,1446038286259417057,robocape_mag,26.55,3.75,3.6,10.0,0.0,0.0,0.0,10.0,0.0,0.0,0.0,10.0
1446038286299708979,355,1446038286292737007,robocape_mag,26.55,3.75,3.6,10.0,0.0,0.0,0.0,10.0,0.0,0.0,0.0,10.0
1446038286331500938,356,1446038286326073884,robocape_mag,26.55,3.75,3.6,10.0,0.0,0.0,0.0,10.0,0.0,0.0,0.0,10.0
1446038286365832021,357,1446038286359244108,robocape_mag,26.55,3.75,3.6,10.0,0.0,0.0,0.0,10.0,0.0,0.0,0.0,10.0
1446038286398156521,358,1446038286392791032,robocape_mag,27.75,5.55,3.6,10.0,0.0,0.0,0.0,10.0,0.0,0.0,0.0,10.0
1446038286435553563,359,1446038286426127910,robocape_mag,27.75,5.55,3.6,10.0,0.0,0.0,0.0,10.0,0.0,0.0,0.0,10.0
1446038286466494563,360,1446038286461328029,robocape_mag,27.75,5.55,3.6,10.0,0.0,0.0,0.0,10.0,0.0,0.0,0.0,10.0
1446038286500299229,361,1446038286495331048,robocape_mag,27.75,5.55,3.6,10.0,0.0,0.0,0.0,10.0,0.0,0.0,0.0,10.0
1446038286530865771,362,1446038286525952100,robocape_mag,27.75,5.55,3.6,10.0,0.0,0.0,0.0,10.0,0.0,0.0,0.0,10.0
1446038286564077771,363,1446038286559178113,robocape_mag,14.55,22.35,15.0,10.0,0.0,0.0,0.0,10.0,0.0,0.0,0.0,10.0
1446038286599611354,364,1446038286594477891,robocape_mag,14.55,22.35,15.0,10.0,0.0,0.0,0.0,10.0,0.0,0.0,0.0,10.0
1446038286632480813,365,1446038286627542972,robocape_mag,14.55,22.35,15.0,10.0,0.0,0.0,0.0,10.0,0.0,0.0,0.0,10.0
1446038286665896396,366,1446038286661025047,robocape_mag,14.55,22.35,15.0,10.0,0.0,0.0,0.0,10.0,0.0,0.0,0.0,10.0
1446038286699116521,367,1446038286694025039,robocape_mag,14.55,22.35,15.0,10.0,0.0,0.0,0.0,10.0,0.0,0.0,0.0,10.0
1446038286732649146,368,1446038286727663040,robocape_mag,19.05,40.65,0.9,10.0,0.0,0.0,0.0,10.0,0.0,0.0,0.0,10.0
1446038286765107563,369,1446038286760220050,robocape_mag,19.05,40.65,0.9,10.0,0.0,0.0,0.0,10.0,0.0,0.0,0.0,10.0
1446038286798309313,370,1446038286793344974,robocape_mag,19.05,40.65,0.9,10.0,0.0,0.0,0.0,10.0,0.0,0.0,0.0,10.0
1446038286831304354,371,1446038286826522111,robocape_mag,19.05,40.65,0.9,10.0,0.0,0.0,0.0,10.0,0.0,0.0,0.0,10.0
1446038286873136021,372,1446038286862195014,robocape_mag,23.85,19.05,7.5,10.0,0.0,0.0,0.0,10.0,0.0,0.0,0.0,10.0
1446038286910088521,373,1446038286899199008,robocape_mag,23.85,19.05,7.5,10.0,0.0,0.0,0.0,10.0,0.0,0.0,0.0,10.0
1446038286931662146,374,1446038286926817893,robocape_mag,23.85,19.05,7.5,10.0,0.0,0.0,0.0,10.0,0.0,0.0,0.0,10.0
1446038286965829729,375,1446038286961029052,robocape_mag,23.85,19.05,7.5,10.0,0.0,0.0,0.0,10.0,0.0,0.0,0.0,10.0
1446038286999376521,376,1446038286994468927,robocape_mag,23.85,19.05,7.5,10.0,0.0,0.0,0.0,10.0,0.0,0.0,0.0,10.0
1446038287032007730,377,1446038287027060985,robocape_mag,26.55,18.15,-7.2,10.0,0.0,0.0,0.0,10.0,0.0,0.0,0.0,10.0
1446038287067387938,378,1446038287061074972,robocape_mag,26.55,18.15,-7.2,10.0,0.0,0.0,0.0,10.0,0.0,0.0,0.0,10.0
1446038287101086980,379,1446038287095427036,robocape_mag,26.55,18.15,-7.2,10.0,0.0,0.0,0.0,10.0,0.0,0.0,0.0,10.0
1446038287140546396,380,1446038287129606008,robocape_mag,26.55,18.15,-7.2,10.0,0.0,0.0,0.0,10.0,0.0,0.0,0.0,10.0
1446038287169037980,381,1446038287162128925,robocape_mag,26.55,18.15,-7.2,10.0,0.0,0.0,0.0,10.0,0.0,0.0,0.0,10.0
1446038287202479646,382,1446038287196758985,robocape_mag,27.45,16.05,-7.5,10.0,0.0,0.0,0.0,10.0,0.0,0.0,0.0,10.0
1446038287235317563,383,1446038287229120969,robocape_mag,27.45,16.05,-7.5,10.0,0.0,0.0,0.0,10.0,0.0,0.0,0.0,10.0
1446038287268363771,384,1446038287262371063,robocape_mag,27.45,16.05,-7.5,10.0,0.0,0.0,0.0,10.0,0.0,0.0,0.0,10.0
1446038287301581188,385,1446038287296607017,robocape_mag,27.45,16.05,-7.5,10.0,0.0,0.0,0.0,10.0,0.0,0.0,0.0,10.0
1446038287334557730,386,1446038287329272985,robocape_mag,27.45,16.05,-7.5,10.0,0.0,0.0,0.0,10.0,0.0,0.0,0.0,10.0
1446038287368928230,387,1446038287361320972,robocape_mag,22.35,16.95,13.8,10.0,0.0,0.0,0.0,10.0,0.0,0.0,0.0,10.0
1446038287401366105,388,1446038287396233081,robocape_mag,22.35,16.95,13.8,10.0,0.0,0.0,0.0,10.0,0.0,0.0,0.0,10.0
1446038287435065688,389,1446038287429965019,robocape_mag,22.35,16.95,13.8,10.0,0.0,0.0,0.0,10.0,0.0,0.0,0.0,10.0
1446038287467782688,390,1446038287462831974,robocape_mag,22.35,16.95,13.8,10.0,0.0,0.0,0.0,10.0,0.0,0.0,0.0,10.0
1446038287500460188,391,1446038287495265007,robocape_mag,22.35,16.95,13.8,10.0,0.0,0.0,0.0,10.0,0.0,0.0,0.0,10.0
1446038287534239563,392,1446038287529192924,robocape_mag,18.15,38.55,-7.2,10.0,0.0,0.0,0.0,10.0,0.0,0.0,0.0,10.0
1446038287566603021,393,1446038287561608076,robocape_mag,18.15,38.55,-7.2,10.0,0.0,0.0,0.0,10.0,0.0,0.0,0.0,10.0
1446038287600687271,394,1446038287595880031,robocape_mag,18.15,38.55,-7.2,10.0,0.0,0.0,0.0,10.0,0.0,0.0,0.0,10.0
1446038287633453271,395,1446038287628401994,robocape_mag,18.15,38.55,-7.2,10.0,0.0,0.0,0.0,10.0,0.0,0.0,0.0,10.0
1446038287666885896,396,1446038287661992073,robocape_mag,16.95,23.55,20.4,10.0,0.0,0.0,0.0,10.0,0.0,0.0,0.0,10.0
1446038287698131355,397,1446038287692579030,robocape_mag,16.95,23.55,20.4,10.0,0.0,0.0,0.0,10.0,0.0,0.0,0.0,10.0
1446038287732163813,398,1446038287726232051,robocape_mag,16.95,23.55,20.4,10.0,0.0,0.0,0.0,10.0,0.0,0.0,0.0,10.0
1446038287764527063,399,1446038287759444952,robocape_mag,16.95,23.55,20.4,10.0,0.0,0.0,0.0,10.0,0.0,0.0,0.0,10.0
1446038287798354355,400,1446038287792783021,robocape_mag,16.95,23.55,20.4,10.0,0.0,0.0,0.0,10.0,0.0,0.0,0.0,10.0
1446038287830960855,401,1446038287826116085,robocape_mag,21.75,27.75,-15.6,10.0,0.0,0.0,0.0,10.0,0.0,0.0,0.0,10.0
1446038287869532022,402,1446038287860403060,robocape_mag,21.75,27.75,-15.6,10.0,0.0,0.0,0.0,10.0,0.0,0.0,0.0,10.0
1446038287898386272,403,1446038287893135070,robocape_mag,21.75,27.75,-15.6,10.0,0.0,0.0,0.0,10.0,0.0,0.0,0.0,10.0
1446038287931273563,404,1446038287926222085,robocape_mag,21.75,27.75,-15.6,10.0,0.0,0.0,0.0,10.0,0.0,0.0,0.0,10.0
1446038287964382438,405,1446038287959491968,robocape_mag,21.75,27.75,-15.6,10.0,0.0,0.0,0.0,10.0,0.0,0.0,0.0,10.0
1446038287999063980,406,1446038287992955923,robocape_mag,23.25,20.25,-9.3,10.0,0.0,0.0,0.0,10.0,0.0,0.0,0.0,10.0
1446038288032785355,407,1446038288027851104,robocape_mag,23.25,20.25,-9.3,10.0,0.0,0.0,0.0,10.0,0.0,0.0,0.0,10.0
1446038288064585188,408,1446038288059781074,robocape_mag,23.25,20.25,-9.3,10.0,0.0,0.0,0.0,10.0,0.0,0.0,0.0,10.0
1446038288101115230,409,1446038288094053983,robocape_mag,23.25,20.25,-9.3,10.0,0.0,0.0,0.0,10.0,0.0,0.0,0.0,10.0
1446038288131150397,410,1446038288126041889,robocape_mag,23.25,20.25,-9.3,10.0,0.0,0.0,0.0,10.0,0.0,0.0,0.0,10.0
1446038288163973772,411,1446038288159239053,robocape_mag,24.15,19.95,-8.4,10.0,0.0,0.0,0.0,10.0,0.0,0.0,0.0,10.0
1446038288201480480,412,1446038288192626953,robocape_mag,24.15,19.95,-8.4,10.0,0.0,0.0,0.0,10.0,0.0,0.0,0.0,10.0
1446038288231126563,413,1446038288226126909,robocape_mag,24.15,19.95,-8.4,10.0,0.0,0.0,0.0,10.0,0.0,0.0,0.0,10.0
1446038288264801730,414,1446038288259865999,robocape_mag,24.15,19.95,-8.4,10.0,0.0,0.0,0.0,10.0,0.0,0.0,0.0,10.0
1446038288302685980,415,1446038288292612075,robocape_mag,24.15,19.95,-8.4,10.0,0.0,0.0,0.0,10.0,0.0,0.0,0.0,10.0
1446038288331067522,416,1446038288326067924,robocape_mag,20.55,24.75,-10.8,10.0,0.0,0.0,0.0,10.0,0.0,0.0,0.0,10.0
1446038288364106063,417,1446038288359350919,robocape_mag,20.55,24.75,-10.8,10.0,0.0,0.0,0.0,10.0,0.0,0.0,0.0,10.0
1446038288400419355,418,1446038288392731904,robocape_mag,20.55,24.75,-10.8,10.0,0.0,0.0,0.0,10.0,0.0,0.0,0.0,10.0
1446038288431573189,419,1446038288426201105,robocape_mag,20.55,24.75,-10.8,10.0,0.0,0.0,0.0,10.0,0.0,0.0,0.0,10.0
1446038288467065855,420,1446038288459284067,robocape_mag,20.55,27.15,-13.8,10.0,0.0,0.0,0.0,10.0,0.0,0.0,0.0,10.0
1446038288498097897,421,1446038288492760896,robocape_mag,20.55,27.15,-13.8,10.0,0.0,0.0,0.0,10.0,0.0,0.0,0.0,10.0
1446038288532705397,422,1446038288526031970,robocape_mag,20.55,27.15,-13.8,10.0,0.0,0.0,0.0,10.0,0.0,0.0,0.0,10.0
1446038288563893439,423,1446038288559159994,robocape_mag,20.55,27.15,-13.8,10.0,0.0,0.0,0.0,10.0,0.0,0.0,0.0,10.0
1446038288597385772,424,1446038288592598915,robocape_mag,20.55,27.15,-13.8,10.0,0.0,0.0,0.0,10.0,0.0,0.0,0.0,10.0
1446038288631011522,425,1446038288625900030,robocape_mag,20.25,28.05,-14.1,10.0,0.0,0.0,0.0,10.0,0.0,0.0,0.0,10.0
1446038288663977814,426,1446038288659240007,robocape_mag,20.25,28.05,-14.1,10.0,0.0,0.0,0.0,10.0,0.0,0.0,0.0,10.0
1446038288698827480,427,1446038288692637920,robocape_mag,20.25,28.05,-14.1,10.0,0.0,0.0,0.0,10.0,0.0,0.0,0.0,10.0
1446038288730983647,428,1446038288725954055,robocape_mag,20.25,28.05,-14.1,10.0,0.0,0.0,0.0,10.0,0.0,0.0,0.0,10.0
1446038288764631397,429,1446038288759673118,robocape_mag,20.25,28.05,-14.1,10.0,0.0,0.0,0.0,10.0,0.0,0.0,0.0,10.0
1446038288797626397,430,1446038288792830944,robocape_mag,20.25,21.45,-9.3,10.0,0.0,0.0,0.0,10.0,0.0,0.0,0.0,10.0
1446038288833770564,431,1446038288828763961,robocape_mag,20.25,21.45,-9.3,10.0,0.0,0.0,0.0,10.0,0.0,0.0,0.0,10.0
1446038288869380355,432,1446038288860863924,robocape_mag,20.25,21.45,-9.3,10.0,0.0,0.0,0.0,10.0,0.0,0.0,0.0,10.0
1446038288897664980,433,1446038288892906904,robocape_mag,20.25,21.45,-9.3,10.0,0.0,0.0,0.0,10.0,0.0,0.0,0.0,10.0
1446038288931122189,434,1446038288926279067,robocape_mag,20.25,21.45,-9.3,10.0,0.0,0.0,0.0,10.0,0.0,0.0,0.0,10.0
1446038288963881772,435,1446038288959223985,robocape_mag,21.15,19.95,-6.6,10.0,0.0,0.0,0.0,10.0,0.0,0.0,0.0,10.0
1446038288997794314,436,1446038288992922067,robocape_mag,21.15,19.95,-6.6,10.0,0.0,0.0,0.0,10.0,0.0,0.0,0.0,10.0
1446038289031168355,437,1446038289026235103,robocape_mag,21.15,19.95,-6.6,10.0,0.0,0.0,0.0,10.0,0.0,0.0,0.0,10.0
1446038289064085147,438,1446038289059294939,robocape_mag,21.15,19.95,-6.6,10.0,0.0,0.0,0.0,10.0,0.0,0.0,0.0,10.0
1446038289097457689,439,1446038289092616081,robocape_mag,21.15,19.95,-6.6,10.0,0.0,0.0,0.0,10.0,0.0,0.0,0.0,10.0
1446038289133903772,440,1446038289127548933,robocape_mag,16.65,26.85,-13.5,10.0,0.0,0.0,0.0,10.0,0.0,0.0,0.0,10.0
1446038289165173397,441,1446038289159594058,robocape_mag,16.65,26.85,-13.5,10.0,0.0,0.0,0.0,10.0,0.0,0.0,0.0,10.0
1446038289203380564,442,1446038289194228887,robocape_mag,16.65,26.85,-13.5,10.0,0.0,0.0,0.0,10.0,0.0,0.0,0.0,10.0
1446038289232439689,443,1446038289227282047,robocape_mag,16.65,26.85,-13.5,10.0,0.0,0.0,0.0,10.0,0.0,0.0,0.0,10.0
1446038289265785231,444,1446038289260798931,robocape_mag,16.35,26.55,-12.0,10.0,0.0,0.0,0.0,10.0,0.0,0.0,0.0,10.0
1446038289299421939,445,1446038289294400930,robocape_mag,16.35,26.55,-12.0,10.0,0.0,0.0,0.0,10.0,0.0,0.0,0.0,10.0
1446038289332685606,446,1446038289327589988,robocape_mag,16.35,26.55,-12.0,10.0,0.0,0.0,0.0,10.0,0.0,0.0,0.0,10.0
1446038289366141939,447,1446038289361123085,robocape_mag,16.35,26.55,-12.0,10.0,0.0,0.0,0.0,10.0,0.0,0.0,0.0,10.0
1446038289402204064,448,1446038289396971940,robocape_mag,16.35,26.55,-12.0,10.0,0.0,0.0,0.0,10.0,0.0,0.0,0.0,10.0
1446038289436151272,449,1446038289429060935,robocape_mag,17.25,25.65,18.3,10.0,0.0,0.0,0.0,10.0,0.0,0.0,0.0,10.0
1446038289467213689,450,1446038289462416887,robocape_mag,17.25,25.65,18.3,10.0,0.0,0.0,0.0,10.0,0.0,0.0,0.0,10.0
1446038289501039106,451,1446038289495881080,robocape_mag,17.25,25.65,18.3,10.0,0.0,0.0,0.0,10.0,0.0,0.0,0.0,10.0
1446038289539440856,452,1446038289529614925,robocape_mag,17.25,25.65,18.3,10.0,0.0,0.0,0.0,10.0,0.0,0.0,0.0,10.0
1446038289567759856,453,1446038289562314987,robocape_mag,17.25,25.65,18.3,10.0,0.0,0.0,0.0,10.0,0.0,0.0,0.0,10.0
1446038289606009606,454,1446038289595959901,robocape_mag,17.85,27.45,-8.1,10.0,0.0,0.0,0.0,10.0,0.0,0.0,0.0,10.0
1446038289635320397,455,1446038289629967927,robocape_mag,17.85,27.45,-8.1,10.0,0.0,0.0,0.0,10.0,0.0,0.0,0.0,10.0
1446038289667951314,456,1446038289662332057,robocape_mag,17.85,27.45,-8.1,10.0,0.0,0.0,0.0,10.0,0.0,0.0,0.0,10.0
1446038289705347481,457,1446038289696204900,robocape_mag,17.85,27.45,-8.1,10.0,0.0,0.0,0.0,10.0,0.0,0.0,0.0,10.0
1446038289738925564,458,1446038289729541063,robocape_mag,17.85,27.45,-8.1,10.0,0.0,0.0,0.0,10.0,0.0,0.0,0.0,10.0
1446038289770679023,459,1446038289762907981,robocape_mag,10.95,30.15,-7.2,10.0,0.0,0.0,0.0,10.0,0.0,0.0,0.0,10.0
1446038289801897689,460,1446038289796567916,robocape_mag,10.95,30.15,-7.2,10.0,0.0,0.0,0.0,10.0,0.0,0.0,0.0,10.0
1446038289838180773,461,1446038289829747915,robocape_mag,10.95,30.15,-7.2,10.0,0.0,0.0,0.0,10.0,0.0,0.0,0.0,10.0
1446038289874211398,462,1446038289864984035,robocape_mag,10.95,30.15,-7.2,10.0,0.0,0.0,0.0,10.0,0.0,0.0,0.0,10.0
1446038289902328273,463,1446038289897099018,robocape_mag,10.95,30.15,-4.2,10.0,0.0,0.0,0.0,10.0,0.0,0.0,0.0,10.0
1446038289934362564,464,1446038289929157018,robocape_mag,14.55,22.35,-4.2,10.0,0.0,0.0,0.0,10.0,0.0,0.0,0.0,10.0
1446038289966998981,465,1446038289962104082,robocape_mag,14.55,22.35,-4.2,10.0,0.0,0.0,0.0,10.0,0.0,0.0,0.0,10.0
1446038289999866606,466,1446038289994903087,robocape_mag,14.55,22.35,-4.2,10.0,0.0,0.0,0.0,10.0,0.0,0.0,0.0,10.0
1446038290032754939,467,1446038290027659893,robocape_mag,14.55,22.35,-4.2,10.0,0.0,0.0,0.0,10.0,0.0,0.0,0.0,10.0
1446038290066504523,468,1446038290061636924,robocape_mag,7.65,27.45,-2.1,10.0,0.0,0.0,0.0,10.0,0.0,0.0,0.0,10.0
1446038290099841523,469,1446038290094969034,robocape_mag,7.65,27.45,-2.1,10.0,0.0,0.0,0.0,10.0,0.0,0.0,0.0,10.0
1446038290133083689,470,1446038290128093957,robocape_mag,7.65,27.45,-2.1,10.0,0.0,0.0,0.0,10.0,0.0,0.0,0.0,10.0
1446038290166002606,471,1446038290161212921,robocape_mag,7.65,27.45,-2.1,10.0,0.0,0.0,0.0,10.0,0.0,0.0,0.0,10.0
1446038290198390731,472,1446038290193593025,robocape_mag,7.65,27.45,-2.1,10.0,0.0,0.0,0.0,10.0,0.0,0.0,0.0,10.0
1446038290232526564,473,1446038290227390050,robocape_mag,9.15,4.95,7.2,10.0,0.0,0.0,0.0,10.0,0.0,0.0,0.0,10.0
1446038290265750189,474,1446038290260729074,robocape_mag,9.15,4.95,7.2,10.0,0.0,0.0,0.0,10.0,0.0,0.0,0.0,10.0
1446038290298766523,475,1446038290293739080,robocape_mag,9.15,4.95,7.2,10.0,0.0,0.0,0.0,10.0,0.0,0.0,0.0,10.0
1446038290331811731,476,1446038290326529979,robocape_mag,9.15,4.95,7.2,10.0,0.0,0.0,0.0,10.0,0.0,0.0,0.0,10.0
1446038290364449606,477,1446038290359460115,robocape_mag,9.15,4.95,7.2,10.0,0.0,0.0,0.0,10.0,0.0,0.0,0.0,10.0
1446038290398531023,478,1446038290392937898,robocape_mag,-3.15,17.85,28.5,10.0,0.0,0.0,0.0,10.0,0.0,0.0,0.0,10.0
1446038290435532564,479,1446038290426130056,robocape_mag,-3.15,17.85,28.5,10.0,0.0,0.0,0.0,10.0,0.0,0.0,0.0,10.0
1446038290465745356,480,1446038290460915088,robocape_mag,-3.15,17.85,28.5,10.0,0.0,0.0,0.0,10.0,0.0,0.0,0.0,10.0
1446038290500145773,481,1446038290494426965,robocape_mag,-3.15,17.85,28.5,10.0,0.0,0.0,0.0,10.0,0.0,0.0,0.0,10.0
1446038290532771440,482,1446038290527496099,robocape_mag,-3.15,17.85,28.5,10.0,0.0,0.0,0.0,10.0,0.0,0.0,0.0,10.0
1446038290563902315,483,1446038290559149026,robocape_mag,7.05,8.85,3.3,10.0,0.0,0.0,0.0,10.0,0.0,0.0,0.0,10.0
1446038290598547481,484,1446038290593353033,robocape_mag,7.05,8.85,3.3,10.0,0.0,0.0,0.0,10.0,0.0,0.0,0.0,10.0
1446038290635916523,485,1446038290628895998,robocape_mag,7.05,8.85,3.3,10.0,0.0,0.0,0.0,10.0,0.0,0.0,0.0,10.0
1446038290668619606,486,1446038290662924051,robocape_mag,7.05,8.85,3.3,10.0,0.0,0.0,0.0,10.0,0.0,0.0,0.0,10.0
1446038290705550315,487,1446038290696266889,robocape_mag,7.05,8.85,3.3,10.0,0.0,0.0,0.0,10.0,0.0,0.0,0.0,10.0
1446038290738059148,488,1446038290729672908,robocape_mag,0.45,-4.35,19.5,10.0,0.0,0.0,0.0,10.0,0.0,0.0,0.0,10.0
1446038290770244565,489,1446038290762559890,robocape_mag,0.45,-4.35,19.5,10.0,0.0,0.0,0.0,10.0,0.0,0.0,0.0,10.0
1446038290801604190,490,1446038290795962095,robocape_mag,0.45,-4.35,19.5,10.0,0.0,0.0,0.0,10.0,0.0,0.0,0.0,10.0
1446038290834737731,491,1446038290829231023,robocape_mag,0.45,-4.35,19.5,10.0,0.0,0.0,0.0,10.0,0.0,0.0,0.0,10.0
1446038290875208148,492,1446038290862773895,robocape_mag,2.25,16.65,24.9,10.0,0.0,0.0,0.0,10.0,0.0,0.0,0.0,10.0
1446038290901470481,493,1446038290896063089,robocape_mag,2.25,16.65,24.9,10.0,0.0,0.0,0.0,10.0,0.0,0.0,0.0,10.0
1446038290938233690,494,1446038290928407907,robocape_mag,2.25,16.65,24.9,10.0,0.0,0.0,0.0,10.0,0.0,0.0,0.0,10.0
1446038290967771523,495,1446038290962596893,robocape_mag,2.25,16.65,24.9,10.0,0.0,0.0,0.0,10.0,0.0,0.0,0.0,10.0
1446038291001538898,496,1446038290995902061,robocape_mag,2.25,16.65,24.9,10.0,0.0,0.0,0.0,10.0,0.0,0.0,0.0,10.0
1446038291035074815,497,1446038291029510021,robocape_mag,4.65,-7.35,6.9,10.0,0.0,0.0,0.0,10.0,0.0,0.0,0.0,10.0
1446038291067327315,498,1446038291062386989,robocape_mag,4.65,-7.35,6.9,10.0,0.0,0.0,0.0,10.0,0.0,0.0,0.0,10.0
1446038291099745815,499,1446038291094703912,robocape_mag,4.65,-7.35,6.9,10.0,0.0,0.0,0.0,10.0,0.0,0.0,0.0,10.0
1446038291133232648,500,1446038291128067970,robocape_mag,4.65,-7.35,6.9,10.0,0.0,0.0,0.0,10.0,0.0,0.0,0.0,10.0
1446038291167777398,501,1446038291162852048,robocape_mag,4.65,-7.35,6.9,10.0,0.0,0.0,0.0,10.0,0.0,0.0,0.0,10.0
1446038291199560398,502,1446038291194755077,robocape_mag,2.85,-6.75,29.1,10.0,0.0,0.0,0.0,10.0,0.0,0.0,0.0,10.0
1446038291231160023,503,1446038291225958108,robocape_mag,2.85,-6.75,29.1,10.0,0.0,0.0,0.0,10.0,0.0,0.0,0.0,10.0
1446038291265539857,504,1446038291259213924,robocape_mag,2.85,-6.75,29.1,10.0,0.0,0.0,0.0,10.0,0.0,0.0,0.0,10.0
1446038291297542440,505,1446038291292589902,robocape_mag,2.85,-6.75,29.1,10.0,0.0,0.0,0.0,10.0,0.0,0.0,0.0,10.0
1446038291331474940,506,1446038291326539039,robocape_mag,2.85,-6.75,29.1,10.0,0.0,0.0,0.0,10.0,0.0,0.0,0.0,10.0
1446038291364044732,507,1446038291359272956,robocape_mag,7.65,-1.35,3.3,10.0,0.0,0.0,0.0,10.0,0.0,0.0,0.0,10.0
1446038291397718773,508,1446038291392945051,robocape_mag,7.65,-1.35,3.3,10.0,0.0,0.0,0.0,10.0,0.0,0.0,0.0,10.0
1446038291431175023,509,1446038291426229000,robocape_mag,7.65,-1.35,3.3,10.0,0.0,0.0,0.0,10.0,0.0,0.0,0.0,10.0
1446038291464302148,510,1446038291459424972,robocape_mag,7.65,-1.35,3.3,10.0,0.0,0.0,0.0,10.0,0.0,0.0,0.0,10.0
1446038291498578357,511,1446038291492994070,robocape_mag,7.65,-1.35,3.3,10.0,0.0,0.0,0.0,10.0,0.0,0.0,0.0,10.0
1446038291531976732,512,1446038291527149915,robocape_mag,11.25,-22.35,14.7,10.0,0.0,0.0,0.0,10.0,0.0,0.0,0.0,10.0
1446038291565430898,513,1446038291560641050,robocape_mag,11.25,-22.35,14.7,10.0,0.0,0.0,0.0,10.0,0.0,0.0,0.0,10.0
1446038291599290940,514,1446038291594249010,robocape_mag,11.25,-22.35,14.7,10.0,0.0,0.0,0.0,10.0,0.0,0.0,0.0,10.0
1446038291632461148,515,1446038291627509117,robocape_mag,11.25,-22.35,14.7,10.0,0.0,0.0,0.0,10.0,0.0,0.0,0.0,10.0
1446038291665895690,516,1446038291660979986,robocape_mag,11.55,-2.25,22.2,10.0,0.0,0.0,0.0,10.0,0.0,0.0,0.0,10.0
1446038291698445023,517,1446038291693403005,robocape_mag,11.55,-2.25,22.2,10.0,0.0,0.0,0.0,10.0,0.0,0.0,0.0,10.0
1446038291737314482,518,1446038291728969097,robocape_mag,11.55,-2.25,22.2,10.0,0.0,0.0,0.0,10.0,0.0,0.0,0.0,10.0
1446038291769657857,519,1446038291762684106,robocape_mag,11.55,-2.25,22.2,10.0,0.0,0.0,0.0,10.0,0.0,0.0,0.0,10.0
1446038291801218190,520,1446038291796279907,robocape_mag,11.55,-2.25,22.2,10.0,0.0,0.0,0.0,10.0,0.0,0.0,0.0,10.0
1446038291836265398,521,1446038291829159975,robocape_mag,24.15,-24.45,4.2,10.0,0.0,0.0,0.0,10.0,0.0,0.0,0.0,10.0
1446038291876480357,522,1446038291862688064,robocape_mag,24.15,-24.45,4.2,10.0,0.0,0.0,0.0,10.0,0.0,0.0,0.0,10.0
1446038291902139399,523,1446038291896470069,robocape_mag,24.15,-24.45,4.2,10.0,0.0,0.0,0.0,10.0,0.0,0.0,0.0,10.0
1446038291935407899,524,1446038291929063081,robocape_mag,24.15,-24.45,4.2,10.0,0.0,0.0,0.0,10.0,0.0,0.0,0.0,10.0
1446038291966058899,525,1446038291961266994,robocape_mag,24.15,-24.45,4.2,10.0,0.0,0.0,0.0,10.0,0.0,0.0,0.0,10.0
1446038292004417690,526,1446038291995809078,robocape_mag,19.05,-25.35,10.5,10.0,0.0,0.0,0.0,10.0,0.0,0.0,0.0,10.0
1446038292034870899,527,1446038292028317928,robocape_mag,19.05,-25.35,10.5,10.0,0.0,0.0,0.0,10.0,0.0,0.0,0.0,10.0
1446038292067184940,528,1446038292062223911,robocape_mag,19.05,-25.35,10.5,10.0,0.0,0.0,0.0,10.0,0.0,0.0,0.0,10.0
1446038292101959107,529,1446038292096728086,robocape_mag,19.05,-25.35,10.5,10.0,0.0,0.0,0.0,10.0,0.0,0.0,0.0,10.0
1446038292135100815,530,1446038292129143953,robocape_mag,19.05,-25.35,10.5,10.0,0.0,0.0,0.0,10.0,0.0,0.0,0.0,10.0
