%time,field.header.seq,field.header.stamp,field.header.frame_id,field.magnetic_field.x,field.magnetic_field.y,field.magnetic_field.z,field.magnetic_field_covariance0,field.magnetic_field_covariance1,field.magnetic_field_covariance2,field.magnetic_field_covariance3,field.magnetic_field_covariance4,field.magnetic_field_covariance5,field.magnetic_field_covariance6,field.magnetic_field_covariance7,field.magnetic_field_covariance8
1446035409664887686,3578,1446035409458790063,robocape_mag,10.0523810217,10.2478404009,-6.48698777806,10.0,0.0,0.0,0.0,10.0,0.0,0.0,0.0,10.0
1446035409683501853,3579,1446035409493607997,robocape_mag,10.0523810217,10.2478404009,-6.48698777806,10.0,0.0,0.0,0.0,10.0,0.0,0.0,0.0,10.0
1446035409683605311,3580,1446035409511851072,robocape_mag,10.0523810217,10.2478404009,-6.48698777806,10.0,0.0,0.0,0.0,10.0,0.0,0.0,0.0,10.0
1446035409712701020,3581,1446035409542021989,robocape_mag,10.0523810217,10.2478404009,-6.48698777806,10.0,0.0,0.0,0.0,10.0,0.0,0.0,0.0,10.0
1446035409716615811,3582,1446035409556185960,robocape_mag,10.0523810217,10.2478404009,-6.48698777806,10.0,0.0,0.0,0.0,10.0,0.0,0.0,0.0,10.0
1446035409717018020,3583,1446035409599945068,robocape_mag,10.0534163918,10.2544397017,-6.46814656724,10.0,0.0,0.0,0.0,10.0,0.0,0.0,0.0,10.0
1446035409717101520,3584,1446035409636143922,robocape_mag,10.0534163918,10.2544397017,-6.46814656724,10.0,0.0,0.0,0.0,10.0,0.0,0.0,0.0,10.0
1446035409717886395,3585,1446035409651849031,robocape_mag,10.0534163918,10.2544397017,-6.46814656724,10.0,0.0,0.0,0.0,10.0,0.0,0.0,0.0,10.0
1446035409719961561,3586,1446035409675971984,robocape_mag,10.0534163918,10.2544397017,-6.46814656724,10.0,0.0,0.0,0.0,10.0,0.0,0.0,0.0,10.0
1446035409728658478,3587,1446035409696259021,robocape_mag,10.0534163918,10.2544397017,-6.46814656724,10.0,0.0,0.0,0.0,10.0,0.0,0.0,0.0,10.0
1446035409737332561,3588,1446035409732186079,robocape_mag,10.0534163918,10.2544397017,-6.46814656724,10.0,0.0,0.0,0.0,10.0,0.0,0.0,0.0,10.0
1446035409754391853,3589,1446035409750747919,robocape_mag,10.0205903468,10.2247173864,-6.51128655992,10.0,0.0,0.0,0.0,10.0,0.0,0.0,0.0,10.0
1446035409775296936,3590,1446035409771886110,robocape_mag,10.0205903468,10.2247173864,-6.51128655992,10.0,0.0,0.0,0.0,10.0,0.0,0.0,0.0,10.0
1446035409794255478,3591,1446035409790745973,robocape_mag,10.0205903468,10.2247173864,-6.51128655992,10.0,0.0,0.0,0.0,10.0,0.0,0.0,0.0,10.0
1446035409812277603,3592,1446035409808760881,robocape_mag,10.0205903468,10.2247173864,-6.51128655992,10.0,0.0,0.0,0.0,10.0,0.0,0.0,0.0,10.0
1446035409828294520,3593,1446035409824850082,robocape_mag,10.0205903468,10.2247173864,-6.51128655992,10.0,0.0,0.0,0.0,10.0,0.0,0.0,0.0,10.0
1446035409847881520,3594,1446035409843832015,robocape_mag,10.0205903468,10.2247173864,-6.51128655992,10.0,0.0,0.0,0.0,10.0,0.0,0.0,0.0,10.0
1446035409871557103,3595,1446035409867609977,robocape_mag,10.0205903468,10.2247173864,-6.51128655992,10.0,0.0,0.0,0.0,10.0,0.0,0.0,0.0,10.0
1446035409892466978,3596,1446035409889065027,robocape_mag,9.98686352483,10.2124895607,-6.49967654276,10.0,0.0,0.0,0.0,10.0,0.0,0.0,0.0,10.0
1446035409917431395,3597,1446035409913908004,robocape_mag,9.98686352483,10.2124895607,-6.49967654276,10.0,0.0,0.0,0.0,10.0,0.0,0.0,0.0,10.0
1446035409946808645,3598,1446035409942729949,robocape_mag,9.98686352483,10.2124895607,-6.49967654276,10.0,0.0,0.0,0.0,10.0,0.0,0.0,0.0,10.0
1446035409969059270,3599,1446035409965135097,robocape_mag,9.98686352483,10.2124895607,-6.49967654276,10.0,0.0,0.0,0.0,10.0,0.0,0.0,0.0,10.0
1446035409992040853,3600,1446035409988418102,robocape_mag,9.98686352483,10.2124895607,-6.49967654276,10.0,0.0,0.0,0.0,10.0,0.0,0.0,0.0,10.0
1446035410017409353,3601,1446035410014014959,robocape_mag,9.98686352483,10.2124895607,-6.49967654276,10.0,0.0,0.0,0.0,10.0,0.0,0.0,0.0,10.0
1446035410046778436,3602,1446035410043088912,robocape_mag,9.98686352483,10.2124895607,-6.49967654276,10.0,0.0,0.0,0.0,10.0,0.0,0.0,0.0,10.0
1446035410068735353,3603,1446035410064745903,robocape_mag,10.0592687114,10.2403431812,-6.5262537047,10.0,0.0,0.0,0.0,10.0,0.0,0.0,0.0,10.0
1446035410092140853,3604,1446035410088466882,robocape_mag,10.0592687114,10.2403431812,-6.5262537047,10.0,0.0,0.0,0.0,10.0,0.0,0.0,0.0,10.0
1446035410117002353,3605,1446035410113627910,robocape_mag,10.0592687114,10.2403431812,-6.5262537047,10.0,0.0,0.0,0.0,10.0,0.0,0.0,0.0,10.0
1446035410146204270,3606,1446035410142441034,robocape_mag,10.0592687114,10.2403431812,-6.5262537047,10.0,0.0,0.0,0.0,10.0,0.0,0.0,0.0,10.0
1446035410169012020,3607,1446035410165173053,robocape_mag,10.0592687114,10.2403431812,-6.5262537047,10.0,0.0,0.0,0.0,10.0,0.0,0.0,0.0,10.0
1446035410193594728,3608,1446035410189616918,robocape_mag,10.0592687114,10.2403431812,-6.5262537047,10.0,0.0,0.0,0.0,10.0,0.0,0.0,0.0,10.0
1446035410217400687,3609,1446035410213951110,robocape_mag,10.0510856469,10.2556601993,-6.46084253402,10.0,0.0,0.0,0.0,10.0,0.0,0.0,0.0,10.0
1446035410245320603,3610,1446035410241596937,robocape_mag,10.0510856469,10.2556601993,-6.46084253402,10.0,0.0,0.0,0.0,10.0,0.0,0.0,0.0,10.0
1446035410269073728,3611,1446035410265244960,robocape_mag,10.0510856469,10.2556601993,-6.46084253402,10.0,0.0,0.0,0.0,10.0,0.0,0.0,0.0,10.0
1446035410292346228,3612,1446035410288408994,robocape_mag,10.0510856469,10.2556601993,-6.46084253402,10.0,0.0,0.0,0.0,10.0,0.0,0.0,0.0,10.0
1446035410317278062,3613,1446035410313770055,robocape_mag,10.0510856469,10.2556601993,-6.46084253402,10.0,0.0,0.0,0.0,10.0,0.0,0.0,0.0,10.0
1446035410344070562,3614,1446035410340538024,robocape_mag,10.0510856469,10.2556601993,-6.46084253402,10.0,0.0,0.0,0.0,10.0,0.0,0.0,0.0,10.0
1446035410371370478,3615,1446035410367369890,robocape_mag,10.0592687114,10.2403431812,-6.5262537047,10.0,0.0,0.0,0.0,10.0,0.0,0.0,0.0,10.0
1446035410392461853,3616,1446035410388593912,robocape_mag,10.0208932415,10.2221369534,-6.52151509746,10.0,0.0,0.0,0.0,10.0,0.0,0.0,0.0,10.0
1446035410417422187,3617,1446035410413902997,robocape_mag,10.0208932415,10.2221369534,-6.52151509746,10.0,0.0,0.0,0.0,10.0,0.0,0.0,0.0,10.0
1446035410442962520,3618,1446035410439352035,robocape_mag,10.0208932415,10.2221369534,-6.52151509746,10.0,0.0,0.0,0.0,10.0,0.0,0.0,0.0,10.0
1446035410472245603,3619,1446035410467922925,robocape_mag,10.0208932415,10.2221369534,-6.52151509746,10.0,0.0,0.0,0.0,10.0,0.0,0.0,0.0,10.0
1446035410492354603,3620,1446035410488535881,robocape_mag,10.0208932415,10.2221369534,-6.52151509746,10.0,0.0,0.0,0.0,10.0,0.0,0.0,0.0,10.0
1446035410516902478,3621,1446035410513426065,robocape_mag,10.0208932415,10.2221369534,-6.52151509746,10.0,0.0,0.0,0.0,10.0,0.0,0.0,0.0,10.0
1446035410542538812,3622,1446035410539011955,robocape_mag,9.99707056049,10.2124305119,-6.51642908207,10.0,0.0,0.0,0.0,10.0,0.0,0.0,0.0,10.0
1446035410572545895,3623,1446035410568942070,robocape_mag,9.99707056049,10.2124305119,-6.51642908207,10.0,0.0,0.0,0.0,10.0,0.0,0.0,0.0,10.0
1446035410593678145,3624,1446035410589607000,robocape_mag,9.99707056049,10.2124305119,-6.51642908207,10.0,0.0,0.0,0.0,10.0,0.0,0.0,0.0,10.0
1446035410617187395,3625,1446035410613790035,robocape_mag,9.99707056049,10.2124305119,-6.51642908207,10.0,0.0,0.0,0.0,10.0,0.0,0.0,0.0,10.0
1446035410642925853,3626,1446035410639008045,robocape_mag,9.99707056049,10.2124305119,-6.51642908207,10.0,0.0,0.0,0.0,10.0,0.0,0.0,0.0,10.0
1446035410672744937,3627,1446035410669687986,robocape_mag,9.99707056049,10.2124305119,-6.51642908207,10.0,0.0,0.0,0.0,10.0,0.0,0.0,0.0,10.0
1446035410696119187,3628,1446035410691909074,robocape_mag,9.97628987628,10.1991848416,-6.53334825305,10.0,0.0,0.0,0.0,10.0,0.0,0.0,0.0,10.0
1446035410717125145,3629,1446035410713442087,robocape_mag,9.97628987628,10.1991848416,-6.53334825305,10.0,0.0,0.0,0.0,10.0,0.0,0.0,0.0,10.0
1446035410742498853,3630,1446035410738945960,robocape_mag,9.97628987628,10.1991848416,-6.53334825305,10.0,0.0,0.0,0.0,10.0,0.0,0.0,0.0,10.0
1446035410771799312,3631,1446035410768173933,robocape_mag,9.97628987628,10.1991848416,-6.53334825305,10.0,0.0,0.0,0.0,10.0,0.0,0.0,0.0,10.0
1446035410794215603,3632,1446035410789994955,robocape_mag,9.97628987628,10.1991848416,-6.53334825305,10.0,0.0,0.0,0.0,10.0,0.0,0.0,0.0,10.0
1446035410817133603,3633,1446035410813463926,robocape_mag,9.97628987628,10.1991848416,-6.53334825305,10.0,0.0,0.0,0.0,10.0,0.0,0.0,0.0,10.0
1446035410842145062,3634,1446035410838644027,robocape_mag,9.97628987628,10.1991848416,-6.53334825305,10.0,0.0,0.0,0.0,10.0,0.0,0.0,0.0,10.0
1446035410869493770,3635,1446035410865649938,robocape_mag,10.0600349047,10.2625005581,-6.45510583032,10.0,0.0,0.0,0.0,10.0,0.0,0.0,0.0,10.0
1446035410896268937,3636,1446035410892385959,robocape_mag,10.0600349047,10.2625005581,-6.45510583032,10.0,0.0,0.0,0.0,10.0,0.0,0.0,0.0,10.0
1446035410917004395,3637,1446035410913297891,robocape_mag,10.0600349047,10.2625005581,-6.45510583032,10.0,0.0,0.0,0.0,10.0,0.0,0.0,0.0,10.0
1446035410942059604,3638,1446035410938560009,robocape_mag,10.0600349047,10.2625005581,-6.45510583032,10.0,0.0,0.0,0.0,10.0,0.0,0.0,0.0,10.0
1446035410969849520,3639,1446035410966310024,robocape_mag,10.0600349047,10.2625005581,-6.45510583032,10.0,0.0,0.0,0.0,10.0,0.0,0.0,0.0,10.0
1446035410997309354,3640,1446035410993196964,robocape_mag,10.0600349047,10.2625005581,-6.45510583032,10.0,0.0,0.0,0.0,10.0,0.0,0.0,0.0,10.0
1446035411016883604,3641,1446035411013431072,robocape_mag,9.94503277967,10.2029147729,-6.47397377626,10.0,0.0,0.0,0.0,10.0,0.0,0.0,0.0,10.0
1446035411042202187,3642,1446035411038711071,robocape_mag,9.94503277967,10.2029147729,-6.47397377626,10.0,0.0,0.0,0.0,10.0,0.0,0.0,0.0,10.0
1446035411068006062,3643,1446035411064151048,robocape_mag,9.94503277967,10.2029147729,-6.47397377626,10.0,0.0,0.0,0.0,10.0,0.0,0.0,0.0,10.0
1446035411096736437,3644,1446035411092756032,robocape_mag,9.94503277967,10.2029147729,-6.47397377626,10.0,0.0,0.0,0.0,10.0,0.0,0.0,0.0,10.0
1446035411116982687,3645,1446035411113545894,robocape_mag,9.94503277967,10.2029147729,-6.47397377626,10.0,0.0,0.0,0.0,10.0,0.0,0.0,0.0,10.0
1446035411141889312,3646,1446035411138402938,robocape_mag,9.94503277967,10.2029147729,-6.47397377626,10.0,0.0,0.0,0.0,10.0,0.0,0.0,0.0,10.0
1446035411169052520,3647,1446035411164731979,robocape_mag,9.95184715952,10.1969256239,-6.50370698834,10.0,0.0,0.0,0.0,10.0,0.0,0.0,0.0,10.0
1446035411196997437,3648,1446035411193084955,robocape_mag,10.0016096645,10.2164587382,-6.50903420133,10.0,0.0,0.0,0.0,10.0,0.0,0.0,0.0,10.0
1446035411218345937,3649,1446035411214658021,robocape_mag,10.0016096645,10.2164587382,-6.50903420133,10.0,0.0,0.0,0.0,10.0,0.0,0.0,0.0,10.0
1446035411242177437,3650,1446035411238570928,robocape_mag,10.0016096645,10.2164587382,-6.50903420133,10.0,0.0,0.0,0.0,10.0,0.0,0.0,0.0,10.0
1446035411267389645,3651,1446035411263952970,robocape_mag,10.0016096645,10.2164587382,-6.50903420133,10.0,0.0,0.0,0.0,10.0,0.0,0.0,0.0,10.0
1446035411295735604,3652,1446035411291894912,robocape_mag,10.0016096645,10.2164587382,-6.50903420133,10.0,0.0,0.0,0.0,10.0,0.0,0.0,0.0,10.0
1446035411319072312,3653,1446035411315157890,robocape_mag,10.0016096645,10.2164587382,-6.50903420133,10.0,0.0,0.0,0.0,10.0,0.0,0.0,0.0,10.0
1446035411342152395,3654,1446035411338397979,robocape_mag,10.0250914406,10.2262009277,-6.51383808857,10.0,0.0,0.0,0.0,10.0,0.0,0.0,0.0,10.0
1446035411367553562,3655,1446035411363939046,robocape_mag,10.0250914406,10.2262009277,-6.51383808857,10.0,0.0,0.0,0.0,10.0,0.0,0.0,0.0,10.0
1446035411395906854,3656,1446035411392061948,robocape_mag,10.0250914406,10.2262009277,-6.51383808857,10.0,0.0,0.0,0.0,10.0,0.0,0.0,0.0,10.0
1446035411421245937,3657,1446035411417190074,robocape_mag,10.0250914406,10.2262009277,-6.51383808857,10.0,0.0,0.0,0.0,10.0,0.0,0.0,0.0,10.0
1446035411442099104,3658,1446035411438471078,robocape_mag,10.0250914406,10.2262009277,-6.51383808857,10.0,0.0,0.0,0.0,10.0,0.0,0.0,0.0,10.0
1446035411467648229,3659,1446035411463970899,robocape_mag,10.0250914406,10.2262009277,-6.51383808857,10.0,0.0,0.0,0.0,10.0,0.0,0.0,0.0,10.0
1446035411495408062,3660,1446035411491789102,robocape_mag,10.0081433288,10.2156894542,-6.52325370621,10.0,0.0,0.0,0.0,10.0,0.0,0.0,0.0,10.0
1446035411522125562,3661,1446035411517052888,robocape_mag,10.0081433288,10.2156894542,-6.52325370621,10.0,0.0,0.0,0.0,10.0,0.0,0.0,0.0,10.0
1446035411541983562,3662,1446035411538444995,robocape_mag,10.0081433288,10.2156894542,-6.52325370621,10.0,0.0,0.0,0.0,10.0,0.0,0.0,0.0,10.0
1446035411567264729,3663,1446035411563632011,robocape_mag,10.0081433288,10.2156894542,-6.52325370621,10.0,0.0,0.0,0.0,10.0,0.0,0.0,0.0,10.0
1446035411593484062,3664,1446035411590049982,robocape_mag,10.0081433288,10.2156894542,-6.52325370621,10.0,0.0,0.0,0.0,10.0,0.0,0.0,0.0,10.0
1446035411620951771,3665,1446035411616898059,robocape_mag,10.0081433288,10.2156894542,-6.52325370621,10.0,0.0,0.0,0.0,10.0,0.0,0.0,0.0,10.0
1446035411644915729,3666,1446035411640830039,robocape_mag,10.0081433288,10.2156894542,-6.52325370621,10.0,0.0,0.0,0.0,10.0,0.0,0.0,0.0,10.0
1446035411673488062,3667,1446035411663701057,robocape_mag,9.98898444766,10.2076239142,-6.52118561902,10.0,0.0,0.0,0.0,10.0,0.0,0.0,0.0,10.0
1446035411695989771,3668,1446035411691833019,robocape_mag,9.98898444766,10.2076239142,-6.52118561902,10.0,0.0,0.0,0.0,10.0,0.0,0.0,0.0,10.0
1446035411724580812,3669,1446035411720980882,robocape_mag,9.98898444766,10.2076239142,-6.52118561902,10.0,0.0,0.0,0.0,10.0,0.0,0.0,0.0,10.0
1446035411743444104,3670,1446035411738698959,robocape_mag,9.98898444766,10.2076239142,-6.52118561902,10.0,0.0,0.0,0.0,10.0,0.0,0.0,0.0,10.0
1446035411767003979,3671,1446035411763325929,robocape_mag,9.98898444766,10.2076239142,-6.52118561902,10.0,0.0,0.0,0.0,10.0,0.0,0.0,0.0,10.0
1446035411792498396,3672,1446035411788721084,robocape_mag,9.98898444766,10.2076239142,-6.52118561902,10.0,0.0,0.0,0.0,10.0,0.0,0.0,0.0,10.0
1446035411821022229,3673,1446035411817276000,robocape_mag,9.99707056049,10.2124305119,-6.51642908207,10.0,0.0,0.0,0.0,10.0,0.0,0.0,0.0,10.0
1446035411844451021,3674,1446035411840642929,robocape_mag,9.99707056049,10.2124305119,-6.51642908207,10.0,0.0,0.0,0.0,10.0,0.0,0.0,0.0,10.0
1446035411867072854,3675,1446035411863429069,robocape_mag,9.99707056049,10.2124305119,-6.51642908207,10.0,0.0,0.0,0.0,10.0,0.0,0.0,0.0,10.0
1446035411892332396,3676,1446035411888752937,robocape_mag,9.99707056049,10.2124305119,-6.51642908207,10.0,0.0,0.0,0.0,10.0,0.0,0.0,0.0,10.0
1446035411920591396,3677,1446035411916919946,robocape_mag,9.99707056049,10.2124305119,-6.51642908207,10.0,0.0,0.0,0.0,10.0,0.0,0.0,0.0,10.0
1446035411944085312,3678,1446035411940268993,robocape_mag,9.99707056049,10.2124305119,-6.51642908207,10.0,0.0,0.0,0.0,10.0,0.0,0.0,0.0,10.0
1446035411967311646,3679,1446035411963511943,robocape_mag,9.99707056049,10.2124305119,-6.51642908207,10.0,0.0,0.0,0.0,10.0,0.0,0.0,0.0,10.0
1446035411992488771,3680,1446035411988842964,robocape_mag,10.0599785564,10.2763174688,-6.41838755237,10.0,0.0,0.0,0.0,10.0,0.0,0.0,0.0,10.0
1446035412018886479,3681,1446035412015378952,robocape_mag,10.0599785564,10.2763174688,-6.41838755237,10.0,0.0,0.0,0.0,10.0,0.0,0.0,0.0,10.0
1446035412045605229,3682,1446035412041464090,robocape_mag,10.0599785564,10.2763174688,-6.41838755237,10.0,0.0,0.0,0.0,10.0,0.0,0.0,0.0,10.0
1446035412067242396,3683,1446035412063426971,robocape_mag,10.0599785564,10.2763174688,-6.41838755237,10.0,0.0,0.0,0.0,10.0,0.0,0.0,0.0,10.0
1446035412092219146,3684,1446035412088644027,robocape_mag,10.0599785564,10.2763174688,-6.41838755237,10.0,0.0,0.0,0.0,10.0,0.0,0.0,0.0,10.0
1446035412119408021,3685,1446035412115911960,robocape_mag,10.0599785564,10.2763174688,-6.41838755237,10.0,0.0,0.0,0.0,10.0,0.0,0.0,0.0,10.0
1446035412145915771,3686,1446035412141623973,robocape_mag,10.0898078894,10.2684656761,-6.48800973357,10.0,0.0,0.0,0.0,10.0,0.0,0.0,0.0,10.0
1446035412167282104,3687,1446035412163456916,robocape_mag,10.0898078894,10.2684656761,-6.48800973357,10.0,0.0,0.0,0.0,10.0,0.0,0.0,0.0,10.0
1446035412192427854,3688,1446035412188796043,robocape_mag,10.0898078894,10.2684656761,-6.48800973357,10.0,0.0,0.0,0.0,10.0,0.0,0.0,0.0,10.0
1446035412218098896,3689,1446035412214590072,robocape_mag,10.0898078894,10.2684656761,-6.48800973357,10.0,0.0,0.0,0.0,10.0,0.0,0.0,0.0,10.0
1446035412246925896,3690,1446035412242619991,robocape_mag,10.0898078894,10.2684656761,-6.48800973357,10.0,0.0,0.0,0.0,10.0,0.0,0.0,0.0,10.0
1446035412267318896,3691,1446035412263509035,robocape_mag,10.0898078894,10.2684656761,-6.48800973357,10.0,0.0,0.0,0.0,10.0,0.0,0.0,0.0,10.0
1446035412292196604,3692,1446035412288625001,robocape_mag,10.0101249589,10.2464967072,-6.42855070792,10.0,0.0,0.0,0.0,10.0,0.0,0.0,0.0,10.0
1446035412317555604,3693,1446035412314070940,robocape_mag,10.0101249589,10.2464967072,-6.42855070792,10.0,0.0,0.0,0.0,10.0,0.0,0.0,0.0,10.0
1446035412347088729,3694,1446035412343471050,robocape_mag,10.0101249589,10.2464967072,-6.42855070792,10.0,0.0,0.0,0.0,10.0,0.0,0.0,0.0,10.0
1446035412368601771,3695,1446035412364677906,robocape_mag,10.0101249589,10.2464967072,-6.42855070792,10.0,0.0,0.0,0.0,10.0,0.0,0.0,0.0,10.0
1446035412392393521,3696,1446035412388906002,robocape_mag,10.0101249589,10.2464967072,-6.42855070792,10.0,0.0,0.0,0.0,10.0,0.0,0.0,0.0,10.0
1446035412417363188,3697,1446035412413888931,robocape_mag,10.0101249589,10.2464967072,-6.42855070792,10.0,0.0,0.0,0.0,10.0,0.0,0.0,0.0,10.0
1446035412444741313,3698,1446035412440980911,robocape_mag,10.0101249589,10.2464967072,-6.42855070792,10.0,0.0,0.0,0.0,10.0,0.0,0.0,0.0,10.0
1446035412469294479,3699,1446035412465101003,robocape_mag,10.0390344355,10.2331884222,-6.5135968424,10.0,0.0,0.0,0.0,10.0,0.0,0.0,0.0,10.0
1446035412492179729,3700,1446035412488517999,robocape_mag,10.0390344355,10.2331884222,-6.5135968424,10.0,0.0,0.0,0.0,10.0,0.0,0.0,0.0,10.0
1446035412517526063,3701,1446035412513783931,robocape_mag,10.0390344355,10.2331884222,-6.5135968424,10.0,0.0,0.0,0.0,10.0,0.0,0.0,0.0,10.0
1446035412545318104,3702,1446035412541786909,robocape_mag,10.0390344355,10.2331884222,-6.5135968424,10.0,0.0,0.0,0.0,10.0,0.0,0.0,0.0,10.0
1446035412571117938,3703,1446035412565279006,robocape_mag,10.0390344355,10.2331884222,-6.5135968424,10.0,0.0,0.0,0.0,10.0,0.0,0.0,0.0,10.0
1446035412592081854,3704,1446035412588433027,robocape_mag,10.0390344355,10.2331884222,-6.5135968424,10.0,0.0,0.0,0.0,10.0,0.0,0.0,0.0,10.0
1446035412617281979,3705,1446035412613743066,robocape_mag,9.99561283894,10.2070453064,-6.53523874458,10.0,0.0,0.0,0.0,10.0,0.0,0.0,0.0,10.0
1446035412644724438,3706,1446035412641221046,robocape_mag,9.99561283894,10.2070453064,-6.53523874458,10.0,0.0,0.0,0.0,10.0,0.0,0.0,0.0,10.0
1446035412672603354,3707,1446035412667325973,robocape_mag,9.99561283894,10.2070453064,-6.53523874458,10.0,0.0,0.0,0.0,10.0,0.0,0.0,0.0,10.0
1446035412698913729,3708,1446035412695141077,robocape_mag,9.99561283894,10.2070453064,-6.53523874458,10.0,0.0,0.0,0.0,10.0,0.0,0.0,0.0,10.0
1446035412718555229,3709,1446035412715109109,robocape_mag,9.99561283894,10.2070453064,-6.53523874458,10.0,0.0,0.0,0.0,10.0,0.0,0.0,0.0,10.0
1446035412744089729,3710,1446035412740638017,robocape_mag,9.99561283894,10.2070453064,-6.53523874458,10.0,0.0,0.0,0.0,10.0,0.0,0.0,0.0,10.0
1446035412770350521,3711,1446035412766469001,robocape_mag,10.0121642282,10.2167909396,-6.5262537047,10.0,0.0,0.0,0.0,10.0,0.0,0.0,0.0,10.0
1446035412792025479,3712,1446035412788496017,robocape_mag,9.99232927686,10.2083425526,-6.52411344665,10.0,0.0,0.0,0.0,10.0,0.0,0.0,0.0,10.0
1446035412817417521,3713,1446035412813515901,robocape_mag,9.99232927686,10.2083425526,-6.52411344665,10.0,0.0,0.0,0.0,10.0,0.0,0.0,0.0,10.0
1446035412842968021,3714,1446035412839469909,robocape_mag,9.99232927686,10.2083425526,-6.52411344665,10.0,0.0,0.0,0.0,10.0,0.0,0.0,0.0,10.0
1446035412872293104,3715,1446035412868207931,robocape_mag,9.99232927686,10.2083425526,-6.52411344665,10.0,0.0,0.0,0.0,10.0,0.0,0.0,0.0,10.0
1446035412893664938,3716,1446035412889683008,robocape_mag,9.99232927686,10.2083425526,-6.52411344665,10.0,0.0,0.0,0.0,10.0,0.0,0.0,0.0,10.0
1446035412917120271,3717,1446035412913351058,robocape_mag,9.99232927686,10.2083425526,-6.52411344665,10.0,0.0,0.0,0.0,10.0,0.0,0.0,0.0,10.0
1446035412942305188,3718,1446035412938807010,robocape_mag,10.0518060634,10.2514861737,-6.47450849796,10.0,0.0,0.0,0.0,10.0,0.0,0.0,0.0,10.0
1446035412971564938,3719,1446035412967463016,robocape_mag,10.0518060634,10.2514861737,-6.47450849796,10.0,0.0,0.0,0.0,10.0,0.0,0.0,0.0,10.0
1446035412994460688,3720,1446035412989825963,robocape_mag,10.0518060634,10.2514861737,-6.47450849796,10.0,0.0,0.0,0.0,10.0,0.0,0.0,0.0,10.0
1446035413016858021,3721,1446035413013372898,robocape_mag,10.0518060634,10.2514861737,-6.47450849796,10.0,0.0,0.0,0.0,10.0,0.0,0.0,0.0,10.0
1446035413042603813,3722,1446035413038917064,robocape_mag,10.0518060634,10.2514861737,-6.47450849796,10.0,0.0,0.0,0.0,10.0,0.0,0.0,0.0,10.0
1446035413070673396,3723,1446035413067158937,robocape_mag,10.0518060634,10.2514861737,-6.47450849796,10.0,0.0,0.0,0.0,10.0,0.0,0.0,0.0,10.0
1446035413093913396,3724,1446035413090378999,robocape_mag,10.0544627922,10.2464967072,-6.49505745801,10.0,0.0,0.0,0.0,10.0,0.0,0.0,0.0,10.0
1446035413117114146,3725,1446035413113385915,robocape_mag,10.0544627922,10.2464967072,-6.49505745801,10.0,0.0,0.0,0.0,10.0,0.0,0.0,0.0,10.0
1446035413142174521,3726,1446035413138756990,robocape_mag,10.0544627922,10.2464967072,-6.49505745801,10.0,0.0,0.0,0.0,10.0,0.0,0.0,0.0,10.0
1446035413169583105,3727,1446035413166146039,robocape_mag,10.0544627922,10.2464967072,-6.49505745801,10.0,0.0,0.0,0.0,10.0,0.0,0.0,0.0,10.0
1446035413196772771,3728,1446035413192600965,robocape_mag,10.0544627922,10.2464967072,-6.49505745801,10.0,0.0,0.0,0.0,10.0,0.0,0.0,0.0,10.0
1446035413217090438,3729,1446035413213336944,robocape_mag,10.0544627922,10.2464967072,-6.49505745801,10.0,0.0,0.0,0.0,10.0,0.0,0.0,0.0,10.0
1446035413242624896,3730,1446035413239090919,robocape_mag,10.0544627922,10.2464967072,-6.49505745801,10.0,0.0,0.0,0.0,10.0,0.0,0.0,0.0,10.0
1446035413269376813,3731,1446035413265980958,robocape_mag,9.98775258099,10.2187441341,-6.47974820113,10.0,0.0,0.0,0.0,10.0,0.0,0.0,0.0,10.0
1446035413295467855,3732,1446035413291811943,robocape_mag,9.98775258099,10.2187441341,-6.47974820113,10.0,0.0,0.0,0.0,10.0,0.0,0.0,0.0,10.0
1446035413317045771,3733,1446035413313482046,robocape_mag,9.98775258099,10.2187441341,-6.47974820113,10.0,0.0,0.0,0.0,10.0,0.0,0.0,0.0,10.0
1446035413342401896,3734,1446035413338820934,robocape_mag,9.98775258099,10.2187441341,-6.47974820113,10.0,0.0,0.0,0.0,10.0,0.0,0.0,0.0,10.0
1446035413368224230,3735,1446035413364712953,robocape_mag,9.98775258099,10.2187441341,-6.47974820113,10.0,0.0,0.0,0.0,10.0,0.0,0.0,0.0,10.0
1446035413399365980,3736,1446035413395648956,robocape_mag,9.98775258099,10.2187441341,-6.47974820113,10.0,0.0,0.0,0.0,10.0,0.0,0.0,0.0,10.0
1446035413416886980,3737,1446035413413404941,robocape_mag,9.98775258099,10.2187441341,-6.47974820113,10.0,0.0,0.0,0.0,10.0,0.0,0.0,0.0,10.0
1446035413442063438,3738,1446035413438555002,robocape_mag,9.98775258099,10.2187441341,-6.47974820113,10.0,0.0,0.0,0.0,10.0,0.0,0.0,0.0,10.0
1446035413467479605,3739,1446035413463979959,robocape_mag,9.98775258099,10.2187441341,-6.47974820113,10.0,0.0,0.0,0.0,10.0,0.0,0.0,0.0,10.0
1446035413496510480,3740,1446035413492621898,robocape_mag,9.98775258099,10.2187441341,-6.47974820113,10.0,0.0,0.0,0.0,10.0,0.0,0.0,0.0,10.0
1446035413518738813,3741,1446035413515042066,robocape_mag,9.98775258099,10.2187441341,-6.47974820113,10.0,0.0,0.0,0.0,10.0,0.0,0.0,0.0,10.0
1446035413542274938,3742,1446035413538790941,robocape_mag,9.98775258099,10.2187441341,-6.47974820113,10.0,0.0,0.0,0.0,10.0,0.0,0.0,0.0,10.0
1446035413567603730,3743,1446035413564021110,robocape_mag,9.98775258099,10.2187441341,-6.47974820113,10.0,0.0,0.0,0.0,10.0,0.0,0.0,0.0,10.0
1446035413595356355,3744,1446035413591701030,robocape_mag,9.98775258099,10.2187441341,-6.47974820113,10.0,0.0,0.0,0.0,10.0,0.0,0.0,0.0,10.0
1446035413619033271,3745,1446035413615041971,robocape_mag,9.98775258099,10.2187441341,-6.47974820113,10.0,0.0,0.0,0.0,10.0,0.0,0.0,0.0,10.0
1446035413641976980,3746,1446035413638375997,robocape_mag,9.98775258099,10.2187441341,-6.47974820113,10.0,0.0,0.0,0.0,10.0,0.0,0.0,0.0,10.0
1446035413672838980,3747,1446035413663904905,robocape_mag,9.98775258099,10.2187441341,-6.47974820113,10.0,0.0,0.0,0.0,10.0,0.0,0.0,0.0,10.0
1446035413695973855,3748,1446035413691971063,robocape_mag,9.98775258099,10.2187441341,-6.47974820113,10.0,0.0,0.0,0.0,10.0,0.0,0.0,0.0,10.0
1446035413721603813,3749,1446035413717279911,robocape_mag,9.98775258099,10.2187441341,-6.47974820113,10.0,0.0,0.0,0.0,10.0,0.0,0.0,0.0,10.0
1446035413742120688,3750,1446035413738560914,robocape_mag,10.0441741504,10.2476658195,-6.47389174434,10.0,0.0,0.0,0.0,10.0,0.0,0.0,0.0,10.0
1446035413767437563,3751,1446035413763931035,robocape_mag,10.0441741504,10.2476658195,-6.47389174434,10.0,0.0,0.0,0.0,10.0,0.0,0.0,0.0,10.0
1446035413795839647,3752,1446035413792141914,robocape_mag,10.0441741504,10.2476658195,-6.47389174434,10.0,0.0,0.0,0.0,10.0,0.0,0.0,0.0,10.0
1446035413820501813,3753,1446035413816585063,robocape_mag,10.0441741504,10.2476658195,-6.47389174434,10.0,0.0,0.0,0.0,10.0,0.0,0.0,0.0,10.0
1446035413842168022,3754,1446035413838408946,robocape_mag,10.0441741504,10.2476658195,-6.47389174434,10.0,0.0,0.0,0.0,10.0,0.0,0.0,0.0,10.0
1446035413867382730,3755,1446035413863867998,robocape_mag,10.0441741504,10.2476658195,-6.47389174434,10.0,0.0,0.0,0.0,10.0,0.0,0.0,0.0,10.0
1446035413895235480,3756,1446035413891519069,robocape_mag,9.98587558038,10.2069736568,-6.51847465177,10.0,0.0,0.0,0.0,10.0,0.0,0.0,0.0,10.0
1446035413921476105,3757,1446035413917772054,robocape_mag,9.98587558038,10.2069736568,-6.51847465177,10.0,0.0,0.0,0.0,10.0,0.0,0.0,0.0,10.0
1446035413941904980,3758,1446035413938411951,robocape_mag,9.98587558038,10.2069736568,-6.51847465177,10.0,0.0,0.0,0.0,10.0,0.0,0.0,0.0,10.0
1446035413966985563,3759,1446035413963480949,robocape_mag,9.98587558038,10.2069736568,-6.51847465177,10.0,0.0,0.0,0.0,10.0,0.0,0.0,0.0,10.0
1446035413993603480,3760,1446035413990062952,robocape_mag,9.98587558038,10.2069736568,-6.51847465177,10.0,0.0,0.0,0.0,10.0,0.0,0.0,0.0,10.0
1446035414021582855,3761,1446035414017924070,robocape_mag,9.98587558038,10.2069736568,-6.51847465177,10.0,0.0,0.0,0.0,10.0,0.0,0.0,0.0,10.0
1446035414042571397,3762,1446035414038719892,robocape_mag,9.98587558038,10.2069736568,-6.51847465177,10.0,0.0,0.0,0.0,10.0,0.0,0.0,0.0,10.0
1446035414067065397,3763,1446035414063564062,robocape_mag,10.0074452782,10.2269029754,-6.48225024578,10.0,0.0,0.0,0.0,10.0,0.0,0.0,0.0,10.0
1446035414092834022,3764,1446035414089107036,robocape_mag,10.0074452782,10.2269029754,-6.48225024578,10.0,0.0,0.0,0.0,10.0,0.0,0.0,0.0,10.0
1446035414122161272,3765,1446035414118614912,robocape_mag,10.0074452782,10.2269029754,-6.48225024578,10.0,0.0,0.0,0.0,10.0,0.0,0.0,0.0,10.0
1446035414144036147,3766,1446035414139857053,robocape_mag,10.0074452782,10.2269029754,-6.48225024578,10.0,0.0,0.0,0.0,10.0,0.0,0.0,0.0,10.0
1446035414167122147,3767,1446035414163636922,robocape_mag,10.0074452782,10.2269029754,-6.48225024578,10.0,0.0,0.0,0.0,10.0,0.0,0.0,0.0,10.0
1446035414192755272,3768,1446035414188862085,robocape_mag,10.0074452782,10.2269029754,-6.48225024578,10.0,0.0,0.0,0.0,10.0,0.0,0.0,0.0,10.0
1446035414219571688,3769,1446035414215835094,robocape_mag,10.0314300442,10.2254796401,-6.52845484215,10.0,0.0,0.0,0.0,10.0,0.0,0.0,0.0,10.0
1446035414243353397,3770,1446035414239658117,robocape_mag,10.0314300442,10.2254796401,-6.52845484215,10.0,0.0,0.0,0.0,10.0,0.0,0.0,0.0,10.0
1446035414267470772,3771,1446035414263525009,robocape_mag,10.0314300442,10.2254796401,-6.52845484215,10.0,0.0,0.0,0.0,10.0,0.0,0.0,0.0,10.0
1446035414292652063,3772,1446035414288969993,robocape_mag,10.0314300442,10.2254796401,-6.52845484215,10.0,0.0,0.0,0.0,10.0,0.0,0.0,0.0,10.0
1446035414319875188,3773,1446035414316380977,robocape_mag,10.0314300442,10.2254796401,-6.52845484215,10.0,0.0,0.0,0.0,10.0,0.0,0.0,0.0,10.0
1446035414346402397,3774,1446035414342262029,robocape_mag,10.0314300442,10.2254796401,-6.52845484215,10.0,0.0,0.0,0.0,10.0,0.0,0.0,0.0,10.0
1446035414368476772,3775,1446035414364887952,robocape_mag,10.0379081551,10.2360190453,-6.50145753358,10.0,0.0,0.0,0.0,10.0,0.0,0.0,0.0,10.0
1446035414393149314,3776,1446035414389355897,robocape_mag,10.0379081551,10.2360190453,-6.50145753358,10.0,0.0,0.0,0.0,10.0,0.0,0.0,0.0,10.0
1446035414419393355,3777,1446035414415919065,robocape_mag,10.0379081551,10.2360190453,-6.50145753358,10.0,0.0,0.0,0.0,10.0,0.0,0.0,0.0,10.0
1446035414446444480,3778,1446035414442373991,robocape_mag,10.0379081551,10.2360190453,-6.50145753358,10.0,0.0,0.0,0.0,10.0,0.0,0.0,0.0,10.0
1446035414467047147,3779,1446035414463483095,robocape_mag,10.0379081551,10.2360190453,-6.50145753358,10.0,0.0,0.0,0.0,10.0,0.0,0.0,0.0,10.0
1446035414492726647,3780,1446035414489008903,robocape_mag,10.0379081551,10.2360190453,-6.50145753358,10.0,0.0,0.0,0.0,10.0,0.0,0.0,0.0,10.0
1446035414518355230,3781,1446035414514799118,robocape_mag,10.0379081551,10.2360190453,-6.50145753358,10.0,0.0,0.0,0.0,10.0,0.0,0.0,0.0,10.0
1446035414545755689,3782,1446035414541729927,robocape_mag,10.0226237154,10.2312734738,-6.49172995168,10.0,0.0,0.0,0.0,10.0,0.0,0.0,0.0,10.0
1446035414570143772,3783,1446035414565951108,robocape_mag,10.0226237154,10.2312734738,-6.49172995168,10.0,0.0,0.0,0.0,10.0,0.0,0.0,0.0,10.0
1446035414592386605,3784,1446035414588728904,robocape_mag,10.0226237154,10.2312734738,-6.49172995168,10.0,0.0,0.0,0.0,10.0,0.0,0.0,0.0,10.0
1446035414617706355,3785,1446035414614123106,robocape_mag,10.0226237154,10.2312734738,-6.49172995168,10.0,0.0,0.0,0.0,10.0,0.0,0.0,0.0,10.0
1446035414646086439,3786,1446035414641804933,robocape_mag,10.0226237154,10.2312734738,-6.49172995168,10.0,0.0,0.0,0.0,10.0,0.0,0.0,0.0,10.0
1446035414674586814,3787,1446035414666585922,robocape_mag,10.0226237154,10.2312734738,-6.49172995168,10.0,0.0,0.0,0.0,10.0,0.0,0.0,0.0,10.0
1446035414696129147,3788,1446035414691627025,robocape_mag,10.0808199869,10.2304319387,-6.63746766265,10.0,0.0,0.0,0.0,10.0,0.0,0.0,0.0,10.0
1446035414719446272,3789,1446035414715907096,robocape_mag,10.0808199869,10.2304319387,-6.63746766265,10.0,0.0,0.0,0.0,10.0,0.0,0.0,0.0,10.0
1446035414746484314,3790,1446035414742914915,robocape_mag,10.0808199869,10.2304319387,-6.63746766265,10.0,0.0,0.0,0.0,10.0,0.0,0.0,0.0,10.0
1446035414768873147,3791,1446035414764748096,robocape_mag,10.0808199869,10.2304319387,-6.63746766265,10.0,0.0,0.0,0.0,10.0,0.0,0.0,0.0,10.0
1446035414792156230,3792,1446035414788502931,robocape_mag,10.0808199869,10.2304319387,-6.63746766265,10.0,0.0,0.0,0.0,10.0,0.0,0.0,0.0,10.0
1446035414817542772,3793,1446035414814021110,robocape_mag,10.0808199869,10.2304319387,-6.63746766265,10.0,0.0,0.0,0.0,10.0,0.0,0.0,0.0,10.0
1446035414845083272,3794,1446035414841538906,robocape_mag,10.0808199869,10.2304319387,-6.63746766265,10.0,0.0,0.0,0.0,10.0,0.0,0.0,0.0,10.0
1446035414868694397,3795,1446035414864662885,robocape_mag,9.99481537477,10.2174715152,-6.49453122809,10.0,0.0,0.0,0.0,10.0,0.0,0.0,0.0,10.0
1446035414892460897,3796,1446035414888855934,robocape_mag,9.99481537477,10.2174715152,-6.49453122809,10.0,0.0,0.0,0.0,10.0,0.0,0.0,0.0,10.0
1446035414917345147,3797,1446035414913748025,robocape_mag,9.99481537477,10.2174715152,-6.49453122809,10.0,0.0,0.0,0.0,10.0,0.0,0.0,0.0,10.0
1446035414944129605,3798,1446035414940589904,robocape_mag,9.99481537477,10.2174715152,-6.49453122809,10.0,0.0,0.0,0.0,10.0,0.0,0.0,0.0,10.0
1446035414971032522,3799,1446035414965394020,robocape_mag,9.99481537477,10.2174715152,-6.49453122809,10.0,0.0,0.0,0.0,10.0,0.0,0.0,0.0,10.0
1446035414992482939,3800,1446035414988857030,robocape_mag,9.99481537477,10.2174715152,-6.49453122809,10.0,0.0,0.0,0.0,10.0,0.0,0.0,0.0,10.0
1446035415017255147,3801,1446035415013828992,robocape_mag,10.0592270401,10.2375492174,-6.53718746923,10.0,0.0,0.0,0.0,10.0,0.0,0.0,0.0,10.0
1446035415045291189,3802,1446035415040617942,robocape_mag,10.0592270401,10.2375492174,-6.53718746923,10.0,0.0,0.0,0.0,10.0,0.0,0.0,0.0,10.0
1446035415071425564,3803,1446035415067671060,robocape_mag,10.0592270401,10.2375492174,-6.53718746923,10.0,0.0,0.0,0.0,10.0,0.0,0.0,0.0,10.0
1446035415093416689,3804,1446035415089781045,robocape_mag,10.0592270401,10.2375492174,-6.53718746923,10.0,0.0,0.0,0.0,10.0,0.0,0.0,0.0,10.0
1446035415117916397,3805,1446035415114382982,robocape_mag,10.0592270401,10.2375492174,-6.53718746923,10.0,0.0,0.0,0.0,10.0,0.0,0.0,0.0,10.0
1446035415142523064,3806,1446035415139112949,robocape_mag,10.0592270401,10.2375492174,-6.53718746923,10.0,0.0,0.0,0.0,10.0,0.0,0.0,0.0,10.0
1446035415172173897,3807,1446035415167232990,robocape_mag,10.0814873751,10.2662047894,-6.47989732615,10.0,0.0,0.0,0.0,10.0,0.0,0.0,0.0,10.0
1446035415194182481,3808,1446035415189817905,robocape_mag,10.0441741504,10.2476658195,-6.47389174434,10.0,0.0,0.0,0.0,10.0,0.0,0.0,0.0,10.0
1446035415217040647,3809,1446035415213568925,robocape_mag,10.0441741504,10.2476658195,-6.47389174434,10.0,0.0,0.0,0.0,10.0,0.0,0.0,0.0,10.0
1446035415242954731,3810,1446035415239386081,robocape_mag,10.0441741504,10.2476658195,-6.47389174434,10.0,0.0,0.0,0.0,10.0,0.0,0.0,0.0,10.0
1446035415270135814,3811,1446035415265871047,robocape_mag,10.0441741504,10.2476658195,-6.47389174434,10.0,0.0,0.0,0.0,10.0,0.0,0.0,0.0,10.0
1446035415293875439,3812,1446035415289805889,robocape_mag,10.0441741504,10.2476658195,-6.47389174434,10.0,0.0,0.0,0.0,10.0,0.0,0.0,0.0,10.0
1446035415317121522,3813,1446035415313572883,robocape_mag,10.0441741504,10.2476658195,-6.47389174434,10.0,0.0,0.0,0.0,10.0,0.0,0.0,0.0,10.0
1446035415343043147,3814,1446035415338701963,robocape_mag,10.0404679058,10.2435346276,-6.48082516867,10.0,0.0,0.0,0.0,10.0,0.0,0.0,0.0,10.0
1446035415370804356,3815,1446035415367296934,robocape_mag,10.0404679058,10.2435346276,-6.48082516867,10.0,0.0,0.0,0.0,10.0,0.0,0.0,0.0,10.0
1446035415395401189,3816,1446035415390166997,robocape_mag,10.0404679058,10.2435346276,-6.48082516867,10.0,0.0,0.0,0.0,10.0,0.0,0.0,0.0,10.0
1446035415417147647,3817,1446035415413403987,robocape_mag,10.0404679058,10.2435346276,-6.48082516867,10.0,0.0,0.0,0.0,10.0,0.0,0.0,0.0,10.0
1446035415442187981,3818,1446035415438580989,robocape_mag,10.0404679058,10.2435346276,-6.48082516867,10.0,0.0,0.0,0.0,10.0,0.0,0.0,0.0,10.0
1446035415470031606,3819,1446035415466556072,robocape_mag,10.0404679058,10.2435346276,-6.48082516867,10.0,0.0,0.0,0.0,10.0,0.0,0.0,0.0,10.0
1446035415496316981,3820,1446035415491651058,robocape_mag,10.026585602,10.2352994554,-6.48482516633,10.0,0.0,0.0,0.0,10.0,0.0,0.0,0.0,10.0
1446035415519276106,3821,1446035415513643980,robocape_mag,10.026585602,10.2352994554,-6.48482516633,10.0,0.0,0.0,0.0,10.0,0.0,0.0,0.0,10.0
1446035415542868814,3822,1446035415539170026,robocape_mag,10.026585602,10.2352994554,-6.48482516633,10.0,0.0,0.0,0.0,10.0,0.0,0.0,0.0,10.0
1446035415569841939,3823,1446035415566333055,robocape_mag,10.026585602,10.2352994554,-6.48482516633,10.0,0.0,0.0,0.0,10.0,0.0,0.0,0.0,10.0
1446035415597060522,3824,1446035415591777086,robocape_mag,10.026585602,10.2352994554,-6.48482516633,10.0,0.0,0.0,0.0,10.0,0.0,0.0,0.0,10.0
1446035415617013939,3825,1446035415613523006,robocape_mag,10.026585602,10.2352994554,-6.48482516633,10.0,0.0,0.0,0.0,10.0,0.0,0.0,0.0,10.0
1446035415642163689,3826,1446035415638721942,robocape_mag,10.026585602,10.2352994554,-6.48482516633,10.0,0.0,0.0,0.0,10.0,0.0,0.0,0.0,10.0
1446035415675994189,3827,1446035415667077064,robocape_mag,10.0204264618,10.234416108,-6.47795934824,10.0,0.0,0.0,0.0,10.0,0.0,0.0,0.0,10.0
1446035415699123189,3828,1446035415693272113,robocape_mag,10.0204264618,10.234416108,-6.47795934824,10.0,0.0,0.0,0.0,10.0,0.0,0.0,0.0,10.0
1446035415717116856,3829,1446035415713613033,robocape_mag,10.0204264618,10.234416108,-6.47795934824,10.0,0.0,0.0,0.0,10.0,0.0,0.0,0.0,10.0
1446035415742720564,3830,1446035415739187955,robocape_mag,10.0204264618,10.234416108,-6.47795934824,10.0,0.0,0.0,0.0,10.0,0.0,0.0,0.0,10.0
1446035415768139523,3831,1446035415764507055,robocape_mag,10.0204264618,10.234416108,-6.47795934824,10.0,0.0,0.0,0.0,10.0,0.0,0.0,0.0,10.0
1446035415797894189,3832,1446035415793662071,robocape_mag,10.0204264618,10.234416108,-6.47795934824,10.0,0.0,0.0,0.0,10.0,0.0,0.0,0.0,10.0
1446035415819031064,3833,1446035415814934015,robocape_mag,9.92705595831,10.2234900317,-6.39677956503,10.0,0.0,0.0,0.0,10.0,0.0,0.0,0.0,10.0
1446035415842913064,3834,1446035415839423894,robocape_mag,9.92705595831,10.2234900317,-6.39677956503,10.0,0.0,0.0,0.0,10.0,0.0,0.0,0.0,10.0
1446035415867955398,3835,1446035415864219903,robocape_mag,9.92705595831,10.2234900317,-6.39677956503,10.0,0.0,0.0,0.0,10.0,0.0,0.0,0.0,10.0
1446035415897077856,3836,1446035415893006086,robocape_mag,9.92705595831,10.2234900317,-6.39677956503,10.0,0.0,0.0,0.0,10.0,0.0,0.0,0.0,10.0
1446035415918536898,3837,1446035415914803028,robocape_mag,9.92705595831,10.2234900317,-6.39677956503,10.0,0.0,0.0,0.0,10.0,0.0,0.0,0.0,10.0
1446035415942123106,3838,1446035415938540935,robocape_mag,9.92705595831,10.2234900317,-6.39677956503,10.0,0.0,0.0,0.0,10.0,0.0,0.0,0.0,10.0
1446035415967635814,3839,1446035415963798046,robocape_mag,9.92705595831,10.2234900317,-6.39677956503,10.0,0.0,0.0,0.0,10.0,0.0,0.0,0.0,10.0
1446035415994870856,3840,1446035415991185903,robocape_mag,9.79420018288,10.7245463131,-5.84373247991,10.0,0.0,0.0,0.0,10.0,0.0,0.0,0.0,10.0
1446035416018977106,3841,1446035416015044927,robocape_mag,9.79420018288,10.7245463131,-5.84373247991,10.0,0.0,0.0,0.0,10.0,0.0,0.0,0.0,10.0
1446035416042138023,3842,1446035416038415908,robocape_mag,9.79420018288,10.7245463131,-5.84373247991,10.0,0.0,0.0,0.0,10.0,0.0,0.0,0.0,10.0
1446035416067581106,3843,1446035416063747882,robocape_mag,9.79420018288,10.7245463131,-5.84373247991,10.0,0.0,0.0,0.0,10.0,0.0,0.0,0.0,10.0
1446035416095224523,3844,1446035416091691970,robocape_mag,9.79420018288,10.7245463131,-5.84373247991,10.0,0.0,0.0,0.0,10.0,0.0,0.0,0.0,10.0
1446035416121964148,3845,1446035416117681026,robocape_mag,9.79420018288,10.7245463131,-5.84373247991,10.0,0.0,0.0,0.0,10.0,0.0,0.0,0.0,10.0
1446035416142181898,3846,1446035416138422012,robocape_mag,9.79704633546,10.4807115171,-5.98996413464,10.0,0.0,0.0,0.0,10.0,0.0,0.0,0.0,10.0
1446035416167680856,3847,1446035416164026975,robocape_mag,9.79704633546,10.4807115171,-5.98996413464,10.0,0.0,0.0,0.0,10.0,0.0,0.0,0.0,10.0
1446035416194274231,3848,1446035416190597057,robocape_mag,9.79704633546,10.4807115171,-5.98996413464,10.0,0.0,0.0,0.0,10.0,0.0,0.0,0.0,10.0
1446035416222222064,3849,1446035416218461990,robocape_mag,9.79704633546,10.4807115171,-5.98996413464,10.0,0.0,0.0,0.0,10.0,0.0,0.0,0.0,10.0
1446035416242454481,3850,1446035416238936901,robocape_mag,9.79704633546,10.4807115171,-5.98996413464,10.0,0.0,0.0,0.0,10.0,0.0,0.0,0.0,10.0
1446035416267360773,3851,1446035416263616085,robocape_mag,9.79704633546,10.4807115171,-5.98996413464,10.0,0.0,0.0,0.0,10.0,0.0,0.0,0.0,10.0
1446035416293576981,3852,1446035416290025949,robocape_mag,9.79882143936,10.4349765649,-6.0301292713,10.0,0.0,0.0,0.0,10.0,0.0,0.0,0.0,10.0
1446035416321646773,3853,1446035416317913055,robocape_mag,9.79882143936,10.4349765649,-6.0301292713,10.0,0.0,0.0,0.0,10.0,0.0,0.0,0.0,10.0
1446035416342069106,3854,1446035416338565111,robocape_mag,9.79882143936,10.4349765649,-6.0301292713,10.0,0.0,0.0,0.0,10.0,0.0,0.0,0.0,10.0
1446035416367481148,3855,1446035416363689899,robocape_mag,9.79882143936,10.4349765649,-6.0301292713,10.0,0.0,0.0,0.0,10.0,0.0,0.0,0.0,10.0
1446035416392898231,3856,1446035416389269113,robocape_mag,9.79882143936,10.4349765649,-6.0301292713,10.0,0.0,0.0,0.0,10.0,0.0,0.0,0.0,10.0
1446035416421236273,3857,1446035416417484045,robocape_mag,9.79882143936,10.4349765649,-6.0301292713,10.0,0.0,0.0,0.0,10.0,0.0,0.0,0.0,10.0
1446035416443127356,3858,1446035416439718961,robocape_mag,9.79882143936,10.4349765649,-6.0301292713,10.0,0.0,0.0,0.0,10.0,0.0,0.0,0.0,10.0
1446035416467190231,3859,1446035416463470935,robocape_mag,9.7385107226,10.2689356644,-6.21134718989,10.0,0.0,0.0,0.0,10.0,0.0,0.0,0.0,10.0
1446035416492674273,3860,1446035416488940954,robocape_mag,9.7385107226,10.2689356644,-6.21134718989,10.0,0.0,0.0,0.0,10.0,0.0,0.0,0.0,10.0
1446035416520878856,3861,1446035416517296075,robocape_mag,9.7385107226,10.2689356644,-6.21134718989,10.0,0.0,0.0,0.0,10.0,0.0,0.0,0.0,10.0
1446035416543696315,3862,1446035416540091991,robocape_mag,9.7385107226,10.2689356644,-6.21134718989,10.0,0.0,0.0,0.0,10.0,0.0,0.0,0.0,10.0
1446035416567277856,3863,1446035416563339948,robocape_mag,9.7385107226,10.2689356644,-6.21134718989,10.0,0.0,0.0,0.0,10.0,0.0,0.0,0.0,10.0
1446035416592523398,3864,1446035416588869094,robocape_mag,9.7385107226,10.2689356644,-6.21134718989,10.0,0.0,0.0,0.0,10.0,0.0,0.0,0.0,10.0
1446035416620865148,3865,1446035416617417097,robocape_mag,9.06009825691,10.5600982569,-6.10423517003,10.0,0.0,0.0,0.0,10.0,0.0,0.0,0.0,10.0
1446035416646237898,3866,1446035416642039060,robocape_mag,9.06009825691,10.5600982569,-6.10423517003,10.0,0.0,0.0,0.0,10.0,0.0,0.0,0.0,10.0
1446035416673316481,3867,1446035416663788080,robocape_mag,9.06009825691,10.5600982569,-6.10423517003,10.0,0.0,0.0,0.0,10.0,0.0,0.0,0.0,10.0
1446035416695900148,3868,1446035416692383050,robocape_mag,9.06009825691,10.5600982569,-6.10423517003,10.0,0.0,0.0,0.0,10.0,0.0,0.0,0.0,10.0
1446035416720369231,3869,1446035416716449022,robocape_mag,9.06009825691,10.5600982569,-6.10423517003,10.0,0.0,0.0,0.0,10.0,0.0,0.0,0.0,10.0
1446035416747653106,3870,1446035416743926048,robocape_mag,9.06009825691,10.5600982569,-6.10423517003,10.0,0.0,0.0,0.0,10.0,0.0,0.0,0.0,10.0
1446035416767106190,3871,1446035416763516902,robocape_mag,9.06009825691,10.5600982569,-6.10423517003,10.0,0.0,0.0,0.0,10.0,0.0,0.0,0.0,10.0
1446035416792474190,3872,1446035416788649082,robocape_mag,9.22931876207,10.494553978,-6.04570564793,10.0,0.0,0.0,0.0,10.0,0.0,0.0,0.0,10.0
1446035416820039523,3873,1446035416816312074,robocape_mag,9.22931876207,10.494553978,-6.04570564793,10.0,0.0,0.0,0.0,10.0,0.0,0.0,0.0,10.0
1446035416847304231,3874,1446035416843486070,robocape_mag,9.22931876207,10.494553978,-6.04570564793,10.0,0.0,0.0,0.0,10.0,0.0,0.0,0.0,10.0
1446035416866962565,3875,1446035416863547086,robocape_mag,9.22931876207,10.494553978,-6.04570564793,10.0,0.0,0.0,0.0,10.0,0.0,0.0,0.0,10.0
1446035416892308065,3876,1446035416888742923,robocape_mag,9.22931876207,10.494553978,-6.04570564793,10.0,0.0,0.0,0.0,10.0,0.0,0.0,0.0,10.0
1446035416918563523,3877,1446035416914803981,robocape_mag,9.22931876207,10.494553978,-6.04570564793,10.0,0.0,0.0,0.0,10.0,0.0,0.0,0.0,10.0
1446035416945024190,3878,1446035416941525936,robocape_mag,9.24206278709,10.4011702034,-6.13071180623,10.0,0.0,0.0,0.0,10.0,0.0,0.0,0.0,10.0
1446035416967294231,3879,1446035416963650941,robocape_mag,9.24206278709,10.4011702034,-6.13071180623,10.0,0.0,0.0,0.0,10.0,0.0,0.0,0.0,10.0
1446035416992156356,3880,1446035416988715887,robocape_mag,9.24206278709,10.4011702034,-6.13071180623,10.0,0.0,0.0,0.0,10.0,0.0,0.0,0.0,10.0
1446035417018073648,3881,1446035417014241933,robocape_mag,9.24206278709,10.4011702034,-6.13071180623,10.0,0.0,0.0,0.0,10.0,0.0,0.0,0.0,10.0
1446035417046623190,3882,1446035417042751073,robocape_mag,9.24206278709,10.4011702034,-6.13071180623,10.0,0.0,0.0,0.0,10.0,0.0,0.0,0.0,10.0
1446035417067274648,3883,1446035417063622951,robocape_mag,9.24206278709,10.4011702034,-6.13071180623,10.0,0.0,0.0,0.0,10.0,0.0,0.0,0.0,10.0
1446035417094219398,3884,1446035417090343952,robocape_mag,9.20665078697,10.4672208312,-6.08301655182,10.0,0.0,0.0,0.0,10.0,0.0,0.0,0.0,10.0
1446035417118863398,3885,1446035417115035057,robocape_mag,9.20665078697,10.4672208312,-6.08301655182,10.0,0.0,0.0,0.0,10.0,0.0,0.0,0.0,10.0
1446035417145502398,3886,1446035417141885042,robocape_mag,9.20665078697,10.4672208312,-6.08301655182,10.0,0.0,0.0,0.0,10.0,0.0,0.0,0.0,10.0
1446035417167658773,3887,1446035417164012908,robocape_mag,9.20665078697,10.4672208312,-6.08301655182,10.0,0.0,0.0,0.0,10.0,0.0,0.0,0.0,10.0
1446035417193052940,3888,1446035417189258098,robocape_mag,9.20665078697,10.4672208312,-6.08301655182,10.0,0.0,0.0,0.0,10.0,0.0,0.0,0.0,10.0
1446035417218046398,3889,1446035417214245080,robocape_mag,9.20665078697,10.4672208312,-6.08301655182,10.0,0.0,0.0,0.0,10.0,0.0,0.0,0.0,10.0
1446035417245443357,3890,1446035417241919040,robocape_mag,9.20665078697,10.4672208312,-6.08301655182,10.0,0.0,0.0,0.0,10.0,0.0,0.0,0.0,10.0
1446035417271694482,3891,1446035417267442941,robocape_mag,8.93809535339,10.5938376232,-6.19711494224,10.0,0.0,0.0,0.0,10.0,0.0,0.0,0.0,10.0
1446035417292093940,3892,1446035417288347959,robocape_mag,8.93809535339,10.5938376232,-6.19711494224,10.0,0.0,0.0,0.0,10.0,0.0,0.0,0.0,10.0
1446035417317528023,3893,1446035417314012050,robocape_mag,8.93809535339,10.5938376232,-6.19711494224,10.0,0.0,0.0,0.0,10.0,0.0,0.0,0.0,10.0
1446035417345553148,3894,1446035417342142105,robocape_mag,8.93809535339,10.5938376232,-6.19711494224,10.0,0.0,0.0,0.0,10.0,0.0,0.0,0.0,10.0
1446035417372451148,3895,1446035417368428945,robocape_mag,8.93809535339,10.5938376232,-6.19711494224,10.0,0.0,0.0,0.0,10.0,0.0,0.0,0.0,10.0
1446035417391955107,3896,1446035417388408899,robocape_mag,8.93809535339,10.5938376232,-6.19711494224,10.0,0.0,0.0,0.0,10.0,0.0,0.0,0.0,10.0
1446035417417494898,3897,1446035417413954973,robocape_mag,9.16354996461,10.2432647453,-6.47519812586,10.0,0.0,0.0,0.0,10.0,0.0,0.0,0.0,10.0
1446035417443107398,3898,1446035417439675092,robocape_mag,9.16354996461,10.2432647453,-6.47519812586,10.0,0.0,0.0,0.0,10.0,0.0,0.0,0.0,10.0
1446035417471635148,3899,1446035417467638969,robocape_mag,9.16354996461,10.2432647453,-6.47519812586,10.0,0.0,0.0,0.0,10.0,0.0,0.0,0.0,10.0
1446035417491989107,3900,1446035417488543033,robocape_mag,9.16354996461,10.2432647453,-6.47519812586,10.0,0.0,0.0,0.0,10.0,0.0,0.0,0.0,10.0
1446035417517437565,3901,1446035417513863086,robocape_mag,9.16354996461,10.2432647453,-6.47519812586,10.0,0.0,0.0,0.0,10.0,0.0,0.0,0.0,10.0
1446035417543488982,3902,1446035417539892911,robocape_mag,9.16354996461,10.2432647453,-6.47519812586,10.0,0.0,0.0,0.0,10.0,0.0,0.0,0.0,10.0
1446035417570229190,3903,1446035417566068887,robocape_mag,9.06498219126,10.2677500753,-6.60468652108,10.0,0.0,0.0,0.0,10.0,0.0,0.0,0.0,10.0
1446035417593218982,3904,1446035417589749097,robocape_mag,9.04202878743,10.2825072932,-6.60726317818,10.0,0.0,0.0,0.0,10.0,0.0,0.0,0.0,10.0
1446035417617532732,3905,1446035417613831043,robocape_mag,9.04202878743,10.2825072932,-6.60726317818,10.0,0.0,0.0,0.0,10.0,0.0,0.0,0.0,10.0
1446035417642450690,3906,1446035417638981103,robocape_mag,9.04202878743,10.2825072932,-6.60726317818,10.0,0.0,0.0,0.0,10.0,0.0,0.0,0.0,10.0
1446035417670906898,3907,1446035417668183088,robocape_mag,9.04202878743,10.2825072932,-6.60726317818,10.0,0.0,0.0,0.0,10.0,0.0,0.0,0.0,10.0
1446035417693066940,3908,1446035417689635038,robocape_mag,9.04202878743,10.2825072932,-6.60726317818,10.0,0.0,0.0,0.0,10.0,0.0,0.0,0.0,10.0
1446035417717775690,3909,1446035417713954925,robocape_mag,9.04202878743,10.2825072932,-6.60726317818,10.0,0.0,0.0,0.0,10.0,0.0,0.0,0.0,10.0
1446035417743338773,3910,1446035417739721059,robocape_mag,9.02401867232,10.3273421214,-6.48308182376,10.0,0.0,0.0,0.0,10.0,0.0,0.0,0.0,10.0
1446035417770713440,3911,1446035417766796112,robocape_mag,9.02401867232,10.3273421214,-6.48308182376,10.0,0.0,0.0,0.0,10.0,0.0,0.0,0.0,10.0
1446035417797015148,3912,1446035417792649984,robocape_mag,9.02401867232,10.3273421214,-6.48308182376,10.0,0.0,0.0,0.0,10.0,0.0,0.0,0.0,10.0
1446035417817392232,3913,1446035417813719034,robocape_mag,9.02401867232,10.3273421214,-6.48308182376,10.0,0.0,0.0,0.0,10.0,0.0,0.0,0.0,10.0
1446035417842315232,3914,1446035417838712930,robocape_mag,9.02401867232,10.3273421214,-6.48308182376,10.0,0.0,0.0,0.0,10.0,0.0,0.0,0.0,10.0
1446035417870111815,3915,1446035417866456031,robocape_mag,9.02401867232,10.3273421214,-6.48308182376,10.0,0.0,0.0,0.0,10.0,0.0,0.0,0.0,10.0
1446035417897679065,3916,1446035417892268896,robocape_mag,8.85008136697,10.5479765618,-6.38545622005,10.0,0.0,0.0,0.0,10.0,0.0,0.0,0.0,10.0
1446035417924771607,3917,1446035417921256065,robocape_mag,8.85008136697,10.5479765618,-6.38545622005,10.0,0.0,0.0,0.0,10.0,0.0,0.0,0.0,10.0
1446035417943780732,3918,1446035417940296888,robocape_mag,8.85008136697,10.5479765618,-6.38545622005,10.0,0.0,0.0,0.0,10.0,0.0,0.0,0.0,10.0
1446035417968232649,3919,1446035417964720964,robocape_mag,8.85008136697,10.5479765618,-6.38545622005,10.0,0.0,0.0,0.0,10.0,0.0,0.0,0.0,10.0
1446035417995673982,3920,1446035417991554975,robocape_mag,8.85008136697,10.5479765618,-6.38545622005,10.0,0.0,0.0,0.0,10.0,0.0,0.0,0.0,10.0
1446035418017144982,3921,1446035418013591051,robocape_mag,8.85008136697,10.5479765618,-6.38545622005,10.0,0.0,0.0,0.0,10.0,0.0,0.0,0.0,10.0
1446035418042381815,3922,1446035418038780927,robocape_mag,8.85008136697,10.5479765618,-6.38545622005,10.0,0.0,0.0,0.0,10.0,0.0,0.0,0.0,10.0
1446035418068190024,3923,1446035418064752101,robocape_mag,8.70957036012,10.6547851801,-6.65556049274,10.0,0.0,0.0,0.0,10.0,0.0,0.0,0.0,10.0
1446035418097191482,3924,1446035418093302011,robocape_mag,8.70957036012,10.6547851801,-6.65556049274,10.0,0.0,0.0,0.0,10.0,0.0,0.0,0.0,10.0
1446035418118627524,3925,1446035418114648103,robocape_mag,8.70957036012,10.6547851801,-6.65556049274,10.0,0.0,0.0,0.0,10.0,0.0,0.0,0.0,10.0
1446035418142110024,3926,1446035418138375043,robocape_mag,8.70957036012,10.6547851801,-6.65556049274,10.0,0.0,0.0,0.0,10.0,0.0,0.0,0.0,10.0
1446035418167504690,3927,1446035418163744926,robocape_mag,8.70957036012,10.6547851801,-6.65556049274,10.0,0.0,0.0,0.0,10.0,0.0,0.0,0.0,10.0
1446035418195894149,3928,1446035418191898107,robocape_mag,8.70957036012,10.6547851801,-6.65556049274,10.0,0.0,0.0,0.0,10.0,0.0,0.0,0.0,10.0
1446035418218014024,3929,1446035418213849067,robocape_mag,8.81503390442,10.6386077148,-6.33654457561,10.0,0.0,0.0,0.0,10.0,0.0,0.0,0.0,10.0
1446035418242619940,3930,1446035418238392114,robocape_mag,8.81503390442,10.6386077148,-6.33654457561,10.0,0.0,0.0,0.0,10.0,0.0,0.0,0.0,10.0
1446035418268468274,3931,1446035418264722108,robocape_mag,8.81503390442,10.6386077148,-6.33654457561,10.0,0.0,0.0,0.0,10.0,0.0,0.0,0.0,10.0
1446035418295834232,3932,1446035418292129993,robocape_mag,8.81503390442,10.6386077148,-6.33654457561,10.0,0.0,0.0,0.0,10.0,0.0,0.0,0.0,10.0
1446035418319044690,3933,1446035418315283060,robocape_mag,8.81503390442,10.6386077148,-6.33654457561,10.0,0.0,0.0,0.0,10.0,0.0,0.0,0.0,10.0
1446035418342275190,3934,1446035418338393926,robocape_mag,8.81503390442,10.6386077148,-6.33654457561,10.0,0.0,0.0,0.0,10.0,0.0,0.0,0.0,10.0
1446035418367343940,3935,1446035418363832950,robocape_mag,8.81503390442,10.6386077148,-6.33654457561,10.0,0.0,0.0,0.0,10.0,0.0,0.0,0.0,10.0
1446035418395586649,3936,1446035418391757965,robocape_mag,8.66294670663,10.8176003773,-6.54461845625,10.0,0.0,0.0,0.0,10.0,0.0,0.0,0.0,10.0
1446035418418439399,3937,1446035418414632081,robocape_mag,8.66294670663,10.8176003773,-6.54461845625,10.0,0.0,0.0,0.0,10.0,0.0,0.0,0.0,10.0
1446035418442269399,3938,1446035418438465118,robocape_mag,8.66294670663,10.8176003773,-6.54461845625,10.0,0.0,0.0,0.0,10.0,0.0,0.0,0.0,10.0
1446035418467218274,3939,1446035418463707923,robocape_mag,8.66294670663,10.8176003773,-6.54461845625,10.0,0.0,0.0,0.0,10.0,0.0,0.0,0.0,10.0
1446035418494641107,3940,1446035418491138935,robocape_mag,8.66294670663,10.8176003773,-6.54461845625,10.0,0.0,0.0,0.0,10.0,0.0,0.0,0.0,10.0
1446035418520576649,3941,1446035418516952037,robocape_mag,8.66294670663,10.8176003773,-6.54461845625,10.0,0.0,0.0,0.0,10.0,0.0,0.0,0.0,10.0
1446035418542956565,3942,1446035418539427995,robocape_mag,8.86727336558,10.4199875119,-6.72364292682,10.0,0.0,0.0,0.0,10.0,0.0,0.0,0.0,10.0
1446035418567323232,3943,1446035418563823938,robocape_mag,8.86727336558,10.4199875119,-6.72364292682,10.0,0.0,0.0,0.0,10.0,0.0,0.0,0.0,10.0
1446035418593178316,3944,1446035418589572906,robocape_mag,8.86727336558,10.4199875119,-6.72364292682,10.0,0.0,0.0,0.0,10.0,0.0,0.0,0.0,10.0
1446035418622218566,3945,1446035418618556022,robocape_mag,8.86727336558,10.4199875119,-6.72364292682,10.0,0.0,0.0,0.0,10.0,0.0,0.0,0.0,10.0
1446035418641940524,3946,1446035418638461112,robocape_mag,8.86727336558,10.4199875119,-6.72364292682,10.0,0.0,0.0,0.0,10.0,0.0,0.0,0.0,10.0
1446035418672320649,3947,1446035418663453102,robocape_mag,8.86727336558,10.4199875119,-6.72364292682,10.0,0.0,0.0,0.0,10.0,0.0,0.0,0.0,10.0
1446035418696541524,3948,1446035418692715883,robocape_mag,8.83830377438,10.4537122934,-6.79616340761,10.0,0.0,0.0,0.0,10.0,0.0,0.0,0.0,10.0
1446035418721598941,3949,1446035418717117071,robocape_mag,8.83830377438,10.4537122934,-6.79616340761,10.0,0.0,0.0,0.0,10.0,0.0,0.0,0.0,10.0
1446035418743867191,3950,1446035418739718914,robocape_mag,8.83830377438,10.4537122934,-6.79616340761,10.0,0.0,0.0,0.0,10.0,0.0,0.0,0.0,10.0
1446035418767157941,3951,1446035418763751983,robocape_mag,8.83830377438,10.4537122934,-6.79616340761,10.0,0.0,0.0,0.0,10.0,0.0,0.0,0.0,10.0
1446035418792467816,3952,1446035418788945913,robocape_mag,8.83830377438,10.4537122934,-6.79616340761,10.0,0.0,0.0,0.0,10.0,0.0,0.0,0.0,10.0
1446035418820825691,3953,1446035418817087888,robocape_mag,8.83830377438,10.4537122934,-6.79616340761,10.0,0.0,0.0,0.0,10.0,0.0,0.0,0.0,10.0
1446035418844127816,3954,1446035418840055942,robocape_mag,8.83830377438,10.4537122934,-6.79616340761,10.0,0.0,0.0,0.0,10.0,0.0,0.0,0.0,10.0
1446035418867156024,3955,1446035418863584041,robocape_mag,8.79113570175,10.5163890506,-6.6783284799,10.0,0.0,0.0,0.0,10.0,0.0,0.0,0.0,10.0
1446035418892433399,3956,1446035418888793945,robocape_mag,8.79113570175,10.5163890506,-6.6783284799,10.0,0.0,0.0,0.0,10.0,0.0,0.0,0.0,10.0
1446035418920732982,3957,1446035418916909933,robocape_mag,8.79113570175,10.5163890506,-6.6783284799,10.0,0.0,0.0,0.0,10.0,0.0,0.0,0.0,10.0
1446035418943889732,3958,1446035418940237998,robocape_mag,8.79113570175,10.5163890506,-6.6783284799,10.0,0.0,0.0,0.0,10.0,0.0,0.0,0.0,10.0
1446035418967272524,3959,1446035418963479042,robocape_mag,8.79113570175,10.5163890506,-6.6783284799,10.0,0.0,0.0,0.0,10.0,0.0,0.0,0.0,10.0
1446035418992613941,3960,1446035418989098072,robocape_mag,8.79113570175,10.5163890506,-6.6783284799,10.0,0.0,0.0,0.0,10.0,0.0,0.0,0.0,10.0
1446035419020090524,3961,1446035419016560077,robocape_mag,8.92866053491,10.3592116247,-6.72685036327,10.0,0.0,0.0,0.0,10.0,0.0,0.0,0.0,10.0
1446035419046021607,3962,1446035419040735960,robocape_mag,8.92866053491,10.3592116247,-6.72685036327,10.0,0.0,0.0,0.0,10.0,0.0,0.0,0.0,10.0
1446035419067427107,3963,1446035419063570022,robocape_mag,8.92866053491,10.3592116247,-6.72685036327,10.0,0.0,0.0,0.0,10.0,0.0,0.0,0.0,10.0
1446035419092485774,3964,1446035419088963031,robocape_mag,8.92866053491,10.3592116247,-6.72685036327,10.0,0.0,0.0,0.0,10.0,0.0,0.0,0.0,10.0
1446035419119114107,3965,1446035419115151882,robocape_mag,8.92866053491,10.3592116247,-6.72685036327,10.0,0.0,0.0,0.0,10.0,0.0,0.0,0.0,10.0
1446035419146409149,3966,1446035419141658067,robocape_mag,8.92866053491,10.3592116247,-6.72685036327,10.0,0.0,0.0,0.0,10.0,0.0,0.0,0.0,10.0
1446035419168822107,3967,1446035419164813995,robocape_mag,8.94925869215,10.3819406258,-6.50316709012,10.0,0.0,0.0,0.0,10.0,0.0,0.0,0.0,10.0
1446035419192318482,3968,1446035419188818931,robocape_mag,8.66472906099,10.8342980287,-6.51618226525,10.0,0.0,0.0,0.0,10.0,0.0,0.0,0.0,10.0
1446035419218124941,3969,1446035419214099884,robocape_mag,8.66472906099,10.8342980287,-6.51618226525,10.0,0.0,0.0,0.0,10.0,0.0,0.0,0.0,10.0
1446035419246903399,3970,1446035419242685079,robocape_mag,8.66472906099,10.8342980287,-6.51618226525,10.0,0.0,0.0,0.0,10.0,0.0,0.0,0.0,10.0
1446035419268860149,3971,1446035419264688968,robocape_mag,8.66472906099,10.8342980287,-6.51618226525,10.0,0.0,0.0,0.0,10.0,0.0,0.0,0.0,10.0
1446035419292097399,3972,1446035419288410902,robocape_mag,8.66472906099,10.8342980287,-6.51618226525,10.0,0.0,0.0,0.0,10.0,0.0,0.0,0.0,10.0
1446035419317844566,3973,1446035419313960075,robocape_mag,8.66472906099,10.8342980287,-6.51618226525,10.0,0.0,0.0,0.0,10.0,0.0,0.0,0.0,10.0
1446035419345549149,3974,1446035419341770887,robocape_mag,8.72820588188,10.6976334839,-6.4705788083,10.0,0.0,0.0,0.0,10.0,0.0,0.0,0.0,10.0
1446035419368573566,3975,1446035419364005088,robocape_mag,8.72820588188,10.6976334839,-6.4705788083,10.0,0.0,0.0,0.0,10.0,0.0,0.0,0.0,10.0
1446035419392255358,3976,1446035419388394117,robocape_mag,8.72820588188,10.6976334839,-6.4705788083,10.0,0.0,0.0,0.0,10.0,0.0,0.0,0.0,10.0
1446035419417375816,3977,1446035419413747072,robocape_mag,8.72820588188,10.6976334839,-6.4705788083,10.0,0.0,0.0,0.0,10.0,0.0,0.0,0.0,10.0
1446035419445899608,3978,1446035419442203998,robocape_mag,8.72820588188,10.6976334839,-6.4705788083,10.0,0.0,0.0,0.0,10.0,0.0,0.0,0.0,10.0
1446035419469632108,3979,1446035419465601921,robocape_mag,8.72820588188,10.6976334839,-6.4705788083,10.0,0.0,0.0,0.0,10.0,0.0,0.0,0.0,10.0
1446035419492376899,3980,1446035419488486051,robocape_mag,8.63498877936,10.8383020419,-6.76635612238,10.0,0.0,0.0,0.0,10.0,0.0,0.0,0.0,10.0
1446035419517223066,3981,1446035419513598918,robocape_mag,8.63498877936,10.8383020419,-6.76635612238,10.0,0.0,0.0,0.0,10.0,0.0,0.0,0.0,10.0
1446035419546466149,3982,1446035419542860984,robocape_mag,8.63498877936,10.8383020419,-6.76635612238,10.0,0.0,0.0,0.0,10.0,0.0,0.0,0.0,10.0
1446035419571635233,3983,1446035419567466974,robocape_mag,8.63498877936,10.8383020419,-6.76635612238,10.0,0.0,0.0,0.0,10.0,0.0,0.0,0.0,10.0
1446035419592233024,3984,1446035419588469982,robocape_mag,8.63498877936,10.8383020419,-6.76635612238,10.0,0.0,0.0,0.0,10.0,0.0,0.0,0.0,10.0
1446035419617299566,3985,1446035419613784074,robocape_mag,8.63498877936,10.8383020419,-6.76635612238,10.0,0.0,0.0,0.0,10.0,0.0,0.0,0.0,10.0
1446035419645338733,3986,1446035419641532897,robocape_mag,8.63498877936,10.8383020419,-6.76635612238,10.0,0.0,0.0,0.0,10.0,0.0,0.0,0.0,10.0
1446035419677460108,3987,1446035419668943881,robocape_mag,8.61827485228,10.9416572342,-6.64443815616,10.0,0.0,0.0,0.0,10.0,0.0,0.0,0.0,10.0
1446035419697396691,3988,1446035419693903923,robocape_mag,8.61827485228,10.9416572342,-6.64443815616,10.0,0.0,0.0,0.0,10.0,0.0,0.0,0.0,10.0
1446035419718215941,3989,1446035419714703083,robocape_mag,8.61827485228,10.9416572342,-6.64443815616,10.0,0.0,0.0,0.0,10.0,0.0,0.0,0.0,10.0
1446035419743261191,3990,1446035419739689111,robocape_mag,8.61827485228,10.9416572342,-6.64443815616,10.0,0.0,0.0,0.0,10.0,0.0,0.0,0.0,10.0
1446035419770688358,3991,1446035419766638994,robocape_mag,8.61827485228,10.9416572342,-6.64443815616,10.0,0.0,0.0,0.0,10.0,0.0,0.0,0.0,10.0
1446035419793554899,3992,1446035419789844989,robocape_mag,8.61827485228,10.9416572342,-6.64443815616,10.0,0.0,0.0,0.0,10.0,0.0,0.0,0.0,10.0
1446035419817376899,3993,1446035419813867092,robocape_mag,8.69873508877,10.7318777123,-6.52151030419,10.0,0.0,0.0,0.0,10.0,0.0,0.0,0.0,10.0
1446035419842980733,3994,1446035419839493989,robocape_mag,8.69873508877,10.7318777123,-6.52151030419,10.0,0.0,0.0,0.0,10.0,0.0,0.0,0.0,10.0
1446035419871035316,3995,1446035419867392063,robocape_mag,8.69873508877,10.7318777123,-6.52151030419,10.0,0.0,0.0,0.0,10.0,0.0,0.0,0.0,10.0
1446035419893313691,3996,1446035419888900995,robocape_mag,8.69873508877,10.7318777123,-6.52151030419,10.0,0.0,0.0,0.0,10.0,0.0,0.0,0.0,10.0
1446035419918923524,3997,1446035419915105104,robocape_mag,8.69873508877,10.7318777123,-6.52151030419,10.0,0.0,0.0,0.0,10.0,0.0,0.0,0.0,10.0
1446035419943214066,3998,1446035419939795970,robocape_mag,8.69873508877,10.7318777123,-6.52151030419,10.0,0.0,0.0,0.0,10.0,0.0,0.0,0.0,10.0
1446035419970922275,3999,1446035419967174053,robocape_mag,8.63959702584,10.8681785924,-6.59545239496,10.0,0.0,0.0,0.0,10.0,0.0,0.0,0.0,10.0
1446035419994445441,4000,1446035419989881992,robocape_mag,8.63959702584,10.8681785924,-6.59545239496,10.0,0.0,0.0,0.0,10.0,0.0,0.0,0.0,10.0
1446035420017196358,4001,1446035420013415098,robocape_mag,8.63959702584,10.8681785924,-6.59545239496,10.0,0.0,0.0,0.0,10.0,0.0,0.0,0.0,10.0
1446035420042394191,4002,1446035420038650989,robocape_mag,8.63959702584,10.8681785924,-6.59545239496,10.0,0.0,0.0,0.0,10.0,0.0,0.0,0.0,10.0
