%time,field.header.seq,field.header.stamp,field.header.frame_id,field.orientation.x,field.orientation.y,field.orientation.z,field.orientation.w,field.orientation_covariance0,field.orientation_covariance1,field.orientation_covariance2,field.orientation_covariance3,field.orientation_covariance4,field.orientation_covariance5,field.orientation_covariance6,field.orientation_covariance7,field.orientation_covariance8,field.angular_velocity.x,field.angular_velocity.y,field.angular_velocity.z,field.angular_velocity_covariance0,field.angular_velocity_covariance1,field.angular_velocity_covariance2,field.angular_velocity_covariance3,field.angular_velocity_covariance4,field.angular_velocity_covariance5,field.angular_velocity_covariance6,field.angular_velocity_covariance7,field.angular_velocity_covariance8,field.linear_acceleration.x,field.linear_acceleration.y,field.linear_acceleration.z,field.linear_acceleration_covariance0,field.linear_acceleration_covariance1,field.linear_acceleration_covariance2,field.linear_acceleration_covariance3,field.linear_acceleration_covariance4,field.linear_acceleration_covariance5,field.linear_acceleration_covariance6,field.linear_acceleration_covariance7,field.linear_acceleration_covariance8
1452008901055118273,1,1452008901051712036,robocape,13.6720072127,-1.21414767298,-24.5156295602,0.0,10.0,0.0,0.0,0.0,10.0,0.0,0.0,0.0,10.0,0.00279631914458,0.0114515926873,0.00386158358061,1.0,0.0,0.0,0.0,1.0,0.0,0.0,0.0,1.0,-0.00838256835938,0.596359863281,9.83634521484,0.1,0.0,0.0,0.0,0.1,0.0,0.0,0.0,0.1
1452008901087552815,2,1452008901084212064,robocape,13.645861569,-1.19809447534,-24.4471454942,0.0,10.0,0.0,0.0,0.0,10.0,0.0,0.0,0.0,10.0,0.00292947719909,0.0117179087963,0.00372842552611,1.0,0.0,0.0,0.0,1.0,0.0,0.0,0.0,1.0,-0.00239501953125,0.603544921875,9.85311035156,0.1,0.0,0.0,0.0,0.1,0.0,0.0,0.0,0.1
1452008901119727731,3,1452008901116763114,robocape,13.6203507257,-1.18165786767,-24.3783436076,0.0,10.0,0.0,0.0,0.0,10.0,0.0,0.0,0.0,10.0,0.0031957933081,0.0119842249054,0.00399474163512,1.0,0.0,0.0,0.0,1.0,0.0,0.0,0.0,1.0,-0.009580078125,0.595162353516,9.87346801758,0.1,0.0,0.0,0.0,0.1,0.0,0.0,0.0,0.1
1452008901151950565,4,1452008901148864984,robocape,13.5942147464,-1.16497580468,-24.3107831405,0.0,10.0,0.0,0.0,0.0,10.0,0.0,0.0,0.0,10.0,0.00279631914458,0.0119842249054,0.0034621094171,1.0,0.0,0.0,0.0,1.0,0.0,0.0,0.0,1.0,-0.01916015625,0.610729980469,9.87107299805,0.1,0.0,0.0,0.0,0.1,0.0,0.0,0.0,0.1
1452008901189323690,5,1452008901183351993,robocape,13.5692144512,-1.14797183206,-24.2426524406,0.0,10.0,0.0,0.0,0.0,10.0,0.0,0.0,0.0,10.0,0.0033289513626,0.0122505410144,0.00386158358061,1.0,0.0,0.0,0.0,1.0,0.0,0.0,0.0,1.0,-0.00359252929688,0.613125,9.81958007812,0.1,0.0,0.0,0.0,0.1,0.0,0.0,0.0,0.1
1452008901219800315,6,1452008901216682910,robocape,13.5433420229,-1.13126501966,-24.1746443908,0.0,10.0,0.0,0.0,0.0,10.0,0.0,0.0,0.0,10.0,0.00279631914458,0.0121173829599,0.00399474163512,1.0,0.0,0.0,0.0,1.0,0.0,0.0,0.0,1.0,-0.00119750976563,0.613125,9.8483203125,0.1,0.0,0.0,0.0,0.1,0.0,0.0,0.0,0.1
1452008901254076690,7,1452008901250612974,robocape,13.5170972586,-1.11498486198,-24.1072751388,0.0,10.0,0.0,0.0,0.0,10.0,0.0,0.0,0.0,10.0,0.00253000303558,0.0118510668509,0.00386158358061,1.0,0.0,0.0,0.0,1.0,0.0,0.0,0.0,1.0,-0.0143701171875,0.602347412109,9.83634521484,0.1,0.0,0.0,0.0,0.1,0.0,0.0,0.0,0.1
1452008901287684481,8,1452008901283876895,robocape,13.4909858902,-1.09862517691,-24.0394135567,0.0,10.0,0.0,0.0,0.0,10.0,0.0,0.0,0.0,10.0,0.00253000303558,0.0119842249054,0.00426105774413,1.0,0.0,0.0,0.0,1.0,0.0,0.0,0.0,1.0,-0.0143701171875,0.59396484375,9.86628295898,0.1,0.0,0.0,0.0,0.1,0.0,0.0,0.0,0.1
1452008901321065315,9,1452008901317859888,robocape,13.4660026189,-1.08238979779,-23.9723308322,0.0,10.0,0.0,0.0,0.0,10.0,0.0,0.0,0.0,10.0,0.00306263525359,0.0118510668509,0.00399474163512,1.0,0.0,0.0,0.0,1.0,0.0,0.0,0.0,1.0,0.00359252929688,0.595162353516,9.85790039062,0.1,0.0,0.0,0.0,0.1,0.0,0.0,0.0,0.1
1452008901353692606,10,1452008901350441932,robocape,13.4418943656,-1.06559704133,-23.9056204709,0.0,10.0,0.0,0.0,0.0,10.0,0.0,0.0,0.0,10.0,0.0034621094171,0.0121173829599,0.00386158358061,1.0,0.0,0.0,0.0,1.0,0.0,0.0,0.0,1.0,-0.00119750976563,0.591569824219,9.84353027344,0.1,0.0,0.0,0.0,0.1,0.0,0.0,0.0,0.1
1452008901387636731,11,1452008901383822917,robocape,13.4176581895,-1.04855186049,-23.8391248553,0.0,10.0,0.0,0.0,0.0,10.0,0.0,0.0,0.0,10.0,0.0033289513626,0.0122505410144,0.00386158358061,1.0,0.0,0.0,0.0,1.0,0.0,0.0,0.0,1.0,0.0,0.603544921875,9.87825805664,0.1,0.0,0.0,0.0,0.1,0.0,0.0,0.0,0.1
1452008901419209898,12,1452008901415903091,robocape,13.3930433965,-1.03224209358,-23.773077044,0.0,10.0,0.0,0.0,0.0,10.0,0.0,0.0,0.0,10.0,0.00306263525359,0.0118510668509,0.00386158358061,1.0,0.0,0.0,0.0,1.0,0.0,0.0,0.0,1.0,-0.0047900390625,0.615520019531,9.8519128418,0.1,0.0,0.0,0.0,0.1,0.0,0.0,0.0,0.1
1452008901452801565,13,1452008901449609041,robocape,13.3680529384,-1.01604109333,-23.7068306015,0.0,10.0,0.0,0.0,0.0,10.0,0.0,0.0,0.0,10.0,0.00279631914458,0.0118510668509,0.00412789968962,1.0,0.0,0.0,0.0,1.0,0.0,0.0,0.0,1.0,-0.0047900390625,0.615520019531,9.86029541016,0.1,0.0,0.0,0.0,0.1,0.0,0.0,0.0,0.1
1452008901487041982,14,1452008901483592033,robocape,13.3426811833,-1.00021065311,-23.6414448181,0.0,10.0,0.0,0.0,0.0,10.0,0.0,0.0,0.0,10.0,0.00253000303558,0.0115847507418,0.00386158358061,1.0,0.0,0.0,0.0,1.0,0.0,0.0,0.0,1.0,-0.0143701171875,0.610729980469,9.86508544922,0.1,0.0,0.0,0.0,0.1,0.0,0.0,0.0,0.1
1452008901519256232,15,1452008901516146898,robocape,13.3174272099,-0.98395290194,-23.5769703652,0.0,10.0,0.0,0.0,0.0,10.0,0.0,0.0,0.0,10.0,0.00253000303558,0.0117179087963,0.0034621094171,1.0,0.0,0.0,0.0,1.0,0.0,0.0,0.0,1.0,-0.0107775878906,0.597557373047,9.83993774414,0.1,0.0,0.0,0.0,0.1,0.0,0.0,0.0,0.1
1452008901552793065,16,1452008901549706935,robocape,13.2935538215,-0.967428941635,-23.5116621612,0.0,10.0,0.0,0.0,0.0,10.0,0.0,0.0,0.0,10.0,0.0031957933081,0.0119842249054,0.00399474163512,1.0,0.0,0.0,0.0,1.0,0.0,0.0,0.0,1.0,-0.00359252929688,0.601149902344,9.8902331543,0.1,0.0,0.0,0.0,0.1,0.0,0.0,0.0,0.1
1452008901586131565,17,1452008901583040952,robocape,13.270550199,-0.951149293555,-23.4466489774,0.0,10.0,0.0,0.0,0.0,10.0,0.0,0.0,0.0,10.0,0.00359526747161,0.0118510668509,0.00399474163512,1.0,0.0,0.0,0.0,1.0,0.0,0.0,0.0,1.0,-0.009580078125,0.592767333984,9.8483203125,0.1,0.0,0.0,0.0,0.1,0.0,0.0,0.0,0.1
1452008901618895898,18,1452008901615777015,robocape,13.2476640909,-0.933934348575,-23.381425639,0.0,10.0,0.0,0.0,0.0,10.0,0.0,0.0,0.0,10.0,0.00359526747161,0.0123836990689,0.00412789968962,1.0,0.0,0.0,0.0,1.0,0.0,0.0,0.0,1.0,-0.0047900390625,0.607137451172,9.83395019531,0.1,0.0,0.0,0.0,0.1,0.0,0.0,0.0,0.1
1452008901652233607,19,1452008901648701906,robocape,13.2233847101,-0.917035954901,-23.3173132107,0.0,10.0,0.0,0.0,0.0,10.0,0.0,0.0,0.0,10.0,0.00279631914458,0.0121173829599,0.00372842552611,1.0,0.0,0.0,0.0,1.0,0.0,0.0,0.0,1.0,-0.00119750976563,0.614322509766,9.83395019531,0.1,0.0,0.0,0.0,0.1,0.0,0.0,0.0,0.1
1452008901685078065,20,1452008901681672096,robocape,13.1989701419,-0.900818049424,-23.2538624565,0.0,10.0,0.0,0.0,0.0,10.0,0.0,0.0,0.0,10.0,0.00266316109008,0.0117179087963,0.00359526747161,1.0,0.0,0.0,0.0,1.0,0.0,0.0,0.0,1.0,-0.009580078125,0.608334960938,9.83993774414,0.1,0.0,0.0,0.0,0.1,0.0,0.0,0.0,0.1
1452008901718287315,21,1452008901715178012,robocape,13.173673578,-0.88495488047,-23.1902634966,0.0,10.0,0.0,0.0,0.0,10.0,0.0,0.0,0.0,10.0,0.00213052887206,0.0115847507418,0.00386158358061,1.0,0.0,0.0,0.0,1.0,0.0,0.0,0.0,1.0,-0.00838256835938,0.602347412109,9.88185058594,0.1,0.0,0.0,0.0,0.1,0.0,0.0,0.0,0.1
1452008901750784648,22,1452008901747425079,robocape,13.1487443316,-0.86853493848,-23.1270303756,0.0,10.0,0.0,0.0,0.0,10.0,0.0,0.0,0.0,10.0,0.00226368692657,0.0118510668509,0.00372842552611,1.0,0.0,0.0,0.0,1.0,0.0,0.0,0.0,1.0,-0.00598754882813,0.584384765625,9.86748046875,0.1,0.0,0.0,0.0,0.1,0.0,0.0,0.0,0.1
1452008901783668190,23,1452008901780590057,robocape,13.125189329,-0.851732971778,-23.0634274485,0.0,10.0,0.0,0.0,0.0,10.0,0.0,0.0,0.0,10.0,0.00292947719909,0.0121173829599,0.00399474163512,1.0,0.0,0.0,0.0,1.0,0.0,0.0,0.0,1.0,-0.00239501953125,0.607137451172,9.87586303711,0.1,0.0,0.0,0.0,0.1,0.0,0.0,0.0,0.1
1452008901817853315,24,1452008901814265966,robocape,13.1024999666,-0.83493001704,-23.000051852,0.0,10.0,0.0,0.0,0.0,10.0,0.0,0.0,0.0,10.0,0.0033289513626,0.0121173829599,0.00399474163512,1.0,0.0,0.0,0.0,1.0,0.0,0.0,0.0,1.0,-0.01916015625,0.601149902344,9.86029541016,0.1,0.0,0.0,0.0,0.1,0.0,0.0,0.0,0.1
1452008901850563023,25,1452008901847446918,robocape,13.0811749312,-0.81788069564,-22.9368341409,0.0,10.0,0.0,0.0,0.0,10.0,0.0,0.0,0.0,10.0,0.00399474163512,0.0122505410144,0.00399474163512,1.0,0.0,0.0,0.0,1.0,0.0,0.0,0.0,1.0,-0.0119750976563,0.601149902344,9.8483203125,0.1,0.0,0.0,0.0,0.1,0.0,0.0,0.0,0.1
1452008901884134940,26,1452008901880906105,robocape,13.058956995,-0.800885265604,-22.8736407289,0.0,10.0,0.0,0.0,0.0,10.0,0.0,0.0,0.0,10.0,0.0034621094171,0.0122505410144,0.00412789968962,1.0,0.0,0.0,0.0,1.0,0.0,0.0,0.0,1.0,-0.0131726074219,0.601149902344,9.86508544922,0.1,0.0,0.0,0.0,0.1,0.0,0.0,0.0,0.1
1452008901919437232,27,1452008901916306018,robocape,13.0358390731,-0.784211481525,-22.811532721,0.0,10.0,0.0,0.0,0.0,10.0,0.0,0.0,0.0,10.0,0.00292947719909,0.0119842249054,0.00372842552611,1.0,0.0,0.0,0.0,1.0,0.0,0.0,0.0,1.0,-0.0047900390625,0.607137451172,9.85071533203,0.1,0.0,0.0,0.0,0.1,0.0,0.0,0.0,0.1
1452008901950564523,28,1452008901947421073,robocape,13.0115799833,-0.768084149364,-22.7495621095,0.0,10.0,0.0,0.0,0.0,10.0,0.0,0.0,0.0,10.0,0.00226368692657,0.0117179087963,0.00386158358061,1.0,0.0,0.0,0.0,1.0,0.0,0.0,0.0,1.0,-0.00718505859375,0.608334960938,9.87107299805,0.1,0.0,0.0,0.0,0.1,0.0,0.0,0.0,0.1
1452008901983163690,29,1452008901980144977,robocape,12.9879305731,-0.751099528149,-22.6881240478,0.0,10.0,0.0,0.0,0.0,10.0,0.0,0.0,0.0,10.0,0.00253000303558,0.0121173829599,0.00359526747161,1.0,0.0,0.0,0.0,1.0,0.0,0.0,0.0,1.0,-0.0143701171875,0.607137451172,9.86388793945,0.1,0.0,0.0,0.0,0.1,0.0,0.0,0.0,0.1
1452008902017261607,30,1452008902013122081,robocape,12.9648946265,-0.734913400843,-22.6268368886,0.0,10.0,0.0,0.0,0.0,10.0,0.0,0.0,0.0,10.0,0.00279631914458,0.0117179087963,0.00372842552611,1.0,0.0,0.0,0.0,1.0,0.0,0.0,0.0,1.0,-0.00119750976563,0.589174804688,9.85430786133,0.1,0.0,0.0,0.0,0.1,0.0,0.0,0.0,0.1
1452008902049974023,31,1452008902046757936,robocape,12.9424710728,-0.71803994874,-22.5653652673,0.0,10.0,0.0,0.0,0.0,10.0,0.0,0.0,0.0,10.0,0.00306263525359,0.0121173829599,0.00386158358061,1.0,0.0,0.0,0.0,1.0,0.0,0.0,0.0,1.0,-0.0179626464844,0.603544921875,9.886640625,0.1,0.0,0.0,0.0,0.1,0.0,0.0,0.0,0.1
1452008902082688982,32,1452008902079699039,robocape,12.9206580498,-0.70122307474,-22.5038752084,0.0,10.0,0.0,0.0,0.0,10.0,0.0,0.0,0.0,10.0,0.0033289513626,0.0121173829599,0.00399474163512,1.0,0.0,0.0,0.0,1.0,0.0,0.0,0.0,1.0,-0.0215551757813,0.604742431641,9.84951782227,0.1,0.0,0.0,0.0,0.1,0.0,0.0,0.0,0.1
1452008902117281398,33,1452008902113864898,robocape,12.8984483787,-0.684652171297,-22.4426802416,0.0,10.0,0.0,0.0,0.0,10.0,0.0,0.0,0.0,10.0,0.00306263525359,0.0119842249054,0.00399474163512,1.0,0.0,0.0,0.0,1.0,0.0,0.0,0.0,1.0,-0.01916015625,0.603544921875,9.83754272461,0.1,0.0,0.0,0.0,0.1,0.0,0.0,0.0,0.1
1452008902155088940,34,1452008902150710105,robocape,12.8753314951,-0.66760722775,-22.382630873,0.0,10.0,0.0,0.0,0.0,10.0,0.0,0.0,0.0,10.0,0.00253000303558,0.0121173829599,0.0034621094171,1.0,0.0,0.0,0.0,1.0,0.0,0.0,0.0,1.0,-0.0179626464844,0.598754882812,9.83275268555,0.1,0.0,0.0,0.0,0.1,0.0,0.0,0.0,0.1
1452008902188089482,35,1452008902183700084,robocape,12.8525786901,-0.651472745216,-22.3222519189,0.0,10.0,0.0,0.0,0.0,10.0,0.0,0.0,0.0,10.0,0.00266316109008,0.0117179087963,0.00386158358061,1.0,0.0,0.0,0.0,1.0,0.0,0.0,0.0,1.0,-0.0107775878906,0.592767333984,9.87825805664,0.1,0.0,0.0,0.0,0.1,0.0,0.0,0.0,0.1
1452008902224076357,36,1452008902220777988,robocape,12.830178887,-0.635528971684,-22.2623846277,0.0,10.0,0.0,0.0,0.0,10.0,0.0,0.0,0.0,10.0,0.00279631914458,0.0115847507418,0.00372842552611,1.0,0.0,0.0,0.0,1.0,0.0,0.0,0.0,1.0,-0.0167651367188,0.603544921875,9.86628295898,0.1,0.0,0.0,0.0,0.1,0.0,0.0,0.0,0.1
1452008902252847524,37,1452008902249625921,robocape,12.8078830563,-0.61908844966,-22.2026285057,0.0,10.0,0.0,0.0,0.0,10.0,0.0,0.0,0.0,10.0,0.00279631914458,0.0118510668509,0.00372842552611,1.0,0.0,0.0,0.0,1.0,0.0,0.0,0.0,1.0,-0.0155676269531,0.603544921875,9.86269042969,0.1,0.0,0.0,0.0,0.1,0.0,0.0,0.0,0.1
1452008902286843357,38,1452008902283034086,robocape,12.7856959204,-0.602510721058,-22.1425612924,0.0,10.0,0.0,0.0,0.0,10.0,0.0,0.0,0.0,10.0,0.00279631914458,0.0119842249054,0.00399474163512,1.0,0.0,0.0,0.0,1.0,0.0,0.0,0.0,1.0,-0.0143701171875,0.607137451172,9.85670288086,0.1,0.0,0.0,0.0,0.1,0.0,0.0,0.0,0.1
1452008902320852107,39,1452008902317339897,robocape,12.7638624008,-0.58593318949,-22.0827092841,0.0,10.0,0.0,0.0,0.0,10.0,0.0,0.0,0.0,10.0,0.00292947719909,0.0119842249054,0.00399474163512,1.0,0.0,0.0,0.0,1.0,0.0,0.0,0.0,1.0,-0.00119750976563,0.609532470703,9.85311035156,0.1,0.0,0.0,0.0,0.1,0.0,0.0,0.0,0.1
1452008902353806857,40,1452008902350281000,robocape,12.7418799546,-0.569107416917,-22.0230265961,0.0,10.0,0.0,0.0,0.0,10.0,0.0,0.0,0.0,10.0,0.00279631914458,0.0121173829599,0.00399474163512,1.0,0.0,0.0,0.0,1.0,0.0,0.0,0.0,1.0,-0.0047900390625,0.602347412109,9.87466552734,0.1,0.0,0.0,0.0,0.1,0.0,0.0,0.0,0.1
1452008902388247107,41,1452008902384401082,robocape,12.7204925364,-0.551870202531,-21.9642119075,0.0,10.0,0.0,0.0,0.0,10.0,0.0,0.0,0.0,10.0,0.00306263525359,0.0122505410144,0.00359526747161,1.0,0.0,0.0,0.0,1.0,0.0,0.0,0.0,1.0,-0.00359252929688,0.611927490234,9.85909790039,0.1,0.0,0.0,0.0,0.1,0.0,0.0,0.0,0.1
1452008902421435940,42,1452008902418137073,robocape,12.6987083672,-0.534991898123,-21.9051994444,0.0,10.0,0.0,0.0,0.0,10.0,0.0,0.0,0.0,10.0,0.00279631914458,0.0121173829599,0.00386158358061,1.0,0.0,0.0,0.0,1.0,0.0,0.0,0.0,1.0,-0.0179626464844,0.596359863281,9.86269042969,0.1,0.0,0.0,0.0,0.1,0.0,0.0,0.0,0.1
1452008902454711524,43,1452008902451316118,robocape,12.676280967,-0.518030086864,-21.8456466684,0.0,10.0,0.0,0.0,0.0,10.0,0.0,0.0,0.0,10.0,0.00239684498107,0.0122505410144,0.00426105774413,1.0,0.0,0.0,0.0,1.0,0.0,0.0,0.0,1.0,-0.00838256835938,0.595162353516,9.85909790039,0.1,0.0,0.0,0.0,0.1,0.0,0.0,0.0,0.1
1452008902488258399,44,1452008902484832048,robocape,12.6483850508,-0.508802916109,-21.7708327101,0.0,10.0,0.0,0.0,0.0,10.0,0.0,0.0,0.0,10.0,-0.00066579027252,0.0101200121423,0.0134489635049,1.0,0.0,0.0,0.0,1.0,0.0,0.0,0.0,1.0,-0.067060546875,0.983155517578,9.77407470703,0.1,0.0,0.0,0.0,0.1,0.0,0.0,0.0,0.1
1452008902519928899,45,1452008902516460895,robocape,12.3757500363,-0.537667859587,-21.5502507938,0.0,10.0,0.0,0.0,0.0,10.0,0.0,0.0,0.0,10.0,-0.13156015785,0.00785632521573,0.0981374861694,1.0,0.0,0.0,0.0,1.0,0.0,0.0,0.0,1.0,0.0299377441406,0.587977294922,9.86388793945,0.1,0.0,0.0,0.0,0.1,0.0,0.0,0.0,0.1
1452008902554178232,46,1452008902550842046,robocape,12.120071537,-0.555093913924,-21.3135595305,0.0,10.0,0.0,0.0,0.0,10.0,0.0,0.0,0.0,10.0,-0.122904884307,0.0150468601589,0.105594337222,1.0,0.0,0.0,0.0,1.0,0.0,0.0,0.0,1.0,0.167651367188,0.197589111328,9.9596887207,0.1,0.0,0.0,0.0,0.1,0.0,0.0,0.0,0.1
1452008902586550065,47,1452008902583342075,robocape,11.986549891,-0.541062447236,-21.0664270571,0.0,10.0,0.0,0.0,0.0,10.0,0.0,0.0,0.0,10.0,-0.0584563859272,0.0318247750264,0.106792759712,1.0,0.0,0.0,0.0,1.0,0.0,0.0,0.0,1.0,0.154478759766,-0.393980712891,10.1560803223,0.1,0.0,0.0,0.0,0.1,0.0,0.0,0.0,0.1
1452008902618904607,48,1452008902615644931,robocape,12.0690347251,-0.482151308536,-20.8848028129,0.0,10.0,0.0,0.0,0.0,10.0,0.0,0.0,0.0,10.0,0.0561926990007,0.0472711093489,0.0652474467069,1.0,0.0,0.0,0.0,1.0,0.0,0.0,0.0,1.0,0.347277832031,-0.678988037109,10.2147583008,0.1,0.0,0.0,0.0,0.1,0.0,0.0,0.0,0.1
1452008902652837065,49,1452008902649729013,robocape,12.3339858203,-0.387503881573,-20.749524841,0.0,10.0,0.0,0.0,0.0,10.0,0.0,0.0,0.0,10.0,0.153264920734,0.0604537567448,0.03488741028,1.0,0.0,0.0,0.0,1.0,0.0,0.0,0.0,1.0,0.0981958007813,0.577199707031,9.7716796875,0.1,0.0,0.0,0.0,0.1,0.0,0.0,0.0,0.1
1452008902685961899,50,1452008902682750940,robocape,12.60220746,-0.3014480695,-20.7035302317,0.0,10.0,0.0,0.0,0.0,10.0,0.0,0.0,0.0,10.0,0.155928081824,0.0460726868584,-0.0117179087963,1.0,0.0,0.0,0.0,1.0,0.0,0.0,0.0,1.0,-0.350870361328,1.09931396484,9.69623657227,0.1,0.0,0.0,0.0,0.1,0.0,0.0,0.0,0.1
1452008902718587482,51,1452008902715449094,robocape,12.7945052777,-0.267651696652,-20.7102772064,0.0,10.0,0.0,0.0,0.0,10.0,0.0,0.0,0.0,10.0,0.116380139636,0.0133158054504,-0.033023197517,1.0,0.0,0.0,0.0,1.0,0.0,0.0,0.0,1.0,-0.322130126953,2.53153564453,9.19447998047,0.1,0.0,0.0,0.0,0.1,0.0,0.0,0.0,0.1
1452008902751720524,52,1452008902748620033,robocape,12.5917364418,-0.294882365551,-20.7060686674,0.0,10.0,0.0,0.0,0.0,10.0,0.0,0.0,0.0,10.0,-0.0933437962073,-0.016112124595,-0.0159789665405,1.0,0.0,0.0,0.0,1.0,0.0,0.0,0.0,1.0,-0.0610729980469,2.06809936523,9.39326660156,0.1,0.0,0.0,0.0,0.1,0.0,0.0,0.0,0.1
1452008902785660690,53,1452008902782438993,robocape,12.3015714606,-0.353404811445,-20.7636421282,0.0,10.0,0.0,0.0,0.0,10.0,0.0,0.0,0.0,10.0,-0.13954964112,-0.0391484680242,-0.0442084740953,1.0,0.0,0.0,0.0,1.0,0.0,0.0,0.0,1.0,-0.475411376953,0.892144775391,9.71300170898,0.1,0.0,0.0,0.0,0.1,0.0,0.0,0.0,0.1
1452008902818428607,54,1452008902815362930,robocape,12.0157174598,-0.416403664387,-20.8088094384,0.0,10.0,0.0,0.0,0.0,10.0,0.0,0.0,0.0,10.0,-0.137685428357,-0.0399474163512,-0.0374174133156,1.0,0.0,0.0,0.0,1.0,0.0,0.0,0.0,1.0,0.13412109375,0.119750976563,10.0830322266,0.1,0.0,0.0,0.0,0.1,0.0,0.0,0.0,0.1
1452008902851428024,55,1452008902848360061,robocape,11.8353771118,-0.452014740952,-20.8334016128,0.0,10.0,0.0,0.0,0.0,10.0,0.0,0.0,0.0,10.0,-0.0821585196289,-0.0237021337017,-0.0307595105904,1.0,0.0,0.0,0.0,1.0,0.0,0.0,0.0,1.0,0.128133544922,0.0323327636719,10.1189575195,0.1,0.0,0.0,0.0,0.1,0.0,0.0,0.0,0.1
1452008902884888024,56,1452008902881413936,robocape,11.7201206634,-0.469146928262,-20.8431188889,0.0,10.0,0.0,0.0,0.0,10.0,0.0,0.0,0.0,10.0,-0.0479368996214,-0.0126500151779,-0.0255663464648,1.0,0.0,0.0,0.0,1.0,0.0,0.0,0.0,1.0,0.215551757813,-0.0981958007813,10.1141674805,0.1,0.0,0.0,0.0,0.1,0.0,0.0,0.0,0.1
1452008902919580566,57,1452008902916467905,robocape,11.6329011638,-0.463121515028,-20.8603995571,0.0,10.0,0.0,0.0,0.0,10.0,0.0,0.0,0.0,10.0,-0.0331563555715,-0.00159789665405,-0.0323574072445,1.0,0.0,0.0,0.0,1.0,0.0,0.0,0.0,1.0,0.0850231933594,0.101788330078,9.98962646484,0.1,0.0,0.0,0.0,0.1,0.0,0.0,0.0,0.1
1452008902950524524,58,1452008902947266101,robocape,11.6502403369,-0.446514929261,-20.8888901636,0.0,10.0,0.0,0.0,0.0,10.0,0.0,0.0,0.0,10.0,0.0222373951022,0.00253000303558,-0.0404800485692,1.0,0.0,0.0,0.0,1.0,0.0,0.0,0.0,1.0,0.102985839844,0.214354248047,9.98723144531,0.1,0.0,0.0,0.0,0.1,0.0,0.0,0.0,0.1
1452008902983708857,59,1452008902980324029,robocape,11.6990664506,-0.426317467447,-20.924217392,0.0,10.0,0.0,0.0,0.0,10.0,0.0,0.0,0.0,10.0,0.0390153099697,0.00359526747161,-0.0448742643678,1.0,0.0,0.0,0.0,1.0,0.0,0.0,0.0,1.0,0.0526904296875,0.408350830078,9.93214599609,0.1,0.0,0.0,0.0,0.1,0.0,0.0,0.0,0.1
1452008903016952357,60,1452008903013849973,robocape,11.7028041123,-0.41424231722,-20.9350583147,0.0,10.0,0.0,0.0,0.0,10.0,0.0,0.0,0.0,10.0,0.0150468601589,0.00213052887206,-0.0306263525359,1.0,0.0,0.0,0.0,1.0,0.0,0.0,0.0,1.0,0.0383203125,0.508941650391,9.90580078125,0.1,0.0,0.0,0.0,0.1,0.0,0.0,0.0,0.1
1452008903050985191,61,1452008903047739982,robocape,11.6628246265,-0.410530998337,-20.924069508,0.0,10.0,0.0,0.0,0.0,10.0,0.0,0.0,0.0,10.0,-0.00825579937925,0.000266316109008,-0.017710021249,1.0,0.0,0.0,0.0,1.0,0.0,0.0,0.0,1.0,0.0155676269531,0.504151611328,9.90101074219,0.1,0.0,0.0,0.0,0.1,0.0,0.0,0.0,0.1
1452008903083356774,62,1452008903080254077,robocape,11.5634412249,-0.418249681754,-20.8889935969,0.0,10.0,0.0,0.0,0.0,10.0,0.0,0.0,0.0,10.0,-0.0399474163512,-0.00292947719909,-0.00306263525359,1.0,0.0,0.0,0.0,1.0,0.0,0.0,0.0,1.0,0.0335302734375,0.44068359375,9.91538085938,0.1,0.0,0.0,0.0,0.1,0.0,0.0,0.0,0.1
1452008903117444816,63,1452008903114427089,robocape,11.4451297401,-0.434205892727,-20.8380329066,0.0,10.0,0.0,0.0,0.0,10.0,0.0,0.0,0.0,10.0,-0.050200586548,-0.00545948023466,0.00652474467069,1.0,0.0,0.0,0.0,1.0,0.0,0.0,0.0,1.0,0.0359252929688,0.526904296875,9.90939331055,0.1,0.0,0.0,0.0,0.1,0.0,0.0,0.0,0.1
1452008903150051899,64,1452008903146765947,robocape,11.2603001822,-0.45688776757,-20.7557357516,0.0,10.0,0.0,0.0,0.0,10.0,0.0,0.0,0.0,10.0,-0.0857537871006,-0.00559263828917,0.0246342400832,1.0,0.0,0.0,0.0,1.0,0.0,0.0,0.0,1.0,0.0682580566406,0.289797363281,9.98842895508,0.1,0.0,0.0,0.0,0.1,0.0,0.0,0.0,0.1
1452008903183020566,65,1452008903179935932,robocape,11.0967396569,-0.475204273535,-20.6719966434,0.0,10.0,0.0,0.0,0.0,10.0,0.0,0.0,0.0,10.0,-0.0747016685767,-0.0033289513626,0.0249005561922,1.0,0.0,0.0,0.0,1.0,0.0,0.0,0.0,1.0,0.178428955078,-0.0263452148438,10.1177600098,0.1,0.0,0.0,0.0,0.1,0.0,0.0,0.0,0.1
1452008903216608024,66,1452008903213526010,robocape,10.9931328599,-0.476131389009,-20.5884461673,0.0,10.0,0.0,0.0,0.0,10.0,0.0,0.0,0.0,10.0,-0.0431432096593,0.00545948023466,0.0226368692657,1.0,0.0,0.0,0.0,1.0,0.0,0.0,0.0,1.0,0.180823974609,-0.149688720703,10.1297351074,0.1,0.0,0.0,0.0,0.1,0.0,0.0,0.0,0.1
1452008903249896066,67,1452008903246762990,robocape,10.9747105725,-0.454278022533,-20.5144310993,0.0,10.0,0.0,0.0,0.0,10.0,0.0,0.0,0.0,10.0,0.00186421276306,0.016112124595,0.0146473859954,1.0,0.0,0.0,0.0,1.0,0.0,0.0,0.0,1.0,0.251477050781,-0.264649658203,10.1560803223,0.1,0.0,0.0,0.0,0.1,0.0,0.0,0.0,0.1
1452008903283090941,68,1452008903280018091,robocape,11.0354982611,-0.4100817049,-20.4510458031,0.0,10.0,0.0,0.0,0.0,10.0,0.0,0.0,0.0,10.0,0.0438089999318,0.0264984528463,0.00612527050718,1.0,0.0,0.0,0.0,1.0,0.0,0.0,0.0,1.0,0.184416503906,-0.156873779297,10.1081799316,0.1,0.0,0.0,0.0,0.1,0.0,0.0,0.0,0.1
1452008903316295232,69,1452008903313221931,robocape,11.2410724977,-0.338163430869,-20.4274259942,0.0,10.0,0.0,0.0,0.0,10.0,0.0,0.0,0.0,10.0,0.120774355435,0.0366184649886,-0.0191747598486,1.0,0.0,0.0,0.0,1.0,0.0,0.0,0.0,1.0,0.184416503906,-0.0347277832031,10.1057849121,0.1,0.0,0.0,0.0,0.1,0.0,0.0,0.0,0.1
1452008903349774857,70,1452008903346657991,robocape,11.509259911,-0.197204131149,-20.4462529413,0.0,10.0,0.0,0.0,0.0,10.0,0.0,0.0,0.0,10.0,0.154596501279,0.067644291688,-0.0498011123845,1.0,0.0,0.0,0.0,1.0,0.0,0.0,0.0,1.0,0.00119750976563,0.444276123047,9.86748046875,0.1,0.0,0.0,0.0,0.1,0.0,0.0,0.0,0.1
1452008903383619857,71,1452008903380125045,robocape,11.7544574537,-0.127206759148,-20.4863267094,0.0,10.0,0.0,0.0,0.0,10.0,0.0,0.0,0.0,10.0,0.143011750537,0.0288952978274,-0.0537958540196,1.0,0.0,0.0,0.0,1.0,0.0,0.0,0.0,1.0,0.0239501953125,0.540076904297,9.8902331543,0.1,0.0,0.0,0.0,0.1,0.0,0.0,0.0,0.1
1452008903416284316,72,1452008903413256883,robocape,11.8897383707,-0.0769339734156,-20.4766570888,0.0,10.0,0.0,0.0,0.0,10.0,0.0,0.0,0.0,10.0,0.0846885226645,0.0242347659197,-0.0245010820287,1.0,0.0,0.0,0.0,1.0,0.0,0.0,0.0,1.0,-0.047900390625,0.870589599609,9.84951782227,0.1,0.0,0.0,0.0,0.1,0.0,0.0,0.0,0.1
1452008903449949691,73,1452008903446691989,robocape,11.9206936951,-0.0442246644534,-20.4128971512,0.0,10.0,0.0,0.0,0.0,10.0,0.0,0.0,0.0,10.0,0.0290284558819,0.0213052887206,0.00705737688871,1.0,0.0,0.0,0.0,1.0,0.0,0.0,0.0,1.0,-0.0107775878906,0.744851074219,9.83754272461,0.1,0.0,0.0,0.0,0.1,0.0,0.0,0.0,0.1
1452008903483196441,74,1452008903480161905,robocape,11.9534295304,-0.0128539119313,-20.3470100336,0.0,10.0,0.0,0.0,0.0,10.0,0.0,0.0,0.0,10.0,0.0299605622634,0.0209058145571,0.00838895743375,1.0,0.0,0.0,0.0,1.0,0.0,0.0,0.0,1.0,0.0143701171875,0.541274414062,9.92017089844,0.1,0.0,0.0,0.0,0.1,0.0,0.0,0.0,0.1
1452008903516295982,75,1452008903513286113,robocape,11.9781090478,0.017668526973,-20.2813443631,0.0,10.0,0.0,0.0,0.0,10.0,0.0,0.0,0.0,10.0,0.0256995045193,0.0205063403936,0.00852211548825,1.0,0.0,0.0,0.0,1.0,0.0,0.0,0.0,1.0,-0.0275427246094,0.586779785156,9.86867797852,0.1,0.0,0.0,0.0,0.1,0.0,0.0,0.0,0.1
1452008903550073232,76,1452008903546794891,robocape,11.9916652269,0.0433148683937,-20.2200773234,0.0,10.0,0.0,0.0,0.0,10.0,0.0,0.0,0.0,10.0,0.0198405501211,0.0175768631945,0.00692421883421,1.0,0.0,0.0,0.0,1.0,0.0,0.0,0.0,1.0,-0.0419128417969,0.655037841797,9.82796264648,0.1,0.0,0.0,0.0,0.1,0.0,0.0,0.0,0.1
1452008903582806149,77,1452008903579766988,robocape,11.9256115969,0.0543360503878,-20.1363783355,0.0,10.0,0.0,0.0,0.0,10.0,0.0,0.0,0.0,10.0,-0.0226368692657,0.0126500151779,0.0213052887206,1.0,0.0,0.0,0.0,1.0,0.0,0.0,0.0,1.0,-0.0682580566406,0.857416992188,9.77646972656,0.1,0.0,0.0,0.0,0.1,0.0,0.0,0.0,0.1
1452008903616092733,78,1452008903613086938,robocape,11.7958061959,0.0543046907778,-20.0230280115,0.0,10.0,0.0,0.0,0.0,10.0,0.0,0.0,0.0,10.0,-0.0568584892732,0.0102531701968,0.0390153099697,1.0,0.0,0.0,0.0,1.0,0.0,0.0,0.0,1.0,-0.0347277832031,0.719703369141,9.886640625,0.1,0.0,0.0,0.0,0.1,0.0,0.0,0.0,0.1
1452008903649563899,79,1452008903646441936,robocape,11.6776155789,0.0574721622623,-19.8969136523,0.0,10.0,0.0,0.0,0.0,10.0,0.0,0.0,0.0,10.0,-0.050999534875,0.0131826473959,0.0455400546404,1.0,0.0,0.0,0.0,1.0,0.0,0.0,0.0,1.0,0.124541015625,0.136516113281,9.99920654297,0.1,0.0,0.0,0.0,0.1,0.0,0.0,0.0,0.1
1452008903682984733,80,1452008903679886102,robocape,11.660689844,0.0859316871779,-19.7851473074,0.0,10.0,0.0,0.0,0.0,10.0,0.0,0.0,0.0,10.0,0.00266316109008,0.0245010820287,0.0344879361165,1.0,0.0,0.0,0.0,1.0,0.0,0.0,0.0,1.0,0.106578369141,-0.0407153320313,10.0506994629,0.1,0.0,0.0,0.0,0.1,0.0,0.0,0.0,0.1
1452008903716326691,81,1452008903713229894,robocape,11.7441784167,0.138085115538,-19.6823999669,0.0,10.0,0.0,0.0,0.0,10.0,0.0,0.0,0.0,10.0,0.0559263828917,0.0356863586071,0.0263652947918,1.0,0.0,0.0,0.0,1.0,0.0,0.0,0.0,1.0,0.100590820313,0.277822265625,9.96926879883,0.1,0.0,0.0,0.0,0.1,0.0,0.0,0.0,0.1
1452008903750161649,82,1452008903746637105,robocape,11.8845821843,0.202383650535,-19.5913126373,0.0,10.0,0.0,0.0,0.0,10.0,0.0,0.0,0.0,10.0,0.0862864193186,0.0407463646782,0.0183758115215,1.0,0.0,0.0,0.0,1.0,0.0,0.0,0.0,1.0,0.0311352539063,0.445473632813,9.93813354492,0.1,0.0,0.0,0.0,0.1,0.0,0.0,0.0,0.1
1452008903783110483,83,1452008903779951095,robocape,11.9937576389,0.255125144239,-19.5059115001,0.0,10.0,0.0,0.0,0.0,10.0,0.0,0.0,0.0,10.0,0.0699079786146,0.034354778062,0.016911072922,1.0,0.0,0.0,0.0,1.0,0.0,0.0,0.0,1.0,-0.116158447266,0.987945556641,9.70461914063,0.1,0.0,0.0,0.0,0.1,0.0,0.0,0.0,0.1
1452008903816453899,84,1452008903813178062,robocape,12.0466018854,0.284661580606,-19.4743021527,0.0,10.0,0.0,0.0,0.0,10.0,0.0,0.0,0.0,10.0,0.0407463646782,0.016644756813,-0.00838895743375,1.0,0.0,0.0,0.0,1.0,0.0,0.0,0.0,1.0,-0.258662109375,1.51724487305,9.45553710938,0.1,0.0,0.0,0.0,0.1,0.0,0.0,0.0,0.1
1452008903850412066,85,1452008903847053050,robocape,11.9443180848,0.271571596551,-19.4751516944,0.0,10.0,0.0,0.0,0.0,10.0,0.0,0.0,0.0,10.0,-0.0411458388417,-0.00865527354276,-0.0193079179031,1.0,0.0,0.0,0.0,1.0,0.0,0.0,0.0,1.0,-0.237106933594,1.456171875,9.55133789063,0.1,0.0,0.0,0.0,0.1,0.0,0.0,0.0,0.1
1452008903883674191,86,1452008903879818916,robocape,11.7801497146,0.237388900522,-19.5054184427,0.0,10.0,0.0,0.0,0.0,10.0,0.0,0.0,0.0,10.0,-0.0737695621952,-0.0226368692657,-0.031957933081,1.0,0.0,0.0,0.0,1.0,0.0,0.0,0.0,1.0,-0.0455053710938,0.726888427734,9.81958007812,0.1,0.0,0.0,0.0,0.1,0.0,0.0,0.0,0.1
1452008903918517274,87,1452008903915313005,robocape,11.5641383586,0.19155099455,-19.4993229547,0.0,10.0,0.0,0.0,0.0,10.0,0.0,0.0,0.0,10.0,-0.101865911696,-0.0246342400832,-0.0110521185238,1.0,0.0,0.0,0.0,1.0,0.0,0.0,0.0,1.0,0.00119750976563,0.523311767578,9.90699829102,0.1,0.0,0.0,0.0,0.1,0.0,0.0,0.0,0.1
1452008903949828191,88,1452008903946453094,robocape,11.3789900822,0.154615542421,-19.4792793752,0.0,10.0,0.0,0.0,0.0,10.0,0.0,0.0,0.0,10.0,-0.0858869451551,-0.0186421276306,-0.00492684801665,1.0,0.0,0.0,0.0,1.0,0.0,0.0,0.0,1.0,0.107775878906,0.326920166016,9.98244140625,0.1,0.0,0.0,0.0,0.1,0.0,0.0,0.0,0.1
1452008903983150274,89,1452008903980037927,robocape,11.2082412225,0.127722536766,-19.4354233843,0.0,10.0,0.0,0.0,0.0,10.0,0.0,0.0,0.0,10.0,-0.0786964102118,-0.0110521185238,0.00652474467069,1.0,0.0,0.0,0.0,1.0,0.0,0.0,0.0,1.0,0.0706530761719,0.275427246094,9.99321899414,0.1,0.0,0.0,0.0,0.1,0.0,0.0,0.0,0.1
1452008904016413191,90,1452008904013334989,robocape,11.0348073295,0.110246054548,-19.3512272025,0.0,10.0,0.0,0.0,0.0,10.0,0.0,0.0,0.0,10.0,-0.0806937810294,-0.00213052887206,0.0270310850643,1.0,0.0,0.0,0.0,1.0,0.0,0.0,0.0,1.0,0.154478759766,0.138911132813,10.0207617188,0.1,0.0,0.0,0.0,0.1,0.0,0.0,0.0,0.1
1452008904049792441,91,1452008904046591043,robocape,10.8964646901,0.103264212512,-19.265235156,0.0,10.0,0.0,0.0,0.0,10.0,0.0,0.0,0.0,10.0,-0.0623179695079,0.0033289513626,0.0267647689553,1.0,0.0,0.0,0.0,1.0,0.0,0.0,0.0,1.0,0.0215551757813,-0.0898132324219,10.1045874023,0.1,0.0,0.0,0.0,0.1,0.0,0.0,0.0,0.1
1452008904082946733,92,1452008904079905986,robocape,10.8361516082,0.113711451016,-19.1933250591,0.0,10.0,0.0,0.0,0.0,10.0,0.0,0.0,0.0,10.0,-0.0210389726116,0.0107858024148,0.0170442309765,1.0,0.0,0.0,0.0,1.0,0.0,0.0,0.0,1.0,0.171243896484,-0.0790356445313,10.096204834,0.1,0.0,0.0,0.0,0.1,0.0,0.0,0.0,0.1
1452008904118091899,93,1452008904114144086,robocape,10.8336928574,0.13686620484,-19.1306414631,0.0,10.0,0.0,0.0,0.0,10.0,0.0,0.0,0.0,10.0,0.00958737992429,0.016378440704,0.0105194863058,1.0,0.0,0.0,0.0,1.0,0.0,0.0,0.0,1.0,0.113763427734,0.183218994141,10.0315393066,0.1,0.0,0.0,0.0,0.1,0.0,0.0,0.0,0.1
1452008904149796524,94,1452008904146528959,robocape,10.8719635657,0.17200799598,-19.0712354194,0.0,10.0,0.0,0.0,0.0,10.0,0.0,0.0,0.0,10.0,0.0311589847539,0.0222373951022,0.00732369299772,1.0,0.0,0.0,0.0,1.0,0.0,0.0,0.0,1.0,0.107775878906,0.21076171875,9.99082397461,0.1,0.0,0.0,0.0,0.1,0.0,0.0,0.0,0.1
1452008904184020858,95,1452008904180519104,robocape,10.9444145724,0.215907267093,-19.0107180583,0.0,10.0,0.0,0.0,0.0,10.0,0.0,0.0,0.0,10.0,0.0492684801665,0.0268979270098,0.0067910607797,1.0,0.0,0.0,0.0,1.0,0.0,0.0,0.0,1.0,0.112565917969,0.165256347656,10.0087866211,0.1,0.0,0.0,0.0,0.1,0.0,0.0,0.0,0.1
1452008904217333649,96,1452008904214273929,robocape,11.1898787749,0.289684865573,-19.0265973555,0.0,10.0,0.0,0.0,0.0,10.0,0.0,0.0,0.0,10.0,0.141813328047,0.0344879361165,-0.0382163616426,1.0,0.0,0.0,0.0,1.0,0.0,0.0,0.0,1.0,0.160466308594,-0.112565917969,10.0327368164,0.1,0.0,0.0,0.0,0.1,0.0,0.0,0.0,0.1
1452008904251206566,97,1452008904247874975,robocape,11.5533860998,0.37794782486,-19.1199770827,0.0,10.0,0.0,0.0,0.0,10.0,0.0,0.0,0.0,10.0,0.205729194209,0.0336889877895,-0.0821585196289,1.0,0.0,0.0,0.0,1.0,0.0,0.0,0.0,1.0,-0.107775878906,0.67060546875,9.84353027344,0.1,0.0,0.0,0.0,0.1,0.0,0.0,0.0,0.1
1452008904283655691,98,1452008904280627965,robocape,11.772061084,0.437103918487,-19.1478768709,0.0,10.0,0.0,0.0,0.0,10.0,0.0,0.0,0.0,10.0,0.128763838705,0.0255663464648,-0.0436758418773,1.0,0.0,0.0,0.0,1.0,0.0,0.0,0.0,1.0,-0.387993164063,1.86691772461,9.4687097168,0.1,0.0,0.0,0.0,0.1,0.0,0.0,0.0,0.1
1452008904317641691,99,1452008904314029932,robocape,11.7534099224,0.444653017383,-19.1364736555,0.0,10.0,0.0,0.0,0.0,10.0,0.0,0.0,0.0,10.0,0.00266316109008,0.0034621094171,-0.015313176268,1.0,0.0,0.0,0.0,1.0,0.0,0.0,0.0,1.0,-0.264649658203,1.54598510742,9.54056030273,0.1,0.0,0.0,0.0,0.1,0.0,0.0,0.0,0.1
1452008904351828900,100,1452008904348108053,robocape,11.6335022952,0.424433587273,-19.1517072059,0.0,10.0,0.0,0.0,0.0,10.0,0.0,0.0,0.0,10.0,-0.050733218766,-0.0135821215594,-0.0254331884103,1.0,0.0,0.0,0.0,1.0,0.0,0.0,0.0,1.0,-0.146096191406,0.947230224609,9.70461914063,0.1,0.0,0.0,0.0,0.1,0.0,0.0,0.0,0.1
1452008904390341233,101,1452008904386085987,robocape,11.4430273244,0.385992497247,-19.1471107023,0.0,10.0,0.0,0.0,0.0,10.0,0.0,0.0,0.0,10.0,-0.0885501062451,-0.0207726565026,-0.0123836990689,1.0,0.0,0.0,0.0,1.0,0.0,0.0,0.0,1.0,-0.0742456054688,0.886157226563,9.86388793945,0.1,0.0,0.0,0.0,0.1,0.0,0.0,0.0,0.1
1452008904418110483,102,1452008904415016889,robocape,11.2464000004,0.341704496756,-19.1326636163,0.0,10.0,0.0,0.0,0.0,10.0,0.0,0.0,0.0,10.0,-0.0921453737167,-0.0227700273202,-0.00652474467069,1.0,0.0,0.0,0.0,1.0,0.0,0.0,0.0,1.0,0.0502954101563,0.489781494141,9.87706054688,0.1,0.0,0.0,0.0,0.1,0.0,0.0,0.0,0.1
1452008904455258525,103,1452008904449579000,robocape,11.0074645571,0.294134778694,-19.0820393434,0.0,10.0,0.0,0.0,0.0,10.0,0.0,0.0,0.0,10.0,-0.115181717146,-0.0207726565026,0.0133158054504,1.0,0.0,0.0,0.0,1.0,0.0,0.0,0.0,1.0,0.143701171875,0.451461181641,9.9213684082,0.1,0.0,0.0,0.0,0.1,0.0,0.0,0.0,0.1
1452008904487028816,104,1452008904481623888,robocape,10.7459361899,0.257760821477,-18.9761526161,0.0,10.0,0.0,0.0,0.0,10.0,0.0,0.0,0.0,10.0,-0.127964890378,-0.00958737992429,0.0416784710597,1.0,0.0,0.0,0.0,1.0,0.0,0.0,0.0,1.0,0.0658630371094,0.0538879394531,10.0111816406,0.1,0.0,0.0,0.0,0.1,0.0,0.0,0.0,0.1
1452008904521730275,105,1452008904515760898,robocape,10.52663288,0.226708335834,-18.8698678775,0.0,10.0,0.0,0.0,0.0,10.0,0.0,0.0,0.0,10.0,-0.105860653331,-0.00705737688871,0.0411458388417,1.0,0.0,0.0,0.0,1.0,0.0,0.0,0.0,1.0,0.290994873047,0.0874182128906,10.1021923828,0.1,0.0,0.0,0.0,0.1,0.0,0.0,0.0,0.1
1452008904554897275,106,1452008904551194906,robocape,10.3411446239,0.149408191728,-18.7820554237,0.0,10.0,0.0,0.0,0.0,10.0,0.0,0.0,0.0,10.0,-0.0880174740271,-0.0328900394625,0.0356863586071,1.0,0.0,0.0,0.0,1.0,0.0,0.0,0.0,1.0,0.152083740234,-0.286204833984,10.0734521484,0.1,0.0,0.0,0.0,0.1,0.0,0.0,0.0,0.1
1452008904586302108,107,1452008904583259105,robocape,10.3087708213,0.16562358739,-18.7202601787,0.0,10.0,0.0,0.0,0.0,10.0,0.0,0.0,0.0,10.0,-0.00692421883421,0.0126500151779,0.0118510668509,1.0,0.0,0.0,0.0,1.0,0.0,0.0,0.0,1.0,0.2682421875,-0.246687011719,10.1704504395,0.1,0.0,0.0,0.0,0.1,0.0,0.0,0.0,0.1
1452008904620146108,108,1452008904616509914,robocape,10.3358613076,0.197838929688,-18.6611694234,0.0,10.0,0.0,0.0,0.0,10.0,0.0,0.0,0.0,10.0,0.0245010820287,0.0206394984481,0.00852211548825,1.0,0.0,0.0,0.0,1.0,0.0,0.0,0.0,1.0,0.174836425781,-0.108973388672,10.1105749512,0.1,0.0,0.0,0.0,0.1,0.0,0.0,0.0,0.1
1452008904654392025,109,1452008904650747060,robocape,10.4055101581,0.242772023718,-18.6000095064,0.0,10.0,0.0,0.0,0.0,10.0,0.0,0.0,0.0,10.0,0.0470047932399,0.0274305592278,0.00812264132474,1.0,0.0,0.0,0.0,1.0,0.0,0.0,0.0,1.0,0.180823974609,0.0215551757813,10.0830322266,0.1,0.0,0.0,0.0,0.1,0.0,0.0,0.0,0.1
1452008904687382108,110,1452008904684051990,robocape,10.502643452,0.29562280704,-18.530750471,0.0,10.0,0.0,0.0,0.0,10.0,0.0,0.0,0.0,10.0,0.0615190211808,0.0323574072445,0.0114515926873,1.0,0.0,0.0,0.0,1.0,0.0,0.0,0.0,1.0,0.117355957031,0.215551757813,10.0447119141,0.1,0.0,0.0,0.0,0.1,0.0,0.0,0.0,0.1
1452008904719999483,111,1452008904716388940,robocape,10.600856954,0.346727974765,-18.4628032896,0.0,10.0,0.0,0.0,0.0,10.0,0.0,0.0,0.0,10.0,0.0621848114534,0.0314253008629,0.0109189604693,1.0,0.0,0.0,0.0,1.0,0.0,0.0,0.0,1.0,0.0395178222656,0.370030517578,9.94531860352,0.1,0.0,0.0,0.0,0.1,0.0,0.0,0.0,0.1
1452008904754485566,112,1452008904750842094,robocape,10.6750227205,0.390607354019,-18.3945599737,0.0,10.0,0.0,0.0,0.0,10.0,0.0,0.0,0.0,10.0,0.0495347962755,0.0278300333913,0.0119842249054,1.0,0.0,0.0,0.0,1.0,0.0,0.0,0.0,1.0,0.0359252929688,0.490979003906,9.94172607422,0.1,0.0,0.0,0.0,0.1,0.0,0.0,0.0,0.1
1452008904786151066,113,1452008904782819032,robocape,10.7427241018,0.432878916798,-18.329540691,0.0,10.0,0.0,0.0,0.0,10.0,0.0,0.0,0.0,10.0,0.0462058449129,0.0267647689553,0.0105194863058,1.0,0.0,0.0,0.0,1.0,0.0,0.0,0.0,1.0,0.0646655273438,0.308957519531,9.95370117188,0.1,0.0,0.0,0.0,0.1,0.0,0.0,0.0,0.1
1452008904820984108,114,1452008904817791938,robocape,10.7850443015,0.470676729271,-18.2595266087,0.0,10.0,0.0,0.0,0.0,10.0,0.0,0.0,0.0,10.0,0.032756881408,0.0250337142467,0.0138484376684,1.0,0.0,0.0,0.0,1.0,0.0,0.0,0.0,1.0,0.0239501953125,0.548459472656,9.94052856445,0.1,0.0,0.0,0.0,0.1,0.0,0.0,0.0,0.1
1452008904853913191,115,1452008904850652933,robocape,10.8489691125,0.509592929334,-18.1999072949,0.0,10.0,0.0,0.0,0.0,10.0,0.0,0.0,0.0,10.0,0.0443416321498,0.0246342400832,0.00812264132474,1.0,0.0,0.0,0.0,1.0,0.0,0.0,0.0,1.0,0.0275427246094,0.505349121094,9.90699829102,0.1,0.0,0.0,0.0,0.1,0.0,0.0,0.0,0.1
1452008904887380650,116,1452008904883650064,robocape,10.9109653905,0.549217327623,-18.1432622673,0.0,10.0,0.0,0.0,0.0,10.0,0.0,0.0,0.0,10.0,0.0434095257683,0.0247673981377,0.00652474467069,1.0,0.0,0.0,0.0,1.0,0.0,0.0,0.0,1.0,0.0263452148438,0.439486083984,9.92615844727,0.1,0.0,0.0,0.0,0.1,0.0,0.0,0.0,0.1
1452008904922450358,117,1452008904916625976,robocape,10.9734134536,0.5884005389,-18.0849814791,0.0,10.0,0.0,0.0,0.0,10.0,0.0,0.0,0.0,10.0,0.0436758418773,0.0247673981377,0.00745685105222,1.0,0.0,0.0,0.0,1.0,0.0,0.0,0.0,1.0,0.028740234375,0.4215234375,9.95489868164,0.1,0.0,0.0,0.0,0.1,0.0,0.0,0.0,0.1
1452008904953679025,118,1452008904950647115,robocape,11.0380618496,0.628773647402,-18.0254822087,0.0,10.0,0.0,0.0,0.0,10.0,0.0,0.0,0.0,10.0,0.0448742643678,0.0255663464648,0.00798948327024,1.0,0.0,0.0,0.0,1.0,0.0,0.0,0.0,1.0,0.0299377441406,0.468226318359,9.9285534668,0.1,0.0,0.0,0.0,0.1,0.0,0.0,0.0,0.1
1452008904986178442,119,1452008904983040094,robocape,11.1096575726,0.671553876766,-17.9657088508,0.0,10.0,0.0,0.0,0.0,10.0,0.0,0.0,0.0,10.0,0.0486026898939,0.0268979270098,0.00785632521573,1.0,0.0,0.0,0.0,1.0,0.0,0.0,0.0,1.0,0.028740234375,0.477806396484,9.92615844727,0.1,0.0,0.0,0.0,0.1,0.0,0.0,0.0,0.1
1452008905019999608,120,1452008905016968965,robocape,11.182448842,0.713072481336,-17.904180921,0.0,10.0,0.0,0.0,0.0,10.0,0.0,0.0,0.0,10.0,0.0492684801665,0.0264984528463,0.00892158965177,1.0,0.0,0.0,0.0,1.0,0.0,0.0,0.0,1.0,0.0119750976563,0.558039550781,9.86748046875,0.1,0.0,0.0,0.0,0.1,0.0,0.0,0.0,0.1
1452008905053019192,121,1452008905049841880,robocape,11.2364807072,0.751220852483,-17.8355792998,0.0,10.0,0.0,0.0,0.0,10.0,0.0,0.0,0.0,10.0,0.0392816260787,0.0255663464648,0.0131826473959,1.0,0.0,0.0,0.0,1.0,0.0,0.0,0.0,1.0,-0.0682580566406,0.817899169922,9.80281494141,0.1,0.0,0.0,0.0,0.1,0.0,0.0,0.0,0.1
1452008905084704275,122,1452008905081661939,robocape,11.2524700423,0.777081703172,-17.7774221196,0.0,10.0,0.0,0.0,0.0,10.0,0.0,0.0,0.0,10.0,0.0193079179031,0.018242653467,0.00932106381528,1.0,0.0,0.0,0.0,1.0,0.0,0.0,0.0,1.0,-0.0910107421875,0.908909912109,9.74772949219,0.1,0.0,0.0,0.0,0.1,0.0,0.0,0.0,0.1
1452008905120064775,123,1452008905116990089,robocape,11.2129098748,0.786141496875,-17.7379784229,0.0,10.0,0.0,0.0,0.0,10.0,0.0,0.0,0.0,10.0,-0.00985369603329,0.00772316716123,0.00173105470855,1.0,0.0,0.0,0.0,1.0,0.0,0.0,0.0,1.0,-0.0910107421875,0.880169677734,9.7716796875,0.1,0.0,0.0,0.0,0.1,0.0,0.0,0.0,0.1
1452008905152501775,124,1452008905149324893,robocape,11.1465756258,0.787073150489,-17.7072459426,0.0,10.0,0.0,0.0,0.0,10.0,0.0,0.0,0.0,10.0,-0.0239684498107,0.00266316109008,-0.00173105470855,1.0,0.0,0.0,0.0,1.0,0.0,0.0,0.0,1.0,-0.0490979003906,0.694555664063,9.84592529297,0.1,0.0,0.0,0.0,0.1,0.0,0.0,0.0,0.1
1452008905185245483,125,1452008905182142972,robocape,11.0772933246,0.788179924798,-17.6708390709,0.0,10.0,0.0,0.0,0.0,10.0,0.0,0.0,0.0,10.0,-0.0256995045193,0.0033289513626,0.00133158054504,1.0,0.0,0.0,0.0,1.0,0.0,0.0,0.0,1.0,0.00239501953125,0.507744140625,9.8902331543,0.1,0.0,0.0,0.0,0.1,0.0,0.0,0.0,0.1
1452008905219378400,126,1452008905216353893,robocape,11.0214659395,0.792615947121,-17.635485192,0.0,10.0,0.0,0.0,0.0,10.0,0.0,0.0,0.0,10.0,-0.0186421276306,0.00492684801665,0.000399474163512,1.0,0.0,0.0,0.0,1.0,0.0,0.0,0.0,1.0,0.0526904296875,0.428708496094,9.90819580078,0.1,0.0,0.0,0.0,0.1,0.0,0.0,0.0,0.1
1452008905250586733,127,1452008905247301101,robocape,10.9875178058,0.803181178434,-17.5957161119,0.0,10.0,0.0,0.0,0.0,10.0,0.0,0.0,0.0,10.0,-0.00719053494321,0.00852211548825,0.00199737081756,1.0,0.0,0.0,0.0,1.0,0.0,0.0,0.0,1.0,0.0694555664063,0.356857910156,9.97286132813,0.1,0.0,0.0,0.0,0.1,0.0,0.0,0.0,0.1
1452008905283658608,128,1452008905280642032,robocape,10.9782321058,0.821016100149,-17.5495060537,0.0,10.0,0.0,0.0,0.0,10.0,0.0,0.0,0.0,10.0,0.00572579634367,0.0129163312869,0.00452737385313,1.0,0.0,0.0,0.0,1.0,0.0,0.0,0.0,1.0,0.0694555664063,0.358055419922,9.96807128906,0.1,0.0,0.0,0.0,0.1,0.0,0.0,0.0,0.1
1452008905317024400,129,1452008905313811063,robocape,10.9914961404,0.844938499115,-17.4988769206,0.0,10.0,0.0,0.0,0.0,10.0,0.0,0.0,0.0,10.0,0.0175768631945,0.0165115987585,0.00612527050718,1.0,0.0,0.0,0.0,1.0,0.0,0.0,0.0,1.0,0.0455053710938,0.434696044922,9.91418334961,0.1,0.0,0.0,0.0,0.1,0.0,0.0,0.0,0.1
1452008905350329733,130,1452008905347213983,robocape,11.0173588301,0.873025066385,-17.4473633485,0.0,10.0,0.0,0.0,0.0,10.0,0.0,0.0,0.0,10.0,0.0242347659197,0.0187752856851,0.00612527050718,1.0,0.0,0.0,0.0,1.0,0.0,0.0,0.0,1.0,0.0299377441406,0.504151611328,9.90460327148,0.1,0.0,0.0,0.0,0.1,0.0,0.0,0.0,0.1
1452008905383433983,131,1452008905380390882,robocape,11.0468498996,0.90252490112,-17.3915763374,0.0,10.0,0.0,0.0,0.0,10.0,0.0,0.0,0.0,10.0,0.0260989786828,0.0199737081756,0.00825579937925,1.0,0.0,0.0,0.0,1.0,0.0,0.0,0.0,1.0,-0.00598754882813,0.573607177734,9.86029541016,0.1,0.0,0.0,0.0,0.1,0.0,0.0,0.0,0.1
1452008905417221733,132,1452008905414089918,robocape,11.0634076617,0.92789380107,-17.3389112825,0.0,10.0,0.0,0.0,0.0,10.0,0.0,0.0,0.0,10.0,0.0193079179031,0.0175768631945,0.00719053494321,1.0,0.0,0.0,0.0,1.0,0.0,0.0,0.0,1.0,-0.0383203125,0.746048583984,9.81479003906,0.1,0.0,0.0,0.0,0.1,0.0,0.0,0.0,0.1
1452008905450072442,133,1452008905447048902,robocape,11.050820123,0.944677450219,-17.2942813418,0.0,10.0,0.0,0.0,0.0,10.0,0.0,0.0,0.0,10.0,0.00399474163512,0.0123836990689,0.00412789968962,1.0,0.0,0.0,0.0,1.0,0.0,0.0,0.0,1.0,-0.0598754882813,0.795146484375,9.79562988281,0.1,0.0,0.0,0.0,0.1,0.0,0.0,0.0,0.1
1452008905483184025,134,1452008905480159044,robocape,11.0116796256,0.95325215273,-17.2568217909,0.0,10.0,0.0,0.0,0.0,10.0,0.0,0.0,0.0,10.0,-0.0099868540878,0.00745685105222,0.00146473859954,1.0,0.0,0.0,0.0,1.0,0.0,0.0,0.0,1.0,-0.0359252929688,0.704135742188,9.80760498047,0.1,0.0,0.0,0.0,0.1,0.0,0.0,0.0,0.1
1452008905516678025,135,1452008905513637065,robocape,10.9602886301,0.970824232242,-17.2841193961,0.0,10.0,0.0,0.0,0.0,10.0,0.0,0.0,0.0,10.0,-0.0154463343225,0.00559263828917,-0.0334226716805,1.0,0.0,0.0,0.0,1.0,0.0,0.0,0.0,1.0,-0.00239501953125,0.543669433594,9.87227050781,0.1,0.0,0.0,0.0,0.1,0.0,0.0,0.0,0.1
1452008905549703108,136,1452008905546627044,robocape,10.9158435387,0.97822064574,-17.2460414645,0.0,10.0,0.0,0.0,0.0,10.0,0.0,0.0,0.0,10.0,-0.0129163312869,0.00692421883421,0.00199737081756,1.0,0.0,0.0,0.0,1.0,0.0,0.0,0.0,1.0,0.0203576660156,0.490979003906,9.91657836914,0.1,0.0,0.0,0.0,0.1,0.0,0.0,0.0,0.1
1452008905582812858,137,1452008905579787015,robocape,10.8846567872,0.989307226286,-17.2056742273,0.0,10.0,0.0,0.0,0.0,10.0,0.0,0.0,0.0,10.0,-0.00599211245268,0.00905474770627,0.00279631914458,1.0,0.0,0.0,0.0,1.0,0.0,0.0,0.0,1.0,0.0155676269531,0.467028808594,9.90340576172,0.1,0.0,0.0,0.0,0.1,0.0,0.0,0.0,0.1
1452008905616658858,138,1452008905613548994,robocape,10.8656976214,1.00407624851,-17.1630343458,0.0,10.0,0.0,0.0,0.0,10.0,0.0,0.0,0.0,10.0,0.000399474163512,0.0111852765783,0.00359526747161,1.0,0.0,0.0,0.0,1.0,0.0,0.0,0.0,1.0,0.0299377441406,0.457448730469,9.886640625,0.1,0.0,0.0,0.0,0.1,0.0,0.0,0.0,0.1
1452008905649826817,139,1452008905646722078,robocape,10.8584483744,1.02247064549,-17.1178850992,0.0,10.0,0.0,0.0,0.0,10.0,0.0,0.0,0.0,10.0,0.00652474467069,0.0133158054504,0.00452737385313,1.0,0.0,0.0,0.0,1.0,0.0,0.0,0.0,1.0,0.0407153320313,0.473016357422,9.88424560547,0.1,0.0,0.0,0.0,0.1,0.0,0.0,0.0,0.1
1452008905682929484,140,1452008905679826974,robocape,10.8618441723,1.04342180105,-17.0714520754,0.0,10.0,0.0,0.0,0.0,10.0,0.0,0.0,0.0,10.0,0.0121173829599,0.0147805440499,0.00492684801665,1.0,0.0,0.0,0.0,1.0,0.0,0.0,0.0,1.0,0.0215551757813,0.504151611328,9.88544311523,0.1,0.0,0.0,0.0,0.1,0.0,0.0,0.0,0.1
1452008905716792317,141,1452008905713707923,robocape,10.8725830439,1.0664753731,-17.0241147427,0.0,10.0,0.0,0.0,0.0,10.0,0.0,0.0,0.0,10.0,0.0159789665405,0.0159789665405,0.00519316412565,1.0,0.0,0.0,0.0,1.0,0.0,0.0,0.0,1.0,0.00838256835938,0.518521728516,9.91657836914,0.1,0.0,0.0,0.0,0.1,0.0,0.0,0.0,0.1
1452008905750158859,142,1452008905747065067,robocape,10.8864689373,1.09057088651,-16.9730980667,0.0,10.0,0.0,0.0,0.0,10.0,0.0,0.0,0.0,10.0,0.0175768631945,0.016911072922,0.00705737688871,1.0,0.0,0.0,0.0,1.0,0.0,0.0,0.0,1.0,-0.0143701171875,0.562829589844,9.87346801758,0.1,0.0,0.0,0.0,0.1,0.0,0.0,0.0,0.1
1452008905783005650,143,1452008905779947042,robocape,10.8894478163,1.11158865351,-16.9252155269,0.0,10.0,0.0,0.0,0.0,10.0,0.0,0.0,0.0,10.0,0.0118510668509,0.0150468601589,0.00585895439817,1.0,0.0,0.0,0.0,1.0,0.0,0.0,0.0,1.0,-0.0203576660156,0.680185546875,9.79802490234,0.1,0.0,0.0,0.0,0.1,0.0,0.0,0.0,0.1
1452008905816982484,144,1452008905813538074,robocape,10.8736835181,1.12680541999,-16.8823719636,0.0,10.0,0.0,0.0,0.0,10.0,0.0,0.0,0.0,10.0,0.00199737081756,0.0115847507418,0.00399474163512,1.0,0.0,0.0,0.0,1.0,0.0,0.0,0.0,1.0,-0.0251477050781,0.716110839844,9.78365478516,0.1,0.0,0.0,0.0,0.1,0.0,0.0,0.0,0.1
1452008905849643484,145,1452008905846569061,robocape,10.8416939728,1.1369182583,-16.8454103382,0.0,10.0,0.0,0.0,0.0,10.0,0.0,0.0,0.0,10.0,-0.00652474467069,0.00838895743375,0.00159789665405,1.0,0.0,0.0,0.0,1.0,0.0,0.0,0.0,1.0,-0.0251477050781,0.644260253906,9.83514770508,0.1,0.0,0.0,0.0,0.1,0.0,0.0,0.0,0.1
1452008905883330275,146,1452008905880312919,robocape,10.8047568251,1.14525778171,-16.8087219734,0.0,10.0,0.0,0.0,0.0,10.0,0.0,0.0,0.0,10.0,-0.00918790576077,0.00745685105222,0.00173105470855,1.0,0.0,0.0,0.0,1.0,0.0,0.0,0.0,1.0,-0.00359252929688,0.561632080078,9.88544311523,0.1,0.0,0.0,0.0,0.1,0.0,0.0,0.0,0.1
1452008905919040525,147,1452008905915910959,robocape,10.7710141112,1.15622027286,-16.7695859651,0.0,10.0,0.0,0.0,0.0,10.0,0.0,0.0,0.0,10.0,-0.00759000910673,0.00905474770627,0.00279631914458,1.0,0.0,0.0,0.0,1.0,0.0,0.0,0.0,1.0,0.01916015625,0.526904296875,9.89262817383,0.1,0.0,0.0,0.0,0.1,0.0,0.0,0.0,0.1
1452008905949791109,148,1452008905946759939,robocape,10.7436854852,1.16877991026,-16.7294207144,0.0,10.0,0.0,0.0,0.0,10.0,0.0,0.0,0.0,10.0,-0.00426105774413,0.0099868540878,0.0031957933081,1.0,0.0,0.0,0.0,1.0,0.0,0.0,0.0,1.0,0.0107775878906,0.505349121094,9.90819580078,0.1,0.0,0.0,0.0,0.1,0.0,0.0,0.0,0.1
1452008905982934942,149,1452008905979775905,robocape,10.6608639314,1.18374907788,-16.6884481616,0.0,10.0,0.0,0.0,0.0,10.0,0.0,0.0,0.0,10.0,-0.0336889877895,0.0113184346328,0.00386158358061,1.0,0.0,0.0,0.0,1.0,0.0,0.0,0.0,1.0,0.0143701171875,0.490979003906,9.89502319336,0.1,0.0,0.0,0.0,0.1,0.0,0.0,0.0,0.1
1452008906016332317,150,1452008906013294935,robocape,10.6492242102,1.2008062646,-16.6462427345,0.0,10.0,0.0,0.0,0.0,10.0,0.0,0.0,0.0,10.0,0.00386158358061,0.0125168571234,0.00386158358061,1.0,0.0,0.0,0.0,1.0,0.0,0.0,0.0,1.0,0.0227526855469,0.504151611328,9.90220825195,0.1,0.0,0.0,0.0,0.1,0.0,0.0,0.0,0.1
1452008906049421859,151,1452008906046392917,robocape,10.6442193329,1.21964469764,-16.6027117275,0.0,10.0,0.0,0.0,0.0,10.0,0.0,0.0,0.0,10.0,0.00732369299772,0.0135821215594,0.00439421579863,1.0,0.0,0.0,0.0,1.0,0.0,0.0,0.0,1.0,0.00838256835938,0.525706787109,9.89382568359,0.1,0.0,0.0,0.0,0.1,0.0,0.0,0.0,0.1
1452008906083262984,152,1452008906079991102,robocape,10.6440434986,1.23915302298,-16.558844136,0.0,10.0,0.0,0.0,0.0,10.0,0.0,0.0,0.0,10.0,0.00985369603329,0.0139815957229,0.00452737385313,1.0,0.0,0.0,0.0,1.0,0.0,0.0,0.0,1.0,-0.00239501953125,0.547261962891,9.86029541016,0.1,0.0,0.0,0.0,0.1,0.0,0.0,0.0,0.1
1452008906117530109,153,1452008906114168882,robocape,10.6456740758,1.25903976399,-16.5144801605,0.0,10.0,0.0,0.0,0.0,10.0,0.0,0.0,0.0,10.0,0.0107858024148,0.0142479118319,0.00479368996214,1.0,0.0,0.0,0.0,1.0,0.0,0.0,0.0,1.0,-0.00359252929688,0.546064453125,9.85311035156,0.1,0.0,0.0,0.0,0.1,0.0,0.0,0.0,0.1
1452008906149716109,154,1452008906146457910,robocape,10.6473523132,1.27876298645,-16.469492319,0.0,10.0,0.0,0.0,0.0,10.0,0.0,0.0,0.0,10.0,0.0107858024148,0.0142479118319,0.00519316412565,1.0,0.0,0.0,0.0,1.0,0.0,0.0,0.0,1.0,-0.00598754882813,0.589174804688,9.84712280273,0.1,0.0,0.0,0.0,0.1,0.0,0.0,0.0,0.1
1452008906183250484,155,1452008906179759979,robocape,10.6417161363,1.29662291439,-16.4258210293,0.0,10.0,0.0,0.0,0.0,10.0,0.0,0.0,0.0,10.0,0.00692421883421,0.0131826473959,0.00479368996214,1.0,0.0,0.0,0.0,1.0,0.0,0.0,0.0,1.0,-0.0239501953125,0.641865234375,9.84951782227,0.1,0.0,0.0,0.0,0.1,0.0,0.0,0.0,0.1
1452008906216766859,156,1452008906213150978,robocape,10.6251838508,1.31121135576,-16.3855538077,0.0,10.0,0.0,0.0,0.0,10.0,0.0,0.0,0.0,10.0,0.00119842249054,0.0111852765783,0.0034621094171,1.0,0.0,0.0,0.0,1.0,0.0,0.0,0.0,1.0,-0.0251477050781,0.640667724609,9.8519128418,0.1,0.0,0.0,0.0,0.1,0.0,0.0,0.0,0.1
1452008906250717609,157,1452008906246495008,robocape,10.6008389767,1.32409249115,-16.3473428146,0.0,10.0,0.0,0.0,0.0,10.0,0.0,0.0,0.0,10.0,-0.00292947719909,0.0101200121423,0.00266316109008,1.0,0.0,0.0,0.0,1.0,0.0,0.0,0.0,1.0,-0.0107775878906,0.596359863281,9.86508544922,0.1,0.0,0.0,0.0,0.1,0.0,0.0,0.0,0.1
1452008906282833484,158,1452008906279652118,robocape,10.5743307746,1.33629620289,-16.3083879963,0.0,10.0,0.0,0.0,0.0,10.0,0.0,0.0,0.0,10.0,-0.00412789968962,0.00985369603329,0.0031957933081,1.0,0.0,0.0,0.0,1.0,0.0,0.0,0.0,1.0,0.00119750976563,0.565224609375,9.8902331543,0.1,0.0,0.0,0.0,0.1,0.0,0.0,0.0,0.1
1452008906316862484,159,1452008906313205003,robocape,10.5479070978,1.34895496815,-16.269209155,0.0,10.0,0.0,0.0,0.0,10.0,0.0,0.0,0.0,10.0,-0.00412789968962,0.0101200121423,0.0033289513626,1.0,0.0,0.0,0.0,1.0,0.0,0.0,0.0,1.0,0.0047900390625,0.546064453125,9.87466552734,0.1,0.0,0.0,0.0,0.1,0.0,0.0,0.0,0.1
1452008906349799484,160,1452008906346652030,robocape,10.5233381224,1.36176847255,-16.2295854716,0.0,10.0,0.0,0.0,0.0,10.0,0.0,0.0,0.0,10.0,-0.0031957933081,0.0102531701968,0.00359526747161,1.0,0.0,0.0,0.0,1.0,0.0,0.0,0.0,1.0,0.0107775878906,0.548459472656,9.8902331543,0.1,0.0,0.0,0.0,0.1,0.0,0.0,0.0,0.1
1452008906382886734,161,1452008906379823923,robocape,10.5008264331,1.37496252436,-16.1907367683,0.0,10.0,0.0,0.0,0.0,10.0,0.0,0.0,0.0,10.0,-0.00213052887206,0.0103863282513,0.0031957933081,1.0,0.0,0.0,0.0,1.0,0.0,0.0,0.0,1.0,0.01916015625,0.548459472656,9.88783813477,0.1,0.0,0.0,0.0,0.1,0.0,0.0,0.0,0.1
1452008906416733276,162,1452008906413691043,robocape,10.4813952958,1.38894052316,-16.1520652394,0.0,10.0,0.0,0.0,0.0,10.0,0.0,0.0,0.0,10.0,-0.000532632218016,0.0107858024148,0.00306263525359,1.0,0.0,0.0,0.0,1.0,0.0,0.0,0.0,1.0,0.00359252929688,0.531694335938,9.90699829102,0.1,0.0,0.0,0.0,0.1,0.0,0.0,0.0,0.1
1452008906449677317,163,1452008906446641921,robocape,10.4653469838,1.40367677831,-16.1120510847,0.0,10.0,0.0,0.0,0.0,10.0,0.0,0.0,0.0,10.0,0.00119842249054,0.0113184346328,0.00372842552611,1.0,0.0,0.0,0.0,1.0,0.0,0.0,0.0,1.0,-0.146096191406,0.513731689453,9.90939331055,0.1,0.0,0.0,0.0,0.1,0.0,0.0,0.0,0.1
1452008906482862151,164,1452008906479840040,robocape,10.4526479954,1.41930487722,-16.0714297214,0.0,10.0,0.0,0.0,0.0,10.0,0.0,0.0,0.0,10.0,0.00292947719909,0.0118510668509,0.00399474163512,1.0,0.0,0.0,0.0,1.0,0.0,0.0,0.0,1.0,0.00598754882813,0.523311767578,9.88783813477,0.1,0.0,0.0,0.0,0.1,0.0,0.0,0.0,0.1
1452008906517971109,165,1452008906514651060,robocape,10.442761856,1.43620827741,-16.0308954172,0.0,10.0,0.0,0.0,0.0,10.0,0.0,0.0,0.0,10.0,0.00439421579863,0.0125168571234,0.00386158358061,1.0,0.0,0.0,0.0,1.0,0.0,0.0,0.0,1.0,0.0107775878906,0.536484375,9.89502319336,0.1,0.0,0.0,0.0,0.1,0.0,0.0,0.0,0.1
1452008906550892317,166,1452008906547781944,robocape,10.4331952922,1.45271150947,-15.989775302,0.0,10.0,0.0,0.0,0.0,10.0,0.0,0.0,0.0,10.0,0.00452737385313,0.0123836990689,0.00426105774413,1.0,0.0,0.0,0.0,1.0,0.0,0.0,0.0,1.0,0.00718505859375,0.548459472656,9.886640625,0.1,0.0,0.0,0.0,0.1,0.0,0.0,0.0,0.1
1452008906583511026,167,1452008906580085992,robocape,10.4235246663,1.4712478032,-15.9458567455,0.0,10.0,0.0,0.0,0.0,10.0,0.0,0.0,0.0,10.0,0.00439421579863,0.0137152796139,0.00559263828917,1.0,0.0,0.0,0.0,1.0,0.0,0.0,0.0,1.0,-0.101788330078,0.540076904297,9.86867797852,0.1,0.0,0.0,0.0,0.1,0.0,0.0,0.0,0.1
1452008906616902734,168,1452008906613792896,robocape,10.3986236008,1.51263111877,-15.9182989612,0.0,10.0,0.0,0.0,0.0,10.0,0.0,0.0,0.0,10.0,-0.0033289513626,0.0239684498107,-0.00506000607115,1.0,0.0,0.0,0.0,1.0,0.0,0.0,0.0,1.0,-0.204774169922,0.659827880859,9.76209960938,0.1,0.0,0.0,0.0,0.1,0.0,0.0,0.0,0.1
1452008906649897192,169,1452008906646773099,robocape,10.3814557288,1.55981182431,-15.9002876523,0.0,10.0,0.0,0.0,0.0,10.0,0.0,0.0,0.0,10.0,0.000932106381528,0.0260989786828,-0.0106526443603,1.0,0.0,0.0,0.0,1.0,0.0,0.0,0.0,1.0,-1.91362060547,-0.535286865234,10.0219592285,0.1,0.0,0.0,0.0,0.1,0.0,0.0,0.0,0.1
1452008906685606526,170,1452008906682030916,robocape,10.3912253298,1.5692684242,-15.8726884309,0.0,10.0,0.0,0.0,0.0,10.0,0.0,0.0,0.0,10.0,0.0149137021044,0.00759000910673,-0.00213052887206,1.0,0.0,0.0,0.0,1.0,0.0,0.0,0.0,1.0,-5.55045776367,-0.650247802734,10.4087548828,0.1,0.0,0.0,0.0,0.1,0.0,0.0,0.0,0.1
1452008906717069651,171,1452008906714050054,robocape,10.477596588,1.53824150126,-15.7754101554,0.0,10.0,0.0,0.0,0.0,10.0,0.0,0.0,0.0,10.0,0.0539290120741,-0.0066579027252,0.0379500455336,1.0,0.0,0.0,0.0,1.0,0.0,0.0,0.0,1.0,-7.40300537109,-1.40108642578,8.89151000977,0.1,0.0,0.0,0.0,0.1,0.0,0.0,0.0,0.1
1452008906750619817,172,1452008906747459888,robocape,10.6354558934,1.49176796546,-15.7499554587,0.0,10.0,0.0,0.0,0.0,10.0,0.0,0.0,0.0,10.0,0.0933437962073,-0.0214384467751,0.00133158054504,1.0,0.0,0.0,0.0,1.0,0.0,0.0,0.0,1.0,-5.56602539063,-1.17715209961,8.94300292969,0.1,0.0,0.0,0.0,0.1,0.0,0.0,0.0,0.1
1452008906784134442,173,1452008906780886888,robocape,10.7326619565,1.6393086306,-15.7490601463,0.0,10.0,0.0,0.0,0.0,10.0,0.0,0.0,0.0,10.0,0.0621848114534,0.0761664071763,-0.0303600364269,1.0,0.0,0.0,0.0,1.0,0.0,0.0,0.0,1.0,-6.67012939453,-1.3831237793,10.6434667969,0.1,0.0,0.0,0.0,0.1,0.0,0.0,0.0,0.1
1452008906821970734,174,1452008906817166090,robocape,11.0621968675,1.68061284388,-15.5931968634,0.0,10.0,0.0,0.0,0.0,10.0,0.0,0.0,0.0,10.0,0.181760744398,0.0368847810976,0.0597879664723,1.0,0.0,0.0,0.0,1.0,0.0,0.0,0.0,1.0,-9.82437011719,-2.22856567383,8.80648681641,0.1,0.0,0.0,0.0,0.1,0.0,0.0,0.0,0.1
1452008906853082984,175,1452008906849482059,robocape,11.2629110975,2.03238582349,-15.4922581735,0.0,10.0,0.0,0.0,0.0,10.0,0.0,0.0,0.0,10.0,0.115448033255,0.191481282377,-0.000399474163512,1.0,0.0,0.0,0.0,1.0,0.0,0.0,0.0,1.0,-6.48810791016,-3.72545288086,10.8171057129,0.1,0.0,0.0,0.0,0.1,0.0,0.0,0.0,0.1
1452008906886201109,176,1452008906882859945,robocape,11.6994773636,2.17751765594,-15.1502397172,0.0,10.0,0.0,0.0,0.0,10.0,0.0,0.0,0.0,10.0,0.233825543709,0.110787501347,0.145009121355,1.0,0.0,0.0,0.0,1.0,0.0,0.0,0.0,1.0,-6.04143676758,-1.40946899414,9.95250366211,0.1,0.0,0.0,0.0,0.1,0.0,0.0,0.0,0.1
1452008906919906401,177,1452008906916171073,robocape,12.0803176755,2.40536965761,-14.8296942871,0.0,10.0,0.0,0.0,0.0,10.0,0.0,0.0,0.0,10.0,0.205063403936,0.152199656298,0.124369622907,1.0,0.0,0.0,0.0,1.0,0.0,0.0,0.0,1.0,-6.48571289063,-1.39270385742,9.36692138672,0.1,0.0,0.0,0.0,0.1,0.0,0.0,0.0,0.1
1452008906954078901,178,1452008906950258016,robocape,12.5560929703,2.4740848292,-14.411113892,0.0,10.0,0.0,0.0,0.0,10.0,0.0,0.0,0.0,10.0,0.252334513285,0.0828243099015,0.19188075654,1.0,0.0,0.0,0.0,1.0,0.0,0.0,0.0,1.0,-8.93102783203,-1.65855102539,9.23759033203,0.1,0.0,0.0,0.0,0.1,0.0,0.0,0.0,0.1
1452008906987487526,179,1452008906984019994,robocape,12.8126070182,2.59807385155,-14.2880280902,0.0,10.0,0.0,0.0,0.0,10.0,0.0,0.0,0.0,10.0,0.145408595518,0.0785632521573,0.033023197517,1.0,0.0,0.0,0.0,1.0,0.0,0.0,0.0,1.0,-9.13101196289,-2.28245361328,9.9249609375,0.1,0.0,0.0,0.0,0.1,0.0,0.0,0.0,0.1
1452008907022068151,180,1452008907017752885,robocape,13.3451991456,2.82468838676,-14.087892456,0.0,10.0,0.0,0.0,0.0,10.0,0.0,0.0,0.0,10.0,0.290151400764,0.140748063611,0.0579237537092,1.0,0.0,0.0,0.0,1.0,0.0,0.0,0.0,1.0,-5.76840454102,-3.18896850586,9.50463500977,0.1,0.0,0.0,0.0,0.1,0.0,0.0,0.0,0.1
1452008907054557859,181,1452008907051071882,robocape,13.8926388145,3.05848885083,-13.9374526077,0.0,10.0,0.0,0.0,0.0,10.0,0.0,0.0,0.0,10.0,0.300404570961,0.139283325011,0.0296942461544,1.0,0.0,0.0,0.0,1.0,0.0,0.0,0.0,1.0,-6.26297607422,-2.31119384766,7.72992553711,0.1,0.0,0.0,0.0,0.1,0.0,0.0,0.0,0.1
1452008907086415734,182,1452008907082986116,robocape,14.6052210347,3.45303942435,-13.7690164046,0.0,10.0,0.0,0.0,0.0,10.0,0.0,0.0,0.0,10.0,0.388954677206,0.224371321839,0.0146473859954,1.0,0.0,0.0,0.0,1.0,0.0,0.0,0.0,1.0,-5.27503051758,-1.23942260742,10.5955664063,0.1,0.0,0.0,0.0,0.1,0.0,0.0,0.0,0.1
1452008907121723193,183,1452008907117645025,robocape,15.5936365363,3.79463832272,-13.4358515584,0.0,10.0,0.0,0.0,0.0,10.0,0.0,0.0,0.0,10.0,0.530501689144,0.221175528531,0.10053433115,1.0,0.0,0.0,0.0,1.0,0.0,0.0,0.0,1.0,-5.50375488281,-1.42862915039,9.5764855957,0.1,0.0,0.0,0.0,0.1,0.0,0.0,0.0,0.1
1452008907154349818,184,1452008907151053905,robocape,16.9539449095,4.54597616703,-13.2252254529,0.0,10.0,0.0,0.0,0.0,10.0,0.0,0.0,0.0,10.0,0.738627728333,0.413855233398,-0.03222424919,1.0,0.0,0.0,0.0,1.0,0.0,0.0,0.0,1.0,1.21068237305,0.0251477050781,8.11552368164,0.1,0.0,0.0,0.0,0.1,0.0,0.0,0.0,0.1
1452008907186968068,185,1452008907183336019,robocape,18.0954480256,5.08173552199,-13.010545525,0.0,10.0,0.0,0.0,0.0,10.0,0.0,0.0,0.0,10.0,0.623712327297,0.307195631741,-0.00399474163512,1.0,0.0,0.0,0.0,1.0,0.0,0.0,0.0,1.0,-0.0874182128906,0.514929199219,9.66510131836,0.1,0.0,0.0,0.0,0.1,0.0,0.0,0.0,0.1
1452008907220203443,186,1452008907216706037,robocape,18.8648754245,5.77227790774,-12.6338824492,0.0,10.0,0.0,0.0,0.0,10.0,0.0,0.0,0.0,10.0,0.416784710597,0.411458388417,0.0487358479485,1.0,0.0,0.0,0.0,1.0,0.0,0.0,0.0,1.0,2.1495300293,1.15439941406,10.1548828125,0.1,0.0,0.0,0.0,0.1,0.0,0.0,0.0,0.1
1452008907252422318,187,1452008907249193906,robocape,18.2238060527,5.94865170504,-11.4703428685,0.0,10.0,0.0,0.0,0.0,10.0,0.0,0.0,0.0,10.0,-0.39734363464,0.280430862785,0.54488275903,1.0,0.0,0.0,0.0,1.0,0.0,0.0,0.0,1.0,-4.38767578125,3.86436401367,10.290201416,0.1,0.0,0.0,0.0,0.1,0.0,0.0,0.0,0.1
1452008907285473943,188,1452008907282206058,robocape,16.9454713952,6.12077754417,-10.3329015331,0.0,10.0,0.0,0.0,0.0,10.0,0.0,0.0,0.0,10.0,-0.739160360551,0.262987157645,0.542086439886,1.0,0.0,0.0,0.0,1.0,0.0,0.0,0.0,1.0,-3.53145629883,3.34464477539,9.71419921875,0.1,0.0,0.0,0.0,0.1,0.0,0.0,0.0,0.1
1452008907319895818,189,1452008907316771984,robocape,14.6379330007,5.56434675929,-9.36507598942,0.0,10.0,0.0,0.0,0.0,10.0,0.0,0.0,0.0,10.0,-1.27818416518,-0.148338072717,0.576707534057,1.0,0.0,0.0,0.0,1.0,0.0,0.0,0.0,1.0,1.0310559082,2.72313720703,7.127578125,0.1,0.0,0.0,0.0,0.1,0.0,0.0,0.0,0.1
1452008907352584901,190,1452008907349497079,robocape,12.1741918918,5.94738499188,-9.30456172909,0.0,10.0,0.0,0.0,0.0,10.0,0.0,0.0,0.0,10.0,-1.2992231378,0.200269713974,-0.0111852765783,1.0,0.0,0.0,0.0,1.0,0.0,0.0,0.0,1.0,-4.59723999023,5.57321044922,8.16102905273,0.1,0.0,0.0,0.0,0.1,0.0,0.0,0.0,0.1
1452008907385834609,191,1452008907382603883,robocape,8.39601021823,5.54106128113,-8.50706785668,0.0,10.0,0.0,0.0,0.0,10.0,0.0,0.0,0.0,10.0,-2.03345665033,-0.141946486101,0.460061078311,1.0,0.0,0.0,0.0,1.0,0.0,0.0,0.0,1.0,5.18521728516,3.22728881836,5.72649169922,0.1,0.0,0.0,0.0,0.1,0.0,0.0,0.0,0.1
1452008907419462609,192,1452008907416330099,robocape,3.67351062258,3.89844689779,-6.88821089709,0.0,10.0,0.0,0.0,0.0,10.0,0.0,0.0,0.0,10.0,-2.55104200819,-0.773381980559,0.944223764488,1.0,0.0,0.0,0.0,1.0,0.0,0.0,0.0,1.0,0.552052001953,0.592767333984,3.90028930664,0.1,0.0,0.0,0.0,0.1,0.0,0.0,0.0,0.1
