%time,field.header.seq,field.header.stamp,field.header.frame_id,field.magnetic_field.x,field.magnetic_field.y,field.magnetic_field.z,field.magnetic_field_covariance0,field.magnetic_field_covariance1,field.magnetic_field_covariance2,field.magnetic_field_covariance3,field.magnetic_field_covariance4,field.magnetic_field_covariance5,field.magnetic_field_covariance6,field.magnetic_field_covariance7,field.magnetic_field_covariance8
1446040130453509667,1,1446040130448379993,robocape_mag,19.35,13.5,-2.25,10.0,0.0,0.0,0.0,10.0,0.0,0.0,0.0,10.0
1446040130486298625,2,1446040130481519937,robocape_mag,14.55,17.1,-4.05,10.0,0.0,0.0,0.0,10.0,0.0,0.0,0.0,10.0
1446040130519331833,3,1446040130514591932,robocape_mag,14.55,17.1,-4.05,10.0,0.0,0.0,0.0,10.0,0.0,0.0,0.0,10.0
1446040130552400833,4,1446040130547651052,robocape_mag,14.55,17.1,-4.05,10.0,0.0,0.0,0.0,10.0,0.0,0.0,0.0,10.0
1446040130588413750,5,1446040130581214904,robocape_mag,14.55,17.1,-4.05,10.0,0.0,0.0,0.0,10.0,0.0,0.0,0.0,10.0
1446040130619879125,6,1446040130614933013,robocape_mag,14.55,17.1,-4.05,10.0,0.0,0.0,0.0,10.0,0.0,0.0,0.0,10.0
1446040130652738375,7,1446040130647820949,robocape_mag,11.25,18.6,-3.15,10.0,0.0,0.0,0.0,10.0,0.0,0.0,0.0,10.0
1446040130686464542,8,1446040130681751012,robocape_mag,11.25,18.6,-3.15,10.0,0.0,0.0,0.0,10.0,0.0,0.0,0.0,10.0
1446040130719241125,9,1446040130714432954,robocape_mag,11.25,18.6,-3.15,10.0,0.0,0.0,0.0,10.0,0.0,0.0,0.0,10.0
1446040130752643417,10,1446040130747756958,robocape_mag,11.25,18.6,-3.15,10.0,0.0,0.0,0.0,10.0,0.0,0.0,0.0,10.0
1446040130786290958,11,1446040130781215906,robocape_mag,11.25,18.6,-3.15,10.0,0.0,0.0,0.0,10.0,0.0,0.0,0.0,10.0
1446040130819253667,12,1446040130814469099,robocape_mag,3.45,19.8,-3.75,10.0,0.0,0.0,0.0,10.0,0.0,0.0,0.0,10.0
1446040130852720167,13,1446040130847765922,robocape_mag,3.45,19.8,-3.75,10.0,0.0,0.0,0.0,10.0,0.0,0.0,0.0,10.0
1446040130886141667,14,1446040130881195068,robocape_mag,3.45,19.8,-3.75,10.0,0.0,0.0,0.0,10.0,0.0,0.0,0.0,10.0
1446040130919147500,15,1446040130914406061,robocape_mag,3.45,19.8,-3.75,10.0,0.0,0.0,0.0,10.0,0.0,0.0,0.0,10.0
1446040130952735208,16,1446040130947734117,robocape_mag,3.45,19.8,-3.75,10.0,0.0,0.0,0.0,10.0,0.0,0.0,0.0,10.0
1446040130986111417,17,1446040130981129884,robocape_mag,-1.35,19.8,-3.15,10.0,0.0,0.0,0.0,10.0,0.0,0.0,0.0,10.0
1446040131019212583,18,1446040131014391899,robocape_mag,-1.35,19.8,-3.15,10.0,0.0,0.0,0.0,10.0,0.0,0.0,0.0,10.0
1446040131052587208,19,1446040131047808885,robocape_mag,-1.35,19.8,-3.15,10.0,0.0,0.0,0.0,10.0,0.0,0.0,0.0,10.0
1446040131093288209,20,1446040131087589025,robocape_mag,-1.35,19.8,-3.15,10.0,0.0,0.0,0.0,10.0,0.0,0.0,0.0,10.0
1446040131119540167,21,1446040131114656925,robocape_mag,-10.65,17.7,-1.65,10.0,0.0,0.0,0.0,10.0,0.0,0.0,0.0,10.0
1446040131152862375,22,1446040131147933006,robocape_mag,-10.65,17.7,-1.65,10.0,0.0,0.0,0.0,10.0,0.0,0.0,0.0,10.0
1446040131185963042,23,1446040131181221961,robocape_mag,-10.65,17.7,-1.65,10.0,0.0,0.0,0.0,10.0,0.0,0.0,0.0,10.0
1446040131219155959,24,1446040131214359998,robocape_mag,-10.65,17.7,-1.65,10.0,0.0,0.0,0.0,10.0,0.0,0.0,0.0,10.0
1446040131252752000,25,1446040131247688055,robocape_mag,-10.65,17.7,-1.65,10.0,0.0,0.0,0.0,10.0,0.0,0.0,0.0,10.0
1446040131286283334,26,1446040131281236886,robocape_mag,-12.15,16.8,-1.95,10.0,0.0,0.0,0.0,10.0,0.0,0.0,0.0,10.0
1446040131319246625,27,1446040131314452886,robocape_mag,-12.15,16.8,-1.95,10.0,0.0,0.0,0.0,10.0,0.0,0.0,0.0,10.0
1446040131352763375,28,1446040131347707986,robocape_mag,-12.15,16.8,-1.95,10.0,0.0,0.0,0.0,10.0,0.0,0.0,0.0,10.0
1446040131385987042,29,1446040131381077051,robocape_mag,-12.15,16.8,-1.95,10.0,0.0,0.0,0.0,10.0,0.0,0.0,0.0,10.0
1446040131429403625,30,1446040131424304962,robocape_mag,-12.15,16.8,-1.95,10.0,0.0,0.0,0.0,10.0,0.0,0.0,0.0,10.0
1446040131453060042,31,1446040131447896957,robocape_mag,-18.75,16.8,-1.95,10.0,0.0,0.0,0.0,10.0,0.0,0.0,0.0,10.0
1446040131485988584,32,1446040131480989933,robocape_mag,-18.75,16.8,-1.95,10.0,0.0,0.0,0.0,10.0,0.0,0.0,0.0,10.0
1446040131519736709,33,1446040131514986038,robocape_mag,-18.75,16.8,-1.95,10.0,0.0,0.0,0.0,10.0,0.0,0.0,0.0,10.0
1446040131552980000,34,1446040131548011064,robocape_mag,-18.75,16.8,-1.95,10.0,0.0,0.0,0.0,10.0,0.0,0.0,0.0,10.0
1446040131586624000,35,1446040131581357002,robocape_mag,-18.75,16.8,-1.95,10.0,0.0,0.0,0.0,10.0,0.0,0.0,0.0,10.0
1446040131619811084,36,1446040131614834070,robocape_mag,-24.45,15.3,-4.05,10.0,0.0,0.0,0.0,10.0,0.0,0.0,0.0,10.0
1446040131652631542,37,1446040131647614002,robocape_mag,-24.45,15.3,-4.05,10.0,0.0,0.0,0.0,10.0,0.0,0.0,0.0,10.0
1446040131686283875,38,1446040131681407928,robocape_mag,-24.45,15.3,-4.05,10.0,0.0,0.0,0.0,10.0,0.0,0.0,0.0,10.0
1446040131719135625,39,1446040131714409112,robocape_mag,-24.45,15.3,-4.05,10.0,0.0,0.0,0.0,10.0,0.0,0.0,0.0,10.0
1446040131752651584,40,1446040131747679948,robocape_mag,-24.45,15.3,-4.05,10.0,0.0,0.0,0.0,10.0,0.0,0.0,0.0,10.0
1446040131786535626,41,1446040131781366109,robocape_mag,-30.15,6.0,-4.95,10.0,0.0,0.0,0.0,10.0,0.0,0.0,0.0,10.0
1446040131819173959,42,1446040131814423084,robocape_mag,-30.15,6.0,-4.95,10.0,0.0,0.0,0.0,10.0,0.0,0.0,0.0,10.0
1446040131852601459,43,1446040131847661972,robocape_mag,-30.15,6.0,-4.95,10.0,0.0,0.0,0.0,10.0,0.0,0.0,0.0,10.0
1446040131886530501,44,1446040131881419897,robocape_mag,-30.15,6.0,-4.95,10.0,0.0,0.0,0.0,10.0,0.0,0.0,0.0,10.0
1446040131919248876,45,1446040131914529085,robocape_mag,-31.95,2.4,-6.15,10.0,0.0,0.0,0.0,10.0,0.0,0.0,0.0,10.0
1446040131952751251,46,1446040131947768926,robocape_mag,-31.95,2.4,-6.15,10.0,0.0,0.0,0.0,10.0,0.0,0.0,0.0,10.0
1446040131986143334,47,1446040131981139898,robocape_mag,-31.95,2.4,-6.15,10.0,0.0,0.0,0.0,10.0,0.0,0.0,0.0,10.0
1446040132019146001,48,1446040132014313936,robocape_mag,-31.95,2.4,-6.15,10.0,0.0,0.0,0.0,10.0,0.0,0.0,0.0,10.0
1446040132052765542,49,1446040132047761917,robocape_mag,-31.95,2.4,-6.15,10.0,0.0,0.0,0.0,10.0,0.0,0.0,0.0,10.0
1446040132093328667,50,1446040132088020086,robocape_mag,-28.35,-9.6,-4.35,10.0,0.0,0.0,0.0,10.0,0.0,0.0,0.0,10.0
1446040132119773751,51,1446040132114396095,robocape_mag,-28.35,-9.6,-4.35,10.0,0.0,0.0,0.0,10.0,0.0,0.0,0.0,10.0
1446040132152599376,52,1446040132147557973,robocape_mag,-28.35,-9.6,-4.35,10.0,0.0,0.0,0.0,10.0,0.0,0.0,0.0,10.0
1446040132186182751,53,1446040132181211948,robocape_mag,-28.35,-9.6,-4.35,10.0,0.0,0.0,0.0,10.0,0.0,0.0,0.0,10.0
1446040132219090876,54,1446040132214375972,robocape_mag,-28.35,-9.6,-4.35,10.0,0.0,0.0,0.0,10.0,0.0,0.0,0.0,10.0
1446040132252688709,55,1446040132247770071,robocape_mag,-21.75,-18.6,-2.55,10.0,0.0,0.0,0.0,10.0,0.0,0.0,0.0,10.0
1446040132286325334,56,1446040132281234979,robocape_mag,-21.75,-18.6,-2.55,10.0,0.0,0.0,0.0,10.0,0.0,0.0,0.0,10.0
1446040132319095917,57,1446040132314378976,robocape_mag,-21.75,-18.6,-2.55,10.0,0.0,0.0,0.0,10.0,0.0,0.0,0.0,10.0
1446040132352624792,58,1446040132347642898,robocape_mag,-21.75,-18.6,-2.55,10.0,0.0,0.0,0.0,10.0,0.0,0.0,0.0,10.0
1446040132386424709,59,1446040132381156921,robocape_mag,-21.75,-18.6,-2.55,10.0,0.0,0.0,0.0,10.0,0.0,0.0,0.0,10.0
1446040132419109334,60,1446040132414334058,robocape_mag,-12.45,-20.1,-2.25,10.0,0.0,0.0,0.0,10.0,0.0,0.0,0.0,10.0
1446040132452753626,61,1446040132447752952,robocape_mag,-12.45,-20.1,-2.25,10.0,0.0,0.0,0.0,10.0,0.0,0.0,0.0,10.0
1446040132486680376,62,1446040132481400012,robocape_mag,-12.45,-20.1,-2.25,10.0,0.0,0.0,0.0,10.0,0.0,0.0,0.0,10.0
1446040132519206668,63,1446040132514398097,robocape_mag,-12.45,-20.1,-2.25,10.0,0.0,0.0,0.0,10.0,0.0,0.0,0.0,10.0
1446040132552731626,64,1446040132547769069,robocape_mag,-12.45,-20.1,-2.25,10.0,0.0,0.0,0.0,10.0,0.0,0.0,0.0,10.0
1446040132588737209,65,1446040132582597970,robocape_mag,-4.95,-24.6,-0.75,10.0,0.0,0.0,0.0,10.0,0.0,0.0,0.0,10.0
1446040132619811126,66,1446040132614355087,robocape_mag,-4.95,-24.6,-0.75,10.0,0.0,0.0,0.0,10.0,0.0,0.0,0.0,10.0
1446040132653008418,67,1446040132647636890,robocape_mag,-4.95,-24.6,-0.75,10.0,0.0,0.0,0.0,10.0,0.0,0.0,0.0,10.0
1446040132687091543,68,1446040132681862115,robocape_mag,-4.95,-24.6,-0.75,10.0,0.0,0.0,0.0,10.0,0.0,0.0,0.0,10.0
1446040132719054251,69,1446040132714349985,robocape_mag,-0.45,-26.7,-4.05,10.0,0.0,0.0,0.0,10.0,0.0,0.0,0.0,10.0
1446040132752694418,70,1446040132747755050,robocape_mag,-0.45,-26.7,-4.05,10.0,0.0,0.0,0.0,10.0,0.0,0.0,0.0,10.0
1446040132787031043,71,1446040132781687021,robocape_mag,-0.45,-26.7,-4.05,10.0,0.0,0.0,0.0,10.0,0.0,0.0,0.0,10.0
1446040132819258334,72,1446040132814503908,robocape_mag,-0.45,-26.7,-4.05,10.0,0.0,0.0,0.0,10.0,0.0,0.0,0.0,10.0
1446040132852521668,73,1446040132847664117,robocape_mag,-0.45,-26.7,-4.05,10.0,0.0,0.0,0.0,10.0,0.0,0.0,0.0,10.0
1446040132887046293,74,1446040132881860971,robocape_mag,4.35,-24.3,-4.65,10.0,0.0,0.0,0.0,10.0,0.0,0.0,0.0,10.0
1446040132919491251,75,1446040132914460897,robocape_mag,4.35,-24.3,-4.65,10.0,0.0,0.0,0.0,10.0,0.0,0.0,0.0,10.0
1446040132952695626,76,1446040132947705030,robocape_mag,4.35,-24.3,-4.65,10.0,0.0,0.0,0.0,10.0,0.0,0.0,0.0,10.0
1446040132986722334,77,1446040132981548070,robocape_mag,4.35,-24.3,-4.65,10.0,0.0,0.0,0.0,10.0,0.0,0.0,0.0,10.0
1446040133019320584,78,1446040133014368057,robocape_mag,4.35,-24.3,-4.65,10.0,0.0,0.0,0.0,10.0,0.0,0.0,0.0,10.0
1446040133052608959,79,1446040133047653913,robocape_mag,4.35,-24.3,-2.85,10.0,0.0,0.0,0.0,10.0,0.0,0.0,0.0,10.0
1446040133093972793,80,1446040133088886976,robocape_mag,4.35,-24.3,-2.85,10.0,0.0,0.0,0.0,10.0,0.0,0.0,0.0,10.0
1446040133120024084,81,1446040133114458084,robocape_mag,4.35,-24.3,-2.85,10.0,0.0,0.0,0.0,10.0,0.0,0.0,0.0,10.0
1446040133152775793,82,1446040133147670984,robocape_mag,4.35,-24.3,-2.85,10.0,0.0,0.0,0.0,10.0,0.0,0.0,0.0,10.0
1446040133187361876,83,1446040133182255029,robocape_mag,4.35,-24.3,-2.85,10.0,0.0,0.0,0.0,10.0,0.0,0.0,0.0,10.0
1446040133219429376,84,1446040133214423894,robocape_mag,5.85,-23.4,-4.95,10.0,0.0,0.0,0.0,10.0,0.0,0.0,0.0,10.0
1446040133252899418,85,1446040133247983932,robocape_mag,5.85,-23.4,-4.95,10.0,0.0,0.0,0.0,10.0,0.0,0.0,0.0,10.0
1446040133286978043,86,1446040133281805038,robocape_mag,5.85,-23.4,-4.95,10.0,0.0,0.0,0.0,10.0,0.0,0.0,0.0,10.0
1446040133319385668,87,1446040133314434051,robocape_mag,5.85,-23.4,-4.95,10.0,0.0,0.0,0.0,10.0,0.0,0.0,0.0,10.0
1446040133352732085,88,1446040133347795963,robocape_mag,5.85,-23.4,-4.95,10.0,0.0,0.0,0.0,10.0,0.0,0.0,0.0,10.0
1446040133392296668,89,1446040133387140035,robocape_mag,2.85,-24.6,-4.95,10.0,0.0,0.0,0.0,10.0,0.0,0.0,0.0,10.0
1446040133419348960,90,1446040133414405107,robocape_mag,2.85,-24.6,-4.95,10.0,0.0,0.0,0.0,10.0,0.0,0.0,0.0,10.0
1446040133452751960,91,1446040133447757005,robocape_mag,2.85,-24.6,-4.95,10.0,0.0,0.0,0.0,10.0,0.0,0.0,0.0,10.0
1446040133486605876,92,1446040133481654882,robocape_mag,2.85,-24.6,-4.95,10.0,0.0,0.0,0.0,10.0,0.0,0.0,0.0,10.0
1446040133519537668,93,1446040133514415025,robocape_mag,4.65,-26.4,-1.95,10.0,0.0,0.0,0.0,10.0,0.0,0.0,0.0,10.0
1446040133552742960,94,1446040133547787904,robocape_mag,4.65,-26.4,-1.95,10.0,0.0,0.0,0.0,10.0,0.0,0.0,0.0,10.0
1446040133586861460,95,1446040133581621885,robocape_mag,4.65,-26.4,-1.95,10.0,0.0,0.0,0.0,10.0,0.0,0.0,0.0,10.0
1446040133619964918,96,1446040133614458084,robocape_mag,4.65,-26.4,-1.95,10.0,0.0,0.0,0.0,10.0,0.0,0.0,0.0,10.0
1446040133653542960,97,1446040133647667884,robocape_mag,4.65,-26.4,-1.95,10.0,0.0,0.0,0.0,10.0,0.0,0.0,0.0,10.0
1446040133686653876,98,1446040133681713104,robocape_mag,5.55,-23.7,10.95,10.0,0.0,0.0,0.0,10.0,0.0,0.0,0.0,10.0
1446040133720011543,99,1446040133714713096,robocape_mag,5.55,-23.7,10.95,10.0,0.0,0.0,0.0,10.0,0.0,0.0,0.0,10.0
1446040133752663626,100,1446040133747764110,robocape_mag,5.55,-23.7,10.95,10.0,0.0,0.0,0.0,10.0,0.0,0.0,0.0,10.0
1446040133786762918,101,1446040133781702041,robocape_mag,5.55,-23.7,10.95,10.0,0.0,0.0,0.0,10.0,0.0,0.0,0.0,10.0
1446040133819547418,102,1446040133814481019,robocape_mag,5.55,-23.7,10.95,10.0,0.0,0.0,0.0,10.0,0.0,0.0,0.0,10.0
1446040133852660876,103,1446040133847769021,robocape_mag,2.55,-23.1,18.75,10.0,0.0,0.0,0.0,10.0,0.0,0.0,0.0,10.0
1446040133886711627,104,1446040133881668090,robocape_mag,2.55,-23.1,18.75,10.0,0.0,0.0,0.0,10.0,0.0,0.0,0.0,10.0
1446040133919550002,105,1446040133914537906,robocape_mag,2.55,-23.1,18.75,10.0,0.0,0.0,0.0,10.0,0.0,0.0,0.0,10.0
1446040133952783502,106,1446040133947730064,robocape_mag,2.55,-23.1,18.75,10.0,0.0,0.0,0.0,10.0,0.0,0.0,0.0,10.0
1446040133986534252,107,1446040133981539011,robocape_mag,2.55,-23.1,18.75,10.0,0.0,0.0,0.0,10.0,0.0,0.0,0.0,10.0
1446040134019593668,108,1446040134014525890,robocape_mag,1.65,-17.4,25.65,10.0,0.0,0.0,0.0,10.0,0.0,0.0,0.0,10.0
1446040134052429752,109,1446040134047662019,robocape_mag,1.65,-17.4,25.65,10.0,0.0,0.0,0.0,10.0,0.0,0.0,0.0,10.0
1446040134093831002,110,1446040134088764905,robocape_mag,1.65,-17.4,25.65,10.0,0.0,0.0,0.0,10.0,0.0,0.0,0.0,10.0
1446040134122340127,111,1446040134117368936,robocape_mag,1.65,-17.4,25.65,10.0,0.0,0.0,0.0,10.0,0.0,0.0,0.0,10.0
1446040134152697752,112,1446040134147609949,robocape_mag,1.65,-17.4,25.65,10.0,0.0,0.0,0.0,10.0,0.0,0.0,0.0,10.0
1446040134186431460,113,1446040134181478977,robocape_mag,1.95,-6.9,-1.65,10.0,0.0,0.0,0.0,10.0,0.0,0.0,0.0,10.0
1446040134219544752,114,1446040134214452028,robocape_mag,1.95,-6.9,-1.65,10.0,0.0,0.0,0.0,10.0,0.0,0.0,0.0,10.0
1446040134252689502,115,1446040134247725963,robocape_mag,1.95,-6.9,-1.65,10.0,0.0,0.0,0.0,10.0,0.0,0.0,0.0,10.0
1446040134286658293,116,1446040134281645059,robocape_mag,1.95,-6.9,-1.65,10.0,0.0,0.0,0.0,10.0,0.0,0.0,0.0,10.0
1446040134319360543,117,1446040134314428091,robocape_mag,1.65,-11.4,27.45,10.0,0.0,0.0,0.0,10.0,0.0,0.0,0.0,10.0
1446040134352721752,118,1446040134347784996,robocape_mag,1.65,-11.4,27.45,10.0,0.0,0.0,0.0,10.0,0.0,0.0,0.0,10.0
1446040134386875668,119,1446040134381824970,robocape_mag,1.65,-11.4,27.45,10.0,0.0,0.0,0.0,10.0,0.0,0.0,0.0,10.0
1446040134419469918,120,1446040134414457082,robocape_mag,1.65,-11.4,27.45,10.0,0.0,0.0,0.0,10.0,0.0,0.0,0.0,10.0
1446040134452654835,121,1446040134447676897,robocape_mag,1.65,-11.4,27.45,10.0,0.0,0.0,0.0,10.0,0.0,0.0,0.0,10.0
1446040134486509585,122,1446040134481506109,robocape_mag,4.05,-7.2,-5.55,10.0,0.0,0.0,0.0,10.0,0.0,0.0,0.0,10.0
1446040134519406460,123,1446040134514391899,robocape_mag,4.05,-7.2,-5.55,10.0,0.0,0.0,0.0,10.0,0.0,0.0,0.0,10.0
1446040134552795710,124,1446040134547684907,robocape_mag,4.05,-7.2,-5.55,10.0,0.0,0.0,0.0,10.0,0.0,0.0,0.0,10.0
1446040134586720419,125,1446040134581429958,robocape_mag,4.05,-7.2,-5.55,10.0,0.0,0.0,0.0,10.0,0.0,0.0,0.0,10.0
1446040134621152710,126,1446040134615628957,robocape_mag,4.05,-7.2,-5.55,10.0,0.0,0.0,0.0,10.0,0.0,0.0,0.0,10.0
1446040134652702419,127,1446040134647605895,robocape_mag,4.65,-8.4,-5.55,10.0,0.0,0.0,0.0,10.0,0.0,0.0,0.0,10.0
1446040134686560044,128,1446040134681622982,robocape_mag,4.65,-8.4,-5.55,10.0,0.0,0.0,0.0,10.0,0.0,0.0,0.0,10.0
1446040134719282210,129,1446040134714402914,robocape_mag,4.65,-8.4,-5.55,10.0,0.0,0.0,0.0,10.0,0.0,0.0,0.0,10.0
1446040134752654877,130,1446040134747750997,robocape_mag,4.65,-8.4,-5.55,10.0,0.0,0.0,0.0,10.0,0.0,0.0,0.0,10.0
1446040134786626669,131,1446040134781282901,robocape_mag,4.65,-8.4,-5.55,10.0,0.0,0.0,0.0,10.0,0.0,0.0,0.0,10.0
1446040134819354794,132,1446040134814388990,robocape_mag,5.55,-7.5,-3.45,10.0,0.0,0.0,0.0,10.0,0.0,0.0,0.0,10.0
1446040134852659627,133,1446040134847687005,robocape_mag,5.55,-7.5,-3.45,10.0,0.0,0.0,0.0,10.0,0.0,0.0,0.0,10.0
1446040134886829627,134,1446040134881500005,robocape_mag,5.55,-7.5,-3.45,10.0,0.0,0.0,0.0,10.0,0.0,0.0,0.0,10.0
1446040134919451169,135,1446040134914450883,robocape_mag,5.55,-7.5,-3.45,10.0,0.0,0.0,0.0,10.0,0.0,0.0,0.0,10.0
1446040134952812127,136,1446040134947794914,robocape_mag,5.55,-7.5,-3.45,10.0,0.0,0.0,0.0,10.0,0.0,0.0,0.0,10.0
1446040134986716710,137,1446040134981239080,robocape_mag,4.05,-7.2,-3.75,10.0,0.0,0.0,0.0,10.0,0.0,0.0,0.0,10.0
1446040135019343960,138,1446040135014362096,robocape_mag,4.05,-7.2,-3.75,10.0,0.0,0.0,0.0,10.0,0.0,0.0,0.0,10.0
1446040135052569919,139,1446040135047801017,robocape_mag,4.05,-7.2,-3.75,10.0,0.0,0.0,0.0,10.0,0.0,0.0,0.0,10.0
1446040135093972044,140,1446040135088551998,robocape_mag,4.05,-7.2,-3.75,10.0,0.0,0.0,0.0,10.0,0.0,0.0,0.0,10.0
1446040135120058252,141,1446040135114789962,robocape_mag,4.65,-7.8,-4.35,10.0,0.0,0.0,0.0,10.0,0.0,0.0,0.0,10.0
1446040135152772877,142,1446040135147675991,robocape_mag,4.65,-7.8,-4.35,10.0,0.0,0.0,0.0,10.0,0.0,0.0,0.0,10.0
1446040135186804877,143,1446040135181499958,robocape_mag,4.65,-7.8,-4.35,10.0,0.0,0.0,0.0,10.0,0.0,0.0,0.0,10.0
1446040135219544002,144,1446040135214601993,robocape_mag,4.65,-7.8,-4.35,10.0,0.0,0.0,0.0,10.0,0.0,0.0,0.0,10.0
1446040135252717002,145,1446040135247807979,robocape_mag,4.65,-7.8,-4.35,10.0,0.0,0.0,0.0,10.0,0.0,0.0,0.0,10.0
1446040135286831919,146,1446040135281430959,robocape_mag,4.05,-7.8,-3.75,10.0,0.0,0.0,0.0,10.0,0.0,0.0,0.0,10.0
1446040135319182252,147,1446040135314371109,robocape_mag,4.05,-7.8,-3.75,10.0,0.0,0.0,0.0,10.0,0.0,0.0,0.0,10.0
1446040135352671752,148,1446040135347774982,robocape_mag,4.05,-7.8,-3.75,10.0,0.0,0.0,0.0,10.0,0.0,0.0,0.0,10.0
1446040135386952461,149,1446040135381357908,robocape_mag,4.05,-7.8,-3.75,10.0,0.0,0.0,0.0,10.0,0.0,0.0,0.0,10.0
1446040135419450669,150,1446040135414525032,robocape_mag,4.05,-7.8,-3.75,10.0,0.0,0.0,0.0,10.0,0.0,0.0,0.0,10.0
1446040135455243877,151,1446040135450145006,robocape_mag,4.95,-8.1,-2.85,10.0,0.0,0.0,0.0,10.0,0.0,0.0,0.0,10.0
1446040135487173419,152,1446040135481549978,robocape_mag,4.95,-8.1,-2.85,10.0,0.0,0.0,0.0,10.0,0.0,0.0,0.0,10.0
1446040135519402502,153,1446040135514503002,robocape_mag,4.95,-8.1,-2.85,10.0,0.0,0.0,0.0,10.0,0.0,0.0,0.0,10.0
1446040135552737377,154,1446040135547693014,robocape_mag,4.95,-8.1,-2.85,10.0,0.0,0.0,0.0,10.0,0.0,0.0,0.0,10.0
1446040135587177752,155,1446040135581197977,robocape_mag,4.95,-8.1,-2.85,10.0,0.0,0.0,0.0,10.0,0.0,0.0,0.0,10.0
1446040135619225877,156,1446040135614337921,robocape_mag,5.85,-7.2,-3.15,10.0,0.0,0.0,0.0,10.0,0.0,0.0,0.0,10.0
1446040135652514711,157,1446040135647557973,robocape_mag,5.85,-7.2,-3.15,10.0,0.0,0.0,0.0,10.0,0.0,0.0,0.0,10.0
1446040135687088919,158,1446040135681304931,robocape_mag,5.85,-7.2,-3.15,10.0,0.0,0.0,0.0,10.0,0.0,0.0,0.0,10.0
1446040135719171711,159,1446040135714411973,robocape_mag,5.85,-7.2,-3.15,10.0,0.0,0.0,0.0,10.0,0.0,0.0,0.0,10.0
1446040135752657294,160,1446040135747713088,robocape_mag,5.85,-7.2,-3.15,10.0,0.0,0.0,0.0,10.0,0.0,0.0,0.0,10.0
1446040135786446586,161,1446040135781181097,robocape_mag,5.85,-6.6,-2.55,10.0,0.0,0.0,0.0,10.0,0.0,0.0,0.0,10.0
1446040135819233877,162,1446040135814435005,robocape_mag,5.85,-6.6,-2.55,10.0,0.0,0.0,0.0,10.0,0.0,0.0,0.0,10.0
1446040135852634502,163,1446040135847670078,robocape_mag,5.85,-6.6,-2.55,10.0,0.0,0.0,0.0,10.0,0.0,0.0,0.0,10.0
1446040135886608377,164,1446040135881165981,robocape_mag,5.85,-6.6,-2.55,10.0,0.0,0.0,0.0,10.0,0.0,0.0,0.0,10.0
1446040135919479711,165,1446040135914599895,robocape_mag,6.15,-6.3,-4.65,10.0,0.0,0.0,0.0,10.0,0.0,0.0,0.0,10.0
1446040135952759127,166,1446040135947756052,robocape_mag,6.15,-6.3,-4.65,10.0,0.0,0.0,0.0,10.0,0.0,0.0,0.0,10.0
1446040135986508544,167,1446040135981163024,robocape_mag,6.15,-6.3,-4.65,10.0,0.0,0.0,0.0,10.0,0.0,0.0,0.0,10.0
1446040136019275128,168,1446040136014347076,robocape_mag,6.15,-6.3,-4.65,10.0,0.0,0.0,0.0,10.0,0.0,0.0,0.0,10.0
1446040136052793961,169,1446040136047810077,robocape_mag,6.15,-6.3,-4.65,10.0,0.0,0.0,0.0,10.0,0.0,0.0,0.0,10.0
1446040136093857336,170,1446040136088825941,robocape_mag,5.55,-6.9,-3.45,10.0,0.0,0.0,0.0,10.0,0.0,0.0,0.0,10.0
1446040136119156169,171,1446040136114350080,robocape_mag,5.55,-6.9,-3.45,10.0,0.0,0.0,0.0,10.0,0.0,0.0,0.0,10.0
1446040136152674628,172,1446040136147671937,robocape_mag,5.55,-6.9,-3.45,10.0,0.0,0.0,0.0,10.0,0.0,0.0,0.0,10.0
1446040136186744878,173,1446040136181199073,robocape_mag,5.55,-6.9,-3.45,10.0,0.0,0.0,0.0,10.0,0.0,0.0,0.0,10.0
1446040136219109503,174,1446040136214345932,robocape_mag,5.55,-6.9,-3.45,10.0,0.0,0.0,0.0,10.0,0.0,0.0,0.0,10.0
1446040136252770169,175,1446040136247811079,robocape_mag,4.65,-6.0,-5.55,10.0,0.0,0.0,0.0,10.0,0.0,0.0,0.0,10.0
1446040136286812003,176,1446040136281078100,robocape_mag,4.65,-6.0,-5.55,10.0,0.0,0.0,0.0,10.0,0.0,0.0,0.0,10.0
1446040136326030628,177,1446040136320893049,robocape_mag,4.65,-6.0,-5.55,10.0,0.0,0.0,0.0,10.0,0.0,0.0,0.0,10.0
1446040136353069753,178,1446040136348007917,robocape_mag,4.65,-6.0,-5.55,10.0,0.0,0.0,0.0,10.0,0.0,0.0,0.0,10.0
1446040136386790086,179,1446040136381161928,robocape_mag,4.65,-6.0,-5.55,10.0,0.0,0.0,0.0,10.0,0.0,0.0,0.0,10.0
1446040136419550294,180,1446040136414674997,robocape_mag,5.55,-6.9,-3.45,10.0,0.0,0.0,0.0,10.0,0.0,0.0,0.0,10.0
1446040136452764919,181,1446040136447729110,robocape_mag,5.55,-6.9,-3.45,10.0,0.0,0.0,0.0,10.0,0.0,0.0,0.0,10.0
1446040136486572961,182,1446040136480978012,robocape_mag,5.55,-6.9,-3.45,10.0,0.0,0.0,0.0,10.0,0.0,0.0,0.0,10.0
1446040136519271794,183,1446040136514455080,robocape_mag,5.55,-6.9,-3.45,10.0,0.0,0.0,0.0,10.0,0.0,0.0,0.0,10.0
1446040136552850794,184,1446040136547841072,robocape_mag,5.55,-6.9,-3.45,10.0,0.0,0.0,0.0,10.0,0.0,0.0,0.0,10.0
1446040136586945961,185,1446040136581166982,robocape_mag,4.35,-8.1,-2.85,10.0,0.0,0.0,0.0,10.0,0.0,0.0,0.0,10.0
1446040136620251419,186,1446040136615400075,robocape_mag,4.35,-8.1,-2.85,10.0,0.0,0.0,0.0,10.0,0.0,0.0,0.0,10.0
1446040136652837211,187,1446040136647913932,robocape_mag,4.35,-8.1,-2.85,10.0,0.0,0.0,0.0,10.0,0.0,0.0,0.0,10.0
1446040136686589878,188,1446040136681121110,robocape_mag,4.35,-8.1,-2.85,10.0,0.0,0.0,0.0,10.0,0.0,0.0,0.0,10.0
1446040136719196461,189,1446040136714415073,robocape_mag,4.35,-5.7,-4.05,10.0,0.0,0.0,0.0,10.0,0.0,0.0,0.0,10.0
1446040136752847420,190,1446040136747828006,robocape_mag,5.55,-5.7,-4.05,10.0,0.0,0.0,0.0,10.0,0.0,0.0,0.0,10.0
1446040136786619836,191,1446040136781182050,robocape_mag,5.55,-5.7,-4.05,10.0,0.0,0.0,0.0,10.0,0.0,0.0,0.0,10.0
1446040136819180420,192,1446040136814382076,robocape_mag,5.55,-5.7,-4.05,10.0,0.0,0.0,0.0,10.0,0.0,0.0,0.0,10.0
1446040136852810211,193,1446040136847882986,robocape_mag,5.55,-5.7,-4.05,10.0,0.0,0.0,0.0,10.0,0.0,0.0,0.0,10.0
1446040136886585378,194,1446040136881195068,robocape_mag,4.05,-6.6,-3.15,10.0,0.0,0.0,0.0,10.0,0.0,0.0,0.0,10.0
1446040136919304836,195,1446040136914429903,robocape_mag,4.05,-6.6,-3.15,10.0,0.0,0.0,0.0,10.0,0.0,0.0,0.0,10.0
1446040136952839753,196,1446040136947830915,robocape_mag,4.05,-6.6,-3.15,10.0,0.0,0.0,0.0,10.0,0.0,0.0,0.0,10.0
1446040136986385295,197,1446040136980937957,robocape_mag,4.05,-6.6,-3.15,10.0,0.0,0.0,0.0,10.0,0.0,0.0,0.0,10.0
1446040137019601211,198,1446040137014317035,robocape_mag,4.05,-6.6,-3.15,10.0,0.0,0.0,0.0,10.0,0.0,0.0,0.0,10.0
1446040137053016086,199,1446040137047873020,robocape_mag,5.25,-7.8,-3.75,10.0,0.0,0.0,0.0,10.0,0.0,0.0,0.0,10.0
1446040137093955128,200,1446040137088330030,robocape_mag,5.25,-7.8,-3.75,10.0,0.0,0.0,0.0,10.0,0.0,0.0,0.0,10.0
1446040137119592711,201,1446040137114783048,robocape_mag,5.25,-7.8,-3.75,10.0,0.0,0.0,0.0,10.0,0.0,0.0,0.0,10.0
1446040137152897545,202,1446040137147919893,robocape_mag,5.25,-7.8,-3.75,10.0,0.0,0.0,0.0,10.0,0.0,0.0,0.0,10.0
1446040137186139670,203,1446040137181133985,robocape_mag,5.25,-7.8,-3.75,10.0,0.0,0.0,0.0,10.0,0.0,0.0,0.0,10.0
1446040137219365753,204,1446040137214350938,robocape_mag,5.55,-5.1,-4.05,10.0,0.0,0.0,0.0,10.0,0.0,0.0,0.0,10.0
1446040137252781420,205,1446040137247819900,robocape_mag,5.55,-5.1,-4.05,10.0,0.0,0.0,0.0,10.0,0.0,0.0,0.0,10.0
1446040137286038378,206,1446040137281009912,robocape_mag,5.55,-5.1,-4.05,10.0,0.0,0.0,0.0,10.0,0.0,0.0,0.0,10.0
1446040137319246378,207,1446040137314287900,robocape_mag,5.55,-5.1,-4.05,10.0,0.0,0.0,0.0,10.0,0.0,0.0,0.0,10.0
1446040137353302003,208,1446040137348140954,robocape_mag,5.55,-5.1,-4.05,10.0,0.0,0.0,0.0,10.0,0.0,0.0,0.0,10.0
1446040137386100795,209,1446040137381078958,robocape_mag,6.45,-7.8,-3.75,10.0,0.0,0.0,0.0,10.0,0.0,0.0,0.0,10.0
1446040137419618087,210,1446040137414561033,robocape_mag,6.45,-7.8,-3.75,10.0,0.0,0.0,0.0,10.0,0.0,0.0,0.0,10.0
1446040137452777795,211,1446040137447937965,robocape_mag,6.45,-7.8,-3.75,10.0,0.0,0.0,0.0,10.0,0.0,0.0,0.0,10.0
1446040137486069003,212,1446040137480961084,robocape_mag,6.45,-7.8,-3.75,10.0,0.0,0.0,0.0,10.0,0.0,0.0,0.0,10.0
1446040137519316212,213,1446040137514332056,robocape_mag,6.45,-6.9,-3.45,10.0,0.0,0.0,0.0,10.0,0.0,0.0,0.0,10.0
1446040137552936003,214,1446040137547979116,robocape_mag,4.35,-6.9,-3.45,10.0,0.0,0.0,0.0,10.0,0.0,0.0,0.0,10.0
1446040137586412753,215,1446040137581053972,robocape_mag,4.35,-6.9,-3.45,10.0,0.0,0.0,0.0,10.0,0.0,0.0,0.0,10.0
1446040137619452712,216,1446040137614375114,robocape_mag,4.35,-6.9,-3.45,10.0,0.0,0.0,0.0,10.0,0.0,0.0,0.0,10.0
1446040137652999003,217,1446040137647943019,robocape_mag,4.35,-6.9,-3.45,10.0,0.0,0.0,0.0,10.0,0.0,0.0,0.0,10.0
1446040137685998003,218,1446040137681188106,robocape_mag,4.65,-6.6,-3.75,10.0,0.0,0.0,0.0,10.0,0.0,0.0,0.0,10.0
1446040137719303295,219,1446040137714353084,robocape_mag,4.65,-6.6,-3.75,10.0,0.0,0.0,0.0,10.0,0.0,0.0,0.0,10.0
1446040137752820837,220,1446040137747859954,robocape_mag,4.65,-6.6,-3.75,10.0,0.0,0.0,0.0,10.0,0.0,0.0,0.0,10.0
1446040137785989045,221,1446040137781223058,robocape_mag,4.65,-6.6,-3.75,10.0,0.0,0.0,0.0,10.0,0.0,0.0,0.0,10.0
1446040137819250503,222,1446040137814327955,robocape_mag,4.65,-6.6,-3.75,10.0,0.0,0.0,0.0,10.0,0.0,0.0,0.0,10.0
1446040137852751670,223,1446040137847762107,robocape_mag,3.75,-8.1,-2.85,10.0,0.0,0.0,0.0,10.0,0.0,0.0,0.0,10.0
1446040137886085170,224,1446040137881330966,robocape_mag,3.75,-8.1,-2.85,10.0,0.0,0.0,0.0,10.0,0.0,0.0,0.0,10.0
1446040137919658462,225,1446040137914556980,robocape_mag,3.75,-8.1,-2.85,10.0,0.0,0.0,0.0,10.0,0.0,0.0,0.0,10.0
1446040137953028087,226,1446040137947706937,robocape_mag,3.75,-8.1,-2.85,10.0,0.0,0.0,0.0,10.0,0.0,0.0,0.0,10.0
1446040137985995462,227,1446040137981180906,robocape_mag,3.75,-8.1,-2.85,10.0,0.0,0.0,0.0,10.0,0.0,0.0,0.0,10.0
1446040138019536878,228,1446040138014496088,robocape_mag,6.15,-6.9,-5.25,10.0,0.0,0.0,0.0,10.0,0.0,0.0,0.0,10.0
1446040138052797545,229,1446040138047642946,robocape_mag,6.15,-6.9,-5.25,10.0,0.0,0.0,0.0,10.0,0.0,0.0,0.0,10.0
1446040138093792504,230,1446040138087574005,robocape_mag,6.15,-6.9,-5.25,10.0,0.0,0.0,0.0,10.0,0.0,0.0,0.0,10.0
1446040138119518545,231,1446040138114511013,robocape_mag,6.15,-6.9,-5.25,10.0,0.0,0.0,0.0,10.0,0.0,0.0,0.0,10.0
1446040138152765045,232,1446040138147753000,robocape_mag,6.15,-6.9,-5.25,10.0,0.0,0.0,0.0,10.0,0.0,0.0,0.0,10.0
1446040138185901879,233,1446040138181165933,robocape_mag,5.55,-6.9,-3.45,10.0,0.0,0.0,0.0,10.0,0.0,0.0,0.0,10.0
1446040138219378379,234,1446040138214426040,robocape_mag,5.55,-6.9,-3.45,10.0,0.0,0.0,0.0,10.0,0.0,0.0,0.0,10.0
1446040138253064712,235,1446040138248020887,robocape_mag,5.55,-6.9,-3.45,10.0,0.0,0.0,0.0,10.0,0.0,0.0,0.0,10.0
1446040138292041420,236,1446040138285748958,robocape_mag,5.55,-6.9,-3.45,10.0,0.0,0.0,0.0,10.0,0.0,0.0,0.0,10.0
1446040138327394087,237,1446040138322247982,robocape_mag,5.55,-8.7,-4.05,10.0,0.0,0.0,0.0,10.0,0.0,0.0,0.0,10.0
1446040138359548545,238,1446040138354511022,robocape_mag,5.55,-8.7,-4.05,10.0,0.0,0.0,0.0,10.0,0.0,0.0,0.0,10.0
1446040138389497004,239,1446040138384444952,robocape_mag,5.55,-8.7,-4.05,10.0,0.0,0.0,0.0,10.0,0.0,0.0,0.0,10.0
1446040138422484712,240,1446040138417268037,robocape_mag,5.55,-8.7,-4.05,10.0,0.0,0.0,0.0,10.0,0.0,0.0,0.0,10.0
1446040138452889837,241,1446040138447901010,robocape_mag,5.55,-8.7,-4.05,10.0,0.0,0.0,0.0,10.0,0.0,0.0,0.0,10.0
1446040138486158962,242,1446040138481169939,robocape_mag,6.45,-7.8,-4.95,10.0,0.0,0.0,0.0,10.0,0.0,0.0,0.0,10.0
1446040138519537004,243,1446040138514498949,robocape_mag,6.45,-7.8,-4.95,10.0,0.0,0.0,0.0,10.0,0.0,0.0,0.0,10.0
1446040138552804337,244,1446040138547801017,robocape_mag,6.45,-7.8,-4.95,10.0,0.0,0.0,0.0,10.0,0.0,0.0,0.0,10.0
1446040138586542254,245,1446040138581146001,robocape_mag,6.45,-7.8,-4.95,10.0,0.0,0.0,0.0,10.0,0.0,0.0,0.0,10.0
1446040138620131295,246,1446040138615329027,robocape_mag,6.45,-7.8,-4.95,10.0,0.0,0.0,0.0,10.0,0.0,0.0,0.0,10.0
1446040138652610712,247,1446040138647784948,robocape_mag,5.25,-7.2,-3.75,10.0,0.0,0.0,0.0,10.0,0.0,0.0,0.0,10.0
1446040138686343587,248,1446040138681137084,robocape_mag,5.25,-7.2,-3.75,10.0,0.0,0.0,0.0,10.0,0.0,0.0,0.0,10.0
1446040138719258379,249,1446040138714494943,robocape_mag,5.25,-7.2,-3.75,10.0,0.0,0.0,0.0,10.0,0.0,0.0,0.0,10.0
1446040138752615087,250,1446040138747833967,robocape_mag,5.25,-7.2,-3.75,10.0,0.0,0.0,0.0,10.0,0.0,0.0,0.0,10.0
1446040138786231254,251,1446040138781111955,robocape_mag,5.25,-7.2,-3.75,10.0,0.0,0.0,0.0,10.0,0.0,0.0,0.0,10.0
1446040138819258587,252,1446040138814460039,robocape_mag,3.75,-6.9,-3.45,10.0,0.0,0.0,0.0,10.0,0.0,0.0,0.0,10.0
1446040138852692462,253,1446040138847980022,robocape_mag,3.75,-6.9,-3.45,10.0,0.0,0.0,0.0,10.0,0.0,0.0,0.0,10.0
1446040138886120004,254,1446040138881016016,robocape_mag,3.75,-6.9,-3.45,10.0,0.0,0.0,0.0,10.0,0.0,0.0,0.0,10.0
1446040138919740504,255,1446040138914900064,robocape_mag,3.75,-6.9,-3.45,10.0,0.0,0.0,0.0,10.0,0.0,0.0,0.0,10.0
1446040138956647962,256,1446040138951739072,robocape_mag,3.75,-6.9,-3.45,10.0,0.0,0.0,0.0,10.0,0.0,0.0,0.0,10.0
1446040138986340462,257,1446040138981080055,robocape_mag,4.95,-5.7,-4.65,10.0,0.0,0.0,0.0,10.0,0.0,0.0,0.0,10.0
1446040139019445254,258,1446040139014597892,robocape_mag,4.95,-5.7,-4.65,10.0,0.0,0.0,0.0,10.0,0.0,0.0,0.0,10.0
1446040139052631421,259,1446040139047745943,robocape_mag,4.95,-5.7,-4.65,10.0,0.0,0.0,0.0,10.0,0.0,0.0,0.0,10.0
1446040139093489337,260,1446040139087582111,robocape_mag,4.95,-5.7,-4.65,10.0,0.0,0.0,0.0,10.0,0.0,0.0,0.0,10.0
1446040139119546171,261,1446040139114744901,robocape_mag,4.65,-6.6,-2.55,10.0,0.0,0.0,0.0,10.0,0.0,0.0,0.0,10.0
1446040139152627254,262,1446040139147809982,robocape_mag,4.65,-6.6,-2.55,10.0,0.0,0.0,0.0,10.0,0.0,0.0,0.0,10.0
1446040139186129712,263,1446040139181205987,robocape_mag,4.65,-6.6,-2.55,10.0,0.0,0.0,0.0,10.0,0.0,0.0,0.0,10.0
1446040139219647421,264,1446040139214848995,robocape_mag,4.65,-6.6,-2.55,10.0,0.0,0.0,0.0,10.0,0.0,0.0,0.0,10.0
1446040139252744962,265,1446040139247926950,robocape_mag,4.65,-6.6,-2.55,10.0,0.0,0.0,0.0,10.0,0.0,0.0,0.0,10.0
1446040139285971837,266,1446040139281019926,robocape_mag,4.65,-6.6,-3.15,10.0,0.0,0.0,0.0,10.0,0.0,0.0,0.0,10.0
1446040139319375212,267,1446040139314553022,robocape_mag,4.65,-6.6,-3.15,10.0,0.0,0.0,0.0,10.0,0.0,0.0,0.0,10.0
1446040139352644962,268,1446040139347887039,robocape_mag,4.65,-6.6,-3.15,10.0,0.0,0.0,0.0,10.0,0.0,0.0,0.0,10.0
1446040139386127796,269,1446040139381186962,robocape_mag,4.65,-6.6,-3.15,10.0,0.0,0.0,0.0,10.0,0.0,0.0,0.0,10.0
1446040139420256254,270,1446040139415079116,robocape_mag,4.65,-6.6,-3.15,10.0,0.0,0.0,0.0,10.0,0.0,0.0,0.0,10.0
1446040139452986879,271,1446040139448095083,robocape_mag,5.25,-7.8,-4.35,10.0,0.0,0.0,0.0,10.0,0.0,0.0,0.0,10.0
1446040139486132963,272,1446040139481126070,robocape_mag,5.25,-7.8,-4.35,10.0,0.0,0.0,0.0,10.0,0.0,0.0,0.0,10.0
1446040139519996088,273,1446040139514950990,robocape_mag,5.25,-7.8,-4.35,10.0,0.0,0.0,0.0,10.0,0.0,0.0,0.0,10.0
1446040139552875754,274,1446040139547818899,robocape_mag,5.25,-7.8,-4.35,10.0,0.0,0.0,0.0,10.0,0.0,0.0,0.0,10.0
1446040139588031338,275,1446040139582096099,robocape_mag,5.25,-7.8,-4.35,10.0,0.0,0.0,0.0,10.0,0.0,0.0,0.0,10.0
1446040139619944588,276,1446040139614928960,robocape_mag,4.65,-7.8,-1.95,10.0,0.0,0.0,0.0,10.0,0.0,0.0,0.0,10.0
1446040139652743629,277,1446040139647991895,robocape_mag,4.65,-7.8,-1.95,10.0,0.0,0.0,0.0,10.0,0.0,0.0,0.0,10.0
1446040139686034713,278,1446040139681138992,robocape_mag,4.65,-7.8,-1.95,10.0,0.0,0.0,0.0,10.0,0.0,0.0,0.0,10.0
1446040139719805838,279,1446040139714719057,robocape_mag,4.65,-7.8,-1.95,10.0,0.0,0.0,0.0,10.0,0.0,0.0,0.0,10.0
1446040139752610213,280,1446040139747823953,robocape_mag,4.65,-7.8,-1.95,10.0,0.0,0.0,0.0,10.0,0.0,0.0,0.0,10.0
1446040139785923046,281,1446040139781021118,robocape_mag,6.15,-8.1,-3.45,10.0,0.0,0.0,0.0,10.0,0.0,0.0,0.0,10.0
1446040139828009046,282,1446040139822791099,robocape_mag,6.15,-8.1,-3.45,10.0,0.0,0.0,0.0,10.0,0.0,0.0,0.0,10.0
1446040139852667213,283,1446040139847732067,robocape_mag,6.15,-8.1,-3.45,10.0,0.0,0.0,0.0,10.0,0.0,0.0,0.0,10.0
1446040139886104963,284,1446040139881220102,robocape_mag,6.15,-8.1,-3.45,10.0,0.0,0.0,0.0,10.0,0.0,0.0,0.0,10.0
1446040139919741546,285,1446040139914868116,robocape_mag,5.55,-6.9,-4.65,10.0,0.0,0.0,0.0,10.0,0.0,0.0,0.0,10.0
1446040139952885629,286,1446040139947755098,robocape_mag,5.55,-6.9,-4.65,10.0,0.0,0.0,0.0,10.0,0.0,0.0,0.0,10.0
1446040139986064546,287,1446040139981076955,robocape_mag,5.55,-6.9,-4.65,10.0,0.0,0.0,0.0,10.0,0.0,0.0,0.0,10.0
1446040140019637671,288,1446040140014668941,robocape_mag,5.55,-6.9,-4.65,10.0,0.0,0.0,0.0,10.0,0.0,0.0,0.0,10.0
1446040140052915213,289,1446040140047712087,robocape_mag,5.55,-6.9,-4.65,10.0,0.0,0.0,0.0,10.0,0.0,0.0,0.0,10.0
1446040140093874088,290,1446040140088880062,robocape_mag,3.75,-7.5,-4.05,10.0,0.0,0.0,0.0,10.0,0.0,0.0,0.0,10.0
1446040140119502588,291,1446040140114703893,robocape_mag,3.75,-7.5,-4.05,10.0,0.0,0.0,0.0,10.0,0.0,0.0,0.0,10.0
1446040140152953213,292,1446040140147969961,robocape_mag,3.75,-7.5,-4.05,10.0,0.0,0.0,0.0,10.0,0.0,0.0,0.0,10.0
1446040140185992171,293,1446040140181101083,robocape_mag,3.75,-7.5,-4.05,10.0,0.0,0.0,0.0,10.0,0.0,0.0,0.0,10.0
1446040140219724088,294,1446040140214879989,robocape_mag,3.75,-7.5,-4.05,10.0,0.0,0.0,0.0,10.0,0.0,0.0,0.0,10.0
1446040140253070630,295,1446040140248075008,robocape_mag,4.65,-7.8,-3.15,10.0,0.0,0.0,0.0,10.0,0.0,0.0,0.0,10.0
1446040140286140588,296,1446040140281188011,robocape_mag,4.65,-7.8,-3.15,10.0,0.0,0.0,0.0,10.0,0.0,0.0,0.0,10.0
1446040140319977088,297,1446040140315032005,robocape_mag,4.65,-7.8,-3.15,10.0,0.0,0.0,0.0,10.0,0.0,0.0,0.0,10.0
1446040140353217588,298,1446040140348156929,robocape_mag,4.65,-7.8,-3.15,10.0,0.0,0.0,0.0,10.0,0.0,0.0,0.0,10.0
1446040140386071546,299,1446040140381120920,robocape_mag,4.65,-7.8,-3.15,10.0,0.0,0.0,0.0,10.0,0.0,0.0,0.0,10.0
1446040140419796421,300,1446040140414901971,robocape_mag,4.95,-9.3,-4.05,10.0,0.0,0.0,0.0,10.0,0.0,0.0,0.0,10.0
1446040140453091880,301,1446040140447911024,robocape_mag,4.95,-9.3,-4.05,10.0,0.0,0.0,0.0,10.0,0.0,0.0,0.0,10.0
1446040140486106880,302,1446040140481045007,robocape_mag,4.95,-9.3,-4.05,10.0,0.0,0.0,0.0,10.0,0.0,0.0,0.0,10.0
1446040140519561796,303,1446040140514713048,robocape_mag,4.95,-9.3,-4.05,10.0,0.0,0.0,0.0,10.0,0.0,0.0,0.0,10.0
1446040140553266880,304,1446040140548094034,robocape_mag,4.95,-9.3,-4.05,10.0,0.0,0.0,0.0,10.0,0.0,0.0,0.0,10.0
1446040140586357588,305,1446040140581079006,robocape_mag,4.95,-8.7,-4.05,10.0,0.0,0.0,0.0,10.0,0.0,0.0,0.0,10.0
1446040140619546796,306,1446040140614737033,robocape_mag,4.95,-8.7,-4.05,10.0,0.0,0.0,0.0,10.0,0.0,0.0,0.0,10.0
1446040140652800838,307,1446040140647792100,robocape_mag,4.95,-8.7,-4.05,10.0,0.0,0.0,0.0,10.0,0.0,0.0,0.0,10.0
1446040140686083421,308,1446040140681118965,robocape_mag,4.95,-8.7,-4.05,10.0,0.0,0.0,0.0,10.0,0.0,0.0,0.0,10.0
1446040140719668963,309,1446040140714853048,robocape_mag,4.95,-7.8,-3.15,10.0,0.0,0.0,0.0,10.0,0.0,0.0,0.0,10.0
1446040140752896880,310,1446040140747842073,robocape_mag,4.65,-7.8,-3.15,10.0,0.0,0.0,0.0,10.0,0.0,0.0,0.0,10.0
1446040140786125130,311,1446040140781178951,robocape_mag,4.65,-7.8,-3.15,10.0,0.0,0.0,0.0,10.0,0.0,0.0,0.0,10.0
1446040140819881338,312,1446040140815004110,robocape_mag,4.65,-7.8,-3.15,10.0,0.0,0.0,0.0,10.0,0.0,0.0,0.0,10.0
1446040140853157296,313,1446040140848068952,robocape_mag,4.65,-7.8,-3.15,10.0,0.0,0.0,0.0,10.0,0.0,0.0,0.0,10.0
1446040140885944838,314,1446040140881088018,robocape_mag,4.35,-9.9,-3.45,10.0,0.0,0.0,0.0,10.0,0.0,0.0,0.0,10.0
1446040140919858963,315,1446040140914962053,robocape_mag,4.35,-9.9,-3.45,10.0,0.0,0.0,0.0,10.0,0.0,0.0,0.0,10.0
1446040140952844338,316,1446040140947683095,robocape_mag,4.35,-9.9,-3.45,10.0,0.0,0.0,0.0,10.0,0.0,0.0,0.0,10.0
1446040140985849588,317,1446040140981024980,robocape_mag,4.35,-9.9,-3.45,10.0,0.0,0.0,0.0,10.0,0.0,0.0,0.0,10.0
1446040141024599005,318,1446040141019696950,robocape_mag,4.35,-9.9,-3.45,10.0,0.0,0.0,0.0,10.0,0.0,0.0,0.0,10.0
1446040141052903005,319,1446040141047600984,robocape_mag,4.95,-8.1,-4.65,10.0,0.0,0.0,0.0,10.0,0.0,0.0,0.0,10.0
1446040141093147797,320,1446040141088012933,robocape_mag,4.95,-8.1,-4.65,10.0,0.0,0.0,0.0,10.0,0.0,0.0,0.0,10.0
1446040141119475755,321,1446040141114612102,robocape_mag,4.95,-8.1,-4.65,10.0,0.0,0.0,0.0,10.0,0.0,0.0,0.0,10.0
1446040141153486797,322,1446040141148497104,robocape_mag,4.95,-8.1,-4.65,10.0,0.0,0.0,0.0,10.0,0.0,0.0,0.0,10.0
1446040141186001588,323,1446040141181233882,robocape_mag,4.95,-8.1,-4.65,10.0,0.0,0.0,0.0,10.0,0.0,0.0,0.0,10.0
1446040141219634088,324,1446040141214795112,robocape_mag,4.65,-8.4,-4.35,10.0,0.0,0.0,0.0,10.0,0.0,0.0,0.0,10.0
1446040141252754713,325,1446040141247814893,robocape_mag,4.65,-8.4,-4.35,10.0,0.0,0.0,0.0,10.0,0.0,0.0,0.0,10.0
1446040141286029838,326,1446040141281105995,robocape_mag,4.65,-8.4,-4.35,10.0,0.0,0.0,0.0,10.0,0.0,0.0,0.0,10.0
1446040141319908963,327,1446040141315000057,robocape_mag,4.65,-8.4,-4.35,10.0,0.0,0.0,0.0,10.0,0.0,0.0,0.0,10.0
1446040141352889047,328,1446040141347681999,robocape_mag,4.65,-8.4,-4.35,10.0,0.0,0.0,0.0,10.0,0.0,0.0,0.0,10.0
1446040141386025630,329,1446040141381088972,robocape_mag,4.65,-7.2,-4.35,10.0,0.0,0.0,0.0,10.0,0.0,0.0,0.0,10.0
1446040141419904213,330,1446040141415016889,robocape_mag,4.65,-7.2,-4.35,10.0,0.0,0.0,0.0,10.0,0.0,0.0,0.0,10.0
1446040141452933380,331,1446040141447652101,robocape_mag,4.65,-7.2,-4.35,10.0,0.0,0.0,0.0,10.0,0.0,0.0,0.0,10.0
1446040141485990172,332,1446040141481092929,robocape_mag,4.65,-7.2,-4.35,10.0,0.0,0.0,0.0,10.0,0.0,0.0,0.0,10.0
1446040141519746838,333,1446040141514492034,robocape_mag,4.65,-8.7,-4.05,10.0,0.0,0.0,0.0,10.0,0.0,0.0,0.0,10.0
1446040141553013797,334,1446040141547791957,robocape_mag,5.55,-8.7,-4.05,10.0,0.0,0.0,0.0,10.0,0.0,0.0,0.0,10.0
1446040141586071839,335,1446040141581013917,robocape_mag,5.55,-8.7,-4.05,10.0,0.0,0.0,0.0,10.0,0.0,0.0,0.0,10.0
1446040141619807589,336,1446040141614490032,robocape_mag,5.55,-8.7,-4.05,10.0,0.0,0.0,0.0,10.0,0.0,0.0,0.0,10.0
1446040141653001297,337,1446040141647986888,robocape_mag,5.55,-8.7,-4.05,10.0,0.0,0.0,0.0,10.0,0.0,0.0,0.0,10.0
1446040141685932172,338,1446040141681162118,robocape_mag,4.65,-7.8,-3.15,10.0,0.0,0.0,0.0,10.0,0.0,0.0,0.0,10.0
1446040141719713672,339,1446040141714472055,robocape_mag,4.65,-7.8,-3.15,10.0,0.0,0.0,0.0,10.0,0.0,0.0,0.0,10.0
1446040141752926964,340,1446040141747931957,robocape_mag,4.65,-7.8,-3.15,10.0,0.0,0.0,0.0,10.0,0.0,0.0,0.0,10.0
1446040141785937380,341,1446040141781094074,robocape_mag,4.65,-7.8,-3.15,10.0,0.0,0.0,0.0,10.0,0.0,0.0,0.0,10.0
1446040141819946880,342,1446040141814500093,robocape_mag,4.65,-7.8,-3.15,10.0,0.0,0.0,0.0,10.0,0.0,0.0,0.0,10.0
1446040141852829422,343,1446040141847641944,robocape_mag,6.15,-8.7,-4.05,10.0,0.0,0.0,0.0,10.0,0.0,0.0,0.0,10.0
1446040141885857297,344,1446040141881084918,robocape_mag,6.15,-8.7,-4.05,10.0,0.0,0.0,0.0,10.0,0.0,0.0,0.0,10.0
1446040141919967505,345,1446040141914736986,robocape_mag,6.15,-8.7,-4.05,10.0,0.0,0.0,0.0,10.0,0.0,0.0,0.0,10.0
1446040141953060172,346,1446040141947727918,robocape_mag,6.15,-8.7,-4.05,10.0,0.0,0.0,0.0,10.0,0.0,0.0,0.0,10.0
1446040141985879797,347,1446040141981067895,robocape_mag,6.15,-8.7,-4.05,10.0,0.0,0.0,0.0,10.0,0.0,0.0,0.0,10.0
1446040142019936755,348,1446040142014662027,robocape_mag,3.75,-8.1,-3.45,10.0,0.0,0.0,0.0,10.0,0.0,0.0,0.0,10.0
1446040142053001880,349,1446040142047646999,robocape_mag,3.75,-8.1,-3.45,10.0,0.0,0.0,0.0,10.0,0.0,0.0,0.0,10.0
1446040142093317130,350,1446040142087858915,robocape_mag,3.75,-8.1,-3.45,10.0,0.0,0.0,0.0,10.0,0.0,0.0,0.0,10.0
1446040142119828422,351,1446040142114411115,robocape_mag,3.75,-8.1,-3.45,10.0,0.0,0.0,0.0,10.0,0.0,0.0,0.0,10.0
1446040142152909630,352,1446040142147696018,robocape_mag,3.75,-8.1,-3.45,10.0,0.0,0.0,0.0,10.0,0.0,0.0,0.0,10.0
1446040142185763880,353,1446040142180958986,robocape_mag,5.55,-6.9,-3.45,10.0,0.0,0.0,0.0,10.0,0.0,0.0,0.0,10.0
1446040142220888255,354,1446040142215642929,robocape_mag,5.55,-6.9,-3.45,10.0,0.0,0.0,0.0,10.0,0.0,0.0,0.0,10.0
1446040142252825797,355,1446040142247705936,robocape_mag,5.55,-6.9,-3.45,10.0,0.0,0.0,0.0,10.0,0.0,0.0,0.0,10.0
1446040142286089297,356,1446040142281312942,robocape_mag,5.55,-6.9,-3.45,10.0,0.0,0.0,0.0,10.0,0.0,0.0,0.0,10.0
1446040142319625214,357,1446040142314563989,robocape_mag,5.55,-9.0,-3.75,10.0,0.0,0.0,0.0,10.0,0.0,0.0,0.0,10.0
1446040142352903006,358,1446040142347621917,robocape_mag,5.25,-9.0,-3.75,10.0,0.0,0.0,0.0,10.0,0.0,0.0,0.0,10.0
1446040142385878172,359,1446040142381014108,robocape_mag,5.25,-9.0,-3.75,10.0,0.0,0.0,0.0,10.0,0.0,0.0,0.0,10.0
1446040142419726672,360,1446040142414820909,robocape_mag,5.25,-9.0,-3.75,10.0,0.0,0.0,0.0,10.0,0.0,0.0,0.0,10.0
1446040142453065839,361,1446040142447658061,robocape_mag,5.25,-9.0,-3.75,10.0,0.0,0.0,0.0,10.0,0.0,0.0,0.0,10.0
1446040142485854339,362,1446040142481013059,robocape_mag,3.75,-8.1,-4.65,10.0,0.0,0.0,0.0,10.0,0.0,0.0,0.0,10.0
1446040142519638964,363,1446040142514605045,robocape_mag,3.75,-8.1,-4.65,10.0,0.0,0.0,0.0,10.0,0.0,0.0,0.0,10.0
1446040142553081422,364,1446040142547709941,robocape_mag,3.75,-8.1,-4.65,10.0,0.0,0.0,0.0,10.0,0.0,0.0,0.0,10.0
1446040142586296381,365,1446040142581141948,robocape_mag,3.75,-8.1,-4.65,10.0,0.0,0.0,0.0,10.0,0.0,0.0,0.0,10.0
1446040142619622172,366,1446040142614447116,robocape_mag,3.75,-8.1,-4.65,10.0,0.0,0.0,0.0,10.0,0.0,0.0,0.0,10.0
1446040142652908464,367,1446040142647689104,robocape_mag,4.95,-8.7,-3.45,10.0,0.0,0.0,0.0,10.0,0.0,0.0,0.0,10.0
1446040142685966381,368,1446040142681142091,robocape_mag,4.95,-8.7,-3.45,10.0,0.0,0.0,0.0,10.0,0.0,0.0,0.0,10.0
1446040142719775881,369,1446040142714651107,robocape_mag,4.95,-8.7,-3.45,10.0,0.0,0.0,0.0,10.0,0.0,0.0,0.0,10.0
1446040142752844672,370,1446040142747761964,robocape_mag,4.95,-8.7,-3.45,10.0,0.0,0.0,0.0,10.0,0.0,0.0,0.0,10.0
1446040142785691922,371,1446040142780944108,robocape_mag,4.95,-8.7,-3.45,10.0,0.0,0.0,0.0,10.0,0.0,0.0,0.0,10.0
1446040142819974297,372,1446040142814431905,robocape_mag,5.25,-7.8,-3.75,10.0,0.0,0.0,0.0,10.0,0.0,0.0,0.0,10.0
1446040142852819339,373,1446040142847626924,robocape_mag,5.25,-7.8,-3.75,10.0,0.0,0.0,0.0,10.0,0.0,0.0,0.0,10.0
1446040142885817631,374,1446040142881052017,robocape_mag,5.25,-7.8,-3.75,10.0,0.0,0.0,0.0,10.0,0.0,0.0,0.0,10.0
1446040142919744922,375,1446040142914454936,robocape_mag,5.25,-7.8,-3.75,10.0,0.0,0.0,0.0,10.0,0.0,0.0,0.0,10.0
1446040142953065464,376,1446040142947654962,robocape_mag,5.25,-7.8,-3.75,10.0,0.0,0.0,0.0,10.0,0.0,0.0,0.0,10.0
1446040142985901381,377,1446040142980969905,robocape_mag,5.25,-8.4,-3.15,10.0,0.0,0.0,0.0,10.0,0.0,0.0,0.0,10.0
1446040143019493006,378,1446040143014455080,robocape_mag,5.25,-8.4,-3.15,10.0,0.0,0.0,0.0,10.0,0.0,0.0,0.0,10.0
1446040143053256256,379,1446040143047857999,robocape_mag,5.25,-8.4,-3.15,10.0,0.0,0.0,0.0,10.0,0.0,0.0,0.0,10.0
1446040143093331173,380,1446040143087619066,robocape_mag,5.25,-8.4,-3.15,10.0,0.0,0.0,0.0,10.0,0.0,0.0,0.0,10.0
1446040143119678673,381,1446040143114572048,robocape_mag,5.25,-8.1,-4.05,10.0,0.0,0.0,0.0,10.0,0.0,0.0,0.0,10.0
1446040143152928798,382,1446040143147802114,robocape_mag,3.75,-8.1,-4.05,10.0,0.0,0.0,0.0,10.0,0.0,0.0,0.0,10.0
1446040143186141214,383,1446040143181211948,robocape_mag,3.75,-8.1,-4.05,10.0,0.0,0.0,0.0,10.0,0.0,0.0,0.0,10.0
1446040143219597298,384,1446040143214629888,robocape_mag,3.75,-8.1,-4.05,10.0,0.0,0.0,0.0,10.0,0.0,0.0,0.0,10.0
1446040143252981881,385,1446040143247859001,robocape_mag,3.75,-8.1,-4.05,10.0,0.0,0.0,0.0,10.0,0.0,0.0,0.0,10.0
1446040143286883173,386,1446040143281074047,robocape_mag,4.35,-7.5,-4.05,10.0,0.0,0.0,0.0,10.0,0.0,0.0,0.0,10.0
1446040143319556214,387,1446040143314448118,robocape_mag,4.35,-7.5,-4.05,10.0,0.0,0.0,0.0,10.0,0.0,0.0,0.0,10.0
1446040143353312131,388,1446040143347839117,robocape_mag,4.35,-7.5,-4.05,10.0,0.0,0.0,0.0,10.0,0.0,0.0,0.0,10.0
1446040143385831548,389,1446040143380965948,robocape_mag,4.35,-7.5,-4.05,10.0,0.0,0.0,0.0,10.0,0.0,0.0,0.0,10.0
1446040143420171839,390,1446040143414514064,robocape_mag,4.35,-7.5,-4.05,10.0,0.0,0.0,0.0,10.0,0.0,0.0,0.0,10.0
1446040143452938923,391,1446040143447711944,robocape_mag,4.65,-7.2,-4.35,10.0,0.0,0.0,0.0,10.0,0.0,0.0,0.0,10.0
1446040143486024923,392,1446040143481064081,robocape_mag,4.65,-7.2,-4.35,10.0,0.0,0.0,0.0,10.0,0.0,0.0,0.0,10.0
1446040143519590923,393,1446040143514559030,robocape_mag,4.65,-7.2,-4.35,10.0,0.0,0.0,0.0,10.0,0.0,0.0,0.0,10.0
1446040143553186839,394,1446040143547794103,robocape_mag,4.65,-7.2,-4.35,10.0,0.0,0.0,0.0,10.0,0.0,0.0,0.0,10.0
1446040143586203381,395,1446040143581005096,robocape_mag,4.65,-7.2,-4.35,10.0,0.0,0.0,0.0,10.0,0.0,0.0,0.0,10.0
1446040143619765548,396,1446040143614779949,robocape_mag,4.35,-7.5,-4.05,10.0,0.0,0.0,0.0,10.0,0.0,0.0,0.0,10.0
1446040143653285589,397,1446040143648065090,robocape_mag,4.35,-7.5,-4.05,10.0,0.0,0.0,0.0,10.0,0.0,0.0,0.0,10.0
1446040143685833256,398,1446040143680907964,robocape_mag,4.35,-7.5,-4.05,10.0,0.0,0.0,0.0,10.0,0.0,0.0,0.0,10.0
1446040143719640840,399,1446040143714607000,robocape_mag,4.35,-7.5,-4.05,10.0,0.0,0.0,0.0,10.0,0.0,0.0,0.0,10.0
1446040143753620381,400,1446040143748027086,robocape_mag,4.35,-7.5,-4.05,10.0,0.0,0.0,0.0,10.0,0.0,0.0,0.0,10.0
1446040143785820298,401,1446040143780970096,robocape_mag,4.65,-6.6,-4.35,10.0,0.0,0.0,0.0,10.0,0.0,0.0,0.0,10.0
1446040143820112090,402,1446040143814852952,robocape_mag,4.65,-6.6,-4.35,10.0,0.0,0.0,0.0,10.0,0.0,0.0,0.0,10.0
1446040143853161548,403,1446040143847781896,robocape_mag,4.65,-6.6,-4.35,10.0,0.0,0.0,0.0,10.0,0.0,0.0,0.0,10.0
1446040143885853673,404,1446040143880950927,robocape_mag,4.65,-6.6,-4.35,10.0,0.0,0.0,0.0,10.0,0.0,0.0,0.0,10.0
1446040143920197715,405,1446040143914829969,robocape_mag,4.65,-7.2,-2.55,10.0,0.0,0.0,0.0,10.0,0.0,0.0,0.0,10.0
1446040143958053423,406,1446040143953025102,robocape_mag,3.45,-7.2,-2.55,10.0,0.0,0.0,0.0,10.0,0.0,0.0,0.0,10.0
1446040143985945381,407,1446040143980993986,robocape_mag,3.45,-7.2,-2.55,10.0,0.0,0.0,0.0,10.0,0.0,0.0,0.0,10.0
1446040144019647590,408,1446040144014729976,robocape_mag,3.45,-7.2,-2.55,10.0,0.0,0.0,0.0,10.0,0.0,0.0,0.0,10.0
1446040144052663048,409,1446040144047836065,robocape_mag,3.45,-7.2,-2.55,10.0,0.0,0.0,0.0,10.0,0.0,0.0,0.0,10.0
1446040144093052215,410,1446040144087452888,robocape_mag,5.55,-6.9,-2.85,10.0,0.0,0.0,0.0,10.0,0.0,0.0,0.0,10.0
1446040144119584048,411,1446040144114800930,robocape_mag,5.55,-6.9,-2.85,10.0,0.0,0.0,0.0,10.0,0.0,0.0,0.0,10.0
1446040144153064965,412,1446040144148010969,robocape_mag,5.55,-6.9,-2.85,10.0,0.0,0.0,0.0,10.0,0.0,0.0,0.0,10.0
1446040144185867631,413,1446040144181005001,robocape_mag,5.55,-6.9,-2.85,10.0,0.0,0.0,0.0,10.0,0.0,0.0,0.0,10.0
1446040144219556215,414,1446040144214735984,robocape_mag,5.55,-6.9,-2.85,10.0,0.0,0.0,0.0,10.0,0.0,0.0,0.0,10.0
1446040144252699006,415,1446040144247809886,robocape_mag,5.55,-7.5,-4.05,10.0,0.0,0.0,0.0,10.0,0.0,0.0,0.0,10.0
1446040144285688506,416,1446040144280929088,robocape_mag,5.55,-7.5,-4.05,10.0,0.0,0.0,0.0,10.0,0.0,0.0,0.0,10.0
1446040144320079798,417,1446040144314739942,robocape_mag,5.55,-7.5,-4.05,10.0,0.0,0.0,0.0,10.0,0.0,0.0,0.0,10.0
1446040144352700965,418,1446040144347670078,robocape_mag,5.55,-7.5,-4.05,10.0,0.0,0.0,0.0,10.0,0.0,0.0,0.0,10.0
1446040144385754048,419,1446040144381016016,robocape_mag,5.55,-7.5,-4.05,10.0,0.0,0.0,0.0,10.0,0.0,0.0,0.0,10.0
1446040144419817507,420,1446040144414644956,robocape_mag,3.75,-6.9,-4.05,10.0,0.0,0.0,0.0,10.0,0.0,0.0,0.0,10.0
1446040144452821007,421,1446040144447743892,robocape_mag,3.75,-6.9,-4.05,10.0,0.0,0.0,0.0,10.0,0.0,0.0,0.0,10.0
1446040144486737215,422,1446040144481919050,robocape_mag,3.75,-6.9,-4.05,10.0,0.0,0.0,0.0,10.0,0.0,0.0,0.0,10.0
1446040144519724382,423,1446040144514858961,robocape_mag,3.75,-6.9,-4.05,10.0,0.0,0.0,0.0,10.0,0.0,0.0,0.0,10.0
1446040144552759257,424,1446040144547744989,robocape_mag,3.75,-6.9,-4.05,10.0,0.0,0.0,0.0,10.0,0.0,0.0,0.0,10.0
1446040144586184007,425,1446040144581058025,robocape_mag,6.15,-7.5,-4.05,10.0,0.0,0.0,0.0,10.0,0.0,0.0,0.0,10.0
1446040144620210673,426,1446040144614878892,robocape_mag,6.15,-7.5,-4.05,10.0,0.0,0.0,0.0,10.0,0.0,0.0,0.0,10.0
1446040144654425340,427,1446040144649583101,robocape_mag,6.15,-7.5,-4.05,10.0,0.0,0.0,0.0,10.0,0.0,0.0,0.0,10.0
1446040144685829007,428,1446040144681045055,robocape_mag,6.15,-7.5,-4.05,10.0,0.0,0.0,0.0,10.0,0.0,0.0,0.0,10.0
1446040144723694423,429,1446040144718753099,robocape_mag,6.45,-9.0,-3.15,10.0,0.0,0.0,0.0,10.0,0.0,0.0,0.0,10.0
1446040144752971382,430,1446040144748027086,robocape_mag,6.45,-9.0,-3.15,10.0,0.0,0.0,0.0,10.0,0.0,0.0,0.0,10.0
1446040144785670423,431,1446040144780937910,robocape_mag,6.45,-9.0,-3.15,10.0,0.0,0.0,0.0,10.0,0.0,0.0,0.0,10.0
1446040144819497798,432,1446040144814687967,robocape_mag,6.45,-9.0,-3.15,10.0,0.0,0.0,0.0,10.0,0.0,0.0,0.0,10.0
1446040144853182632,433,1446040144847913026,robocape_mag,6.45,-9.0,-3.15,10.0,0.0,0.0,0.0,10.0,0.0,0.0,0.0,10.0
1446040144885771298,434,1446040144881012916,robocape_mag,5.55,-8.7,-5.25,10.0,0.0,0.0,0.0,10.0,0.0,0.0,0.0,10.0
1446040144919953548,435,1446040144914864063,robocape_mag,5.55,-8.7,-5.25,10.0,0.0,0.0,0.0,10.0,0.0,0.0,0.0,10.0
1446040144952961548,436,1446040144947710990,robocape_mag,5.55,-8.7,-5.25,10.0,0.0,0.0,0.0,10.0,0.0,0.0,0.0,10.0
1446040144985949715,437,1446040144980938911,robocape_mag,5.55,-8.7,-5.25,10.0,0.0,0.0,0.0,10.0,0.0,0.0,0.0,10.0
1446040145019754215,438,1446040145014779090,robocape_mag,5.55,-8.7,-5.25,10.0,0.0,0.0,0.0,10.0,0.0,0.0,0.0,10.0
1446040145053145757,439,1446040145047816991,robocape_mag,4.35,-7.5,-4.05,10.0,0.0,0.0,0.0,10.0,0.0,0.0,0.0,10.0
1446040145093144632,440,1446040145087758064,robocape_mag,4.35,-7.5,-4.05,10.0,0.0,0.0,0.0,10.0,0.0,0.0,0.0,10.0
1446040145119416924,441,1446040145114558935,robocape_mag,4.35,-7.5,-4.05,10.0,0.0,0.0,0.0,10.0,0.0,0.0,0.0,10.0
1446040145153121674,442,1446040145147903919,robocape_mag,4.35,-7.5,-4.05,10.0,0.0,0.0,0.0,10.0,0.0,0.0,0.0,10.0
1446040145185748215,443,1446040145180933952,robocape_mag,4.35,-7.5,-4.05,10.0,0.0,0.0,0.0,10.0,0.0,0.0,0.0,10.0
1446040145219460299,444,1446040145214538097,robocape_mag,3.75,-8.1,-3.45,10.0,0.0,0.0,0.0,10.0,0.0,0.0,0.0,10.0
1446040145253124424,445,1446040145248045921,robocape_mag,3.75,-8.1,-3.45,10.0,0.0,0.0,0.0,10.0,0.0,0.0,0.0,10.0
1446040145285835465,446,1446040145281068086,robocape_mag,3.75,-8.1,-3.45,10.0,0.0,0.0,0.0,10.0,0.0,0.0,0.0,10.0
1446040145319545257,447,1446040145314493894,robocape_mag,3.75,-8.1,-3.45,10.0,0.0,0.0,0.0,10.0,0.0,0.0,0.0,10.0
1446040145352840340,448,1446040145347659111,robocape_mag,3.75,-8.1,-3.45,10.0,0.0,0.0,0.0,10.0,0.0,0.0,0.0,10.0
1446040145386107924,449,1446040145381302118,robocape_mag,5.25,-7.2,-3.75,10.0,0.0,0.0,0.0,10.0,0.0,0.0,0.0,10.0
1446040145419808590,450,1446040145414527893,robocape_mag,5.25,-7.2,-3.75,10.0,0.0,0.0,0.0,10.0,0.0,0.0,0.0,10.0
1446040145453201049,451,1446040145447918891,robocape_mag,5.25,-7.2,-3.75,10.0,0.0,0.0,0.0,10.0,0.0,0.0,0.0,10.0
1446040145485917465,452,1446040145480946063,robocape_mag,5.25,-7.2,-3.75,10.0,0.0,0.0,0.0,10.0,0.0,0.0,0.0,10.0
1446040145519622299,453,1446040145514590978,robocape_mag,5.25,-7.8,-4.95,10.0,0.0,0.0,0.0,10.0,0.0,0.0,0.0,10.0
1446040145553176465,454,1446040145547806978,robocape_mag,5.25,-7.8,-4.95,10.0,0.0,0.0,0.0,10.0,0.0,0.0,0.0,10.0
1446040145586268799,455,1446040145580997943,robocape_mag,5.25,-7.8,-4.95,10.0,0.0,0.0,0.0,10.0,0.0,0.0,0.0,10.0
1446040145619783632,456,1446040145614525079,robocape_mag,5.25,-7.8,-4.95,10.0,0.0,0.0,0.0,10.0,0.0,0.0,0.0,10.0
1446040145653173840,457,1446040145647958993,robocape_mag,5.25,-7.8,-4.95,10.0,0.0,0.0,0.0,10.0,0.0,0.0,0.0,10.0
1446040145685802632,458,1446040145681035995,robocape_mag,5.55,-6.9,-3.45,10.0,0.0,0.0,0.0,10.0,0.0,0.0,0.0,10.0
1446040145719898299,459,1446040145714780092,robocape_mag,5.55,-6.9,-3.45,10.0,0.0,0.0,0.0,10.0,0.0,0.0,0.0,10.0
1446040145753066632,460,1446040145747795104,robocape_mag,5.55,-6.9,-3.45,10.0,0.0,0.0,0.0,10.0,0.0,0.0,0.0,10.0
1446040145785807507,461,1446040145781081914,robocape_mag,5.55,-6.9,-3.45,10.0,0.0,0.0,0.0,10.0,0.0,0.0,0.0,10.0
1446040145819648299,462,1446040145814534902,robocape_mag,5.55,-6.9,-3.45,10.0,0.0,0.0,0.0,10.0,0.0,0.0,0.0,10.0
1446040145853450757,463,1446040145848129987,robocape_mag,5.25,-7.8,-2.55,10.0,0.0,0.0,0.0,10.0,0.0,0.0,0.0,10.0
1446040145885666382,464,1446040145880918979,robocape_mag,5.25,-7.8,-2.55,10.0,0.0,0.0,0.0,10.0,0.0,0.0,0.0,10.0
1446040145920229091,465,1446040145914721965,robocape_mag,5.25,-7.8,-2.55,10.0,0.0,0.0,0.0,10.0,0.0,0.0,0.0,10.0
1446040145953062049,466,1446040145947988033,robocape_mag,5.25,-7.8,-2.55,10.0,0.0,0.0,0.0,10.0,0.0,0.0,0.0,10.0
1446040145985917341,467,1446040145981072902,robocape_mag,5.25,-7.8,-2.55,10.0,0.0,0.0,0.0,10.0,0.0,0.0,0.0,10.0
1446040146019909507,468,1446040146014724969,robocape_mag,5.25,-7.8,-3.75,10.0,0.0,0.0,0.0,10.0,0.0,0.0,0.0,10.0
1446040146053445007,469,1446040146048131942,robocape_mag,5.25,-7.8,-3.75,10.0,0.0,0.0,0.0,10.0,0.0,0.0,0.0,10.0
1446040146093034591,470,1446040146087976932,robocape_mag,5.25,-7.8,-3.75,10.0,0.0,0.0,0.0,10.0,0.0,0.0,0.0,10.0
1446040146119644841,471,1446040146114504098,robocape_mag,5.25,-7.8,-3.75,10.0,0.0,0.0,0.0,10.0,0.0,0.0,0.0,10.0
1446040146153481507,472,1446040146148273944,robocape_mag,5.25,-7.8,-3.75,10.0,0.0,0.0,0.0,10.0,0.0,0.0,0.0,10.0
1446040146185802507,473,1446040146181014060,robocape_mag,5.55,-6.3,-4.05,10.0,0.0,0.0,0.0,10.0,0.0,0.0,0.0,10.0
1446040146219539799,474,1446040146214492082,robocape_mag,5.55,-6.3,-4.05,10.0,0.0,0.0,0.0,10.0,0.0,0.0,0.0,10.0
1446040146253315882,475,1446040146248172044,robocape_mag,5.55,-6.3,-4.05,10.0,0.0,0.0,0.0,10.0,0.0,0.0,0.0,10.0
1446040146285672466,476,1446040146280934095,robocape_mag,5.55,-6.3,-4.05,10.0,0.0,0.0,0.0,10.0,0.0,0.0,0.0,10.0
1446040146319458299,477,1446040146314488887,robocape_mag,5.55,-6.3,-4.35,10.0,0.0,0.0,0.0,10.0,0.0,0.0,0.0,10.0
1446040146353592174,478,1446040146348217010,robocape_mag,5.25,-7.2,-4.35,10.0,0.0,0.0,0.0,10.0,0.0,0.0,0.0,10.0
1446040146385674424,479,1446040146380929946,robocape_mag,5.25,-7.2,-4.35,10.0,0.0,0.0,0.0,10.0,0.0,0.0,0.0,10.0
1446040146419466007,480,1446040146414539098,robocape_mag,5.25,-7.2,-4.35,10.0,0.0,0.0,0.0,10.0,0.0,0.0,0.0,10.0
1446040146453243007,481,1446040146448188066,robocape_mag,5.25,-7.2,-4.35,10.0,0.0,0.0,0.0,10.0,0.0,0.0,0.0,10.0
1446040146485909924,482,1446040146481117963,robocape_mag,5.85,-7.2,-3.75,10.0,0.0,0.0,0.0,10.0,0.0,0.0,0.0,10.0
1446040146519471966,483,1446040146514648914,robocape_mag,5.85,-7.2,-3.75,10.0,0.0,0.0,0.0,10.0,0.0,0.0,0.0,10.0
1446040146553214758,484,1446040146548116922,robocape_mag,5.85,-7.2,-3.75,10.0,0.0,0.0,0.0,10.0,0.0,0.0,0.0,10.0
1446040146586051758,485,1446040146580909013,robocape_mag,5.85,-7.2,-3.75,10.0,0.0,0.0,0.0,10.0,0.0,0.0,0.0,10.0
1446040146619480008,486,1446040146614629030,robocape_mag,5.85,-7.2,-3.75,10.0,0.0,0.0,0.0,10.0,0.0,0.0,0.0,10.0
1446040146654543341,487,1446040146649172067,robocape_mag,2.85,-7.2,-4.35,10.0,0.0,0.0,0.0,10.0,0.0,0.0,0.0,10.0
1446040146685701383,488,1446040146680926084,robocape_mag,2.85,-7.2,-4.35,10.0,0.0,0.0,0.0,10.0,0.0,0.0,0.0,10.0
1446040146719665799,489,1446040146714845895,robocape_mag,2.85,-7.2,-4.35,10.0,0.0,0.0,0.0,10.0,0.0,0.0,0.0,10.0
1446040146753204008,490,1446040146748101949,robocape_mag,2.85,-7.2,-4.35,10.0,0.0,0.0,0.0,10.0,0.0,0.0,0.0,10.0
1446040146785758341,491,1446040146781009912,robocape_mag,2.85,-7.2,-4.35,10.0,0.0,0.0,0.0,10.0,0.0,0.0,0.0,10.0
1446040146819393924,492,1446040146814579963,robocape_mag,5.85,-7.8,-3.75,10.0,0.0,0.0,0.0,10.0,0.0,0.0,0.0,10.0
1446040146853574424,493,1446040146848249912,robocape_mag,5.85,-7.8,-3.75,10.0,0.0,0.0,0.0,10.0,0.0,0.0,0.0,10.0
1446040146885707466,494,1446040146880918979,robocape_mag,5.85,-7.8,-3.75,10.0,0.0,0.0,0.0,10.0,0.0,0.0,0.0,10.0
1446040146919470133,495,1446040146914570093,robocape_mag,5.85,-7.8,-3.75,10.0,0.0,0.0,0.0,10.0,0.0,0.0,0.0,10.0
1446040146953678716,496,1446040146948244094,robocape_mag,5.85,-7.8,-3.75,10.0,0.0,0.0,0.0,10.0,0.0,0.0,0.0,10.0
1446040146985682549,497,1446040146980978965,robocape_mag,3.15,-6.9,-4.05,10.0,0.0,0.0,0.0,10.0,0.0,0.0,0.0,10.0
1446040147019438841,498,1446040147014553070,robocape_mag,3.15,-6.9,-4.05,10.0,0.0,0.0,0.0,10.0,0.0,0.0,0.0,10.0
1446040147053283424,499,1446040147047992944,robocape_mag,3.15,-6.9,-4.05,10.0,0.0,0.0,0.0,10.0,0.0,0.0,0.0,10.0
1446040147100329216,500,1446040147095242977,robocape_mag,3.15,-6.9,-4.05,10.0,0.0,0.0,0.0,10.0,0.0,0.0,0.0,10.0
1446040147124280299,501,1446040147119323015,robocape_mag,6.45,-7.8,-3.75,10.0,0.0,0.0,0.0,10.0,0.0,0.0,0.0,10.0
1446040147153871633,502,1446040147148541927,robocape_mag,6.45,-7.8,-3.75,10.0,0.0,0.0,0.0,10.0,0.0,0.0,0.0,10.0
1446040147185828425,503,1446040147181052923,robocape_mag,6.45,-7.8,-3.75,10.0,0.0,0.0,0.0,10.0,0.0,0.0,0.0,10.0
1446040147219340008,504,1446040147214524030,robocape_mag,6.45,-7.8,-3.75,10.0,0.0,0.0,0.0,10.0,0.0,0.0,0.0,10.0
1446040147253538508,505,1446040147248292922,robocape_mag,6.45,-7.8,-3.75,10.0,0.0,0.0,0.0,10.0,0.0,0.0,0.0,10.0
1446040147285945591,506,1446040147281189918,robocape_mag,4.35,-6.9,-2.85,10.0,0.0,0.0,0.0,10.0,0.0,0.0,0.0,10.0
1446040147319341216,507,1446040147314532041,robocape_mag,4.35,-6.9,-2.85,10.0,0.0,0.0,0.0,10.0,0.0,0.0,0.0,10.0
1446040147353502050,508,1446040147348265886,robocape_mag,4.35,-6.9,-2.85,10.0,0.0,0.0,0.0,10.0,0.0,0.0,0.0,10.0
1446040147386045300,509,1446040147381208896,robocape_mag,4.35,-6.9,-2.85,10.0,0.0,0.0,0.0,10.0,0.0,0.0,0.0,10.0
1446040147419331133,510,1446040147414509057,robocape_mag,4.35,-6.9,-2.85,10.0,0.0,0.0,0.0,10.0,0.0,0.0,0.0,10.0
1446040147453235008,511,1446040147448041915,robocape_mag,6.75,-7.5,-2.85,10.0,0.0,0.0,0.0,10.0,0.0,0.0,0.0,10.0
1446040147486086133,512,1446040147481014013,robocape_mag,6.75,-7.5,-2.85,10.0,0.0,0.0,0.0,10.0,0.0,0.0,0.0,10.0
1446040147519464133,513,1446040147514552116,robocape_mag,6.75,-7.5,-2.85,10.0,0.0,0.0,0.0,10.0,0.0,0.0,0.0,10.0
1446040147553448633,514,1446040147548307895,robocape_mag,6.75,-7.5,-2.85,10.0,0.0,0.0,0.0,10.0,0.0,0.0,0.0,10.0
1446040147586027966,515,1446040147580940961,robocape_mag,6.75,-7.5,-2.85,10.0,0.0,0.0,0.0,10.0,0.0,0.0,0.0,10.0
1446040147619473300,516,1446040147614557027,robocape_mag,5.25,-7.8,-3.75,10.0,0.0,0.0,0.0,10.0,0.0,0.0,0.0,10.0
1446040147653619466,517,1446040147648422956,robocape_mag,5.25,-7.8,-3.75,10.0,0.0,0.0,0.0,10.0,0.0,0.0,0.0,10.0
1446040147685931425,518,1446040147681111097,robocape_mag,5.25,-7.8,-3.75,10.0,0.0,0.0,0.0,10.0,0.0,0.0,0.0,10.0
1446040147719389341,519,1446040147714569091,robocape_mag,5.25,-7.8,-3.75,10.0,0.0,0.0,0.0,10.0,0.0,0.0,0.0,10.0
1446040147753288675,520,1446040147748110055,robocape_mag,5.25,-7.8,-3.75,10.0,0.0,0.0,0.0,10.0,0.0,0.0,0.0,10.0
1446040147785910383,521,1446040147781173944,robocape_mag,4.95,-6.9,-4.65,10.0,0.0,0.0,0.0,10.0,0.0,0.0,0.0,10.0
1446040147819388758,522,1446040147814353942,robocape_mag,4.95,-6.9,-4.65,10.0,0.0,0.0,0.0,10.0,0.0,0.0,0.0,10.0
1446040147860143467,523,1446040147855254888,robocape_mag,4.95,-6.9,-4.65,10.0,0.0,0.0,0.0,10.0,0.0,0.0,0.0,10.0
1446040147885967550,524,1446040147881213903,robocape_mag,4.95,-6.9,-4.65,10.0,0.0,0.0,0.0,10.0,0.0,0.0,0.0,10.0
1446040147919559758,525,1446040147914413928,robocape_mag,4.95,-6.9,-3.45,10.0,0.0,0.0,0.0,10.0,0.0,0.0,0.0,10.0
1446040147953330550,526,1446040147948317050,robocape_mag,4.95,-6.9,-3.45,10.0,0.0,0.0,0.0,10.0,0.0,0.0,0.0,10.0
1446040147985848425,527,1446040147980988979,robocape_mag,4.95,-6.9,-3.45,10.0,0.0,0.0,0.0,10.0,0.0,0.0,0.0,10.0
1446040148019563508,528,1446040148014281988,robocape_mag,4.95,-6.9,-3.45,10.0,0.0,0.0,0.0,10.0,0.0,0.0,0.0,10.0
1446040148053315800,529,1446040148048320055,robocape_mag,4.95,-6.9,-3.45,10.0,0.0,0.0,0.0,10.0,0.0,0.0,0.0,10.0
1446040148092999258,530,1446040148087924003,robocape_mag,5.55,-7.5,-4.05,10.0,0.0,0.0,0.0,10.0,0.0,0.0,0.0,10.0
1446040148119671967,531,1446040148114315986,robocape_mag,5.55,-7.5,-4.05,10.0,0.0,0.0,0.0,10.0,0.0,0.0,0.0,10.0
