%time,field.header.seq,field.header.stamp,field.header.frame_id,field.magnetic_field.x,field.magnetic_field.y,field.magnetic_field.z,field.magnetic_field_covariance0,field.magnetic_field_covariance1,field.magnetic_field_covariance2,field.magnetic_field_covariance3,field.magnetic_field_covariance4,field.magnetic_field_covariance5,field.magnetic_field_covariance6,field.magnetic_field_covariance7,field.magnetic_field_covariance8
1446040348342248229,1,1446040348337474107,robocape_mag,19.65,-13.2,-3.6,10.0,0.0,0.0,0.0,10.0,0.0,0.0,0.0,10.0
1446040348375289020,2,1446040348370609998,robocape_mag,24.15,-6.9,-5.1,10.0,0.0,0.0,0.0,10.0,0.0,0.0,0.0,10.0
1446040348408702395,3,1446040348403913021,robocape_mag,24.15,-6.9,-5.1,10.0,0.0,0.0,0.0,10.0,0.0,0.0,0.0,10.0
1446040348442204645,4,1446040348437371969,robocape_mag,24.15,-6.9,-5.1,10.0,0.0,0.0,0.0,10.0,0.0,0.0,0.0,10.0
1446040348475460687,5,1446040348470704078,robocape_mag,24.15,-6.9,-5.1,10.0,0.0,0.0,0.0,10.0,0.0,0.0,0.0,10.0
1446040348508502771,6,1446040348503803014,robocape_mag,24.15,-6.9,-5.1,10.0,0.0,0.0,0.0,10.0,0.0,0.0,0.0,10.0
1446040348542394229,7,1446040348537357091,robocape_mag,26.25,-3.6,-6.6,10.0,0.0,0.0,0.0,10.0,0.0,0.0,0.0,10.0
1446040348575272979,8,1446040348570579051,robocape_mag,26.25,-3.6,-6.6,10.0,0.0,0.0,0.0,10.0,0.0,0.0,0.0,10.0
1446040348608509937,9,1446040348603843927,robocape_mag,26.25,-3.6,-6.6,10.0,0.0,0.0,0.0,10.0,0.0,0.0,0.0,10.0
1446040348642374937,10,1446040348637384891,robocape_mag,26.25,-3.6,-6.6,10.0,0.0,0.0,0.0,10.0,0.0,0.0,0.0,10.0
1446040348675435687,11,1446040348670629978,robocape_mag,26.25,-3.6,-6.6,10.0,0.0,0.0,0.0,10.0,0.0,0.0,0.0,10.0
1446040348708749146,12,1446040348703763008,robocape_mag,27.75,-2.7,-7.5,10.0,0.0,0.0,0.0,10.0,0.0,0.0,0.0,10.0
1446040348742335021,13,1446040348737385034,robocape_mag,27.75,-2.7,-7.5,10.0,0.0,0.0,0.0,10.0,0.0,0.0,0.0,10.0
1446040348777017021,14,1446040348771718978,robocape_mag,27.75,-2.7,-7.5,10.0,0.0,0.0,0.0,10.0,0.0,0.0,0.0,10.0
1446040348808650104,15,1446040348803776025,robocape_mag,27.75,-2.7,-7.5,10.0,0.0,0.0,0.0,10.0,0.0,0.0,0.0,10.0
1446040348842170271,16,1446040348837490081,robocape_mag,27.75,1.5,-6.3,10.0,0.0,0.0,0.0,10.0,0.0,0.0,0.0,10.0
1446040348875335562,17,1446040348870636940,robocape_mag,24.75,1.5,-6.3,10.0,0.0,0.0,0.0,10.0,0.0,0.0,0.0,10.0
1446040348908870104,18,1446040348904211997,robocape_mag,24.75,1.5,-6.3,10.0,0.0,0.0,0.0,10.0,0.0,0.0,0.0,10.0
1446040348949894729,19,1446040348937248945,robocape_mag,24.75,1.5,-6.3,10.0,0.0,0.0,0.0,10.0,0.0,0.0,0.0,10.0
1446040348975493187,20,1446040348970701932,robocape_mag,24.75,1.5,-6.3,10.0,0.0,0.0,0.0,10.0,0.0,0.0,0.0,10.0
1446040349008759271,21,1446040349004084110,robocape_mag,23.85,-6.0,-4.2,10.0,0.0,0.0,0.0,10.0,0.0,0.0,0.0,10.0
1446040349042051854,22,1446040349037170886,robocape_mag,23.85,-6.0,-4.2,10.0,0.0,0.0,0.0,10.0,0.0,0.0,0.0,10.0
1446040349075544146,23,1446040349070853948,robocape_mag,23.85,-6.0,-4.2,10.0,0.0,0.0,0.0,10.0,0.0,0.0,0.0,10.0
1446040349108766271,24,1446040349104109048,robocape_mag,23.85,-6.0,-4.2,10.0,0.0,0.0,0.0,10.0,0.0,0.0,0.0,10.0
1446040349142101104,25,1446040349137211084,robocape_mag,23.85,-6.0,-4.2,10.0,0.0,0.0,0.0,10.0,0.0,0.0,0.0,10.0
1446040349175478271,26,1446040349170696973,robocape_mag,18.75,-11.1,-4.5,10.0,0.0,0.0,0.0,10.0,0.0,0.0,0.0,10.0
1446040349208919479,27,1446040349203847885,robocape_mag,18.75,-11.1,-4.5,10.0,0.0,0.0,0.0,10.0,0.0,0.0,0.0,10.0
1446040349242329021,28,1446040349237406015,robocape_mag,18.75,-11.1,-4.5,10.0,0.0,0.0,0.0,10.0,0.0,0.0,0.0,10.0
1446040349276001938,29,1446040349270656108,robocape_mag,18.75,-11.1,-4.5,10.0,0.0,0.0,0.0,10.0,0.0,0.0,0.0,10.0
1446040349308942938,30,1446040349304100036,robocape_mag,18.75,-11.1,-4.5,10.0,0.0,0.0,0.0,10.0,0.0,0.0,0.0,10.0
1446040349342306521,31,1446040349337428092,robocape_mag,13.65,-12.0,-3.0,10.0,0.0,0.0,0.0,10.0,0.0,0.0,0.0,10.0
1446040349375387063,32,1446040349370656967,robocape_mag,13.65,-12.0,-3.0,10.0,0.0,0.0,0.0,10.0,0.0,0.0,0.0,10.0
1446040349409234813,33,1446040349404192924,robocape_mag,13.65,-12.0,-3.0,10.0,0.0,0.0,0.0,10.0,0.0,0.0,0.0,10.0
1446040349442356646,34,1446040349437263011,robocape_mag,13.65,-12.0,-3.0,10.0,0.0,0.0,0.0,10.0,0.0,0.0,0.0,10.0
1446040349475381938,35,1446040349470639944,robocape_mag,13.65,-12.0,-3.0,10.0,0.0,0.0,0.0,10.0,0.0,0.0,0.0,10.0
1446040349508833271,36,1446040349503875970,robocape_mag,12.75,-11.7,-2.1,10.0,0.0,0.0,0.0,10.0,0.0,0.0,0.0,10.0
1446040349542498188,37,1446040349537482023,robocape_mag,12.75,-11.7,-2.1,10.0,0.0,0.0,0.0,10.0,0.0,0.0,0.0,10.0
1446040349575471229,38,1446040349570565938,robocape_mag,12.75,-11.7,-2.1,10.0,0.0,0.0,0.0,10.0,0.0,0.0,0.0,10.0
1446040349608980354,39,1446040349603981971,robocape_mag,12.75,-11.7,-2.1,10.0,0.0,0.0,0.0,10.0,0.0,0.0,0.0,10.0
1446040349642324729,40,1446040349637533903,robocape_mag,12.75,-12.9,-3.9,10.0,0.0,0.0,0.0,10.0,0.0,0.0,0.0,10.0
1446040349675406354,41,1446040349670625925,robocape_mag,10.95,-12.9,-3.9,10.0,0.0,0.0,0.0,10.0,0.0,0.0,0.0,10.0
1446040349709119729,42,1446040349703844070,robocape_mag,10.95,-12.9,-3.9,10.0,0.0,0.0,0.0,10.0,0.0,0.0,0.0,10.0
1446040349742339438,43,1446040349737560033,robocape_mag,10.95,-12.9,-3.9,10.0,0.0,0.0,0.0,10.0,0.0,0.0,0.0,10.0
1446040349775692354,44,1446040349770486116,robocape_mag,10.95,-12.9,-3.9,10.0,0.0,0.0,0.0,10.0,0.0,0.0,0.0,10.0
1446040349808919938,45,1446040349803812026,robocape_mag,8.25,-17.4,-3.0,10.0,0.0,0.0,0.0,10.0,0.0,0.0,0.0,10.0
1446040349842234229,46,1446040349837316989,robocape_mag,8.25,-17.4,-3.0,10.0,0.0,0.0,0.0,10.0,0.0,0.0,0.0,10.0
1446040349875324646,47,1446040349870601892,robocape_mag,8.25,-17.4,-3.0,10.0,0.0,0.0,0.0,10.0,0.0,0.0,0.0,10.0
1446040349908881230,48,1446040349903965950,robocape_mag,8.25,-17.4,-3.0,10.0,0.0,0.0,0.0,10.0,0.0,0.0,0.0,10.0
1446040349949190938,49,1446040349937360048,robocape_mag,8.25,-17.4,-3.0,10.0,0.0,0.0,0.0,10.0,0.0,0.0,0.0,10.0
1446040349975497938,50,1446040349970767974,robocape_mag,2.85,-18.6,-3.0,10.0,0.0,0.0,0.0,10.0,0.0,0.0,0.0,10.0
1446040350009121396,51,1446040350004138946,robocape_mag,2.85,-18.6,-3.0,10.0,0.0,0.0,0.0,10.0,0.0,0.0,0.0,10.0
1446040350042106896,52,1446040350037389993,robocape_mag,2.85,-18.6,-3.0,10.0,0.0,0.0,0.0,10.0,0.0,0.0,0.0,10.0
1446040350075495188,53,1446040350070750951,robocape_mag,2.85,-18.6,-3.0,10.0,0.0,0.0,0.0,10.0,0.0,0.0,0.0,10.0
1446040350109097855,54,1446040350104060888,robocape_mag,2.85,-18.6,-3.0,10.0,0.0,0.0,0.0,10.0,0.0,0.0,0.0,10.0
1446040350142256396,55,1446040350137361049,robocape_mag,1.05,-21.0,-4.2,10.0,0.0,0.0,0.0,10.0,0.0,0.0,0.0,10.0
1446040350175346188,56,1446040350170564889,robocape_mag,1.05,-21.0,-4.2,10.0,0.0,0.0,0.0,10.0,0.0,0.0,0.0,10.0
1446040350209048355,57,1446040350203933954,robocape_mag,1.05,-21.0,-4.2,10.0,0.0,0.0,0.0,10.0,0.0,0.0,0.0,10.0
1446040350250574355,58,1446040350245634078,robocape_mag,1.05,-21.0,-4.2,10.0,0.0,0.0,0.0,10.0,0.0,0.0,0.0,10.0
1446040350275637646,59,1446040350270561933,robocape_mag,1.05,-21.0,-4.2,10.0,0.0,0.0,0.0,10.0,0.0,0.0,0.0,10.0
1446040350309011605,60,1446040350303819894,robocape_mag,2.55,-20.1,-4.5,10.0,0.0,0.0,0.0,10.0,0.0,0.0,0.0,10.0
1446040350342266521,61,1446040350337416887,robocape_mag,2.55,-20.1,-4.5,10.0,0.0,0.0,0.0,10.0,0.0,0.0,0.0,10.0
1446040350375339396,62,1446040350370619058,robocape_mag,2.55,-20.1,-4.5,10.0,0.0,0.0,0.0,10.0,0.0,0.0,0.0,10.0
1446040350409279063,63,1446040350404078006,robocape_mag,2.55,-20.1,-4.5,10.0,0.0,0.0,0.0,10.0,0.0,0.0,0.0,10.0
1446040350442411396,64,1446040350437201976,robocape_mag,2.55,-17.1,-5.7,10.0,0.0,0.0,0.0,10.0,0.0,0.0,0.0,10.0
1446040350475407521,65,1446040350470685005,robocape_mag,3.15,-17.1,-5.7,10.0,0.0,0.0,0.0,10.0,0.0,0.0,0.0,10.0
1446040350509126188,66,1446040350504127979,robocape_mag,3.15,-17.1,-5.7,10.0,0.0,0.0,0.0,10.0,0.0,0.0,0.0,10.0
1446040350542517730,67,1446040350537117958,robocape_mag,3.15,-17.1,-5.7,10.0,0.0,0.0,0.0,10.0,0.0,0.0,0.0,10.0
1446040350575475230,68,1446040350570764064,robocape_mag,3.15,-17.1,-5.7,10.0,0.0,0.0,0.0,10.0,0.0,0.0,0.0,10.0
1446040350609308813,69,1446040350604260921,robocape_mag,4.05,-18.0,-6.6,10.0,0.0,0.0,0.0,10.0,0.0,0.0,0.0,10.0
1446040350643912480,70,1446040350639075040,robocape_mag,4.05,-18.0,-6.6,10.0,0.0,0.0,0.0,10.0,0.0,0.0,0.0,10.0
1446040350675435355,71,1446040350670671939,robocape_mag,4.05,-18.0,-6.6,10.0,0.0,0.0,0.0,10.0,0.0,0.0,0.0,10.0
1446040350708884647,72,1446040350704047918,robocape_mag,4.05,-18.0,-6.6,10.0,0.0,0.0,0.0,10.0,0.0,0.0,0.0,10.0
1446040350743042605,73,1446040350737243890,robocape_mag,4.05,-18.0,-6.6,10.0,0.0,0.0,0.0,10.0,0.0,0.0,0.0,10.0
1446040350778000480,74,1446040350771972894,robocape_mag,3.45,-18.6,-6.6,10.0,0.0,0.0,0.0,10.0,0.0,0.0,0.0,10.0
1446040350808866272,75,1446040350803925991,robocape_mag,3.45,-18.6,-6.6,10.0,0.0,0.0,0.0,10.0,0.0,0.0,0.0,10.0
1446040350842586522,76,1446040350837426900,robocape_mag,3.45,-18.6,-6.6,10.0,0.0,0.0,0.0,10.0,0.0,0.0,0.0,10.0
1446040350875336480,77,1446040350870592117,robocape_mag,3.45,-18.6,-6.6,10.0,0.0,0.0,0.0,10.0,0.0,0.0,0.0,10.0
1446040350909055355,78,1446040350903975963,robocape_mag,3.45,-18.6,-6.6,10.0,0.0,0.0,0.0,10.0,0.0,0.0,0.0,10.0
1446040350949246647,79,1446040350937316894,robocape_mag,4.05,-17.4,-6.6,10.0,0.0,0.0,0.0,10.0,0.0,0.0,0.0,10.0
1446040350975206230,80,1446040350970505952,robocape_mag,4.05,-17.4,-6.6,10.0,0.0,0.0,0.0,10.0,0.0,0.0,0.0,10.0
1446040351009106188,81,1446040351004038095,robocape_mag,4.05,-17.4,-6.6,10.0,0.0,0.0,0.0,10.0,0.0,0.0,0.0,10.0
1446040351042620522,82,1446040351037496089,robocape_mag,4.05,-17.4,-6.6,10.0,0.0,0.0,0.0,10.0,0.0,0.0,0.0,10.0
1446040351075262022,83,1446040351070560932,robocape_mag,4.05,-17.4,-6.6,10.0,0.0,0.0,0.0,10.0,0.0,0.0,0.0,10.0
1446040351114960855,84,1446040351110085010,robocape_mag,4.05,-22.2,7.2,10.0,0.0,0.0,0.0,10.0,0.0,0.0,0.0,10.0
1446040351142164063,85,1446040351137178897,robocape_mag,4.05,-22.2,7.2,10.0,0.0,0.0,0.0,10.0,0.0,0.0,0.0,10.0
1446040351175500688,86,1446040351170666933,robocape_mag,4.05,-22.2,7.2,10.0,0.0,0.0,0.0,10.0,0.0,0.0,0.0,10.0
1446040351208743522,87,1446040351203943014,robocape_mag,4.05,-22.2,7.2,10.0,0.0,0.0,0.0,10.0,0.0,0.0,0.0,10.0
1446040351242265355,88,1446040351237262964,robocape_mag,4.05,-6.6,20.4,10.0,0.0,0.0,0.0,10.0,0.0,0.0,0.0,10.0
1446040351275456813,89,1446040351270664930,robocape_mag,2.85,-6.6,20.4,10.0,0.0,0.0,0.0,10.0,0.0,0.0,0.0,10.0
1446040351308925105,90,1446040351304177045,robocape_mag,2.85,-6.6,20.4,10.0,0.0,0.0,0.0,10.0,0.0,0.0,0.0,10.0
1446040351342423314,91,1446040351337240934,robocape_mag,2.85,-6.6,20.4,10.0,0.0,0.0,0.0,10.0,0.0,0.0,0.0,10.0
1446040351375259064,92,1446040351370590925,robocape_mag,2.85,-6.6,20.4,10.0,0.0,0.0,0.0,10.0,0.0,0.0,0.0,10.0
1446040351409103522,93,1446040351404318094,robocape_mag,1.95,-8.1,-6.9,10.0,0.0,0.0,0.0,10.0,0.0,0.0,0.0,10.0
1446040351442661230,94,1446040351437207937,robocape_mag,1.95,-8.1,-6.9,10.0,0.0,0.0,0.0,10.0,0.0,0.0,0.0,10.0
1446040351475444647,95,1446040351470679998,robocape_mag,1.95,-8.1,-6.9,10.0,0.0,0.0,0.0,10.0,0.0,0.0,0.0,10.0
1446040351509124189,96,1446040351504394054,robocape_mag,1.95,-8.1,-6.9,10.0,0.0,0.0,0.0,10.0,0.0,0.0,0.0,10.0
1446040351542609147,97,1446040351537182092,robocape_mag,1.95,-8.1,-6.9,10.0,0.0,0.0,0.0,10.0,0.0,0.0,0.0,10.0
1446040351575481439,98,1446040351570763111,robocape_mag,2.85,-12.0,-12.0,10.0,0.0,0.0,0.0,10.0,0.0,0.0,0.0,10.0
1446040351609327897,99,1446040351604535102,robocape_mag,2.85,-12.0,-12.0,10.0,0.0,0.0,0.0,10.0,0.0,0.0,0.0,10.0
1446040351642248272,100,1446040351637188911,robocape_mag,2.85,-12.0,-12.0,10.0,0.0,0.0,0.0,10.0,0.0,0.0,0.0,10.0
1446040351675356022,101,1446040351670558929,robocape_mag,2.85,-12.0,-12.0,10.0,0.0,0.0,0.0,10.0,0.0,0.0,0.0,10.0
1446040351719494147,102,1446040351714456081,robocape_mag,2.85,-12.0,-12.0,10.0,0.0,0.0,0.0,10.0,0.0,0.0,0.0,10.0
1446040351743270939,103,1446040351738183021,robocape_mag,0.45,-12.0,-9.0,10.0,0.0,0.0,0.0,10.0,0.0,0.0,0.0,10.0
1446040351775311814,104,1446040351770478010,robocape_mag,0.45,-12.0,-9.0,10.0,0.0,0.0,0.0,10.0,0.0,0.0,0.0,10.0
1446040351809279522,105,1446040351804374933,robocape_mag,0.45,-12.0,-9.0,10.0,0.0,0.0,0.0,10.0,0.0,0.0,0.0,10.0
1446040351842574230,106,1446040351837260007,robocape_mag,0.45,-12.0,-9.0,10.0,0.0,0.0,0.0,10.0,0.0,0.0,0.0,10.0
1446040351875525064,107,1446040351870776891,robocape_mag,0.45,-12.0,-9.0,10.0,0.0,0.0,0.0,10.0,0.0,0.0,0.0,10.0
1446040351909168022,108,1446040351904377937,robocape_mag,1.05,-15.0,-7.2,10.0,0.0,0.0,0.0,10.0,0.0,0.0,0.0,10.0
1446040351949532439,109,1446040351937374114,robocape_mag,1.05,-15.0,-7.2,10.0,0.0,0.0,0.0,10.0,0.0,0.0,0.0,10.0
1446040351975257855,110,1446040351970558881,robocape_mag,1.05,-15.0,-7.2,10.0,0.0,0.0,0.0,10.0,0.0,0.0,0.0,10.0
1446040352010336397,111,1446040352005570888,robocape_mag,1.05,-15.0,-7.2,10.0,0.0,0.0,0.0,10.0,0.0,0.0,0.0,10.0
1446040352042033397,112,1446040352037298917,robocape_mag,1.05,-15.0,-9.0,10.0,0.0,0.0,0.0,10.0,0.0,0.0,0.0,10.0
1446040352075884564,113,1446040352071029901,robocape_mag,-0.75,-15.0,-9.0,10.0,0.0,0.0,0.0,10.0,0.0,0.0,0.0,10.0
1446040352109528606,114,1446040352104742050,robocape_mag,-0.75,-15.0,-9.0,10.0,0.0,0.0,0.0,10.0,0.0,0.0,0.0,10.0
1446040352141978606,115,1446040352137259006,robocape_mag,-0.75,-15.0,-9.0,10.0,0.0,0.0,0.0,10.0,0.0,0.0,0.0,10.0
1446040352175627731,116,1446040352170846939,robocape_mag,-0.75,-15.0,-9.0,10.0,0.0,0.0,0.0,10.0,0.0,0.0,0.0,10.0
1446040352209316564,117,1446040352204408884,robocape_mag,-0.75,-16.2,-6.6,10.0,0.0,0.0,0.0,10.0,0.0,0.0,0.0,10.0
1446040352242080856,118,1446040352237289905,robocape_mag,-0.75,-16.2,-6.6,10.0,0.0,0.0,0.0,10.0,0.0,0.0,0.0,10.0
1446040352275187606,119,1446040352270458936,robocape_mag,-0.75,-16.2,-6.6,10.0,0.0,0.0,0.0,10.0,0.0,0.0,0.0,10.0
1446040352309148397,120,1446040352304393053,robocape_mag,-0.75,-16.2,-6.6,10.0,0.0,0.0,0.0,10.0,0.0,0.0,0.0,10.0
1446040352342232897,121,1446040352337251901,robocape_mag,-0.75,-16.2,-6.6,10.0,0.0,0.0,0.0,10.0,0.0,0.0,0.0,10.0
1446040352375624356,122,1446040352370604038,robocape_mag,-1.35,-18.6,-3.6,10.0,0.0,0.0,0.0,10.0,0.0,0.0,0.0,10.0
1446040352409099397,123,1446040352404309034,robocape_mag,-1.35,-18.6,-3.6,10.0,0.0,0.0,0.0,10.0,0.0,0.0,0.0,10.0
1446040352441986147,124,1446040352437186002,robocape_mag,-1.35,-18.6,-3.6,10.0,0.0,0.0,0.0,10.0,0.0,0.0,0.0,10.0
1446040352475555939,125,1446040352470632076,robocape_mag,-1.35,-18.6,-3.6,10.0,0.0,0.0,0.0,10.0,0.0,0.0,0.0,10.0
1446040352509194856,126,1446040352504375934,robocape_mag,-1.35,-18.6,-3.6,10.0,0.0,0.0,0.0,10.0,0.0,0.0,0.0,10.0
1446040352542258356,127,1446040352537278890,robocape_mag,-2.85,-20.1,-3.3,10.0,0.0,0.0,0.0,10.0,0.0,0.0,0.0,10.0
1446040352575781189,128,1446040352570765972,robocape_mag,-2.85,-20.1,-3.3,10.0,0.0,0.0,0.0,10.0,0.0,0.0,0.0,10.0
1446040352609276022,129,1446040352604461908,robocape_mag,-2.85,-20.1,-3.3,10.0,0.0,0.0,0.0,10.0,0.0,0.0,0.0,10.0
1446040352642112439,130,1446040352637176036,robocape_mag,-2.85,-20.1,-3.3,10.0,0.0,0.0,0.0,10.0,0.0,0.0,0.0,10.0
1446040352675917273,131,1446040352670846939,robocape_mag,-2.85,-20.1,-3.3,10.0,0.0,0.0,0.0,10.0,0.0,0.0,0.0,10.0
1446040352709315648,132,1446040352704559087,robocape_mag,-0.75,-18.6,-4.2,10.0,0.0,0.0,0.0,10.0,0.0,0.0,0.0,10.0
1446040352742012606,133,1446040352737149000,robocape_mag,-0.75,-18.6,-4.2,10.0,0.0,0.0,0.0,10.0,0.0,0.0,0.0,10.0
1446040352775698398,134,1446040352770715951,robocape_mag,-0.75,-18.6,-4.2,10.0,0.0,0.0,0.0,10.0,0.0,0.0,0.0,10.0
1446040352809550731,135,1446040352804668903,robocape_mag,-0.75,-18.6,-4.2,10.0,0.0,0.0,0.0,10.0,0.0,0.0,0.0,10.0
1446040352842277356,136,1446040352837451934,robocape_mag,-0.75,-19.2,-4.2,10.0,0.0,0.0,0.0,10.0,0.0,0.0,0.0,10.0
1446040352875510314,137,1446040352870811939,robocape_mag,-0.15,-19.2,-4.2,10.0,0.0,0.0,0.0,10.0,0.0,0.0,0.0,10.0
1446040352909125106,138,1446040352904386997,robocape_mag,-0.15,-19.2,-4.2,10.0,0.0,0.0,0.0,10.0,0.0,0.0,0.0,10.0
1446040352948940606,139,1446040352937331914,robocape_mag,-0.15,-19.2,-4.2,10.0,0.0,0.0,0.0,10.0,0.0,0.0,0.0,10.0
1446040352975795856,140,1446040352970885038,robocape_mag,-0.15,-19.2,-4.2,10.0,0.0,0.0,0.0,10.0,0.0,0.0,0.0,10.0
1446040353009470106,141,1446040353004543066,robocape_mag,-0.45,-18.9,-4.5,10.0,0.0,0.0,0.0,10.0,0.0,0.0,0.0,10.0
1446040353041980606,142,1446040353037153005,robocape_mag,-0.45,-18.9,-4.5,10.0,0.0,0.0,0.0,10.0,0.0,0.0,0.0,10.0
1446040353076463314,143,1446040353071495056,robocape_mag,-0.45,-18.9,-4.5,10.0,0.0,0.0,0.0,10.0,0.0,0.0,0.0,10.0
1446040353109292773,144,1446040353104228973,robocape_mag,-0.45,-18.9,-4.5,10.0,0.0,0.0,0.0,10.0,0.0,0.0,0.0,10.0
1446040353142310606,145,1446040353137414932,robocape_mag,-0.45,-18.9,-4.5,10.0,0.0,0.0,0.0,10.0,0.0,0.0,0.0,10.0
1446040353175490148,146,1446040353170711994,robocape_mag,-0.15,-18.6,-2.4,10.0,0.0,0.0,0.0,10.0,0.0,0.0,0.0,10.0
1446040353209223356,147,1446040353204191923,robocape_mag,-0.15,-18.6,-2.4,10.0,0.0,0.0,0.0,10.0,0.0,0.0,0.0,10.0
1446040353242082064,148,1446040353237195014,robocape_mag,-0.15,-18.6,-2.4,10.0,0.0,0.0,0.0,10.0,0.0,0.0,0.0,10.0
1446040353275730106,149,1446040353270765066,robocape_mag,-0.15,-18.6,-2.4,10.0,0.0,0.0,0.0,10.0,0.0,0.0,0.0,10.0
1446040353308943523,150,1446040353304205894,robocape_mag,-0.15,-18.6,-2.4,10.0,0.0,0.0,0.0,10.0,0.0,0.0,0.0,10.0
1446040353342116606,151,1446040353337285995,robocape_mag,-1.35,-19.8,-4.8,10.0,0.0,0.0,0.0,10.0,0.0,0.0,0.0,10.0
1446040353375643106,152,1446040353370691061,robocape_mag,-1.35,-19.8,-4.8,10.0,0.0,0.0,0.0,10.0,0.0,0.0,0.0,10.0
1446040353409466356,153,1446040353404634952,robocape_mag,-1.35,-19.8,-4.8,10.0,0.0,0.0,0.0,10.0,0.0,0.0,0.0,10.0
1446040353442238273,154,1446040353437418937,robocape_mag,-1.35,-19.8,-4.8,10.0,0.0,0.0,0.0,10.0,0.0,0.0,0.0,10.0
1446040353475903565,155,1446040353470940113,robocape_mag,-1.35,-19.8,-4.8,10.0,0.0,0.0,0.0,10.0,0.0,0.0,0.0,10.0
1446040353509194773,156,1446040353504378080,robocape_mag,-0.45,-18.3,-3.9,10.0,0.0,0.0,0.0,10.0,0.0,0.0,0.0,10.0
1446040353542514190,157,1446040353537448883,robocape_mag,-0.45,-18.3,-3.9,10.0,0.0,0.0,0.0,10.0,0.0,0.0,0.0,10.0
1446040353575791565,158,1446040353570775985,robocape_mag,-0.45,-18.3,-3.9,10.0,0.0,0.0,0.0,10.0,0.0,0.0,0.0,10.0
1446040353612304856,159,1446040353607469081,robocape_mag,-0.45,-18.3,-3.9,10.0,0.0,0.0,0.0,10.0,0.0,0.0,0.0,10.0
1446040353642198773,160,1446040353637362003,robocape_mag,-0.45,-17.7,-4.5,10.0,0.0,0.0,0.0,10.0,0.0,0.0,0.0,10.0
1446040353675673856,161,1446040353670679092,robocape_mag,-1.05,-17.7,-4.5,10.0,0.0,0.0,0.0,10.0,0.0,0.0,0.0,10.0
1446040353709173190,162,1446040353703780889,robocape_mag,-1.05,-17.7,-4.5,10.0,0.0,0.0,0.0,10.0,0.0,0.0,0.0,10.0
1446040353742201481,163,1446040353737341880,robocape_mag,-1.05,-17.7,-4.5,10.0,0.0,0.0,0.0,10.0,0.0,0.0,0.0,10.0
1446040353775669190,164,1446040353770534992,robocape_mag,-1.05,-17.7,-4.5,10.0,0.0,0.0,0.0,10.0,0.0,0.0,0.0,10.0
1446040353809197481,165,1446040353803987026,robocape_mag,0.45,-19.8,-3.6,10.0,0.0,0.0,0.0,10.0,0.0,0.0,0.0,10.0
1446040353842500106,166,1446040353837527036,robocape_mag,0.45,-19.8,-3.6,10.0,0.0,0.0,0.0,10.0,0.0,0.0,0.0,10.0
1446040353875895648,167,1446040353870809078,robocape_mag,0.45,-19.8,-3.6,10.0,0.0,0.0,0.0,10.0,0.0,0.0,0.0,10.0
1446040353909291940,168,1446040353904110908,robocape_mag,0.45,-19.8,-3.6,10.0,0.0,0.0,0.0,10.0,0.0,0.0,0.0,10.0
1446040353949133398,169,1446040353937406063,robocape_mag,0.45,-19.8,-3.6,10.0,0.0,0.0,0.0,10.0,0.0,0.0,0.0,10.0
1446040353975627856,170,1446040353970695018,robocape_mag,-0.15,-19.2,-3.0,10.0,0.0,0.0,0.0,10.0,0.0,0.0,0.0,10.0
1446040354009163023,171,1446040354004020929,robocape_mag,-0.15,-19.2,-3.0,10.0,0.0,0.0,0.0,10.0,0.0,0.0,0.0,10.0
1446040354042298148,172,1446040354037547111,robocape_mag,-0.15,-19.2,-3.0,10.0,0.0,0.0,0.0,10.0,0.0,0.0,0.0,10.0
1446040354075874773,173,1446040354070873975,robocape_mag,-0.15,-19.2,-3.0,10.0,0.0,0.0,0.0,10.0,0.0,0.0,0.0,10.0
1446040354109395023,174,1446040354104034900,robocape_mag,-0.15,-19.2,-3.0,10.0,0.0,0.0,0.0,10.0,0.0,0.0,0.0,10.0
1446040354142836315,175,1446040354137960910,robocape_mag,-1.65,-20.1,-3.9,10.0,0.0,0.0,0.0,10.0,0.0,0.0,0.0,10.0
1446040354175645065,176,1446040354170665025,robocape_mag,-1.65,-20.1,-3.9,10.0,0.0,0.0,0.0,10.0,0.0,0.0,0.0,10.0
1446040354209486190,177,1446040354204102039,robocape_mag,-1.65,-20.1,-3.9,10.0,0.0,0.0,0.0,10.0,0.0,0.0,0.0,10.0
1446040354242163273,178,1446040354237355947,robocape_mag,-1.65,-20.1,-3.9,10.0,0.0,0.0,0.0,10.0,0.0,0.0,0.0,10.0
1446040354275799273,179,1446040354270567893,robocape_mag,-1.65,-20.1,-3.9,10.0,0.0,0.0,0.0,10.0,0.0,0.0,0.0,10.0
1446040354309206815,180,1446040354304069995,robocape_mag,1.05,-19.2,-3.6,10.0,0.0,0.0,0.0,10.0,0.0,0.0,0.0,10.0
1446040354342116440,181,1446040354337387084,robocape_mag,1.05,-19.2,-3.6,10.0,0.0,0.0,0.0,10.0,0.0,0.0,0.0,10.0
1446040354375625690,182,1446040354370687007,robocape_mag,1.05,-19.2,-3.6,10.0,0.0,0.0,0.0,10.0,0.0,0.0,0.0,10.0
1446040354409323065,183,1446040354404155969,robocape_mag,1.05,-19.2,-3.6,10.0,0.0,0.0,0.0,10.0,0.0,0.0,0.0,10.0
1446040354442338107,184,1446040354437428951,robocape_mag,1.05,-18.9,-5.7,10.0,0.0,0.0,0.0,10.0,0.0,0.0,0.0,10.0
1446040354475670065,185,1446040354470693111,robocape_mag,0.75,-18.9,-5.7,10.0,0.0,0.0,0.0,10.0,0.0,0.0,0.0,10.0
1446040354508800940,186,1446040354504039049,robocape_mag,0.75,-18.9,-5.7,10.0,0.0,0.0,0.0,10.0,0.0,0.0,0.0,10.0
1446040354542504398,187,1446040354537511110,robocape_mag,0.75,-18.9,-5.7,10.0,0.0,0.0,0.0,10.0,0.0,0.0,0.0,10.0
1446040354575482898,188,1446040354570548057,robocape_mag,0.75,-18.9,-5.7,10.0,0.0,0.0,0.0,10.0,0.0,0.0,0.0,10.0
1446040354609041440,189,1446040354604178905,robocape_mag,-2.25,-20.1,-5.1,10.0,0.0,0.0,0.0,10.0,0.0,0.0,0.0,10.0
1446040354642166982,190,1446040354637341022,robocape_mag,-2.25,-20.1,-5.1,10.0,0.0,0.0,0.0,10.0,0.0,0.0,0.0,10.0
1446040354675730565,191,1446040354670727014,robocape_mag,-2.25,-20.1,-5.1,10.0,0.0,0.0,0.0,10.0,0.0,0.0,0.0,10.0
1446040354709100565,192,1446040354704171895,robocape_mag,-2.25,-20.1,-5.1,10.0,0.0,0.0,0.0,10.0,0.0,0.0,0.0,10.0
1446040354742156690,193,1446040354737325906,robocape_mag,-2.25,-20.1,-5.1,10.0,0.0,0.0,0.0,10.0,0.0,0.0,0.0,10.0
1446040354775651232,194,1446040354770677089,robocape_mag,-0.15,-20.4,-3.6,10.0,0.0,0.0,0.0,10.0,0.0,0.0,0.0,10.0
1446040354808802732,195,1446040354804006099,robocape_mag,-0.15,-20.4,-3.6,10.0,0.0,0.0,0.0,10.0,0.0,0.0,0.0,10.0
1446040354842161024,196,1446040354837438106,robocape_mag,-0.15,-20.4,-3.6,10.0,0.0,0.0,0.0,10.0,0.0,0.0,0.0,10.0
1446040354875641732,197,1446040354870634078,robocape_mag,-0.15,-20.4,-3.6,10.0,0.0,0.0,0.0,10.0,0.0,0.0,0.0,10.0
1446040354908920899,198,1446040354904172897,robocape_mag,-0.15,-20.4,-3.6,10.0,0.0,0.0,0.0,10.0,0.0,0.0,0.0,10.0
1446040354948892649,199,1446040354937288045,robocape_mag,-0.45,-18.3,-4.5,10.0,0.0,0.0,0.0,10.0,0.0,0.0,0.0,10.0
1446040354975615315,200,1446040354970670938,robocape_mag,-0.45,-18.3,-4.5,10.0,0.0,0.0,0.0,10.0,0.0,0.0,0.0,10.0
1446040355012791815,201,1446040355007628917,robocape_mag,-0.45,-18.3,-4.5,10.0,0.0,0.0,0.0,10.0,0.0,0.0,0.0,10.0
1446040355042140524,202,1446040355037396907,robocape_mag,-0.45,-18.3,-4.5,10.0,0.0,0.0,0.0,10.0,0.0,0.0,0.0,10.0
1446040355075793690,203,1446040355070784091,robocape_mag,-0.45,-18.3,-4.5,10.0,0.0,0.0,0.0,10.0,0.0,0.0,0.0,10.0
1446040355109141357,204,1446040355104166030,robocape_mag,-0.75,-18.6,-3.6,10.0,0.0,0.0,0.0,10.0,0.0,0.0,0.0,10.0
1446040355142005732,205,1446040355137284040,robocape_mag,-0.75,-18.6,-3.6,10.0,0.0,0.0,0.0,10.0,0.0,0.0,0.0,10.0
1446040355175771065,206,1446040355170689105,robocape_mag,-0.75,-18.6,-3.6,10.0,0.0,0.0,0.0,10.0,0.0,0.0,0.0,10.0
1446040355209794982,207,1446040355203941106,robocape_mag,-0.75,-18.6,-3.6,10.0,0.0,0.0,0.0,10.0,0.0,0.0,0.0,10.0
1446040355242117815,208,1446040355237340927,robocape_mag,-0.75,-18.6,-5.1,10.0,0.0,0.0,0.0,10.0,0.0,0.0,0.0,10.0
1446040355275891940,209,1446040355270625114,robocape_mag,-1.65,-18.9,-5.1,10.0,0.0,0.0,0.0,10.0,0.0,0.0,0.0,10.0
1446040355309069315,210,1446040355304187059,robocape_mag,-1.65,-18.9,-5.1,10.0,0.0,0.0,0.0,10.0,0.0,0.0,0.0,10.0
1446040355342122232,211,1446040355337384939,robocape_mag,-1.65,-18.9,-5.1,10.0,0.0,0.0,0.0,10.0,0.0,0.0,0.0,10.0
1446040355375790982,212,1446040355370846033,robocape_mag,-1.65,-18.9,-5.1,10.0,0.0,0.0,0.0,10.0,0.0,0.0,0.0,10.0
1446040355409152482,213,1446040355404377937,robocape_mag,-0.45,-20.1,-5.7,10.0,0.0,0.0,0.0,10.0,0.0,0.0,0.0,10.0
1446040355443597315,214,1446040355438374996,robocape_mag,-0.45,-20.1,-5.7,10.0,0.0,0.0,0.0,10.0,0.0,0.0,0.0,10.0
1446040355475795316,215,1446040355470729112,robocape_mag,-0.45,-20.1,-5.7,10.0,0.0,0.0,0.0,10.0,0.0,0.0,0.0,10.0
1446040355508898316,216,1446040355503880977,robocape_mag,-0.45,-20.1,-5.7,10.0,0.0,0.0,0.0,10.0,0.0,0.0,0.0,10.0
1446040355542326357,217,1446040355537384986,robocape_mag,-0.45,-20.1,-5.7,10.0,0.0,0.0,0.0,10.0,0.0,0.0,0.0,10.0
1446040355576843649,218,1446040355571888923,robocape_mag,-0.75,-18.6,-4.2,10.0,0.0,0.0,0.0,10.0,0.0,0.0,0.0,10.0
1446040355609103191,219,1446040355603897094,robocape_mag,-0.75,-18.6,-4.2,10.0,0.0,0.0,0.0,10.0,0.0,0.0,0.0,10.0
1446040355642290982,220,1446040355637497901,robocape_mag,-0.75,-18.6,-4.2,10.0,0.0,0.0,0.0,10.0,0.0,0.0,0.0,10.0
1446040355675687649,221,1446040355670866012,robocape_mag,-0.75,-18.6,-4.2,10.0,0.0,0.0,0.0,10.0,0.0,0.0,0.0,10.0
1446040355709087899,222,1446040355703857898,robocape_mag,-0.75,-18.6,-4.2,10.0,0.0,0.0,0.0,10.0,0.0,0.0,0.0,10.0
1446040355742234274,223,1446040355737391948,robocape_mag,-0.45,-18.3,-3.9,10.0,0.0,0.0,0.0,10.0,0.0,0.0,0.0,10.0
1446040355775705066,224,1446040355770620107,robocape_mag,-0.45,-18.3,-3.9,10.0,0.0,0.0,0.0,10.0,0.0,0.0,0.0,10.0
1446040355808936441,225,1446040355803908109,robocape_mag,-0.45,-18.3,-3.9,10.0,0.0,0.0,0.0,10.0,0.0,0.0,0.0,10.0
1446040355842127316,226,1446040355837407112,robocape_mag,-0.45,-18.3,-3.9,10.0,0.0,0.0,0.0,10.0,0.0,0.0,0.0,10.0
1446040355875640816,227,1446040355870666980,robocape_mag,-0.45,-18.3,-3.9,10.0,0.0,0.0,0.0,10.0,0.0,0.0,0.0,10.0
1446040355909045941,228,1446040355903994083,robocape_mag,0.45,-19.2,-3.0,10.0,0.0,0.0,0.0,10.0,0.0,0.0,0.0,10.0
1446040355948274399,229,1446040355937475919,robocape_mag,0.45,-19.2,-3.0,10.0,0.0,0.0,0.0,10.0,0.0,0.0,0.0,10.0
1446040355975884357,230,1446040355970935106,robocape_mag,0.45,-19.2,-3.0,10.0,0.0,0.0,0.0,10.0,0.0,0.0,0.0,10.0
1446040356008921107,231,1446040356003976106,robocape_mag,0.45,-19.2,-3.0,10.0,0.0,0.0,0.0,10.0,0.0,0.0,0.0,10.0
1446040356042345107,232,1446040356037604093,robocape_mag,0.45,-18.6,-4.2,10.0,0.0,0.0,0.0,10.0,0.0,0.0,0.0,10.0
1446040356075548691,233,1446040356070573091,robocape_mag,-0.75,-18.6,-4.2,10.0,0.0,0.0,0.0,10.0,0.0,0.0,0.0,10.0
1446040356109150899,234,1446040356103944063,robocape_mag,-0.75,-18.6,-4.2,10.0,0.0,0.0,0.0,10.0,0.0,0.0,0.0,10.0
1446040356142490566,235,1446040356137674093,robocape_mag,-0.75,-18.6,-4.2,10.0,0.0,0.0,0.0,10.0,0.0,0.0,0.0,10.0
1446040356175603524,236,1446040356170574903,robocape_mag,-0.75,-18.6,-4.2,10.0,0.0,0.0,0.0,10.0,0.0,0.0,0.0,10.0
1446040356209119983,237,1446040356203835010,robocape_mag,-0.75,-20.4,-4.2,10.0,0.0,0.0,0.0,10.0,0.0,0.0,0.0,10.0
1446040356242327566,238,1446040356237531900,robocape_mag,-0.75,-20.4,-4.2,10.0,0.0,0.0,0.0,10.0,0.0,0.0,0.0,10.0
1446040356275706274,239,1446040356270721912,robocape_mag,-0.75,-20.4,-4.2,10.0,0.0,0.0,0.0,10.0,0.0,0.0,0.0,10.0
1446040356309305191,240,1446040356304351091,robocape_mag,-0.75,-20.4,-4.2,10.0,0.0,0.0,0.0,10.0,0.0,0.0,0.0,10.0
1446040356342294191,241,1446040356337491989,robocape_mag,-0.75,-20.4,-4.2,10.0,0.0,0.0,0.0,10.0,0.0,0.0,0.0,10.0
1446040356375652941,242,1446040356370659112,robocape_mag,-1.35,-18.6,-4.2,10.0,0.0,0.0,0.0,10.0,0.0,0.0,0.0,10.0
1446040356408969774,243,1446040356404052972,robocape_mag,-1.35,-18.6,-4.2,10.0,0.0,0.0,0.0,10.0,0.0,0.0,0.0,10.0
1446040356442412733,244,1446040356437542915,robocape_mag,-1.35,-18.6,-4.2,10.0,0.0,0.0,0.0,10.0,0.0,0.0,0.0,10.0
1446040356475633816,245,1446040356470691919,robocape_mag,-1.35,-18.6,-4.2,10.0,0.0,0.0,0.0,10.0,0.0,0.0,0.0,10.0
1446040356508993608,246,1446040356503961086,robocape_mag,-1.35,-18.6,-4.2,10.0,0.0,0.0,0.0,10.0,0.0,0.0,0.0,10.0
1446040356542750066,247,1446040356537791967,robocape_mag,-0.75,-21.0,-3.6,10.0,0.0,0.0,0.0,10.0,0.0,0.0,0.0,10.0
1446040356575811774,248,1446040356570794105,robocape_mag,-0.75,-21.0,-3.6,10.0,0.0,0.0,0.0,10.0,0.0,0.0,0.0,10.0
1446040356608907149,249,1446040356603847026,robocape_mag,-0.75,-21.0,-3.6,10.0,0.0,0.0,0.0,10.0,0.0,0.0,0.0,10.0
1446040356642370274,250,1446040356637378931,robocape_mag,-0.75,-21.0,-3.6,10.0,0.0,0.0,0.0,10.0,0.0,0.0,0.0,10.0
1446040356675565524,251,1446040356670527935,robocape_mag,-0.75,-21.0,-3.6,10.0,0.0,0.0,0.0,10.0,0.0,0.0,0.0,10.0
1446040356709006108,252,1446040356703790903,robocape_mag,0.75,-20.1,-3.9,10.0,0.0,0.0,0.0,10.0,0.0,0.0,0.0,10.0
1446040356742378149,253,1446040356737385988,robocape_mag,0.75,-20.1,-3.9,10.0,0.0,0.0,0.0,10.0,0.0,0.0,0.0,10.0
1446040356775621108,254,1446040356770629882,robocape_mag,0.75,-20.1,-3.9,10.0,0.0,0.0,0.0,10.0,0.0,0.0,0.0,10.0
1446040356809320108,255,1446040356804311037,robocape_mag,0.75,-20.1,-3.9,10.0,0.0,0.0,0.0,10.0,0.0,0.0,0.0,10.0
1446040356842240316,256,1446040356837490081,robocape_mag,0.75,-20.1,-5.4,10.0,0.0,0.0,0.0,10.0,0.0,0.0,0.0,10.0
1446040356875827108,257,1446040356870887041,robocape_mag,-0.15,-18.6,-5.4,10.0,0.0,0.0,0.0,10.0,0.0,0.0,0.0,10.0
1446040356908884983,258,1446040356903954982,robocape_mag,-0.15,-18.6,-5.4,10.0,0.0,0.0,0.0,10.0,0.0,0.0,0.0,10.0
1446040356948928566,259,1446040356937340974,robocape_mag,-0.15,-18.6,-5.4,10.0,0.0,0.0,0.0,10.0,0.0,0.0,0.0,10.0
1446040356975751066,260,1446040356970818042,robocape_mag,-0.15,-18.6,-5.4,10.0,0.0,0.0,0.0,10.0,0.0,0.0,0.0,10.0
1446040357008766816,261,1446040357003885984,robocape_mag,-1.35,-18.6,-4.2,10.0,0.0,0.0,0.0,10.0,0.0,0.0,0.0,10.0
1446040357042225816,262,1446040357037472963,robocape_mag,-1.35,-18.6,-4.2,10.0,0.0,0.0,0.0,10.0,0.0,0.0,0.0,10.0
1446040357075824233,263,1446040357070785045,robocape_mag,-1.35,-18.6,-4.2,10.0,0.0,0.0,0.0,10.0,0.0,0.0,0.0,10.0
1446040357108944900,264,1446040357103836059,robocape_mag,-1.35,-18.6,-4.2,10.0,0.0,0.0,0.0,10.0,0.0,0.0,0.0,10.0
1446040357142182650,265,1446040357137348890,robocape_mag,-1.35,-18.6,-4.2,10.0,0.0,0.0,0.0,10.0,0.0,0.0,0.0,10.0
1446040357175675483,266,1446040357170651912,robocape_mag,-1.35,-19.8,-4.8,10.0,0.0,0.0,0.0,10.0,0.0,0.0,0.0,10.0
1446040357208801066,267,1446040357203821897,robocape_mag,-1.35,-19.8,-4.8,10.0,0.0,0.0,0.0,10.0,0.0,0.0,0.0,10.0
1446040357242351400,268,1446040357237446069,robocape_mag,-1.35,-19.8,-4.8,10.0,0.0,0.0,0.0,10.0,0.0,0.0,0.0,10.0
1446040357275773941,269,1446040357270827054,robocape_mag,-1.35,-19.8,-4.8,10.0,0.0,0.0,0.0,10.0,0.0,0.0,0.0,10.0
1446040357308813900,270,1446040357303953886,robocape_mag,-1.35,-19.8,-4.8,10.0,0.0,0.0,0.0,10.0,0.0,0.0,0.0,10.0
1446040357342296191,271,1446040357337414026,robocape_mag,-0.75,-18.6,-5.4,10.0,0.0,0.0,0.0,10.0,0.0,0.0,0.0,10.0
1446040357375724441,272,1446040357370768070,robocape_mag,-0.75,-18.6,-5.4,10.0,0.0,0.0,0.0,10.0,0.0,0.0,0.0,10.0
1446040357409125566,273,1446040357404306888,robocape_mag,-0.75,-18.6,-5.4,10.0,0.0,0.0,0.0,10.0,0.0,0.0,0.0,10.0
1446040357442579025,274,1446040357437381982,robocape_mag,-0.75,-18.6,-5.4,10.0,0.0,0.0,0.0,10.0,0.0,0.0,0.0,10.0
1446040357475712108,275,1446040357470743894,robocape_mag,-0.75,-18.6,-5.4,10.0,0.0,0.0,0.0,10.0,0.0,0.0,0.0,10.0
1446040357508874816,276,1446040357503990888,robocape_mag,-0.75,-20.4,-3.0,10.0,0.0,0.0,0.0,10.0,0.0,0.0,0.0,10.0
1446040357542828650,277,1446040357537695884,robocape_mag,-0.75,-20.4,-3.0,10.0,0.0,0.0,0.0,10.0,0.0,0.0,0.0,10.0
1446040357575930692,278,1446040357570898056,robocape_mag,-0.75,-20.4,-3.0,10.0,0.0,0.0,0.0,10.0,0.0,0.0,0.0,10.0
1446040357608795900,279,1446040357603856086,robocape_mag,-0.75,-20.4,-3.0,10.0,0.0,0.0,0.0,10.0,0.0,0.0,0.0,10.0
1446040357642437025,280,1446040357637474060,robocape_mag,-0.75,-20.4,-5.4,10.0,0.0,0.0,0.0,10.0,0.0,0.0,0.0,10.0
1446040357676086150,281,1446040357671094894,robocape_mag,-0.75,-19.2,-5.4,10.0,0.0,0.0,0.0,10.0,0.0,0.0,0.0,10.0
1446040357708926983,282,1446040357703931093,robocape_mag,-0.75,-19.2,-5.4,10.0,0.0,0.0,0.0,10.0,0.0,0.0,0.0,10.0
1446040357742458775,283,1446040357737394094,robocape_mag,-0.75,-19.2,-5.4,10.0,0.0,0.0,0.0,10.0,0.0,0.0,0.0,10.0
1446040357775854900,284,1446040357770850896,robocape_mag,-0.75,-19.2,-5.4,10.0,0.0,0.0,0.0,10.0,0.0,0.0,0.0,10.0
1446040357808861983,285,1446040357803925991,robocape_mag,-0.45,-18.9,-3.9,10.0,0.0,0.0,0.0,10.0,0.0,0.0,0.0,10.0
1446040357842559525,286,1446040357837409973,robocape_mag,-0.45,-18.9,-3.9,10.0,0.0,0.0,0.0,10.0,0.0,0.0,0.0,10.0
1446040357875708317,287,1446040357870770931,robocape_mag,-0.45,-18.9,-3.9,10.0,0.0,0.0,0.0,10.0,0.0,0.0,0.0,10.0
1446040357908747025,288,1446040357903990983,robocape_mag,-0.45,-18.9,-3.9,10.0,0.0,0.0,0.0,10.0,0.0,0.0,0.0,10.0
1446040357948235567,289,1446040357937326908,robocape_mag,-0.45,-18.9,-3.9,10.0,0.0,0.0,0.0,10.0,0.0,0.0,0.0,10.0
1446040357975811192,290,1446040357970701932,robocape_mag,-0.45,-19.5,-5.1,10.0,0.0,0.0,0.0,10.0,0.0,0.0,0.0,10.0
1446040358008711108,291,1446040358003863096,robocape_mag,-0.45,-19.5,-5.1,10.0,0.0,0.0,0.0,10.0,0.0,0.0,0.0,10.0
1446040358042322858,292,1446040358037350893,robocape_mag,-0.45,-19.5,-5.1,10.0,0.0,0.0,0.0,10.0,0.0,0.0,0.0,10.0
1446040358076006192,293,1446040358070842027,robocape_mag,-0.45,-19.5,-5.1,10.0,0.0,0.0,0.0,10.0,0.0,0.0,0.0,10.0
1446040358109034733,294,1446040358104055881,robocape_mag,-0.45,-19.5,-5.1,10.0,0.0,0.0,0.0,10.0,0.0,0.0,0.0,10.0
1446040358142350317,295,1446040358137307882,robocape_mag,0.15,-19.5,-5.1,10.0,0.0,0.0,0.0,10.0,0.0,0.0,0.0,10.0
1446040358176123400,296,1446040358170994043,robocape_mag,0.15,-19.5,-5.1,10.0,0.0,0.0,0.0,10.0,0.0,0.0,0.0,10.0
1446040358208845733,297,1446040358203845024,robocape_mag,0.15,-19.5,-5.1,10.0,0.0,0.0,0.0,10.0,0.0,0.0,0.0,10.0
1446040358242468275,298,1446040358237498998,robocape_mag,0.15,-19.5,-5.1,10.0,0.0,0.0,0.0,10.0,0.0,0.0,0.0,10.0
1446040358275886192,299,1446040358270628929,robocape_mag,0.15,-19.5,-5.1,10.0,0.0,0.0,0.0,10.0,0.0,0.0,0.0,10.0
1446040358308778192,300,1446040358303915023,robocape_mag,-2.25,-19.5,-5.1,10.0,0.0,0.0,0.0,10.0,0.0,0.0,0.0,10.0
1446040358342246900,301,1446040358337435960,robocape_mag,-2.25,-19.5,-5.1,10.0,0.0,0.0,0.0,10.0,0.0,0.0,0.0,10.0
1446040358375814359,302,1446040358370688915,robocape_mag,-2.25,-19.5,-5.1,10.0,0.0,0.0,0.0,10.0,0.0,0.0,0.0,10.0
1446040358408719275,303,1446040358403923034,robocape_mag,-2.25,-19.5,-5.1,10.0,0.0,0.0,0.0,10.0,0.0,0.0,0.0,10.0
1446040358442563484,304,1446040358437745094,robocape_mag,-2.25,-19.5,-3.9,10.0,0.0,0.0,0.0,10.0,0.0,0.0,0.0,10.0
1446040358475859484,305,1446040358470686912,robocape_mag,-2.25,-18.9,-3.9,10.0,0.0,0.0,0.0,10.0,0.0,0.0,0.0,10.0
1446040358509169067,306,1446040358504359960,robocape_mag,-2.25,-18.9,-3.9,10.0,0.0,0.0,0.0,10.0,0.0,0.0,0.0,10.0
1446040358542651900,307,1446040358537587881,robocape_mag,-2.25,-18.9,-3.9,10.0,0.0,0.0,0.0,10.0,0.0,0.0,0.0,10.0
1446040358576006317,308,1446040358570704936,robocape_mag,-2.25,-18.9,-3.9,10.0,0.0,0.0,0.0,10.0,0.0,0.0,0.0,10.0
1446040358609295650,309,1446040358604317903,robocape_mag,-1.95,-19.2,-4.2,10.0,0.0,0.0,0.0,10.0,0.0,0.0,0.0,10.0
1446040358642405984,310,1446040358637589931,robocape_mag,-1.95,-19.2,-4.2,10.0,0.0,0.0,0.0,10.0,0.0,0.0,0.0,10.0
1446040358675709859,311,1446040358670680999,robocape_mag,-1.95,-19.2,-4.2,10.0,0.0,0.0,0.0,10.0,0.0,0.0,0.0,10.0
1446040358708984109,312,1446040358703958988,robocape_mag,-1.95,-19.2,-4.2,10.0,0.0,0.0,0.0,10.0,0.0,0.0,0.0,10.0
1446040358742267275,313,1446040358737498998,robocape_mag,-1.95,-19.2,-4.2,10.0,0.0,0.0,0.0,10.0,0.0,0.0,0.0,10.0
1446040358775944025,314,1446040358770711898,robocape_mag,-1.05,-20.1,-5.1,10.0,0.0,0.0,0.0,10.0,0.0,0.0,0.0,10.0
1446040358809627317,315,1446040358804778099,robocape_mag,-1.05,-20.1,-5.1,10.0,0.0,0.0,0.0,10.0,0.0,0.0,0.0,10.0
1446040358842475525,316,1446040358837713956,robocape_mag,-1.05,-20.1,-5.1,10.0,0.0,0.0,0.0,10.0,0.0,0.0,0.0,10.0
1446040358875849984,317,1446040358870660066,robocape_mag,-1.05,-20.1,-5.1,10.0,0.0,0.0,0.0,10.0,0.0,0.0,0.0,10.0
1446040358908788650,318,1446040358903984069,robocape_mag,-1.05,-20.1,-5.1,10.0,0.0,0.0,0.0,10.0,0.0,0.0,0.0,10.0
1446040358950843734,319,1446040358937923908,robocape_mag,-0.75,-19.2,-3.6,10.0,0.0,0.0,0.0,10.0,0.0,0.0,0.0,10.0
1446040358975850567,320,1446040358970736980,robocape_mag,-0.75,-19.2,-3.6,10.0,0.0,0.0,0.0,10.0,0.0,0.0,0.0,10.0
1446040359008887692,321,1446040359003978013,robocape_mag,-0.75,-19.2,-3.6,10.0,0.0,0.0,0.0,10.0,0.0,0.0,0.0,10.0
1446040359042803859,322,1446040359037868976,robocape_mag,-0.75,-19.2,-3.6,10.0,0.0,0.0,0.0,10.0,0.0,0.0,0.0,10.0
1446040359075849151,323,1446040359070672035,robocape_mag,-0.75,-19.2,-3.6,10.0,0.0,0.0,0.0,10.0,0.0,0.0,0.0,10.0
1446040359108773026,324,1446040359103912115,robocape_mag,-1.05,-18.9,-3.3,10.0,0.0,0.0,0.0,10.0,0.0,0.0,0.0,10.0
1446040359143879109,325,1446040359139097929,robocape_mag,-1.05,-18.9,-3.3,10.0,0.0,0.0,0.0,10.0,0.0,0.0,0.0,10.0
1446040359176222317,326,1446040359170991897,robocape_mag,-1.05,-18.9,-3.3,10.0,0.0,0.0,0.0,10.0,0.0,0.0,0.0,10.0
1446040359209001151,327,1446040359204091072,robocape_mag,-1.05,-18.9,-3.3,10.0,0.0,0.0,0.0,10.0,0.0,0.0,0.0,10.0
1446040359242564859,328,1446040359237596988,robocape_mag,-1.05,-18.9,-3.9,10.0,0.0,0.0,0.0,10.0,0.0,0.0,0.0,10.0
1446040359275903609,329,1446040359270721912,robocape_mag,-1.65,-20.7,-3.9,10.0,0.0,0.0,0.0,10.0,0.0,0.0,0.0,10.0
1446040359308808317,330,1446040359304019927,robocape_mag,-1.65,-20.7,-3.9,10.0,0.0,0.0,0.0,10.0,0.0,0.0,0.0,10.0
1446040359342549192,331,1446040359337546110,robocape_mag,-1.65,-20.7,-3.9,10.0,0.0,0.0,0.0,10.0,0.0,0.0,0.0,10.0
1446040359376063151,332,1446040359370979070,robocape_mag,-1.65,-20.7,-3.9,10.0,0.0,0.0,0.0,10.0,0.0,0.0,0.0,10.0
1446040359409349901,333,1446040359404597043,robocape_mag,-0.45,-20.7,-6.3,10.0,0.0,0.0,0.0,10.0,0.0,0.0,0.0,10.0
1446040359442756692,334,1446040359437526941,robocape_mag,-0.45,-20.7,-6.3,10.0,0.0,0.0,0.0,10.0,0.0,0.0,0.0,10.0
1446040359475786692,335,1446040359470693111,robocape_mag,-0.45,-20.7,-6.3,10.0,0.0,0.0,0.0,10.0,0.0,0.0,0.0,10.0
1446040359508860151,336,1446040359503901004,robocape_mag,-0.45,-20.7,-6.3,10.0,0.0,0.0,0.0,10.0,0.0,0.0,0.0,10.0
1446040359542884526,337,1446040359537750959,robocape_mag,-0.45,-20.7,-6.3,10.0,0.0,0.0,0.0,10.0,0.0,0.0,0.0,10.0
1446040359575939359,338,1446040359570755958,robocape_mag,-1.35,-18.0,-4.2,10.0,0.0,0.0,0.0,10.0,0.0,0.0,0.0,10.0
1446040359609013401,339,1446040359603977918,robocape_mag,-1.35,-18.0,-4.2,10.0,0.0,0.0,0.0,10.0,0.0,0.0,0.0,10.0
1446040359642722442,340,1446040359637712001,robocape_mag,-1.35,-18.0,-4.2,10.0,0.0,0.0,0.0,10.0,0.0,0.0,0.0,10.0
1446040359676071859,341,1446040359670893907,robocape_mag,-1.35,-18.0,-4.2,10.0,0.0,0.0,0.0,10.0,0.0,0.0,0.0,10.0
1446040359708786234,342,1446040359703850984,robocape_mag,-1.35,-18.0,-4.2,10.0,0.0,0.0,0.0,10.0,0.0,0.0,0.0,10.0
1446040359742599109,343,1446040359737638950,robocape_mag,-0.45,-18.3,-2.7,10.0,0.0,0.0,0.0,10.0,0.0,0.0,0.0,10.0
1446040359775729901,344,1446040359770657062,robocape_mag,-0.45,-18.3,-2.7,10.0,0.0,0.0,0.0,10.0,0.0,0.0,0.0,10.0
1446040359808717776,345,1446040359803935050,robocape_mag,-0.45,-18.3,-2.7,10.0,0.0,0.0,0.0,10.0,0.0,0.0,0.0,10.0
1446040359842549401,346,1446040359837635040,robocape_mag,-0.45,-18.3,-2.7,10.0,0.0,0.0,0.0,10.0,0.0,0.0,0.0,10.0
1446040359875842984,347,1446040359870702981,robocape_mag,-0.45,-18.3,-2.7,10.0,0.0,0.0,0.0,10.0,0.0,0.0,0.0,10.0
1446040359908769776,348,1446040359903908014,robocape_mag,-1.65,-19.5,-5.7,10.0,0.0,0.0,0.0,10.0,0.0,0.0,0.0,10.0
1446040359949419109,349,1446040359937602996,robocape_mag,-1.65,-19.5,-5.7,10.0,0.0,0.0,0.0,10.0,0.0,0.0,0.0,10.0
1446040359975902318,350,1446040359970799922,robocape_mag,-1.65,-19.5,-5.7,10.0,0.0,0.0,0.0,10.0,0.0,0.0,0.0,10.0
1446040360008909318,351,1446040360004024028,robocape_mag,-1.65,-19.5,-5.7,10.0,0.0,0.0,0.0,10.0,0.0,0.0,0.0,10.0
1446040360042631484,352,1446040360037646055,robocape_mag,-1.65,-19.5,-3.3,10.0,0.0,0.0,0.0,10.0,0.0,0.0,0.0,10.0
1446040360075878943,353,1446040360070758104,robocape_mag,-0.45,-18.9,-3.3,10.0,0.0,0.0,0.0,10.0,0.0,0.0,0.0,10.0
1446040360108764734,354,1446040360103893995,robocape_mag,-0.45,-18.9,-3.3,10.0,0.0,0.0,0.0,10.0,0.0,0.0,0.0,10.0
1446040360142627443,355,1446040360137622117,robocape_mag,-0.45,-18.9,-3.3,10.0,0.0,0.0,0.0,10.0,0.0,0.0,0.0,10.0
1446040360175580484,356,1446040360170649051,robocape_mag,-0.45,-18.9,-3.3,10.0,0.0,0.0,0.0,10.0,0.0,0.0,0.0,10.0
1446040360208985776,357,1446040360203998088,robocape_mag,0.15,-18.3,-3.3,10.0,0.0,0.0,0.0,10.0,0.0,0.0,0.0,10.0
1446040360242507859,358,1446040360237555980,robocape_mag,0.15,-18.3,-3.3,10.0,0.0,0.0,0.0,10.0,0.0,0.0,0.0,10.0
1446040360275770401,359,1446040360270698070,robocape_mag,0.15,-18.3,-3.3,10.0,0.0,0.0,0.0,10.0,0.0,0.0,0.0,10.0
1446040360308825276,360,1446040360303910970,robocape_mag,0.15,-18.3,-3.3,10.0,0.0,0.0,0.0,10.0,0.0,0.0,0.0,10.0
1446040360342464401,361,1446040360337518930,robocape_mag,0.15,-18.3,-3.3,10.0,0.0,0.0,0.0,10.0,0.0,0.0,0.0,10.0
1446040360375784693,362,1446040360370693922,robocape_mag,0.15,-18.9,-5.7,10.0,0.0,0.0,0.0,10.0,0.0,0.0,0.0,10.0
1446040360408711693,363,1446040360403978109,robocape_mag,0.15,-18.9,-5.7,10.0,0.0,0.0,0.0,10.0,0.0,0.0,0.0,10.0
1446040360445200401,364,1446040360439239978,robocape_mag,0.15,-18.9,-5.7,10.0,0.0,0.0,0.0,10.0,0.0,0.0,0.0,10.0
1446040360475891151,365,1446040360470750093,robocape_mag,0.15,-18.9,-5.7,10.0,0.0,0.0,0.0,10.0,0.0,0.0,0.0,10.0
1446040360508864026,366,1446040360503911018,robocape_mag,0.15,-18.9,-5.7,10.0,0.0,0.0,0.0,10.0,0.0,0.0,0.0,10.0
1446040360542736401,367,1446040360537276983,robocape_mag,-0.45,-20.1,-3.9,10.0,0.0,0.0,0.0,10.0,0.0,0.0,0.0,10.0
1446040360575688610,368,1446040360570524930,robocape_mag,-0.45,-20.1,-3.9,10.0,0.0,0.0,0.0,10.0,0.0,0.0,0.0,10.0
1446040360608786360,369,1446040360603894948,robocape_mag,-0.45,-20.1,-3.9,10.0,0.0,0.0,0.0,10.0,0.0,0.0,0.0,10.0
1446040360642732568,370,1446040360637427091,robocape_mag,-0.45,-20.1,-3.9,10.0,0.0,0.0,0.0,10.0,0.0,0.0,0.0,10.0
1446040360676320568,371,1446040360670960903,robocape_mag,-0.45,-20.1,-3.9,10.0,0.0,0.0,0.0,10.0,0.0,0.0,0.0,10.0
1446040360708912276,372,1446040360703983068,robocape_mag,0.75,-18.9,-4.5,10.0,0.0,0.0,0.0,10.0,0.0,0.0,0.0,10.0
1446040360742664401,373,1446040360737394094,robocape_mag,0.75,-18.9,-4.5,10.0,0.0,0.0,0.0,10.0,0.0,0.0,0.0,10.0
1446040360775697735,374,1446040360770524978,robocape_mag,0.75,-18.9,-4.5,10.0,0.0,0.0,0.0,10.0,0.0,0.0,0.0,10.0
1446040360810198360,375,1446040360803854942,robocape_mag,0.75,-18.9,-4.5,10.0,0.0,0.0,0.0,10.0,0.0,0.0,0.0,10.0
1446040360854119235,376,1446040360845238924,robocape_mag,-1.05,-20.1,-4.5,10.0,0.0,0.0,0.0,10.0,0.0,0.0,0.0,10.0
1446040360877625318,377,1446040360872750043,robocape_mag,-1.05,-20.1,-4.5,10.0,0.0,0.0,0.0,10.0,0.0,0.0,0.0,10.0
1446040360908874485,378,1446040360903948068,robocape_mag,-1.05,-20.1,-4.5,10.0,0.0,0.0,0.0,10.0,0.0,0.0,0.0,10.0
1446040360957015110,379,1446040360951725006,robocape_mag,-1.05,-20.1,-4.5,10.0,0.0,0.0,0.0,10.0,0.0,0.0,0.0,10.0
1446040360980242193,380,1446040360975081920,robocape_mag,-1.05,-20.1,-4.5,10.0,0.0,0.0,0.0,10.0,0.0,0.0,0.0,10.0
1446040361008720568,381,1446040361003876924,robocape_mag,0.15,-19.5,-3.9,10.0,0.0,0.0,0.0,10.0,0.0,0.0,0.0,10.0
1446040361042743026,382,1446040361037342071,robocape_mag,0.15,-19.5,-3.9,10.0,0.0,0.0,0.0,10.0,0.0,0.0,0.0,10.0
1446040361075796235,383,1446040361070518970,robocape_mag,0.15,-19.5,-3.9,10.0,0.0,0.0,0.0,10.0,0.0,0.0,0.0,10.0
1446040361108782652,384,1446040361103940010,robocape_mag,0.15,-19.5,-3.9,10.0,0.0,0.0,0.0,10.0,0.0,0.0,0.0,10.0
1446040361142827027,385,1446040361137430906,robocape_mag,0.15,-19.5,-3.9,10.0,0.0,0.0,0.0,10.0,0.0,0.0,0.0,10.0
1446040361175918360,386,1446040361170452117,robocape_mag,-0.75,-20.4,-4.8,10.0,0.0,0.0,0.0,10.0,0.0,0.0,0.0,10.0
1446040361208779652,387,1446040361203902006,robocape_mag,-0.75,-20.4,-4.8,10.0,0.0,0.0,0.0,10.0,0.0,0.0,0.0,10.0
1446040361242729860,388,1446040361237332105,robocape_mag,-0.75,-20.4,-4.8,10.0,0.0,0.0,0.0,10.0,0.0,0.0,0.0,10.0
1446040361275651693,389,1446040361270467042,robocape_mag,-0.75,-20.4,-4.8,10.0,0.0,0.0,0.0,10.0,0.0,0.0,0.0,10.0
1446040361308903277,390,1446040361303999900,robocape_mag,-0.75,-20.4,-4.8,10.0,0.0,0.0,0.0,10.0,0.0,0.0,0.0,10.0
1446040361342242443,391,1446040361337205886,robocape_mag,0.75,-21.3,-3.9,10.0,0.0,0.0,0.0,10.0,0.0,0.0,0.0,10.0
1446040361375908693,392,1446040361370651960,robocape_mag,0.75,-21.3,-3.9,10.0,0.0,0.0,0.0,10.0,0.0,0.0,0.0,10.0
1446040361409293527,393,1446040361404534101,robocape_mag,0.75,-21.3,-3.9,10.0,0.0,0.0,0.0,10.0,0.0,0.0,0.0,10.0
1446040361442250402,394,1446040361437252998,robocape_mag,0.75,-21.3,-3.9,10.0,0.0,0.0,0.0,10.0,0.0,0.0,0.0,10.0
1446040361475799318,395,1446040361470655918,robocape_mag,0.75,-21.3,-3.9,10.0,0.0,0.0,0.0,10.0,0.0,0.0,0.0,10.0
1446040361509066527,396,1446040361503884077,robocape_mag,-0.15,-21.0,-3.6,10.0,0.0,0.0,0.0,10.0,0.0,0.0,0.0,10.0
1446040361542361360,397,1446040361537245988,robocape_mag,-0.15,-21.0,-3.6,10.0,0.0,0.0,0.0,10.0,0.0,0.0,0.0,10.0
1446040361575725610,398,1446040361570530891,robocape_mag,-0.15,-21.0,-3.6,10.0,0.0,0.0,0.0,10.0,0.0,0.0,0.0,10.0
1446040361609104860,399,1446040361603959083,robocape_mag,-0.15,-21.0,-3.6,10.0,0.0,0.0,0.0,10.0,0.0,0.0,0.0,10.0
1446040361642847818,400,1446040361637833118,robocape_mag,-0.15,-21.0,-5.4,10.0,0.0,0.0,0.0,10.0,0.0,0.0,0.0,10.0
1446040361675821110,401,1446040361670521974,robocape_mag,-0.15,-21.0,-5.4,10.0,0.0,0.0,0.0,10.0,0.0,0.0,0.0,10.0
1446040361709484860,402,1446040361704313039,robocape_mag,-0.15,-21.0,-5.4,10.0,0.0,0.0,0.0,10.0,0.0,0.0,0.0,10.0
1446040361742278485,403,1446040361737287998,robocape_mag,-0.15,-21.0,-5.4,10.0,0.0,0.0,0.0,10.0,0.0,0.0,0.0,10.0
1446040361775759610,404,1446040361770612001,robocape_mag,-0.15,-21.0,-5.4,10.0,0.0,0.0,0.0,10.0,0.0,0.0,0.0,10.0
1446040361809121777,405,1446040361803958892,robocape_mag,-0.45,-20.7,-3.9,10.0,0.0,0.0,0.0,10.0,0.0,0.0,0.0,10.0
1446040361842114819,406,1446040361837165117,robocape_mag,-0.45,-20.7,-3.9,10.0,0.0,0.0,0.0,10.0,0.0,0.0,0.0,10.0
1446040361875580860,407,1446040361870567083,robocape_mag,-0.45,-20.7,-3.9,10.0,0.0,0.0,0.0,10.0,0.0,0.0,0.0,10.0
1446040361909070402,408,1446040361904170036,robocape_mag,-0.45,-20.7,-3.9,10.0,0.0,0.0,0.0,10.0,0.0,0.0,0.0,10.0
1446040361949400069,409,1446040361937155008,robocape_mag,-0.45,-20.7,-3.9,10.0,0.0,0.0,0.0,10.0,0.0,0.0,0.0,10.0
1446040361975916277,410,1446040361970855951,robocape_mag,-1.65,-18.9,-4.5,10.0,0.0,0.0,0.0,10.0,0.0,0.0,0.0,10.0
1446040362009052902,411,1446040362004034042,robocape_mag,-1.65,-18.9,-4.5,10.0,0.0,0.0,0.0,10.0,0.0,0.0,0.0,10.0
1446040362042227110,412,1446040362037266016,robocape_mag,-1.65,-18.9,-4.5,10.0,0.0,0.0,0.0,10.0,0.0,0.0,0.0,10.0
1446040362075677694,413,1446040362070539951,robocape_mag,-1.65,-18.9,-4.5,10.0,0.0,0.0,0.0,10.0,0.0,0.0,0.0,10.0
1446040362109202027,414,1446040362103930950,robocape_mag,-1.65,-18.9,-4.5,10.0,0.0,0.0,0.0,10.0,0.0,0.0,0.0,10.0
1446040362142228485,415,1446040362137192964,robocape_mag,-0.45,-20.1,-4.5,10.0,0.0,0.0,0.0,10.0,0.0,0.0,0.0,10.0
1446040362175862735,416,1446040362170531988,robocape_mag,-0.45,-20.1,-4.5,10.0,0.0,0.0,0.0,10.0,0.0,0.0,0.0,10.0
1446040362208788735,417,1446040362203824043,robocape_mag,-0.45,-20.1,-4.5,10.0,0.0,0.0,0.0,10.0,0.0,0.0,0.0,10.0
1446040362242320860,418,1446040362237282991,robocape_mag,-0.45,-20.1,-4.5,10.0,0.0,0.0,0.0,10.0,0.0,0.0,0.0,10.0
1446040362275601610,419,1446040362270512104,robocape_mag,-0.45,-20.1,-4.5,10.0,0.0,0.0,0.0,10.0,0.0,0.0,0.0,10.0
1446040362308933569,420,1446040362303870916,robocape_mag,-1.35,-19.2,-4.8,10.0,0.0,0.0,0.0,10.0,0.0,0.0,0.0,10.0
1446040362342137277,421,1446040362337131023,robocape_mag,-1.35,-19.2,-4.8,10.0,0.0,0.0,0.0,10.0,0.0,0.0,0.0,10.0
1446040362375449860,422,1446040362370553970,robocape_mag,-1.35,-19.2,-4.8,10.0,0.0,0.0,0.0,10.0,0.0,0.0,0.0,10.0
1446040362409068485,423,1446040362403994083,robocape_mag,-1.35,-19.2,-4.8,10.0,0.0,0.0,0.0,10.0,0.0,0.0,0.0,10.0
1446040362442011735,424,1446040362437167882,robocape_mag,-1.35,-19.2,-4.8,10.0,0.0,0.0,0.0,10.0,0.0,0.0,0.0,10.0
1446040362475842236,425,1446040362471133947,robocape_mag,-1.35,-18.6,-4.2,10.0,0.0,0.0,0.0,10.0,0.0,0.0,0.0,10.0
1446040362508951652,426,1446040362503886938,robocape_mag,-1.35,-18.6,-4.2,10.0,0.0,0.0,0.0,10.0,0.0,0.0,0.0,10.0
1446040362542269402,427,1446040362537174940,robocape_mag,-1.35,-18.6,-4.2,10.0,0.0,0.0,0.0,10.0,0.0,0.0,0.0,10.0
1446040362575543152,428,1446040362570854902,robocape_mag,-1.35,-18.6,-4.2,10.0,0.0,0.0,0.0,10.0,0.0,0.0,0.0,10.0
1446040362609221527,429,1446040362604026079,robocape_mag,-1.05,-18.3,-4.5,10.0,0.0,0.0,0.0,10.0,0.0,0.0,0.0,10.0
1446040362642103527,430,1446040362637170076,robocape_mag,-1.05,-18.3,-4.5,10.0,0.0,0.0,0.0,10.0,0.0,0.0,0.0,10.0
1446040362675515319,431,1446040362670511007,robocape_mag,-1.05,-18.3,-4.5,10.0,0.0,0.0,0.0,10.0,0.0,0.0,0.0,10.0
1446040362709661444,432,1446040362704602003,robocape_mag,-1.05,-18.3,-4.5,10.0,0.0,0.0,0.0,10.0,0.0,0.0,0.0,10.0
1446040362742139069,433,1446040362737268924,robocape_mag,-1.05,-18.3,-4.5,10.0,0.0,0.0,0.0,10.0,0.0,0.0,0.0,10.0
1446040362775967986,434,1446040362771198034,robocape_mag,1.35,-19.5,-3.3,10.0,0.0,0.0,0.0,10.0,0.0,0.0,0.0,10.0
1446040362809591986,435,1446040362803982019,robocape_mag,1.35,-19.5,-3.3,10.0,0.0,0.0,0.0,10.0,0.0,0.0,0.0,10.0
1446040362852659819,436,1446040362847188949,robocape_mag,1.35,-19.5,-3.3,10.0,0.0,0.0,0.0,10.0,0.0,0.0,0.0,10.0
1446040362876071277,437,1446040362871296882,robocape_mag,1.35,-19.5,-3.3,10.0,0.0,0.0,0.0,10.0,0.0,0.0,0.0,10.0
1446040362909072402,438,1446040362903959989,robocape_mag,1.35,-19.5,-3.3,10.0,0.0,0.0,0.0,10.0,0.0,0.0,0.0,10.0
1446040362953660652,439,1446040362945681095,robocape_mag,0.15,-20.7,-4.5,10.0,0.0,0.0,0.0,10.0,0.0,0.0,0.0,10.0
1446040362977008486,440,1446040362972296953,robocape_mag,0.15,-20.7,-4.5,10.0,0.0,0.0,0.0,10.0,0.0,0.0,0.0,10.0
1446040363008829819,441,1446040363003998041,robocape_mag,0.15,-20.7,-4.5,10.0,0.0,0.0,0.0,10.0,0.0,0.0,0.0,10.0
1446040363041918027,442,1446040363037204980,robocape_mag,0.15,-20.7,-4.5,10.0,0.0,0.0,0.0,10.0,0.0,0.0,0.0,10.0
1446040363075462194,443,1446040363070635080,robocape_mag,0.15,-20.7,-4.5,10.0,0.0,0.0,0.0,10.0,0.0,0.0,0.0,10.0
1446040363109039444,444,1446040363103944063,robocape_mag,-1.95,-18.6,-4.8,10.0,0.0,0.0,0.0,10.0,0.0,0.0,0.0,10.0
1446040363141975361,445,1446040363137201070,robocape_mag,-1.95,-18.6,-4.8,10.0,0.0,0.0,0.0,10.0,0.0,0.0,0.0,10.0
1446040363175730278,446,1446040363170834064,robocape_mag,-1.95,-18.6,-4.8,10.0,0.0,0.0,0.0,10.0,0.0,0.0,0.0,10.0
1446040363208956653,447,1446040363203857898,robocape_mag,-1.95,-18.6,-4.8,10.0,0.0,0.0,0.0,10.0,0.0,0.0,0.0,10.0
1446040363242444361,448,1446040363237540006,robocape_mag,-1.95,-18.6,-4.5,10.0,0.0,0.0,0.0,10.0,0.0,0.0,0.0,10.0
1446040363275482778,449,1446040363270589113,robocape_mag,-1.05,-18.9,-4.5,10.0,0.0,0.0,0.0,10.0,0.0,0.0,0.0,10.0
1446040363309098653,450,1446040363303994894,robocape_mag,-1.05,-18.9,-4.5,10.0,0.0,0.0,0.0,10.0,0.0,0.0,0.0,10.0
1446040363342098069,451,1446040363337388992,robocape_mag,-1.05,-18.9,-4.5,10.0,0.0,0.0,0.0,10.0,0.0,0.0,0.0,10.0
1446040363375427236,452,1446040363370618104,robocape_mag,-1.05,-18.9,-4.5,10.0,0.0,0.0,0.0,10.0,0.0,0.0,0.0,10.0
1446040363409580486,453,1446040363404397010,robocape_mag,-0.45,-18.9,-3.9,10.0,0.0,0.0,0.0,10.0,0.0,0.0,0.0,10.0
1446040363442132319,454,1446040363437360048,robocape_mag,-0.45,-18.9,-3.9,10.0,0.0,0.0,0.0,10.0,0.0,0.0,0.0,10.0
1446040363475447986,455,1446040363470616102,robocape_mag,-0.45,-18.9,-3.9,10.0,0.0,0.0,0.0,10.0,0.0,0.0,0.0,10.0
1446040363509055569,456,1446040363504004955,robocape_mag,-0.45,-18.9,-3.9,10.0,0.0,0.0,0.0,10.0,0.0,0.0,0.0,10.0
1446040363542266986,457,1446040363537389039,robocape_mag,-0.45,-18.9,-3.9,10.0,0.0,0.0,0.0,10.0,0.0,0.0,0.0,10.0
1446040363575465736,458,1446040363570650100,robocape_mag,-1.35,-17.4,-4.8,10.0,0.0,0.0,0.0,10.0,0.0,0.0,0.0,10.0
1446040363609171278,459,1446040363603949069,robocape_mag,-1.35,-17.4,-4.8,10.0,0.0,0.0,0.0,10.0,0.0,0.0,0.0,10.0
1446040363642205153,460,1446040363637434959,robocape_mag,-1.35,-17.4,-4.8,10.0,0.0,0.0,0.0,10.0,0.0,0.0,0.0,10.0
1446040363675448944,461,1446040363670592069,robocape_mag,-1.35,-17.4,-4.8,10.0,0.0,0.0,0.0,10.0,0.0,0.0,0.0,10.0
1446040363709043528,462,1446040363703851938,robocape_mag,-1.35,-17.4,-4.8,10.0,0.0,0.0,0.0,10.0,0.0,0.0,0.0,10.0
1446040363742274528,463,1446040363737514019,robocape_mag,-0.75,-17.4,-4.8,10.0,0.0,0.0,0.0,10.0,0.0,0.0,0.0,10.0
1446040363776088986,464,1446040363771248102,robocape_mag,-0.75,-17.4,-4.8,10.0,0.0,0.0,0.0,10.0,0.0,0.0,0.0,10.0
1446040363809203986,465,1446040363803936958,robocape_mag,-0.75,-17.4,-4.8,10.0,0.0,0.0,0.0,10.0,0.0,0.0,0.0,10.0
1446040363842304194,466,1446040363837608098,robocape_mag,-0.75,-17.4,-4.8,10.0,0.0,0.0,0.0,10.0,0.0,0.0,0.0,10.0
1446040363875546528,467,1446040363870661973,robocape_mag,-0.75,-17.4,-4.8,10.0,0.0,0.0,0.0,10.0,0.0,0.0,0.0,10.0
1446040363908902111,468,1446040363903973102,robocape_mag,-1.95,-18.0,-3.6,10.0,0.0,0.0,0.0,10.0,0.0,0.0,0.0,10.0
1446040363950206778,469,1446040363937359094,robocape_mag,-1.95,-18.0,-3.6,10.0,0.0,0.0,0.0,10.0,0.0,0.0,0.0,10.0
1446040363975441111,470,1446040363970617055,robocape_mag,-1.95,-18.0,-3.6,10.0,0.0,0.0,0.0,10.0,0.0,0.0,0.0,10.0
1446040364009081611,471,1446040364003918886,robocape_mag,-1.95,-18.0,-3.6,10.0,0.0,0.0,0.0,10.0,0.0,0.0,0.0,10.0
1446040364042084903,472,1446040364037369966,robocape_mag,-1.95,-18.0,-3.6,10.0,0.0,0.0,0.0,10.0,0.0,0.0,0.0,10.0
1446040364075692611,473,1446040364070763111,robocape_mag,0.45,-19.2,-4.8,10.0,0.0,0.0,0.0,10.0,0.0,0.0,0.0,10.0
1446040364109032361,474,1446040364103863000,robocape_mag,0.45,-19.2,-4.8,10.0,0.0,0.0,0.0,10.0,0.0,0.0,0.0,10.0
1446040364142218611,475,1446040364137423992,robocape_mag,0.45,-19.2,-4.8,10.0,0.0,0.0,0.0,10.0,0.0,0.0,0.0,10.0
1446040364175591653,476,1446040364170614004,robocape_mag,0.45,-19.2,-4.8,10.0,0.0,0.0,0.0,10.0,0.0,0.0,0.0,10.0
1446040364217230403,477,1446040364212245941,robocape_mag,-1.35,-19.2,-4.8,10.0,0.0,0.0,0.0,10.0,0.0,0.0,0.0,10.0
1446040364242274361,478,1446040364237512111,robocape_mag,-1.35,-19.2,-4.8,10.0,0.0,0.0,0.0,10.0,0.0,0.0,0.0,10.0
1446040364275500653,479,1446040364270615100,robocape_mag,-1.35,-19.2,-4.8,10.0,0.0,0.0,0.0,10.0,0.0,0.0,0.0,10.0
1446040364308919278,480,1446040364304025888,robocape_mag,-1.35,-19.2,-4.8,10.0,0.0,0.0,0.0,10.0,0.0,0.0,0.0,10.0
1446040364342396695,481,1446040364337647914,robocape_mag,-1.35,-19.2,-4.8,10.0,0.0,0.0,0.0,10.0,0.0,0.0,0.0,10.0
1446040364375354320,482,1446040364370609045,robocape_mag,-0.15,-18.0,-4.2,10.0,0.0,0.0,0.0,10.0,0.0,0.0,0.0,10.0
1446040364408789778,483,1446040364403920888,robocape_mag,-0.15,-18.0,-4.2,10.0,0.0,0.0,0.0,10.0,0.0,0.0,0.0,10.0
1446040364442415028,484,1446040364437386989,robocape_mag,-0.15,-18.0,-4.2,10.0,0.0,0.0,0.0,10.0,0.0,0.0,0.0,10.0
1446040364475558778,485,1446040364470715045,robocape_mag,-0.15,-18.0,-4.2,10.0,0.0,0.0,0.0,10.0,0.0,0.0,0.0,10.0
1446040364509027611,486,1446040364504152059,robocape_mag,-0.15,-18.0,-4.2,10.0,0.0,0.0,0.0,10.0,0.0,0.0,0.0,10.0
1446040364542670111,487,1446040364537504911,robocape_mag,-0.75,-19.8,-4.2,10.0,0.0,0.0,0.0,10.0,0.0,0.0,0.0,10.0
1446040364585800862,488,1446040364580482006,robocape_mag,-0.75,-19.8,-4.2,10.0,0.0,0.0,0.0,10.0,0.0,0.0,0.0,10.0
1446040364609194320,489,1446040364604207038,robocape_mag,-0.75,-19.8,-4.2,10.0,0.0,0.0,0.0,10.0,0.0,0.0,0.0,10.0
1446040364642467653,490,1446040364637463092,robocape_mag,-0.75,-19.8,-4.2,10.0,0.0,0.0,0.0,10.0,0.0,0.0,0.0,10.0
1446040364675301195,491,1446040364670495033,robocape_mag,-0.75,-19.8,-4.2,10.0,0.0,0.0,0.0,10.0,0.0,0.0,0.0,10.0
1446040364709108945,492,1446040364704298973,robocape_mag,-0.15,-19.8,-4.8,10.0,0.0,0.0,0.0,10.0,0.0,0.0,0.0,10.0
1446040364742614403,493,1446040364737602949,robocape_mag,-0.15,-19.8,-4.8,10.0,0.0,0.0,0.0,10.0,0.0,0.0,0.0,10.0
1446040364775447945,494,1446040364770570993,robocape_mag,-0.15,-19.8,-4.8,10.0,0.0,0.0,0.0,10.0,0.0,0.0,0.0,10.0
1446040364809090445,495,1446040364804210901,robocape_mag,-0.15,-19.8,-4.8,10.0,0.0,0.0,0.0,10.0,0.0,0.0,0.0,10.0
1446040364843084778,496,1446040364837389945,robocape_mag,-0.15,-19.8,-4.8,10.0,0.0,0.0,0.0,10.0,0.0,0.0,0.0,10.0
1446040364875351153,497,1446040364870614051,robocape_mag,-1.35,-19.2,-3.6,10.0,0.0,0.0,0.0,10.0,0.0,0.0,0.0,10.0
1446040364909385570,498,1446040364903908014,robocape_mag,-1.35,-19.2,-3.6,10.0,0.0,0.0,0.0,10.0,0.0,0.0,0.0,10.0
1446040364949545320,499,1446040364937514066,robocape_mag,-1.35,-19.2,-3.6,10.0,0.0,0.0,0.0,10.0,0.0,0.0,0.0,10.0
1446040364975675237,500,1446040364970952987,robocape_mag,-1.35,-19.2,-3.6,10.0,0.0,0.0,0.0,10.0,0.0,0.0,0.0,10.0
1446040365008845487,501,1446040365004049062,robocape_mag,-1.95,-18.6,-4.2,10.0,0.0,0.0,0.0,10.0,0.0,0.0,0.0,10.0
1446040365042348653,502,1446040365037590980,robocape_mag,-1.95,-18.6,-4.2,10.0,0.0,0.0,0.0,10.0,0.0,0.0,0.0,10.0
1446040365075688528,503,1446040365070858001,robocape_mag,-1.95,-18.6,-4.2,10.0,0.0,0.0,0.0,10.0,0.0,0.0,0.0,10.0
1446040365108782028,504,1446040365103965044,robocape_mag,-1.95,-18.6,-4.2,10.0,0.0,0.0,0.0,10.0,0.0,0.0,0.0,10.0
1446040365142390403,505,1446040365137392997,robocape_mag,-1.95,-18.6,-4.2,10.0,0.0,0.0,0.0,10.0,0.0,0.0,0.0,10.0
1446040365175948237,506,1446040365170865058,robocape_mag,-0.45,-20.1,-5.1,10.0,0.0,0.0,0.0,10.0,0.0,0.0,0.0,10.0
1446040365209017778,507,1446040365204031944,robocape_mag,-0.45,-20.1,-5.1,10.0,0.0,0.0,0.0,10.0,0.0,0.0,0.0,10.0
1446040365242589528,508,1446040365237636089,robocape_mag,-0.45,-20.1,-5.1,10.0,0.0,0.0,0.0,10.0,0.0,0.0,0.0,10.0
1446040365276204320,509,1446040365271253108,robocape_mag,-0.45,-20.1,-5.1,10.0,0.0,0.0,0.0,10.0,0.0,0.0,0.0,10.0
1446040365309109945,510,1446040365304176092,robocape_mag,-0.45,-20.1,-5.1,10.0,0.0,0.0,0.0,10.0,0.0,0.0,0.0,10.0
1446040365342170070,511,1446040365337436914,robocape_mag,-1.35,-19.8,-4.8,10.0,0.0,0.0,0.0,10.0,0.0,0.0,0.0,10.0
1446040365375979195,512,1446040365371063947,robocape_mag,-1.35,-19.8,-4.8,10.0,0.0,0.0,0.0,10.0,0.0,0.0,0.0,10.0
1446040365409007904,513,1446040365403950929,robocape_mag,-1.35,-19.8,-4.8,10.0,0.0,0.0,0.0,10.0,0.0,0.0,0.0,10.0
1446040365442182362,514,1446040365437422990,robocape_mag,-1.35,-19.8,-4.8,10.0,0.0,0.0,0.0,10.0,0.0,0.0,0.0,10.0
1446040365476268945,515,1446040365471230030,robocape_mag,-1.35,-19.8,-4.8,10.0,0.0,0.0,0.0,10.0,0.0,0.0,0.0,10.0
1446040365508997737,516,1446040365503886938,robocape_mag,-0.45,-20.1,-3.9,10.0,0.0,0.0,0.0,10.0,0.0,0.0,0.0,10.0
1446040365542332279,517,1446040365537456989,robocape_mag,-0.45,-20.1,-3.9,10.0,0.0,0.0,0.0,10.0,0.0,0.0,0.0,10.0
1446040365576043279,518,1446040365571036100,robocape_mag,-0.45,-20.1,-3.9,10.0,0.0,0.0,0.0,10.0,0.0,0.0,0.0,10.0
1446040365609014945,519,1446040365603877067,robocape_mag,-0.45,-20.1,-3.9,10.0,0.0,0.0,0.0,10.0,0.0,0.0,0.0,10.0
1446040365641958779,520,1446040365637228012,robocape_mag,-0.45,-20.1,-3.9,10.0,0.0,0.0,0.0,10.0,0.0,0.0,0.0,10.0
1446040365678159654,521,1446040365673177957,robocape_mag,-0.15,-18.6,-4.8,10.0,0.0,0.0,0.0,10.0,0.0,0.0,0.0,10.0
1446040365708751029,522,1446040365703814983,robocape_mag,-0.15,-18.6,-4.8,10.0,0.0,0.0,0.0,10.0,0.0,0.0,0.0,10.0
1446040365742516237,523,1446040365737783908,robocape_mag,-0.15,-18.6,-4.8,10.0,0.0,0.0,0.0,10.0,0.0,0.0,0.0,10.0
1446040365775714904,524,1446040365770895004,robocape_mag,-0.15,-18.6,-4.8,10.0,0.0,0.0,0.0,10.0,0.0,0.0,0.0,10.0
1446040365809237279,525,1446040365804197072,robocape_mag,0.75,-18.9,-5.7,10.0,0.0,0.0,0.0,10.0,0.0,0.0,0.0,10.0
1446040365846080779,526,1446040365841321945,robocape_mag,0.75,-18.9,-5.7,10.0,0.0,0.0,0.0,10.0,0.0,0.0,0.0,10.0
1446040365876301695,527,1446040365871356010,robocape_mag,0.75,-18.9,-5.7,10.0,0.0,0.0,0.0,10.0,0.0,0.0,0.0,10.0
1446040365908789945,528,1446040365903928995,robocape_mag,0.75,-18.9,-5.7,10.0,0.0,0.0,0.0,10.0,0.0,0.0,0.0,10.0
1446040365948949195,529,1446040365937252998,robocape_mag,0.75,-18.9,-5.7,10.0,0.0,0.0,0.0,10.0,0.0,0.0,0.0,10.0
