%time,field.header.seq,field.header.stamp,field.header.frame_id,field.magnetic_field.x,field.magnetic_field.y,field.magnetic_field.z,field.magnetic_field_covariance0,field.magnetic_field_covariance1,field.magnetic_field_covariance2,field.magnetic_field_covariance3,field.magnetic_field_covariance4,field.magnetic_field_covariance5,field.magnetic_field_covariance6,field.magnetic_field_covariance7,field.magnetic_field_covariance8
1446036985580607796,1,1446036985578401088,robocape_mag,0.0,-0.832050294338,0.554700196225,10.0,0.0,0.0,0.0,10.0,0.0,0.0,0.0,10.0
1446036985613677755,2,1446036985611537933,robocape_mag,0.0,-0.832050294338,0.554700196225,10.0,0.0,0.0,0.0,10.0,0.0,0.0,0.0,10.0
1446036985647728046,3,1446036985644476890,robocape_mag,0.0,-0.832050294338,0.554700196225,10.0,0.0,0.0,0.0,10.0,0.0,0.0,0.0,10.0
1446036985689849255,4,1446036985682224035,robocape_mag,0.0,-0.832050294338,0.554700196225,10.0,0.0,0.0,0.0,10.0,0.0,0.0,0.0,10.0
1446036985714632005,5,1446036985711159944,robocape_mag,0.0,-0.832050294338,0.554700196225,10.0,0.0,0.0,0.0,10.0,0.0,0.0,0.0,10.0
1446036985747713880,6,1446036985744290113,robocape_mag,0.768221279597,0.384110639799,0.512147519732,10.0,0.0,0.0,0.0,10.0,0.0,0.0,0.0,10.0
1446036985781458796,7,1446036985778099060,robocape_mag,0.768221279597,0.384110639799,0.512147519732,10.0,0.0,0.0,0.0,10.0,0.0,0.0,0.0,10.0
1446036985814607505,8,1446036985811151027,robocape_mag,0.768221279597,0.384110639799,0.512147519732,10.0,0.0,0.0,0.0,10.0,0.0,0.0,0.0,10.0
1446036985847721130,9,1446036985844201087,robocape_mag,0.768221279597,0.384110639799,0.512147519732,10.0,0.0,0.0,0.0,10.0,0.0,0.0,0.0,10.0
1446036985881467255,10,1446036985878041982,robocape_mag,-0.298142397,-0.7453559925,-0.596284794,10.0,0.0,0.0,0.0,10.0,0.0,0.0,0.0,10.0
1446036985914602213,11,1446036985911149024,robocape_mag,-0.298142397,-0.7453559925,-0.596284794,10.0,0.0,0.0,0.0,10.0,0.0,0.0,0.0,10.0
1446036985953357713,12,1446036985949970960,robocape_mag,-0.298142397,-0.7453559925,-0.596284794,10.0,0.0,0.0,0.0,10.0,0.0,0.0,0.0,10.0
1446036985981333838,13,1446036985978037118,robocape_mag,-0.298142397,-0.7453559925,-0.596284794,10.0,0.0,0.0,0.0,10.0,0.0,0.0,0.0,10.0
1446036986014599463,14,1446036986011198997,robocape_mag,-0.298142397,-0.7453559925,-0.596284794,10.0,0.0,0.0,0.0,10.0,0.0,0.0,0.0,10.0
1446036986047824755,15,1446036986044388055,robocape_mag,-0.574695771133,0.287347885566,-0.766261028177,10.0,0.0,0.0,0.0,10.0,0.0,0.0,0.0,10.0
1446036986081529671,16,1446036986078140974,robocape_mag,-0.574695771133,0.287347885566,-0.766261028177,10.0,0.0,0.0,0.0,10.0,0.0,0.0,0.0,10.0
1446036986114582838,17,1446036986111172914,robocape_mag,-0.574695771133,0.287347885566,-0.766261028177,10.0,0.0,0.0,0.0,10.0,0.0,0.0,0.0,10.0
1446036986147696213,18,1446036986144397020,robocape_mag,-0.574695771133,0.287347885566,-0.766261028177,10.0,0.0,0.0,0.0,10.0,0.0,0.0,0.0,10.0
1446036986181927213,19,1446036986177995920,robocape_mag,-0.574695771133,0.287347885566,-0.766261028177,10.0,0.0,0.0,0.0,10.0,0.0,0.0,0.0,10.0
1446036986214507547,20,1446036986211014032,robocape_mag,0.3577708764,-0.2683281573,0.894427191,10.0,0.0,0.0,0.0,10.0,0.0,0.0,0.0,10.0
1446036986247708672,21,1446036986244395971,robocape_mag,0.3577708764,-0.2683281573,0.894427191,10.0,0.0,0.0,0.0,10.0,0.0,0.0,0.0,10.0
1446036986283664547,22,1446036986280025005,robocape_mag,0.3577708764,-0.2683281573,0.894427191,10.0,0.0,0.0,0.0,10.0,0.0,0.0,0.0,10.0
1446036986314858672,23,1446036986310986995,robocape_mag,0.3577708764,-0.2683281573,0.894427191,10.0,0.0,0.0,0.0,10.0,0.0,0.0,0.0,10.0
1446036986347830630,24,1446036986344379901,robocape_mag,0.3577708764,-0.2683281573,0.894427191,10.0,0.0,0.0,0.0,10.0,0.0,0.0,0.0,10.0
1446036986382203880,25,1446036986378460884,robocape_mag,0.0,0.928476690885,-0.371390676354,10.0,0.0,0.0,0.0,10.0,0.0,0.0,0.0,10.0
1446036986415357380,26,1446036986411550998,robocape_mag,0.0,0.928476690885,-0.371390676354,10.0,0.0,0.0,0.0,10.0,0.0,0.0,0.0,10.0
1446036986447793755,27,1446036986444263935,robocape_mag,0.0,0.928476690885,-0.371390676354,10.0,0.0,0.0,0.0,10.0,0.0,0.0,0.0,10.0
1446036986482356630,28,1446036986478462934,robocape_mag,0.0,0.928476690885,-0.371390676354,10.0,0.0,0.0,0.0,10.0,0.0,0.0,0.0,10.0
1446036986514792963,29,1446036986511202096,robocape_mag,0.0,0.928476690885,-0.371390676354,10.0,0.0,0.0,0.0,10.0,0.0,0.0,0.0,10.0
1446036986547801838,30,1446036986544486045,robocape_mag,-0.894427191,-0.4472135955,0.0,10.0,0.0,0.0,0.0,10.0,0.0,0.0,0.0,10.0
1446036986582719963,31,1446036986578747034,robocape_mag,-0.894427191,-0.4472135955,0.0,10.0,0.0,0.0,0.0,10.0,0.0,0.0,0.0,10.0
1446036986614701255,32,1446036986611169099,robocape_mag,-0.894427191,-0.4472135955,0.0,10.0,0.0,0.0,0.0,10.0,0.0,0.0,0.0,10.0
1446036986647768797,33,1446036986644493103,robocape_mag,-0.894427191,-0.4472135955,0.0,10.0,0.0,0.0,0.0,10.0,0.0,0.0,0.0,10.0
1446036986682488797,34,1446036986678632974,robocape_mag,-0.549442255795,0.137360563949,-0.824163383692,10.0,0.0,0.0,0.0,10.0,0.0,0.0,0.0,10.0
1446036986714381088,35,1446036986711020946,robocape_mag,-0.549442255795,0.137360563949,-0.824163383692,10.0,0.0,0.0,0.0,10.0,0.0,0.0,0.0,10.0
1446036986747761088,36,1446036986744425058,robocape_mag,-0.549442255795,0.137360563949,-0.824163383692,10.0,0.0,0.0,0.0,10.0,0.0,0.0,0.0,10.0
1446036986783112547,37,1446036986778801918,robocape_mag,-0.549442255795,0.137360563949,-0.824163383692,10.0,0.0,0.0,0.0,10.0,0.0,0.0,0.0,10.0
1446036986814874213,38,1446036986811194896,robocape_mag,-0.549442255795,0.137360563949,-0.824163383692,10.0,0.0,0.0,0.0,10.0,0.0,0.0,0.0,10.0
1446036986848211463,39,1446036986844651937,robocape_mag,-0.419058177462,-0.349215147885,0.838116354923,10.0,0.0,0.0,0.0,10.0,0.0,0.0,0.0,10.0
1446036986882825297,40,1446036986878962993,robocape_mag,-0.419058177462,-0.349215147885,0.838116354923,10.0,0.0,0.0,0.0,10.0,0.0,0.0,0.0,10.0
1446036986914597589,41,1446036986911189079,robocape_mag,-0.419058177462,-0.349215147885,0.838116354923,10.0,0.0,0.0,0.0,10.0,0.0,0.0,0.0,10.0
1446036986947929547,42,1446036986944396972,robocape_mag,-0.419058177462,-0.349215147885,0.838116354923,10.0,0.0,0.0,0.0,10.0,0.0,0.0,0.0,10.0
1446036986982072297,43,1446036986978653907,robocape_mag,-0.419058177462,-0.349215147885,0.838116354923,10.0,0.0,0.0,0.0,10.0,0.0,0.0,0.0,10.0
1446036987014838422,44,1446036987011404991,robocape_mag,0.872871560944,0.218217890236,-0.436435780472,10.0,0.0,0.0,0.0,10.0,0.0,0.0,0.0,10.0
1446036987047860839,45,1446036987044358015,robocape_mag,0.872871560944,0.218217890236,-0.436435780472,10.0,0.0,0.0,0.0,10.0,0.0,0.0,0.0,10.0
1446036987082208130,46,1446036987078814029,robocape_mag,0.872871560944,0.218217890236,-0.436435780472,10.0,0.0,0.0,0.0,10.0,0.0,0.0,0.0,10.0
1446036987115448214,47,1446036987111865043,robocape_mag,0.872871560944,0.218217890236,-0.436435780472,10.0,0.0,0.0,0.0,10.0,0.0,0.0,0.0,10.0
1446036987155805797,48,1446036987152443885,robocape_mag,0.872871560944,0.218217890236,-0.436435780472,10.0,0.0,0.0,0.0,10.0,0.0,0.0,0.0,10.0
1446036987182407797,49,1446036987179013967,robocape_mag,-0.963086824686,0.120385853086,-0.240771706172,10.0,0.0,0.0,0.0,10.0,0.0,0.0,0.0,10.0
1446036987214983714,50,1446036987211396932,robocape_mag,-0.963086824686,0.120385853086,-0.240771706172,10.0,0.0,0.0,0.0,10.0,0.0,0.0,0.0,10.0
1446036987247867839,51,1446036987244527101,robocape_mag,-0.963086824686,0.120385853086,-0.240771706172,10.0,0.0,0.0,0.0,10.0,0.0,0.0,0.0,10.0
1446036987282273672,52,1446036987278470993,robocape_mag,-0.963086824686,0.120385853086,-0.240771706172,10.0,0.0,0.0,0.0,10.0,0.0,0.0,0.0,10.0
1446036987314782672,53,1446036987311187028,robocape_mag,-0.963086824686,0.120385853086,-0.240771706172,10.0,0.0,0.0,0.0,10.0,0.0,0.0,0.0,10.0
1446036987348098672,54,1446036987344677925,robocape_mag,0.0,0.4472135955,0.894427191,10.0,0.0,0.0,0.0,10.0,0.0,0.0,0.0,10.0
1446036987382664089,55,1446036987379123926,robocape_mag,0.0,0.4472135955,0.894427191,10.0,0.0,0.0,0.0,10.0,0.0,0.0,0.0,10.0
1446036987414655214,56,1446036987411235094,robocape_mag,0.0,0.4472135955,0.894427191,10.0,0.0,0.0,0.0,10.0,0.0,0.0,0.0,10.0
1446036987447683089,57,1446036987444258928,robocape_mag,0.0,0.4472135955,0.894427191,10.0,0.0,0.0,0.0,10.0,0.0,0.0,0.0,10.0
1446036987482120714,58,1446036987478583097,robocape_mag,0.742781352708,-0.557086014531,0.371390676354,10.0,0.0,0.0,0.0,10.0,0.0,0.0,0.0,10.0
1446036987514891297,59,1446036987511159896,robocape_mag,0.742781352708,-0.557086014531,0.371390676354,10.0,0.0,0.0,0.0,10.0,0.0,0.0,0.0,10.0
1446036987548018214,60,1446036987544410943,robocape_mag,0.742781352708,-0.557086014531,0.371390676354,10.0,0.0,0.0,0.0,10.0,0.0,0.0,0.0,10.0
1446036987587285464,61,1446036987583426952,robocape_mag,0.742781352708,-0.557086014531,0.371390676354,10.0,0.0,0.0,0.0,10.0,0.0,0.0,0.0,10.0
1446036987614759339,62,1446036987611080884,robocape_mag,0.742781352708,-0.557086014531,0.371390676354,10.0,0.0,0.0,0.0,10.0,0.0,0.0,0.0,10.0
1446036987647953839,63,1446036987644398927,robocape_mag,-0.742781352708,-0.557086014531,-0.371390676354,10.0,0.0,0.0,0.0,10.0,0.0,0.0,0.0,10.0
1446036987680941172,64,1446036987677683115,robocape_mag,-0.742781352708,-0.557086014531,-0.371390676354,10.0,0.0,0.0,0.0,10.0,0.0,0.0,0.0,10.0
1446036987714726339,65,1446036987711050033,robocape_mag,-0.742781352708,-0.557086014531,-0.371390676354,10.0,0.0,0.0,0.0,10.0,0.0,0.0,0.0,10.0
1446036987747796506,66,1446036987744337081,robocape_mag,-0.742781352708,-0.557086014531,-0.371390676354,10.0,0.0,0.0,0.0,10.0,0.0,0.0,0.0,10.0
1446036987781053131,67,1446036987777662992,robocape_mag,-0.742781352708,-0.557086014531,-0.371390676354,10.0,0.0,0.0,0.0,10.0,0.0,0.0,0.0,10.0
1446036987814280881,68,1446036987810900926,robocape_mag,0.655385536415,0.737308728467,0.163846384104,10.0,0.0,0.0,0.0,10.0,0.0,0.0,0.0,10.0
1446036987847797006,69,1446036987844337940,robocape_mag,0.655385536415,0.737308728467,0.163846384104,10.0,0.0,0.0,0.0,10.0,0.0,0.0,0.0,10.0
1446036987881010339,70,1446036987877626895,robocape_mag,0.655385536415,0.737308728467,0.163846384104,10.0,0.0,0.0,0.0,10.0,0.0,0.0,0.0,10.0
1446036987914410922,71,1446036987910995006,robocape_mag,0.655385536415,0.737308728467,0.163846384104,10.0,0.0,0.0,0.0,10.0,0.0,0.0,0.0,10.0
1446036987947795839,72,1446036987944231986,robocape_mag,0.655385536415,0.737308728467,0.163846384104,10.0,0.0,0.0,0.0,10.0,0.0,0.0,0.0,10.0
1446036987981113464,73,1446036987977766990,robocape_mag,0.596284794,0.7453559925,0.298142397,10.0,0.0,0.0,0.0,10.0,0.0,0.0,0.0,10.0
1446036988014486297,74,1446036988011017084,robocape_mag,0.596284794,0.7453559925,0.298142397,10.0,0.0,0.0,0.0,10.0,0.0,0.0,0.0,10.0
1446036988047905047,75,1446036988044269084,robocape_mag,0.596284794,0.7453559925,0.298142397,10.0,0.0,0.0,0.0,10.0,0.0,0.0,0.0,10.0
1446036988081635964,76,1446036988078129053,robocape_mag,0.596284794,0.7453559925,0.298142397,10.0,0.0,0.0,0.0,10.0,0.0,0.0,0.0,10.0
1446036988114429839,77,1446036988111066102,robocape_mag,0.596284794,0.7453559925,0.298142397,10.0,0.0,0.0,0.0,10.0,0.0,0.0,0.0,10.0
1446036988148306672,78,1446036988144659996,robocape_mag,-0.159617376894,0.23942606534,0.957704261361,10.0,0.0,0.0,0.0,10.0,0.0,0.0,0.0,10.0
1446036988182406797,79,1446036988178813934,robocape_mag,-0.159617376894,0.23942606534,0.957704261361,10.0,0.0,0.0,0.0,10.0,0.0,0.0,0.0,10.0
1446036988214332047,80,1446036988210903882,robocape_mag,-0.159617376894,0.23942606534,0.957704261361,10.0,0.0,0.0,0.0,10.0,0.0,0.0,0.0,10.0
1446036988247751964,81,1446036988244318962,robocape_mag,-0.159617376894,0.23942606534,0.957704261361,10.0,0.0,0.0,0.0,10.0,0.0,0.0,0.0,10.0
1446036988281379256,82,1446036988277777910,robocape_mag,0.754433536154,-0.188608384039,0.628694613462,10.0,0.0,0.0,0.0,10.0,0.0,0.0,0.0,10.0
1446036988314320464,83,1446036988310939073,robocape_mag,0.754433536154,-0.188608384039,0.628694613462,10.0,0.0,0.0,0.0,10.0,0.0,0.0,0.0,10.0
1446036988347792381,84,1446036988344340085,robocape_mag,0.754433536154,-0.188608384039,0.628694613462,10.0,0.0,0.0,0.0,10.0,0.0,0.0,0.0,10.0
1446036988381316423,85,1446036988377732992,robocape_mag,0.754433536154,-0.188608384039,0.628694613462,10.0,0.0,0.0,0.0,10.0,0.0,0.0,0.0,10.0
1446036988414989548,86,1446036988411441087,robocape_mag,0.754433536154,-0.188608384039,0.628694613462,10.0,0.0,0.0,0.0,10.0,0.0,0.0,0.0,10.0
1446036988447698798,87,1446036988444228887,robocape_mag,0.824163383692,-0.137360563949,-0.549442255795,10.0,0.0,0.0,0.0,10.0,0.0,0.0,0.0,10.0
1446036988481525923,88,1446036988477971076,robocape_mag,0.824163383692,-0.137360563949,-0.549442255795,10.0,0.0,0.0,0.0,10.0,0.0,0.0,0.0,10.0
1446036988514610006,89,1446036988511141061,robocape_mag,0.824163383692,-0.137360563949,-0.549442255795,10.0,0.0,0.0,0.0,10.0,0.0,0.0,0.0,10.0
1446036988547651881,90,1446036988544393062,robocape_mag,0.824163383692,-0.137360563949,-0.549442255795,10.0,0.0,0.0,0.0,10.0,0.0,0.0,0.0,10.0
1446036988581608006,91,1446036988577912092,robocape_mag,0.824163383692,-0.137360563949,-0.549442255795,10.0,0.0,0.0,0.0,10.0,0.0,0.0,0.0,10.0
1446036988615426048,92,1446036988611907005,robocape_mag,-0.73165291302,0.304855380425,0.60971076085,10.0,0.0,0.0,0.0,10.0,0.0,0.0,0.0,10.0
1446036988647757048,93,1446036988644462108,robocape_mag,-0.73165291302,0.304855380425,0.60971076085,10.0,0.0,0.0,0.0,10.0,0.0,0.0,0.0,10.0
1446036988680957298,94,1446036988677701950,robocape_mag,-0.73165291302,0.304855380425,0.60971076085,10.0,0.0,0.0,0.0,10.0,0.0,0.0,0.0,10.0
1446036988714352589,95,1446036988710886955,robocape_mag,-0.73165291302,0.304855380425,0.60971076085,10.0,0.0,0.0,0.0,10.0,0.0,0.0,0.0,10.0
1446036988747650506,96,1446036988744337081,robocape_mag,-0.73165291302,0.304855380425,0.60971076085,10.0,0.0,0.0,0.0,10.0,0.0,0.0,0.0,10.0
1446036988781029798,97,1446036988777638912,robocape_mag,0.0,-0.4472135955,0.894427191,10.0,0.0,0.0,0.0,10.0,0.0,0.0,0.0,10.0
1446036988814664048,98,1446036988811124086,robocape_mag,0.0,-0.4472135955,0.894427191,10.0,0.0,0.0,0.0,10.0,0.0,0.0,0.0,10.0
1446036988847672589,99,1446036988844345092,robocape_mag,0.0,-0.4472135955,0.894427191,10.0,0.0,0.0,0.0,10.0,0.0,0.0,0.0,10.0
1446036988881115964,100,1446036988877767086,robocape_mag,0.0,-0.4472135955,0.894427191,10.0,0.0,0.0,0.0,10.0,0.0,0.0,0.0,10.0
1446036988914521839,101,1446036988911030054,robocape_mag,0.0,-0.4472135955,0.894427191,10.0,0.0,0.0,0.0,10.0,0.0,0.0,0.0,10.0
1446036988947746714,102,1446036988944257974,robocape_mag,-0.73165291302,-0.670681836935,-0.12194215217,10.0,0.0,0.0,0.0,10.0,0.0,0.0,0.0,10.0
1446036988981364756,103,1446036988977988958,robocape_mag,-0.73165291302,-0.670681836935,-0.12194215217,10.0,0.0,0.0,0.0,10.0,0.0,0.0,0.0,10.0
1446036989014341340,104,1446036989011024951,robocape_mag,-0.73165291302,-0.670681836935,-0.12194215217,10.0,0.0,0.0,0.0,10.0,0.0,0.0,0.0,10.0
1446036989047920923,105,1446036989044373989,robocape_mag,-0.73165291302,-0.670681836935,-0.12194215217,10.0,0.0,0.0,0.0,10.0,0.0,0.0,0.0,10.0
1446036989081170673,106,1446036989077816009,robocape_mag,0.768221279597,-0.640184399664,0.0,10.0,0.0,0.0,0.0,10.0,0.0,0.0,0.0,10.0
1446036989114337673,107,1446036989111068964,robocape_mag,0.768221279597,-0.640184399664,0.0,10.0,0.0,0.0,0.0,10.0,0.0,0.0,0.0,10.0
1446036989147765256,108,1446036989144418001,robocape_mag,0.768221279597,-0.640184399664,0.0,10.0,0.0,0.0,0.0,10.0,0.0,0.0,0.0,10.0
1446036989181017423,109,1446036989177570104,robocape_mag,0.768221279597,-0.640184399664,0.0,10.0,0.0,0.0,0.0,10.0,0.0,0.0,0.0,10.0
1446036989214153631,110,1446036989210926055,robocape_mag,0.768221279597,-0.640184399664,0.0,10.0,0.0,0.0,0.0,10.0,0.0,0.0,0.0,10.0
1446036989247742673,111,1446036989244412899,robocape_mag,0.0,-0.209529088731,-0.977802414077,10.0,0.0,0.0,0.0,10.0,0.0,0.0,0.0,10.0
1446036989281172965,112,1446036989277657032,robocape_mag,0.0,-0.209529088731,-0.977802414077,10.0,0.0,0.0,0.0,10.0,0.0,0.0,0.0,10.0
1446036989314293173,113,1446036989310961008,robocape_mag,0.0,-0.209529088731,-0.977802414077,10.0,0.0,0.0,0.0,10.0,0.0,0.0,0.0,10.0
1446036989347823173,114,1446036989344463109,robocape_mag,0.0,-0.209529088731,-0.977802414077,10.0,0.0,0.0,0.0,10.0,0.0,0.0,0.0,10.0
1446036989381133548,115,1446036989377619981,robocape_mag,0.0,-0.209529088731,-0.977802414077,10.0,0.0,0.0,0.0,10.0,0.0,0.0,0.0,10.0
1446036989414331340,116,1446036989410939931,robocape_mag,0.0,0.640184399664,-0.768221279597,10.0,0.0,0.0,0.0,10.0,0.0,0.0,0.0,10.0
1446036989447787631,117,1446036989444386959,robocape_mag,0.0,0.640184399664,-0.768221279597,10.0,0.0,0.0,0.0,10.0,0.0,0.0,0.0,10.0
1446036989481263756,118,1446036989477761030,robocape_mag,0.0,0.640184399664,-0.768221279597,10.0,0.0,0.0,0.0,10.0,0.0,0.0,0.0,10.0
1446036989514811715,119,1446036989511293888,robocape_mag,0.0,0.640184399664,-0.768221279597,10.0,0.0,0.0,0.0,10.0,0.0,0.0,0.0,10.0
1446036989547755881,120,1446036989544397115,robocape_mag,0.0,0.640184399664,-0.768221279597,10.0,0.0,0.0,0.0,10.0,0.0,0.0,0.0,10.0
1446036989581566548,121,1446036989577941894,robocape_mag,-0.240771706172,0.8427009716,0.481543412343,10.0,0.0,0.0,0.0,10.0,0.0,0.0,0.0,10.0
1446036989614462840,122,1446036989611104011,robocape_mag,-0.240771706172,0.8427009716,0.481543412343,10.0,0.0,0.0,0.0,10.0,0.0,0.0,0.0,10.0
1446036989647760256,123,1446036989644491910,robocape_mag,-0.240771706172,0.8427009716,0.481543412343,10.0,0.0,0.0,0.0,10.0,0.0,0.0,0.0,10.0
1446036989682093798,124,1446036989678404092,robocape_mag,-0.240771706172,0.8427009716,0.481543412343,10.0,0.0,0.0,0.0,10.0,0.0,0.0,0.0,10.0
1446036989714485840,125,1446036989711014032,robocape_mag,-0.240771706172,0.8427009716,0.481543412343,10.0,0.0,0.0,0.0,10.0,0.0,0.0,0.0,10.0
1446036989747906715,126,1446036989744577884,robocape_mag,0.481543412343,-0.8427009716,0.240771706172,10.0,0.0,0.0,0.0,10.0,0.0,0.0,0.0,10.0
1446036989781408590,127,1446036989777615070,robocape_mag,0.481543412343,-0.8427009716,0.240771706172,10.0,0.0,0.0,0.0,10.0,0.0,0.0,0.0,10.0
1446036989814482548,128,1446036989810976028,robocape_mag,0.481543412343,-0.8427009716,0.240771706172,10.0,0.0,0.0,0.0,10.0,0.0,0.0,0.0,10.0
1446036989847660382,129,1446036989844299077,robocape_mag,0.481543412343,-0.8427009716,0.240771706172,10.0,0.0,0.0,0.0,10.0,0.0,0.0,0.0,10.0
1446036989881399715,130,1446036989877616882,robocape_mag,-0.360505060876,0.901262652189,0.24033670725,10.0,0.0,0.0,0.0,10.0,0.0,0.0,0.0,10.0
1446036989914526715,131,1446036989911046981,robocape_mag,-0.360505060876,0.901262652189,0.24033670725,10.0,0.0,0.0,0.0,10.0,0.0,0.0,0.0,10.0
1446036989947762340,132,1446036989944331884,robocape_mag,-0.360505060876,0.901262652189,0.24033670725,10.0,0.0,0.0,0.0,10.0,0.0,0.0,0.0,10.0
1446036989981519048,133,1446036989977741003,robocape_mag,-0.360505060876,0.901262652189,0.24033670725,10.0,0.0,0.0,0.0,10.0,0.0,0.0,0.0,10.0
1446036990014384173,134,1446036990010934114,robocape_mag,-0.360505060876,0.901262652189,0.24033670725,10.0,0.0,0.0,0.0,10.0,0.0,0.0,0.0,10.0
1446036990047953757,135,1446036990044300079,robocape_mag,0.163846384104,-0.737308728467,0.655385536415,10.0,0.0,0.0,0.0,10.0,0.0,0.0,0.0,10.0
1446036990082005715,136,1446036990078135967,robocape_mag,0.163846384104,-0.737308728467,0.655385536415,10.0,0.0,0.0,0.0,10.0,0.0,0.0,0.0,10.0
1446036990114351673,137,1446036990111088037,robocape_mag,0.163846384104,-0.737308728467,0.655385536415,10.0,0.0,0.0,0.0,10.0,0.0,0.0,0.0,10.0
1446036990147712090,138,1446036990144450902,robocape_mag,0.163846384104,-0.737308728467,0.655385536415,10.0,0.0,0.0,0.0,10.0,0.0,0.0,0.0,10.0
1446036990188805590,139,1446036990185295104,robocape_mag,0.163846384104,-0.737308728467,0.655385536415,10.0,0.0,0.0,0.0,10.0,0.0,0.0,0.0,10.0
1446036990214934090,140,1446036990211061954,robocape_mag,-0.608228737016,-0.228085776381,-0.76028592127,10.0,0.0,0.0,0.0,10.0,0.0,0.0,0.0,10.0
1446036990247762257,141,1446036990244412899,robocape_mag,-0.608228737016,-0.228085776381,-0.76028592127,10.0,0.0,0.0,0.0,10.0,0.0,0.0,0.0,10.0
1446036990281047507,142,1446036990277616024,robocape_mag,-0.608228737016,-0.228085776381,-0.76028592127,10.0,0.0,0.0,0.0,10.0,0.0,0.0,0.0,10.0
1446036990314419882,143,1446036990311038970,robocape_mag,-0.608228737016,-0.228085776381,-0.76028592127,10.0,0.0,0.0,0.0,10.0,0.0,0.0,0.0,10.0
1446036990347706757,144,1446036990344355106,robocape_mag,-0.608228737016,-0.228085776381,-0.76028592127,10.0,0.0,0.0,0.0,10.0,0.0,0.0,0.0,10.0
1446036990381037632,145,1446036990377584934,robocape_mag,-0.574695771133,0.287347885566,0.766261028177,10.0,0.0,0.0,0.0,10.0,0.0,0.0,0.0,10.0
1446036990415610340,146,1446036990411418914,robocape_mag,-0.574695771133,0.287347885566,0.766261028177,10.0,0.0,0.0,0.0,10.0,0.0,0.0,0.0,10.0
1446036990447860590,147,1446036990444354057,robocape_mag,-0.574695771133,0.287347885566,0.766261028177,10.0,0.0,0.0,0.0,10.0,0.0,0.0,0.0,10.0
1446036990481103840,148,1446036990477689981,robocape_mag,-0.574695771133,0.287347885566,0.766261028177,10.0,0.0,0.0,0.0,10.0,0.0,0.0,0.0,10.0
1446036990514582799,149,1446036990511195898,robocape_mag,-0.574695771133,0.287347885566,0.766261028177,10.0,0.0,0.0,0.0,10.0,0.0,0.0,0.0,10.0
1446036990547711965,150,1446036990544426918,robocape_mag,-0.554700196225,-0.832050294338,0.0,10.0,0.0,0.0,0.0,10.0,0.0,0.0,0.0,10.0
1446036990581747882,151,1446036990578121900,robocape_mag,-0.554700196225,-0.832050294338,0.0,10.0,0.0,0.0,0.0,10.0,0.0,0.0,0.0,10.0
1446036990614288007,152,1446036990611008882,robocape_mag,-0.554700196225,-0.832050294338,0.0,10.0,0.0,0.0,0.0,10.0,0.0,0.0,0.0,10.0
1446036990647763382,153,1446036990644463062,robocape_mag,-0.554700196225,-0.832050294338,0.0,10.0,0.0,0.0,0.0,10.0,0.0,0.0,0.0,10.0
1446036990681184132,154,1446036990677608966,robocape_mag,0.554700196225,0.832050294338,0.0,10.0,0.0,0.0,0.0,10.0,0.0,0.0,0.0,10.0
1446036990714375757,155,1446036990711023092,robocape_mag,0.554700196225,0.832050294338,0.0,10.0,0.0,0.0,0.0,10.0,0.0,0.0,0.0,10.0
1446036990748391132,156,1446036990744935989,robocape_mag,0.554700196225,0.832050294338,0.0,10.0,0.0,0.0,0.0,10.0,0.0,0.0,0.0,10.0
1446036990781269757,157,1446036990777781963,robocape_mag,0.554700196225,0.832050294338,0.0,10.0,0.0,0.0,0.0,10.0,0.0,0.0,0.0,10.0
1446036990814678840,158,1446036990811269044,robocape_mag,0.554700196225,0.832050294338,0.0,10.0,0.0,0.0,0.0,10.0,0.0,0.0,0.0,10.0
1446036990847663549,159,1446036990844228982,robocape_mag,-0.872871560944,0.218217890236,-0.436435780472,10.0,0.0,0.0,0.0,10.0,0.0,0.0,0.0,10.0
1446036990880969257,160,1446036990877579927,robocape_mag,-0.872871560944,0.218217890236,-0.436435780472,10.0,0.0,0.0,0.0,10.0,0.0,0.0,0.0,10.0
1446036990914391840,161,1446036990910980939,robocape_mag,-0.872871560944,0.218217890236,-0.436435780472,10.0,0.0,0.0,0.0,10.0,0.0,0.0,0.0,10.0
1446036990947894590,162,1446036990944323062,robocape_mag,-0.872871560944,0.218217890236,-0.436435780472,10.0,0.0,0.0,0.0,10.0,0.0,0.0,0.0,10.0
1446036990980991132,163,1446036990977540969,robocape_mag,-0.872871560944,0.218217890236,-0.436435780472,10.0,0.0,0.0,0.0,10.0,0.0,0.0,0.0,10.0
1446036991014563382,164,1446036991011189937,robocape_mag,-0.311399577665,-0.544949260913,0.778498944162,10.0,0.0,0.0,0.0,10.0,0.0,0.0,0.0,10.0
1446036991047757424,165,1446036991044361114,robocape_mag,-0.311399577665,-0.544949260913,0.778498944162,10.0,0.0,0.0,0.0,10.0,0.0,0.0,0.0,10.0
1446036991081733882,166,1446036991078128099,robocape_mag,-0.311399577665,-0.544949260913,0.778498944162,10.0,0.0,0.0,0.0,10.0,0.0,0.0,0.0,10.0
1446036991114518549,167,1446036991111146926,robocape_mag,-0.311399577665,-0.544949260913,0.778498944162,10.0,0.0,0.0,0.0,10.0,0.0,0.0,0.0,10.0
1446036991148081507,168,1446036991144670009,robocape_mag,-0.311399577665,-0.544949260913,0.778498944162,10.0,0.0,0.0,0.0,10.0,0.0,0.0,0.0,10.0
1446036991180975216,169,1446036991177515029,robocape_mag,-0.655385536415,0.737308728467,-0.163846384104,10.0,0.0,0.0,0.0,10.0,0.0,0.0,0.0,10.0
1446036991215043299,170,1446036991211424112,robocape_mag,-0.655385536415,0.737308728467,-0.163846384104,10.0,0.0,0.0,0.0,10.0,0.0,0.0,0.0,10.0
1446036991247837257,171,1446036991244513034,robocape_mag,-0.655385536415,0.737308728467,-0.163846384104,10.0,0.0,0.0,0.0,10.0,0.0,0.0,0.0,10.0
1446036991281055966,172,1446036991277636051,robocape_mag,-0.655385536415,0.737308728467,-0.163846384104,10.0,0.0,0.0,0.0,10.0,0.0,0.0,0.0,10.0
1446036991314799341,173,1446036991311321020,robocape_mag,-0.655385536415,0.737308728467,-0.163846384104,10.0,0.0,0.0,0.0,10.0,0.0,0.0,0.0,10.0
1446036991347805257,174,1446036991344384908,robocape_mag,0.0,0.099503719021,0.99503719021,10.0,0.0,0.0,0.0,10.0,0.0,0.0,0.0,10.0
1446036991381075632,175,1446036991377616882,robocape_mag,0.0,0.099503719021,0.99503719021,10.0,0.0,0.0,0.0,10.0,0.0,0.0,0.0,10.0
1446036991414962882,176,1446036991411556959,robocape_mag,0.0,0.099503719021,0.99503719021,10.0,0.0,0.0,0.0,10.0,0.0,0.0,0.0,10.0
1446036991447762924,177,1446036991444242000,robocape_mag,0.0,0.099503719021,0.99503719021,10.0,0.0,0.0,0.0,10.0,0.0,0.0,0.0,10.0
1446036991481073549,178,1446036991477653980,robocape_mag,0.512147519732,-0.384110639799,0.768221279597,10.0,0.0,0.0,0.0,10.0,0.0,0.0,0.0,10.0
1446036991515006591,179,1446036991511478900,robocape_mag,0.512147519732,-0.384110639799,0.768221279597,10.0,0.0,0.0,0.0,10.0,0.0,0.0,0.0,10.0
1446036991547651341,180,1446036991544374942,robocape_mag,0.512147519732,-0.384110639799,0.768221279597,10.0,0.0,0.0,0.0,10.0,0.0,0.0,0.0,10.0
1446036991581767132,181,1446036991578006982,robocape_mag,0.512147519732,-0.384110639799,0.768221279597,10.0,0.0,0.0,0.0,10.0,0.0,0.0,0.0,10.0
1446036991614959091,182,1446036991611502885,robocape_mag,0.512147519732,-0.384110639799,0.768221279597,10.0,0.0,0.0,0.0,10.0,0.0,0.0,0.0,10.0
1446036991648059591,183,1446036991644640922,robocape_mag,0.872871560944,0.218217890236,0.436435780472,10.0,0.0,0.0,0.0,10.0,0.0,0.0,0.0,10.0
1446036991680942049,184,1446036991677611112,robocape_mag,0.872871560944,0.218217890236,0.436435780472,10.0,0.0,0.0,0.0,10.0,0.0,0.0,0.0,10.0
1446036991714962257,185,1446036991711369037,robocape_mag,0.872871560944,0.218217890236,0.436435780472,10.0,0.0,0.0,0.0,10.0,0.0,0.0,0.0,10.0
1446036991747917674,186,1446036991744417905,robocape_mag,0.872871560944,0.218217890236,0.436435780472,10.0,0.0,0.0,0.0,10.0,0.0,0.0,0.0,10.0
1446036991780993591,187,1446036991777594089,robocape_mag,0.872871560944,0.218217890236,0.436435780472,10.0,0.0,0.0,0.0,10.0,0.0,0.0,0.0,10.0
1446036991815659508,188,1446036991811305046,robocape_mag,0.371390676354,-0.928476690885,0.0,10.0,0.0,0.0,0.0,10.0,0.0,0.0,0.0,10.0
1446036991847839008,189,1446036991844250917,robocape_mag,0.371390676354,-0.928476690885,0.0,10.0,0.0,0.0,0.0,10.0,0.0,0.0,0.0,10.0
1446036991881416049,190,1446036991877585887,robocape_mag,0.371390676354,-0.928476690885,0.0,10.0,0.0,0.0,0.0,10.0,0.0,0.0,0.0,10.0
1446036991914991966,191,1446036991911554098,robocape_mag,0.371390676354,-0.928476690885,0.0,10.0,0.0,0.0,0.0,10.0,0.0,0.0,0.0,10.0
1446036991947890299,192,1446036991944293022,robocape_mag,0.371390676354,-0.928476690885,0.0,10.0,0.0,0.0,0.0,10.0,0.0,0.0,0.0,10.0
1446036991981133216,193,1446036991977650880,robocape_mag,0.371390676354,0.557086014531,-0.742781352708,10.0,0.0,0.0,0.0,10.0,0.0,0.0,0.0,10.0
1446036992014642341,194,1446036992011219978,robocape_mag,0.371390676354,0.557086014531,-0.742781352708,10.0,0.0,0.0,0.0,10.0,0.0,0.0,0.0,10.0
1446036992047937758,195,1446036992044418096,robocape_mag,0.371390676354,0.557086014531,-0.742781352708,10.0,0.0,0.0,0.0,10.0,0.0,0.0,0.0,10.0
1446036992081510591,196,1446036992077611923,robocape_mag,0.371390676354,0.557086014531,-0.742781352708,10.0,0.0,0.0,0.0,10.0,0.0,0.0,0.0,10.0
1446036992114951466,197,1446036992111521959,robocape_mag,0.371390676354,0.557086014531,-0.742781352708,10.0,0.0,0.0,0.0,10.0,0.0,0.0,0.0,10.0
1446036992148073216,198,1446036992144543886,robocape_mag,-0.554700196225,0.832050294338,0.0,10.0,0.0,0.0,0.0,10.0,0.0,0.0,0.0,10.0
1446036992181328424,199,1446036992177603006,robocape_mag,-0.554700196225,0.832050294338,0.0,10.0,0.0,0.0,0.0,10.0,0.0,0.0,0.0,10.0
1446036992214891549,200,1446036992211414098,robocape_mag,-0.554700196225,0.832050294338,0.0,10.0,0.0,0.0,0.0,10.0,0.0,0.0,0.0,10.0
1446036992247888758,201,1446036992244333028,robocape_mag,-0.554700196225,0.832050294338,0.0,10.0,0.0,0.0,0.0,10.0,0.0,0.0,0.0,10.0
1446036992281080049,202,1446036992277586936,robocape_mag,0.0,0.4472135955,0.894427191,10.0,0.0,0.0,0.0,10.0,0.0,0.0,0.0,10.0
1446036992314492966,203,1446036992311124086,robocape_mag,0.0,0.4472135955,0.894427191,10.0,0.0,0.0,0.0,10.0,0.0,0.0,0.0,10.0
1446036992347971133,204,1446036992344337940,robocape_mag,0.0,0.4472135955,0.894427191,10.0,0.0,0.0,0.0,10.0,0.0,0.0,0.0,10.0
1446036992381073383,205,1446036992377518892,robocape_mag,0.0,0.4472135955,0.894427191,10.0,0.0,0.0,0.0,10.0,0.0,0.0,0.0,10.0
1446036992415007799,206,1446036992411581993,robocape_mag,0.0,0.4472135955,0.894427191,10.0,0.0,0.0,0.0,10.0,0.0,0.0,0.0,10.0
1446036992447841674,207,1446036992444262981,robocape_mag,-0.207390338946,-0.518475847365,0.829561355784,10.0,0.0,0.0,0.0,10.0,0.0,0.0,0.0,10.0
1446036992481195174,208,1446036992477646112,robocape_mag,-0.207390338946,-0.518475847365,0.829561355784,10.0,0.0,0.0,0.0,10.0,0.0,0.0,0.0,10.0
1446036992514938341,209,1446036992511512994,robocape_mag,-0.207390338946,-0.518475847365,0.829561355784,10.0,0.0,0.0,0.0,10.0,0.0,0.0,0.0,10.0
1446036992547733633,210,1446036992544403076,robocape_mag,-0.207390338946,-0.518475847365,0.829561355784,10.0,0.0,0.0,0.0,10.0,0.0,0.0,0.0,10.0
1446036992584458841,211,1446036992577613115,robocape_mag,-0.207390338946,-0.518475847365,0.829561355784,10.0,0.0,0.0,0.0,10.0,0.0,0.0,0.0,10.0
1446036992615039508,212,1446036992611459016,robocape_mag,0.0,-0.759256602365,-0.650791373456,10.0,0.0,0.0,0.0,10.0,0.0,0.0,0.0,10.0
1446036992648292050,213,1446036992644725084,robocape_mag,0.0,-0.759256602365,-0.650791373456,10.0,0.0,0.0,0.0,10.0,0.0,0.0,0.0,10.0
1446036992682619300,214,1446036992677659988,robocape_mag,0.0,-0.759256602365,-0.650791373456,10.0,0.0,0.0,0.0,10.0,0.0,0.0,0.0,10.0
1446036992714876883,215,1446036992711417913,robocape_mag,0.0,-0.759256602365,-0.650791373456,10.0,0.0,0.0,0.0,10.0,0.0,0.0,0.0,10.0
1446036992747685175,216,1446036992744313955,robocape_mag,0.0,-0.759256602365,-0.650791373456,10.0,0.0,0.0,0.0,10.0,0.0,0.0,0.0,10.0
1446036992780970716,217,1446036992777601003,robocape_mag,-0.311399577665,-0.544949260913,-0.778498944162,10.0,0.0,0.0,0.0,10.0,0.0,0.0,0.0,10.0
1446036992814861758,218,1446036992811314105,robocape_mag,-0.311399577665,-0.544949260913,-0.778498944162,10.0,0.0,0.0,0.0,10.0,0.0,0.0,0.0,10.0
1446036992847851675,219,1446036992844494104,robocape_mag,-0.311399577665,-0.544949260913,-0.778498944162,10.0,0.0,0.0,0.0,10.0,0.0,0.0,0.0,10.0
1446036992880923008,220,1446036992877619028,robocape_mag,-0.311399577665,-0.544949260913,-0.778498944162,10.0,0.0,0.0,0.0,10.0,0.0,0.0,0.0,10.0
1446036992914814258,221,1446036992911308050,robocape_mag,-0.311399577665,-0.544949260913,-0.778498944162,10.0,0.0,0.0,0.0,10.0,0.0,0.0,0.0,10.0
1446036992954850758,222,1446036992951478958,robocape_mag,0.0,0.099503719021,0.99503719021,10.0,0.0,0.0,0.0,10.0,0.0,0.0,0.0,10.0
1446036992980978550,223,1446036992977571010,robocape_mag,0.0,0.099503719021,0.99503719021,10.0,0.0,0.0,0.0,10.0,0.0,0.0,0.0,10.0
1446036993015119383,224,1446036993011521100,robocape_mag,0.0,0.099503719021,0.99503719021,10.0,0.0,0.0,0.0,10.0,0.0,0.0,0.0,10.0
1446036993047700841,225,1446036993044442892,robocape_mag,0.0,0.099503719021,0.99503719021,10.0,0.0,0.0,0.0,10.0,0.0,0.0,0.0,10.0
1446036993080855550,226,1446036993077617883,robocape_mag,0.683763458758,-0.569802882298,-0.455842305839,10.0,0.0,0.0,0.0,10.0,0.0,0.0,0.0,10.0
1446036993115194216,227,1446036993111403942,robocape_mag,0.683763458758,-0.569802882298,-0.455842305839,10.0,0.0,0.0,0.0,10.0,0.0,0.0,0.0,10.0
1446036993148596050,228,1446036993144963979,robocape_mag,0.683763458758,-0.569802882298,-0.455842305839,10.0,0.0,0.0,0.0,10.0,0.0,0.0,0.0,10.0
1446036993181020966,229,1446036993177628993,robocape_mag,0.683763458758,-0.569802882298,-0.455842305839,10.0,0.0,0.0,0.0,10.0,0.0,0.0,0.0,10.0
1446036993214890967,230,1446036993211227893,robocape_mag,0.683763458758,-0.569802882298,-0.455842305839,10.0,0.0,0.0,0.0,10.0,0.0,0.0,0.0,10.0
1446036993248048258,231,1446036993244498968,robocape_mag,0.396491160273,0.462573020319,0.792982320546,10.0,0.0,0.0,0.0,10.0,0.0,0.0,0.0,10.0
1446036993280927883,232,1446036993277602910,robocape_mag,0.396491160273,0.462573020319,0.792982320546,10.0,0.0,0.0,0.0,10.0,0.0,0.0,0.0,10.0
1446036993314821300,233,1446036993311180114,robocape_mag,0.396491160273,0.462573020319,0.792982320546,10.0,0.0,0.0,0.0,10.0,0.0,0.0,0.0,10.0
1446036993348067217,234,1446036993344650983,robocape_mag,0.396491160273,0.462573020319,0.792982320546,10.0,0.0,0.0,0.0,10.0,0.0,0.0,0.0,10.0
1446036993381163300,235,1446036993377831935,robocape_mag,0.396491160273,0.462573020319,0.792982320546,10.0,0.0,0.0,0.0,10.0,0.0,0.0,0.0,10.0
1446036993414783300,236,1446036993411140918,robocape_mag,0.445976487748,-0.0743294146247,-0.891952975497,10.0,0.0,0.0,0.0,10.0,0.0,0.0,0.0,10.0
1446036993447694967,237,1446036993444248914,robocape_mag,0.445976487748,-0.0743294146247,-0.891952975497,10.0,0.0,0.0,0.0,10.0,0.0,0.0,0.0,10.0
1446036993481124175,238,1446036993477690935,robocape_mag,0.445976487748,-0.0743294146247,-0.891952975497,10.0,0.0,0.0,0.0,10.0,0.0,0.0,0.0,10.0
1446036993514987758,239,1446036993511023044,robocape_mag,0.445976487748,-0.0743294146247,-0.891952975497,10.0,0.0,0.0,0.0,10.0,0.0,0.0,0.0,10.0
1446036993548094758,240,1446036993544634103,robocape_mag,0.445976487748,-0.0743294146247,-0.891952975497,10.0,0.0,0.0,0.0,10.0,0.0,0.0,0.0,10.0
1446036993580862175,241,1446036993577593088,robocape_mag,-0.963086824686,0.120385853086,0.240771706172,10.0,0.0,0.0,0.0,10.0,0.0,0.0,0.0,10.0
1446036993615438925,242,1446036993611299037,robocape_mag,-0.963086824686,0.120385853086,0.240771706172,10.0,0.0,0.0,0.0,10.0,0.0,0.0,0.0,10.0
1446036993648503258,243,1446036993644576072,robocape_mag,-0.963086824686,0.120385853086,0.240771706172,10.0,0.0,0.0,0.0,10.0,0.0,0.0,0.0,10.0
1446036993680892883,244,1446036993677594900,robocape_mag,-0.963086824686,0.120385853086,0.240771706172,10.0,0.0,0.0,0.0,10.0,0.0,0.0,0.0,10.0
1446036993714912967,245,1446036993710901975,robocape_mag,-0.963086824686,0.120385853086,0.240771706172,10.0,0.0,0.0,0.0,10.0,0.0,0.0,0.0,10.0
1446036993748090425,246,1446036993744496107,robocape_mag,-0.456171552762,0.836314513397,0.304114368508,10.0,0.0,0.0,0.0,10.0,0.0,0.0,0.0,10.0
1446036993780937967,247,1446036993777596950,robocape_mag,-0.456171552762,0.836314513397,0.304114368508,10.0,0.0,0.0,0.0,10.0,0.0,0.0,0.0,10.0
1446036993814838175,248,1446036993810955047,robocape_mag,-0.456171552762,0.836314513397,0.304114368508,10.0,0.0,0.0,0.0,10.0,0.0,0.0,0.0,10.0
1446036993848048508,249,1446036993844639062,robocape_mag,-0.456171552762,0.836314513397,0.304114368508,10.0,0.0,0.0,0.0,10.0,0.0,0.0,0.0,10.0
1446036993880905509,250,1446036993877590894,robocape_mag,0.742781352708,-0.557086014531,0.371390676354,10.0,0.0,0.0,0.0,10.0,0.0,0.0,0.0,10.0
1446036993914892092,251,1446036993910999059,robocape_mag,0.742781352708,-0.557086014531,0.371390676354,10.0,0.0,0.0,0.0,10.0,0.0,0.0,0.0,10.0
1446036993947839884,252,1446036993944428920,robocape_mag,0.742781352708,-0.557086014531,0.371390676354,10.0,0.0,0.0,0.0,10.0,0.0,0.0,0.0,10.0
1446036993981376592,253,1446036993977982997,robocape_mag,0.742781352708,-0.557086014531,0.371390676354,10.0,0.0,0.0,0.0,10.0,0.0,0.0,0.0,10.0
1446036994014724009,254,1446036994010878086,robocape_mag,0.742781352708,-0.557086014531,0.371390676354,10.0,0.0,0.0,0.0,10.0,0.0,0.0,0.0,10.0
1446036994047691009,255,1446036994044373989,robocape_mag,-0.240771706172,-0.120385853086,0.963086824686,10.0,0.0,0.0,0.0,10.0,0.0,0.0,0.0,10.0
1446036994080950217,256,1446036994077601909,robocape_mag,-0.240771706172,-0.120385853086,0.963086824686,10.0,0.0,0.0,0.0,10.0,0.0,0.0,0.0,10.0
1446036994114210175,257,1446036994110893964,robocape_mag,-0.240771706172,-0.120385853086,0.963086824686,10.0,0.0,0.0,0.0,10.0,0.0,0.0,0.0,10.0
1446036994148206800,258,1446036994144581079,robocape_mag,-0.240771706172,-0.120385853086,0.963086824686,10.0,0.0,0.0,0.0,10.0,0.0,0.0,0.0,10.0
1446036994181213759,259,1446036994177675962,robocape_mag,-0.240771706172,-0.120385853086,0.963086824686,10.0,0.0,0.0,0.0,10.0,0.0,0.0,0.0,10.0
1446036994214175675,260,1446036994210920095,robocape_mag,-0.829561355784,0.518475847365,0.207390338946,10.0,0.0,0.0,0.0,10.0,0.0,0.0,0.0,10.0
1446036994248284925,261,1446036994244749069,robocape_mag,-0.829561355784,0.518475847365,0.207390338946,10.0,0.0,0.0,0.0,10.0,0.0,0.0,0.0,10.0
1446036994281213134,262,1446036994277776002,robocape_mag,-0.829561355784,0.518475847365,0.207390338946,10.0,0.0,0.0,0.0,10.0,0.0,0.0,0.0,10.0
1446036994314179675,263,1446036994310895919,robocape_mag,-0.829561355784,0.518475847365,0.207390338946,10.0,0.0,0.0,0.0,10.0,0.0,0.0,0.0,10.0
1446036994347843134,264,1446036994344368934,robocape_mag,-0.829561355784,0.518475847365,0.207390338946,10.0,0.0,0.0,0.0,10.0,0.0,0.0,0.0,10.0
1446036994381107550,265,1446036994377651929,robocape_mag,0.742781352708,-0.557086014531,-0.371390676354,10.0,0.0,0.0,0.0,10.0,0.0,0.0,0.0,10.0
1446036994414330550,266,1446036994410949945,robocape_mag,0.742781352708,-0.557086014531,-0.371390676354,10.0,0.0,0.0,0.0,10.0,0.0,0.0,0.0,10.0
1446036994447798509,267,1446036994444353103,robocape_mag,0.742781352708,-0.557086014531,-0.371390676354,10.0,0.0,0.0,0.0,10.0,0.0,0.0,0.0,10.0
1446036994481129967,268,1446036994477663993,robocape_mag,0.742781352708,-0.557086014531,-0.371390676354,10.0,0.0,0.0,0.0,10.0,0.0,0.0,0.0,10.0
1446036994514578384,269,1446036994511075019,robocape_mag,0.742781352708,-0.557086014531,-0.371390676354,10.0,0.0,0.0,0.0,10.0,0.0,0.0,0.0,10.0
1446036994547918592,270,1446036994544471979,robocape_mag,-0.597022314126,-0.099503719021,0.796029752168,10.0,0.0,0.0,0.0,10.0,0.0,0.0,0.0,10.0
1446036994586263509,271,1446036994582449913,robocape_mag,-0.597022314126,-0.099503719021,0.796029752168,10.0,0.0,0.0,0.0,10.0,0.0,0.0,0.0,10.0
1446036994614346717,272,1446036994611104011,robocape_mag,-0.597022314126,-0.099503719021,0.796029752168,10.0,0.0,0.0,0.0,10.0,0.0,0.0,0.0,10.0
1446036994648003884,273,1446036994644596099,robocape_mag,-0.597022314126,-0.099503719021,0.796029752168,10.0,0.0,0.0,0.0,10.0,0.0,0.0,0.0,10.0
1446036994680962176,274,1446036994677599906,robocape_mag,0.596284794,0.7453559925,0.298142397,10.0,0.0,0.0,0.0,10.0,0.0,0.0,0.0,10.0
1446036994714150884,275,1446036994710913896,robocape_mag,0.596284794,0.7453559925,0.298142397,10.0,0.0,0.0,0.0,10.0,0.0,0.0,0.0,10.0
1446036994747822884,276,1446036994744422912,robocape_mag,0.596284794,0.7453559925,0.298142397,10.0,0.0,0.0,0.0,10.0,0.0,0.0,0.0,10.0
1446036994781360467,277,1446036994777791023,robocape_mag,0.596284794,0.7453559925,0.298142397,10.0,0.0,0.0,0.0,10.0,0.0,0.0,0.0,10.0
1446036994814230217,278,1446036994810933113,robocape_mag,0.596284794,0.7453559925,0.298142397,10.0,0.0,0.0,0.0,10.0,0.0,0.0,0.0,10.0
1446036994847805842,279,1446036994844404935,robocape_mag,-0.963086824686,0.120385853086,-0.240771706172,10.0,0.0,0.0,0.0,10.0,0.0,0.0,0.0,10.0
1446036994880956634,280,1446036994877563953,robocape_mag,-0.963086824686,0.120385853086,-0.240771706172,10.0,0.0,0.0,0.0,10.0,0.0,0.0,0.0,10.0
1446036994914241717,281,1446036994910897970,robocape_mag,-0.963086824686,0.120385853086,-0.240771706172,10.0,0.0,0.0,0.0,10.0,0.0,0.0,0.0,10.0
1446036994947798176,282,1446036994944375991,robocape_mag,-0.963086824686,0.120385853086,-0.240771706172,10.0,0.0,0.0,0.0,10.0,0.0,0.0,0.0,10.0
1446036994981045467,283,1446036994977663040,robocape_mag,-0.963086824686,0.120385853086,-0.240771706172,10.0,0.0,0.0,0.0,10.0,0.0,0.0,0.0,10.0
1446036995014340217,284,1446036995010886907,robocape_mag,0.163846384104,-0.0819231920519,0.983078304623,10.0,0.0,0.0,0.0,10.0,0.0,0.0,0.0,10.0
1446036995047709884,285,1446036995044390916,robocape_mag,0.163846384104,-0.0819231920519,0.983078304623,10.0,0.0,0.0,0.0,10.0,0.0,0.0,0.0,10.0
1446036995080930051,286,1446036995077591896,robocape_mag,0.163846384104,-0.0819231920519,0.983078304623,10.0,0.0,0.0,0.0,10.0,0.0,0.0,0.0,10.0
1446036995114165926,287,1446036995110884904,robocape_mag,0.163846384104,-0.0819231920519,0.983078304623,10.0,0.0,0.0,0.0,10.0,0.0,0.0,0.0,10.0
1446036995148195342,288,1446036995144583940,robocape_mag,0.163846384104,-0.0819231920519,0.983078304623,10.0,0.0,0.0,0.0,10.0,0.0,0.0,0.0,10.0
1446036995180830884,289,1446036995177520036,robocape_mag,0.894427191,-0.4472135955,0.0,10.0,0.0,0.0,0.0,10.0,0.0,0.0,0.0,10.0
1446036995214108717,290,1446036995210892915,robocape_mag,0.894427191,-0.4472135955,0.0,10.0,0.0,0.0,0.0,10.0,0.0,0.0,0.0,10.0
1446036995247918509,291,1446036995244352102,robocape_mag,0.894427191,-0.4472135955,0.0,10.0,0.0,0.0,0.0,10.0,0.0,0.0,0.0,10.0
1446036995281253884,292,1446036995277668952,robocape_mag,0.894427191,-0.4472135955,0.0,10.0,0.0,0.0,0.0,10.0,0.0,0.0,0.0,10.0
1446036995314200343,293,1446036995310899972,robocape_mag,0.894427191,-0.4472135955,0.0,10.0,0.0,0.0,0.0,10.0,0.0,0.0,0.0,10.0
1446036995347834759,294,1446036995344341039,robocape_mag,0.894427191,0.2683281573,0.3577708764,10.0,0.0,0.0,0.0,10.0,0.0,0.0,0.0,10.0
1446036995381177218,295,1446036995377796888,robocape_mag,0.894427191,0.2683281573,0.3577708764,10.0,0.0,0.0,0.0,10.0,0.0,0.0,0.0,10.0
1446036995415351884,296,1446036995410950899,robocape_mag,0.894427191,0.2683281573,0.3577708764,10.0,0.0,0.0,0.0,10.0,0.0,0.0,0.0,10.0
1446036995447749926,297,1446036995444304943,robocape_mag,0.894427191,0.2683281573,0.3577708764,10.0,0.0,0.0,0.0,10.0,0.0,0.0,0.0,10.0
1446036995481087801,298,1446036995477636098,robocape_mag,-0.445976487748,-0.0743294146247,0.891952975497,10.0,0.0,0.0,0.0,10.0,0.0,0.0,0.0,10.0
1446036995514627218,299,1446036995511192083,robocape_mag,-0.445976487748,-0.0743294146247,0.891952975497,10.0,0.0,0.0,0.0,10.0,0.0,0.0,0.0,10.0
1446036995547857718,300,1446036995544495105,robocape_mag,-0.445976487748,-0.0743294146247,0.891952975497,10.0,0.0,0.0,0.0,10.0,0.0,0.0,0.0,10.0
1446036995580911759,301,1446036995577585935,robocape_mag,-0.445976487748,-0.0743294146247,0.891952975497,10.0,0.0,0.0,0.0,10.0,0.0,0.0,0.0,10.0
1446036995614225176,302,1446036995610994100,robocape_mag,-0.445976487748,-0.0743294146247,0.891952975497,10.0,0.0,0.0,0.0,10.0,0.0,0.0,0.0,10.0
1446036995648404259,303,1446036995644767999,robocape_mag,0.0,0.099503719021,0.99503719021,10.0,0.0,0.0,0.0,10.0,0.0,0.0,0.0,10.0
1446036995680806843,304,1446036995677531003,robocape_mag,0.0,0.099503719021,0.99503719021,10.0,0.0,0.0,0.0,10.0,0.0,0.0,0.0,10.0
1446036995714106176,305,1446036995710884094,robocape_mag,0.0,0.099503719021,0.99503719021,10.0,0.0,0.0,0.0,10.0,0.0,0.0,0.0,10.0
1446036995747941218,306,1446036995744462966,robocape_mag,0.0,0.099503719021,0.99503719021,10.0,0.0,0.0,0.0,10.0,0.0,0.0,0.0,10.0
1446036995781276093,307,1446036995777580976,robocape_mag,0.0,0.099503719021,0.99503719021,10.0,0.0,0.0,0.0,10.0,0.0,0.0,0.0,10.0
1446036995814261301,308,1446036995810945987,robocape_mag,-0.163846384104,-0.0819231920519,-0.983078304623,10.0,0.0,0.0,0.0,10.0,0.0,0.0,0.0,10.0
1446036995850903593,309,1446036995847377061,robocape_mag,-0.163846384104,-0.0819231920519,-0.983078304623,10.0,0.0,0.0,0.0,10.0,0.0,0.0,0.0,10.0
1446036995880908468,310,1446036995877516031,robocape_mag,-0.163846384104,-0.0819231920519,-0.983078304623,10.0,0.0,0.0,0.0,10.0,0.0,0.0,0.0,10.0
1446036995914264801,311,1446036995910934925,robocape_mag,-0.163846384104,-0.0819231920519,-0.983078304623,10.0,0.0,0.0,0.0,10.0,0.0,0.0,0.0,10.0
1446036995948097176,312,1446036995944406986,robocape_mag,-0.163846384104,-0.0819231920519,-0.983078304623,10.0,0.0,0.0,0.0,10.0,0.0,0.0,0.0,10.0
1446036995981143676,313,1446036995977643013,robocape_mag,0.284988199952,0.641223449891,0.712470499879,10.0,0.0,0.0,0.0,10.0,0.0,0.0,0.0,10.0
1446036996014249468,314,1446036996010898113,robocape_mag,0.284988199952,0.641223449891,0.712470499879,10.0,0.0,0.0,0.0,10.0,0.0,0.0,0.0,10.0
1446036996048625176,315,1446036996044795036,robocape_mag,0.284988199952,0.641223449891,0.712470499879,10.0,0.0,0.0,0.0,10.0,0.0,0.0,0.0,10.0
1446036996081064885,316,1446036996077737092,robocape_mag,0.284988199952,0.641223449891,0.712470499879,10.0,0.0,0.0,0.0,10.0,0.0,0.0,0.0,10.0
1446036996114162718,317,1446036996110902070,robocape_mag,0.284988199952,0.641223449891,0.712470499879,10.0,0.0,0.0,0.0,10.0,0.0,0.0,0.0,10.0
1446036996148711718,318,1446036996144831895,robocape_mag,-0.894427191,-0.4472135955,0.0,10.0,0.0,0.0,0.0,10.0,0.0,0.0,0.0,10.0
1446036996181249426,319,1446036996177792072,robocape_mag,-0.894427191,-0.4472135955,0.0,10.0,0.0,0.0,0.0,10.0,0.0,0.0,0.0,10.0
1446036996215052176,320,1446036996211602926,robocape_mag,-0.894427191,-0.4472135955,0.0,10.0,0.0,0.0,0.0,10.0,0.0,0.0,0.0,10.0
1446036996248055093,321,1446036996244533061,robocape_mag,-0.894427191,-0.4472135955,0.0,10.0,0.0,0.0,0.0,10.0,0.0,0.0,0.0,10.0
1446036996281127343,322,1446036996277689933,robocape_mag,-0.894427191,-0.4472135955,0.0,10.0,0.0,0.0,0.0,10.0,0.0,0.0,0.0,10.0
1446036996314372760,323,1446036996310940980,robocape_mag,0.986393923832,-0.164398987305,0.0,10.0,0.0,0.0,0.0,10.0,0.0,0.0,0.0,10.0
1446036996348157176,324,1446036996344636917,robocape_mag,0.986393923832,-0.164398987305,0.0,10.0,0.0,0.0,0.0,10.0,0.0,0.0,0.0,10.0
1446036996381095385,325,1446036996377688884,robocape_mag,0.986393923832,-0.164398987305,0.0,10.0,0.0,0.0,0.0,10.0,0.0,0.0,0.0,10.0
1446036996414716093,326,1446036996411183118,robocape_mag,0.986393923832,-0.164398987305,0.0,10.0,0.0,0.0,0.0,10.0,0.0,0.0,0.0,10.0
1446036996447908051,327,1446036996444555044,robocape_mag,0.274721127897,0.961523947641,0.0,10.0,0.0,0.0,0.0,10.0,0.0,0.0,0.0,10.0
1446036996480942260,328,1446036996477586030,robocape_mag,0.274721127897,0.961523947641,0.0,10.0,0.0,0.0,0.0,10.0,0.0,0.0,0.0,10.0
1446036996514673135,329,1446036996511151075,robocape_mag,0.274721127897,0.961523947641,0.0,10.0,0.0,0.0,0.0,10.0,0.0,0.0,0.0,10.0
1446036996548089801,330,1446036996544689893,robocape_mag,0.274721127897,0.961523947641,0.0,10.0,0.0,0.0,0.0,10.0,0.0,0.0,0.0,10.0
1446036996581040635,331,1446036996577739953,robocape_mag,0.274721127897,0.961523947641,0.0,10.0,0.0,0.0,0.0,10.0,0.0,0.0,0.0,10.0
1446036996614286968,332,1446036996610928058,robocape_mag,0.0,0.976187060184,-0.216930457819,10.0,0.0,0.0,0.0,10.0,0.0,0.0,0.0,10.0
1446036996648605843,333,1446036996644993066,robocape_mag,0.0,0.976187060184,-0.216930457819,10.0,0.0,0.0,0.0,10.0,0.0,0.0,0.0,10.0
1446036996680914177,334,1446036996677671909,robocape_mag,0.0,0.976187060184,-0.216930457819,10.0,0.0,0.0,0.0,10.0,0.0,0.0,0.0,10.0
1446036996714660218,335,1446036996710902929,robocape_mag,0.0,0.976187060184,-0.216930457819,10.0,0.0,0.0,0.0,10.0,0.0,0.0,0.0,10.0
1446036996747856302,336,1446036996744357109,robocape_mag,0.0,0.976187060184,-0.216930457819,10.0,0.0,0.0,0.0,10.0,0.0,0.0,0.0,10.0
1446036996781006177,337,1446036996777626991,robocape_mag,0.0,0.4472135955,0.894427191,10.0,0.0,0.0,0.0,10.0,0.0,0.0,0.0,10.0
1446036996814490093,338,1446036996810986995,robocape_mag,0.0,0.4472135955,0.894427191,10.0,0.0,0.0,0.0,10.0,0.0,0.0,0.0,10.0
1446036996847943385,339,1446036996844470977,robocape_mag,0.0,0.4472135955,0.894427191,10.0,0.0,0.0,0.0,10.0,0.0,0.0,0.0,10.0
1446036996881113677,340,1446036996877794027,robocape_mag,0.0,0.4472135955,0.894427191,10.0,0.0,0.0,0.0,10.0,0.0,0.0,0.0,10.0
1446036996914378385,341,1446036996910943031,robocape_mag,0.0,0.4472135955,0.894427191,10.0,0.0,0.0,0.0,10.0,0.0,0.0,0.0,10.0
1446036996948182635,342,1446036996944670915,robocape_mag,0.0,0.4472135955,0.894427191,10.0,0.0,0.0,0.0,10.0,0.0,0.0,0.0,10.0
1446036996981270052,343,1446036996977956056,robocape_mag,0.0,0.4472135955,0.894427191,10.0,0.0,0.0,0.0,10.0,0.0,0.0,0.0,10.0
1446036997014340927,344,1446036997010893106,robocape_mag,0.0,0.4472135955,0.894427191,10.0,0.0,0.0,0.0,10.0,0.0,0.0,0.0,10.0
1446036997047995093,345,1446036997044462919,robocape_mag,0.0,0.4472135955,0.894427191,10.0,0.0,0.0,0.0,10.0,0.0,0.0,0.0,10.0
1446036997080933427,346,1446036997077686071,robocape_mag,0.0,0.808736084303,0.588171697675,10.0,0.0,0.0,0.0,10.0,0.0,0.0,0.0,10.0
1446036997114120510,347,1446036997110891103,robocape_mag,-0.592348877759,0.651583765535,0.473879102207,10.0,0.0,0.0,0.0,10.0,0.0,0.0,0.0,10.0
1446036997148346052,348,1446036997144782066,robocape_mag,-0.592348877759,0.651583765535,0.473879102207,10.0,0.0,0.0,0.0,10.0,0.0,0.0,0.0,10.0
1446036997180928968,349,1446036997177660942,robocape_mag,-0.592348877759,0.651583765535,0.473879102207,10.0,0.0,0.0,0.0,10.0,0.0,0.0,0.0,10.0
1446036997214158760,350,1446036997210889101,robocape_mag,-0.592348877759,0.651583765535,0.473879102207,10.0,0.0,0.0,0.0,10.0,0.0,0.0,0.0,10.0
1446036997248274510,351,1446036997244759082,robocape_mag,0.436435780472,-0.218217890236,0.872871560944,10.0,0.0,0.0,0.0,10.0,0.0,0.0,0.0,10.0
1446036997281289427,352,1446036997277844905,robocape_mag,0.436435780472,-0.218217890236,0.872871560944,10.0,0.0,0.0,0.0,10.0,0.0,0.0,0.0,10.0
1446036997314263010,353,1446036997310895919,robocape_mag,0.436435780472,-0.218217890236,0.872871560944,10.0,0.0,0.0,0.0,10.0,0.0,0.0,0.0,10.0
1446036997347876885,354,1446036997344444036,robocape_mag,0.436435780472,-0.218217890236,0.872871560944,10.0,0.0,0.0,0.0,10.0,0.0,0.0,0.0,10.0
1446036997381201719,355,1446036997377859115,robocape_mag,0.436435780472,-0.218217890236,0.872871560944,10.0,0.0,0.0,0.0,10.0,0.0,0.0,0.0,10.0
1446036997414287760,356,1446036997410953998,robocape_mag,0.227921152919,0.341881729379,0.911684611677,10.0,0.0,0.0,0.0,10.0,0.0,0.0,0.0,10.0
1446036997448002010,357,1446036997444535017,robocape_mag,0.227921152919,0.341881729379,0.911684611677,10.0,0.0,0.0,0.0,10.0,0.0,0.0,0.0,10.0
1446036997481056052,358,1446036997477716922,robocape_mag,0.227921152919,0.341881729379,0.911684611677,10.0,0.0,0.0,0.0,10.0,0.0,0.0,0.0,10.0
1446036997514504594,359,1446036997511079072,robocape_mag,0.227921152919,0.341881729379,0.911684611677,10.0,0.0,0.0,0.0,10.0,0.0,0.0,0.0,10.0
1446036997548102302,360,1446036997544670104,robocape_mag,0.227921152919,0.341881729379,0.911684611677,10.0,0.0,0.0,0.0,10.0,0.0,0.0,0.0,10.0
1446036997581060094,361,1446036997577686071,robocape_mag,0.512147519732,-0.384110639799,-0.768221279597,10.0,0.0,0.0,0.0,10.0,0.0,0.0,0.0,10.0
1446036997614111969,362,1446036997610867023,robocape_mag,0.512147519732,-0.384110639799,-0.768221279597,10.0,0.0,0.0,0.0,10.0,0.0,0.0,0.0,10.0
1446036997648241969,363,1446036997644751071,robocape_mag,0.512147519732,-0.384110639799,-0.768221279597,10.0,0.0,0.0,0.0,10.0,0.0,0.0,0.0,10.0
1446036997680917885,364,1446036997677660942,robocape_mag,0.512147519732,-0.384110639799,-0.768221279597,10.0,0.0,0.0,0.0,10.0,0.0,0.0,0.0,10.0
1446036997714235677,365,1446036997710997104,robocape_mag,0.512147519732,-0.384110639799,-0.768221279597,10.0,0.0,0.0,0.0,10.0,0.0,0.0,0.0,10.0
1446036997748127719,366,1446036997744599103,robocape_mag,0.963086824686,0.120385853086,0.240771706172,10.0,0.0,0.0,0.0,10.0,0.0,0.0,0.0,10.0
1446036997781519969,367,1446036997778065919,robocape_mag,0.963086824686,0.120385853086,0.240771706172,10.0,0.0,0.0,0.0,10.0,0.0,0.0,0.0,10.0
1446036997814324885,368,1446036997810934066,robocape_mag,0.963086824686,0.120385853086,0.240771706172,10.0,0.0,0.0,0.0,10.0,0.0,0.0,0.0,10.0
1446036997848012385,369,1446036997844528913,robocape_mag,0.963086824686,0.120385853086,0.240771706172,10.0,0.0,0.0,0.0,10.0,0.0,0.0,0.0,10.0
1446036997881185552,370,1446036997877737045,robocape_mag,0.752576694707,0.658504607869,0.0,10.0,0.0,0.0,0.0,10.0,0.0,0.0,0.0,10.0
1446036997925366260,371,1446036997921859979,robocape_mag,0.274721127897,0.961523947641,0.0,10.0,0.0,0.0,0.0,10.0,0.0,0.0,0.0,10.0
1446036997947712427,372,1446036997944331884,robocape_mag,0.274721127897,0.961523947641,0.0,10.0,0.0,0.0,0.0,10.0,0.0,0.0,0.0,10.0
1446036997981156927,373,1446036997977719068,robocape_mag,0.274721127897,0.961523947641,0.0,10.0,0.0,0.0,0.0,10.0,0.0,0.0,0.0,10.0
1446036998014241427,374,1446036998010915040,robocape_mag,0.274721127897,0.961523947641,0.0,10.0,0.0,0.0,0.0,10.0,0.0,0.0,0.0,10.0
1446036998048081927,375,1446036998044704914,robocape_mag,0.0,-0.832050294338,-0.554700196225,10.0,0.0,0.0,0.0,10.0,0.0,0.0,0.0,10.0
1446036998081047552,376,1446036998077666044,robocape_mag,0.0,-0.832050294338,-0.554700196225,10.0,0.0,0.0,0.0,10.0,0.0,0.0,0.0,10.0
1446036998114142677,377,1446036998110893964,robocape_mag,0.0,-0.832050294338,-0.554700196225,10.0,0.0,0.0,0.0,10.0,0.0,0.0,0.0,10.0
1446036998148187719,378,1446036998144730091,robocape_mag,0.0,-0.832050294338,-0.554700196225,10.0,0.0,0.0,0.0,10.0,0.0,0.0,0.0,10.0
1446036998180953552,379,1446036998177676916,robocape_mag,0.0,-0.832050294338,-0.554700196225,10.0,0.0,0.0,0.0,10.0,0.0,0.0,0.0,10.0
1446036998215261636,380,1446036998211764097,robocape_mag,-0.912636227814,-0.0507020126563,0.405616101251,10.0,0.0,0.0,0.0,10.0,0.0,0.0,0.0,10.0
1446036998248534261,381,1446036998245027065,robocape_mag,-0.912636227814,-0.0507020126563,0.405616101251,10.0,0.0,0.0,0.0,10.0,0.0,0.0,0.0,10.0
1446036998281074219,382,1446036998277750968,robocape_mag,-0.912636227814,-0.0507020126563,0.405616101251,10.0,0.0,0.0,0.0,10.0,0.0,0.0,0.0,10.0
1446036998314328427,383,1446036998310902118,robocape_mag,-0.912636227814,-0.0507020126563,0.405616101251,10.0,0.0,0.0,0.0,10.0,0.0,0.0,0.0,10.0
1446036998348248427,384,1446036998344651937,robocape_mag,-0.912636227814,-0.0507020126563,0.405616101251,10.0,0.0,0.0,0.0,10.0,0.0,0.0,0.0,10.0
1446036998381299427,385,1446036998377911090,robocape_mag,0.0,0.4472135955,-0.894427191,10.0,0.0,0.0,0.0,10.0,0.0,0.0,0.0,10.0
1446036998414779302,386,1446036998411190986,robocape_mag,0.0,0.4472135955,-0.894427191,10.0,0.0,0.0,0.0,10.0,0.0,0.0,0.0,10.0
1446036998448066427,387,1446036998444534063,robocape_mag,0.0,0.4472135955,-0.894427191,10.0,0.0,0.0,0.0,10.0,0.0,0.0,0.0,10.0
1446036998481000844,388,1446036998477643966,robocape_mag,0.0,0.4472135955,-0.894427191,10.0,0.0,0.0,0.0,10.0,0.0,0.0,0.0,10.0
1446036998514637886,389,1446036998511177062,robocape_mag,0.0,0.4472135955,-0.894427191,10.0,0.0,0.0,0.0,10.0,0.0,0.0,0.0,10.0
1446036998548221427,390,1446036998544738054,robocape_mag,-0.538138235197,-0.739940073396,0.403603676398,10.0,0.0,0.0,0.0,10.0,0.0,0.0,0.0,10.0
1446036998581003802,391,1446036998577613115,robocape_mag,-0.538138235197,-0.739940073396,0.403603676398,10.0,0.0,0.0,0.0,10.0,0.0,0.0,0.0,10.0
1446036998614233261,392,1446036998610985994,robocape_mag,-0.538138235197,-0.739940073396,0.403603676398,10.0,0.0,0.0,0.0,10.0,0.0,0.0,0.0,10.0
1446036998648631844,393,1446036998644959926,robocape_mag,-0.538138235197,-0.739940073396,0.403603676398,10.0,0.0,0.0,0.0,10.0,0.0,0.0,0.0,10.0
1446036998683114261,394,1446036998679721117,robocape_mag,-0.792982320546,0.59473674041,0.132163720091,10.0,0.0,0.0,0.0,10.0,0.0,0.0,0.0,10.0
1446036998714141469,395,1446036998710925102,robocape_mag,-0.792982320546,0.59473674041,0.132163720091,10.0,0.0,0.0,0.0,10.0,0.0,0.0,0.0,10.0
1446036998748254177,396,1446036998744692087,robocape_mag,-0.792982320546,0.59473674041,0.132163720091,10.0,0.0,0.0,0.0,10.0,0.0,0.0,0.0,10.0
1446036998781164428,397,1446036998777810096,robocape_mag,-0.792982320546,0.59473674041,0.132163720091,10.0,0.0,0.0,0.0,10.0,0.0,0.0,0.0,10.0
1446036998814242928,398,1446036998810899019,robocape_mag,-0.792982320546,0.59473674041,0.132163720091,10.0,0.0,0.0,0.0,10.0,0.0,0.0,0.0,10.0
1446036998848234928,399,1446036998844588994,robocape_mag,-0.894427191,-0.4472135955,0.0,10.0,0.0,0.0,0.0,10.0,0.0,0.0,0.0,10.0
1446036998881094136,400,1446036998877743959,robocape_mag,-0.894427191,-0.4472135955,0.0,10.0,0.0,0.0,0.0,10.0,0.0,0.0,0.0,10.0
1446036998914782219,401,1446036998911062955,robocape_mag,-0.894427191,-0.4472135955,0.0,10.0,0.0,0.0,0.0,10.0,0.0,0.0,0.0,10.0
1446036998948418094,402,1446036998944677114,robocape_mag,-0.894427191,-0.4472135955,0.0,10.0,0.0,0.0,0.0,10.0,0.0,0.0,0.0,10.0
1446036998981099803,403,1446036998977725982,robocape_mag,-0.894427191,-0.4472135955,0.0,10.0,0.0,0.0,0.0,10.0,0.0,0.0,0.0,10.0
1446036999014352928,404,1446036999010911941,robocape_mag,0.894427191,-0.4472135955,0.0,10.0,0.0,0.0,0.0,10.0,0.0,0.0,0.0,10.0
1446036999048299303,405,1446036999044790029,robocape_mag,0.894427191,-0.4472135955,0.0,10.0,0.0,0.0,0.0,10.0,0.0,0.0,0.0,10.0
1446036999081092219,406,1446036999077728986,robocape_mag,0.894427191,-0.4472135955,0.0,10.0,0.0,0.0,0.0,10.0,0.0,0.0,0.0,10.0
1446036999114414178,407,1446036999111006975,robocape_mag,0.894427191,-0.4472135955,0.0,10.0,0.0,0.0,0.0,10.0,0.0,0.0,0.0,10.0
1446036999148617969,408,1446036999144712924,robocape_mag,0.894427191,-0.4472135955,0.0,10.0,0.0,0.0,0.0,10.0,0.0,0.0,0.0,10.0
1446036999181229386,409,1446036999177875995,robocape_mag,0.606407314554,-0.389833273642,-0.693036930919,10.0,0.0,0.0,0.0,10.0,0.0,0.0,0.0,10.0
1446036999214478303,410,1446036999210952043,robocape_mag,0.606407314554,-0.389833273642,-0.693036930919,10.0,0.0,0.0,0.0,10.0,0.0,0.0,0.0,10.0
1446036999248267636,411,1446036999244667053,robocape_mag,0.606407314554,-0.389833273642,-0.693036930919,10.0,0.0,0.0,0.0,10.0,0.0,0.0,0.0,10.0
1446036999281196011,412,1446036999277777910,robocape_mag,0.606407314554,-0.389833273642,-0.693036930919,10.0,0.0,0.0,0.0,10.0,0.0,0.0,0.0,10.0
1446036999315234636,413,1446036999311639070,robocape_mag,0.606407314554,-0.389833273642,-0.693036930919,10.0,0.0,0.0,0.0,10.0,0.0,0.0,0.0,10.0
1446036999348361428,414,1446036999344782114,robocape_mag,-0.911684611677,-0.341881729379,0.227921152919,10.0,0.0,0.0,0.0,10.0,0.0,0.0,0.0,10.0
1446036999381294928,415,1446036999377935886,robocape_mag,-0.911684611677,-0.341881729379,0.227921152919,10.0,0.0,0.0,0.0,10.0,0.0,0.0,0.0,10.0
1446036999414848469,416,1446036999411189079,robocape_mag,-0.911684611677,-0.341881729379,0.227921152919,10.0,0.0,0.0,0.0,10.0,0.0,0.0,0.0,10.0
1446036999448457719,417,1446036999444983959,robocape_mag,-0.911684611677,-0.341881729379,0.227921152919,10.0,0.0,0.0,0.0,10.0,0.0,0.0,0.0,10.0
1446036999481430636,418,1446036999477705001,robocape_mag,-0.766261028177,-0.287347885566,0.574695771133,10.0,0.0,0.0,0.0,10.0,0.0,0.0,0.0,10.0
1446036999514613011,419,1446036999511159896,robocape_mag,-0.766261028177,-0.287347885566,0.574695771133,10.0,0.0,0.0,0.0,10.0,0.0,0.0,0.0,10.0
1446036999548546553,420,1446036999545034885,robocape_mag,-0.766261028177,-0.287347885566,0.574695771133,10.0,0.0,0.0,0.0,10.0,0.0,0.0,0.0,10.0
1446036999580990261,421,1446036999577673912,robocape_mag,-0.766261028177,-0.287347885566,0.574695771133,10.0,0.0,0.0,0.0,10.0,0.0,0.0,0.0,10.0
1446036999614580053,422,1446036999611222028,robocape_mag,-0.766261028177,-0.287347885566,0.574695771133,10.0,0.0,0.0,0.0,10.0,0.0,0.0,0.0,10.0
1446036999648556303,423,1446036999644808053,robocape_mag,-0.872871560944,0.218217890236,-0.436435780472,10.0,0.0,0.0,0.0,10.0,0.0,0.0,0.0,10.0
1446036999680944886,424,1446036999677686929,robocape_mag,-0.872871560944,0.218217890236,-0.436435780472,10.0,0.0,0.0,0.0,10.0,0.0,0.0,0.0,10.0
1446036999714531178,425,1446036999711193084,robocape_mag,-0.872871560944,0.218217890236,-0.436435780472,10.0,0.0,0.0,0.0,10.0,0.0,0.0,0.0,10.0
1446036999748333470,426,1446036999744796991,robocape_mag,-0.872871560944,0.218217890236,-0.436435780472,10.0,0.0,0.0,0.0,10.0,0.0,0.0,0.0,10.0
1446036999781458136,427,1446036999778003931,robocape_mag,-0.872871560944,0.218217890236,-0.436435780472,10.0,0.0,0.0,0.0,10.0,0.0,0.0,0.0,10.0
1446036999814632886,428,1446036999811245918,robocape_mag,-0.290957186981,0.945610857689,0.145478593491,10.0,0.0,0.0,0.0,10.0,0.0,0.0,0.0,10.0
1446036999848359178,429,1446036999844779014,robocape_mag,-0.290957186981,0.945610857689,0.145478593491,10.0,0.0,0.0,0.0,10.0,0.0,0.0,0.0,10.0
1446036999881335886,430,1446036999877914905,robocape_mag,-0.290957186981,0.945610857689,0.145478593491,10.0,0.0,0.0,0.0,10.0,0.0,0.0,0.0,10.0
1446036999914939970,431,1446036999911377906,robocape_mag,-0.290957186981,0.945610857689,0.145478593491,10.0,0.0,0.0,0.0,10.0,0.0,0.0,0.0,10.0
1446036999948570803,432,1446036999945056915,robocape_mag,-0.290957186981,0.945610857689,0.145478593491,10.0,0.0,0.0,0.0,10.0,0.0,0.0,0.0,10.0
1446036999981362803,433,1446036999977863073,robocape_mag,-0.894427191,-0.4472135955,0.0,10.0,0.0,0.0,0.0,10.0,0.0,0.0,0.0,10.0
