%time,field.header.seq,field.header.stamp,field.header.frame_id,field.magnetic_field.x,field.magnetic_field.y,field.magnetic_field.z,field.magnetic_field_covariance0,field.magnetic_field_covariance1,field.magnetic_field_covariance2,field.magnetic_field_covariance3,field.magnetic_field_covariance4,field.magnetic_field_covariance5,field.magnetic_field_covariance6,field.magnetic_field_covariance7,field.magnetic_field_covariance8
1446037190446355748,1,1446037190079540967,robocape_mag,5.25,-9.6,26.1,10.0,0.0,0.0,0.0,10.0,0.0,0.0,0.0,10.0
1446037190454990540,2,1446037190109589099,robocape_mag,7.65,-11.4,27.3,10.0,0.0,0.0,0.0,10.0,0.0,0.0,0.0,10.0
1446037190455049123,3,1446037190145190954,robocape_mag,7.65,-11.4,27.3,10.0,0.0,0.0,0.0,10.0,0.0,0.0,0.0,10.0
1446037190455083540,4,1446037190172142028,robocape_mag,7.65,-11.4,27.3,10.0,0.0,0.0,0.0,10.0,0.0,0.0,0.0,10.0
1446037190455122082,5,1446037190209500074,robocape_mag,7.65,-11.4,27.3,10.0,0.0,0.0,0.0,10.0,0.0,0.0,0.0,10.0
1446037190455159873,6,1446037190240753889,robocape_mag,7.65,-11.4,27.3,10.0,0.0,0.0,0.0,10.0,0.0,0.0,0.0,10.0
1446037190460109123,7,1446037190272043943,robocape_mag,4.05,-9.6,26.1,10.0,0.0,0.0,0.0,10.0,0.0,0.0,0.0,10.0
1446037190460171832,8,1446037190307982921,robocape_mag,4.05,-9.6,26.1,10.0,0.0,0.0,0.0,10.0,0.0,0.0,0.0,10.0
1446037190460205623,9,1446037190341362953,robocape_mag,4.05,-9.6,26.1,10.0,0.0,0.0,0.0,10.0,0.0,0.0,0.0,10.0
1446037190460309498,10,1446037190389477968,robocape_mag,4.05,-9.6,26.1,10.0,0.0,0.0,0.0,10.0,0.0,0.0,0.0,10.0
1446037190460348457,11,1446037190426743984,robocape_mag,7.65,-10.2,24.9,10.0,0.0,0.0,0.0,10.0,0.0,0.0,0.0,10.0
1446037190469085373,12,1446037190450957059,robocape_mag,7.65,-10.2,24.9,10.0,0.0,0.0,0.0,10.0,0.0,0.0,0.0,10.0
1446037190482197582,13,1446037190472841978,robocape_mag,7.65,-10.2,24.9,10.0,0.0,0.0,0.0,10.0,0.0,0.0,0.0,10.0
1446037190515725832,14,1446037190506789922,robocape_mag,7.65,-10.2,24.9,10.0,0.0,0.0,0.0,10.0,0.0,0.0,0.0,10.0
1446037190543145582,15,1446037190537506103,robocape_mag,7.65,-10.2,24.9,10.0,0.0,0.0,0.0,10.0,0.0,0.0,0.0,10.0
1446037190575721873,16,1446037190570833921,robocape_mag,7.65,-10.2,24.9,10.0,0.0,0.0,0.0,10.0,0.0,0.0,0.0,10.0
1446037190615862415,17,1446037190605945110,robocape_mag,2.55,-8.7,24.0,10.0,0.0,0.0,0.0,10.0,0.0,0.0,0.0,10.0
1446037190649247623,18,1446037190640685081,robocape_mag,2.55,-8.7,24.0,10.0,0.0,0.0,0.0,10.0,0.0,0.0,0.0,10.0
1446037190678562998,19,1446037190673778057,robocape_mag,2.55,-8.7,24.0,10.0,0.0,0.0,0.0,10.0,0.0,0.0,0.0,10.0
1446037190712276040,20,1446037190707251071,robocape_mag,2.55,-8.7,24.0,10.0,0.0,0.0,0.0,10.0,0.0,0.0,0.0,10.0
1446037190745350623,21,1446037190740588903,robocape_mag,2.55,-8.7,24.0,10.0,0.0,0.0,0.0,10.0,0.0,0.0,0.0,10.0
1446037190778881123,22,1446037190773955106,robocape_mag,7.65,-10.8,26.1,10.0,0.0,0.0,0.0,10.0,0.0,0.0,0.0,10.0
1446037190812168248,23,1446037190806771039,robocape_mag,7.65,-10.8,26.1,10.0,0.0,0.0,0.0,10.0,0.0,0.0,0.0,10.0
1446037190845208540,24,1446037190840166091,robocape_mag,7.65,-10.8,26.1,10.0,0.0,0.0,0.0,10.0,0.0,0.0,0.0,10.0
1446037190878335582,25,1446037190873471975,robocape_mag,7.65,-10.8,26.1,10.0,0.0,0.0,0.0,10.0,0.0,0.0,0.0,10.0
1446037190911291707,26,1446037190906016111,robocape_mag,4.05,-9.0,24.9,10.0,0.0,0.0,0.0,10.0,0.0,0.0,0.0,10.0
1446037190943754082,27,1446037190938888072,robocape_mag,4.05,-9.0,24.9,10.0,0.0,0.0,0.0,10.0,0.0,0.0,0.0,10.0
1446037190976356374,28,1446037190971506118,robocape_mag,4.05,-9.0,24.9,10.0,0.0,0.0,0.0,10.0,0.0,0.0,0.0,10.0
1446037191010163374,29,1446037191004729032,robocape_mag,4.05,-9.0,24.9,10.0,0.0,0.0,0.0,10.0,0.0,0.0,0.0,10.0
1446037191042891290,30,1446037191038028001,robocape_mag,4.05,-9.0,24.9,10.0,0.0,0.0,0.0,10.0,0.0,0.0,0.0,10.0
1446037191076118665,31,1446037191071202993,robocape_mag,9.75,-11.1,27.0,10.0,0.0,0.0,0.0,10.0,0.0,0.0,0.0,10.0
1446037191113216957,32,1446037191104381084,robocape_mag,9.75,-11.1,27.0,10.0,0.0,0.0,0.0,10.0,0.0,0.0,0.0,10.0
1446037191142400957,33,1446037191137530088,robocape_mag,9.75,-11.1,27.0,10.0,0.0,0.0,0.0,10.0,0.0,0.0,0.0,10.0
1446037191175875790,34,1446037191171014070,robocape_mag,9.75,-11.1,27.0,10.0,0.0,0.0,0.0,10.0,0.0,0.0,0.0,10.0
1446037191209326457,35,1446037191204312086,robocape_mag,9.75,-11.1,27.0,10.0,0.0,0.0,0.0,10.0,0.0,0.0,0.0,10.0
1446037191242486582,36,1446037191237689018,robocape_mag,6.15,-9.9,25.8,10.0,0.0,0.0,0.0,10.0,0.0,0.0,0.0,10.0
1446037191276374124,37,1446037191271521091,robocape_mag,6.15,-9.9,25.8,10.0,0.0,0.0,0.0,10.0,0.0,0.0,0.0,10.0
1446037191309420874,38,1446037191304470062,robocape_mag,6.15,-9.9,25.8,10.0,0.0,0.0,0.0,10.0,0.0,0.0,0.0,10.0
1446037191342652957,39,1446037191337786912,robocape_mag,6.15,-9.9,25.8,10.0,0.0,0.0,0.0,10.0,0.0,0.0,0.0,10.0
1446037191375932290,40,1446037191371186017,robocape_mag,6.15,-9.9,25.8,10.0,0.0,0.0,0.0,10.0,0.0,0.0,0.0,10.0
1446037191409384082,41,1446037191404622077,robocape_mag,3.75,-8.1,24.0,10.0,0.0,0.0,0.0,10.0,0.0,0.0,0.0,10.0
1446037191449896249,42,1446037191439533948,robocape_mag,3.75,-8.1,24.0,10.0,0.0,0.0,0.0,10.0,0.0,0.0,0.0,10.0
1446037191480274290,43,1446037191475152969,robocape_mag,3.75,-8.1,24.0,10.0,0.0,0.0,0.0,10.0,0.0,0.0,0.0,10.0
1446037191514000165,44,1446037191507898092,robocape_mag,3.75,-8.1,24.0,10.0,0.0,0.0,0.0,10.0,0.0,0.0,0.0,10.0
1446037191547482290,45,1446037191542334079,robocape_mag,3.75,-8.1,24.0,10.0,0.0,0.0,0.0,10.0,0.0,0.0,0.0,10.0
1446037191579248957,46,1446037191574189901,robocape_mag,6.75,-10.5,25.8,10.0,0.0,0.0,0.0,10.0,0.0,0.0,0.0,10.0
1446037191613125166,47,1446037191607512950,robocape_mag,6.75,-10.5,25.8,10.0,0.0,0.0,0.0,10.0,0.0,0.0,0.0,10.0
1446037191646957791,48,1446037191641980886,robocape_mag,6.75,-10.5,25.8,10.0,0.0,0.0,0.0,10.0,0.0,0.0,0.0,10.0
1446037191680178166,49,1446037191675288915,robocape_mag,6.75,-10.5,25.8,10.0,0.0,0.0,0.0,10.0,0.0,0.0,0.0,10.0
1446037191713506916,50,1446037191708122968,robocape_mag,7.95,-9.9,26.4,10.0,0.0,0.0,0.0,10.0,0.0,0.0,0.0,10.0
1446037191745098416,51,1446037191740144014,robocape_mag,7.95,-9.9,26.4,10.0,0.0,0.0,0.0,10.0,0.0,0.0,0.0,10.0
1446037191778752207,52,1446037191773629903,robocape_mag,7.95,-9.9,26.4,10.0,0.0,0.0,0.0,10.0,0.0,0.0,0.0,10.0
1446037191813000749,53,1446037191807672977,robocape_mag,7.95,-9.9,26.4,10.0,0.0,0.0,0.0,10.0,0.0,0.0,0.0,10.0
1446037191846011166,54,1446037191841042041,robocape_mag,7.95,-9.9,26.4,10.0,0.0,0.0,0.0,10.0,0.0,0.0,0.0,10.0
1446037191878977249,55,1446037191873908042,robocape_mag,6.75,-5.7,25.8,10.0,0.0,0.0,0.0,10.0,0.0,0.0,0.0,10.0
1446037191911969416,56,1446037191907097101,robocape_mag,6.75,-5.7,25.8,10.0,0.0,0.0,0.0,10.0,0.0,0.0,0.0,10.0
1446037191945642957,57,1446037191940851926,robocape_mag,6.75,-5.7,25.8,10.0,0.0,0.0,0.0,10.0,0.0,0.0,0.0,10.0
1446037191978549874,58,1446037191973505973,robocape_mag,6.75,-5.7,25.8,10.0,0.0,0.0,0.0,10.0,0.0,0.0,0.0,10.0
1446037192011758124,59,1446037192006803989,robocape_mag,6.75,-5.7,25.8,10.0,0.0,0.0,0.0,10.0,0.0,0.0,0.0,10.0
1446037192043716457,60,1446037192038853883,robocape_mag,9.45,-12.6,26.1,10.0,0.0,0.0,0.0,10.0,0.0,0.0,0.0,10.0
1446037192077278957,61,1446037192072284936,robocape_mag,9.45,-12.6,26.1,10.0,0.0,0.0,0.0,10.0,0.0,0.0,0.0,10.0
1446037192110517166,62,1446037192105576038,robocape_mag,9.45,-12.6,26.1,10.0,0.0,0.0,0.0,10.0,0.0,0.0,0.0,10.0
1446037192144032249,63,1446037192139170885,robocape_mag,9.45,-12.6,26.1,10.0,0.0,0.0,0.0,10.0,0.0,0.0,0.0,10.0
1446037192177216582,64,1446037192171816110,robocape_mag,9.45,-12.6,26.1,10.0,0.0,0.0,0.0,10.0,0.0,0.0,0.0,10.0
1446037192209449791,65,1446037192204556941,robocape_mag,4.05,-6.6,24.9,10.0,0.0,0.0,0.0,10.0,0.0,0.0,0.0,10.0
1446037192242894082,66,1446037192237915039,robocape_mag,4.05,-6.6,24.9,10.0,0.0,0.0,0.0,10.0,0.0,0.0,0.0,10.0
1446037192276260583,67,1446037192271183013,robocape_mag,4.05,-6.6,24.9,10.0,0.0,0.0,0.0,10.0,0.0,0.0,0.0,10.0
1446037192309351208,68,1446037192304388999,robocape_mag,4.05,-6.6,24.9,10.0,0.0,0.0,0.0,10.0,0.0,0.0,0.0,10.0
1446037192342388458,69,1446037192337652921,robocape_mag,4.05,-6.6,24.9,10.0,0.0,0.0,0.0,10.0,0.0,0.0,0.0,10.0
1446037192376119124,70,1446037192371273994,robocape_mag,9.75,-11.1,27.6,10.0,0.0,0.0,0.0,10.0,0.0,0.0,0.0,10.0
1446037192409190208,71,1446037192404397964,robocape_mag,9.75,-11.1,27.6,10.0,0.0,0.0,0.0,10.0,0.0,0.0,0.0,10.0
1446037192449056499,72,1446037192439260959,robocape_mag,9.75,-11.1,27.6,10.0,0.0,0.0,0.0,10.0,0.0,0.0,0.0,10.0
1446037192476717166,73,1446037192471775054,robocape_mag,9.75,-11.1,27.6,10.0,0.0,0.0,0.0,10.0,0.0,0.0,0.0,10.0
1446037192509490624,74,1446037192504528045,robocape_mag,9.75,-6.0,25.5,10.0,0.0,0.0,0.0,10.0,0.0,0.0,0.0,10.0
1446037192542721833,75,1446037192537811040,robocape_mag,12.45,-6.0,25.5,10.0,0.0,0.0,0.0,10.0,0.0,0.0,0.0,10.0
1446037192576326249,76,1446037192571469068,robocape_mag,12.45,-6.0,25.5,10.0,0.0,0.0,0.0,10.0,0.0,0.0,0.0,10.0
1446037192609530583,77,1446037192604429960,robocape_mag,12.45,-6.0,25.5,10.0,0.0,0.0,0.0,10.0,0.0,0.0,0.0,10.0
1446037192642601916,78,1446037192637741088,robocape_mag,12.45,-6.0,25.5,10.0,0.0,0.0,0.0,10.0,0.0,0.0,0.0,10.0
1446037192676209666,79,1446037192671361923,robocape_mag,8.85,-2.4,23.1,10.0,0.0,0.0,0.0,10.0,0.0,0.0,0.0,10.0
1446037192710768791,80,1446037192705710887,robocape_mag,8.85,-2.4,23.1,10.0,0.0,0.0,0.0,10.0,0.0,0.0,0.0,10.0
1446037192742517458,81,1446037192737569093,robocape_mag,8.85,-2.4,23.1,10.0,0.0,0.0,0.0,10.0,0.0,0.0,0.0,10.0
1446037192775926291,82,1446037192770889043,robocape_mag,8.85,-2.4,23.1,10.0,0.0,0.0,0.0,10.0,0.0,0.0,0.0,10.0
1446037192811431999,83,1446037192804536104,robocape_mag,8.85,-2.4,23.1,10.0,0.0,0.0,0.0,10.0,0.0,0.0,0.0,10.0
1446037192844679166,84,1446037192837860107,robocape_mag,8.55,-2.7,16.8,10.0,0.0,0.0,0.0,10.0,0.0,0.0,0.0,10.0
1446037192877186458,85,1446037192871460914,robocape_mag,8.55,-2.7,16.8,10.0,0.0,0.0,0.0,10.0,0.0,0.0,0.0,10.0
1446037192909337999,86,1446037192904372930,robocape_mag,8.55,-2.7,16.8,10.0,0.0,0.0,0.0,10.0,0.0,0.0,0.0,10.0
1446037192942735874,87,1446037192937622070,robocape_mag,8.55,-2.7,16.8,10.0,0.0,0.0,0.0,10.0,0.0,0.0,0.0,10.0
1446037192976134666,88,1446037192971051931,robocape_mag,8.55,-2.7,16.8,10.0,0.0,0.0,0.0,10.0,0.0,0.0,0.0,10.0
1446037193009800875,89,1446037193004410982,robocape_mag,9.45,-0.6,15.3,10.0,0.0,0.0,0.0,10.0,0.0,0.0,0.0,10.0
1446037193042742000,90,1446037193037494897,robocape_mag,9.45,-0.6,15.3,10.0,0.0,0.0,0.0,10.0,0.0,0.0,0.0,10.0
1446037193075959833,91,1446037193070921897,robocape_mag,9.45,-0.6,15.3,10.0,0.0,0.0,0.0,10.0,0.0,0.0,0.0,10.0
1446037193111083833,92,1446037193104111909,robocape_mag,9.45,-0.6,15.3,10.0,0.0,0.0,0.0,10.0,0.0,0.0,0.0,10.0
1446037193144373625,93,1446037193137717008,robocape_mag,9.45,-0.6,15.3,10.0,0.0,0.0,0.0,10.0,0.0,0.0,0.0,10.0
1446037193175892875,94,1446037193170969963,robocape_mag,16.65,-2.4,15.3,10.0,0.0,0.0,0.0,10.0,0.0,0.0,0.0,10.0
1446037193210827791,95,1446037193204236984,robocape_mag,16.65,-2.4,15.3,10.0,0.0,0.0,0.0,10.0,0.0,0.0,0.0,10.0
1446037193244355166,96,1446037193237735033,robocape_mag,16.65,-2.4,15.3,10.0,0.0,0.0,0.0,10.0,0.0,0.0,0.0,10.0
1446037193276226875,97,1446037193271188974,robocape_mag,16.65,-2.4,15.3,10.0,0.0,0.0,0.0,10.0,0.0,0.0,0.0,10.0
1446037193313042416,98,1446037193307672977,robocape_mag,13.95,0.9,13.8,10.0,0.0,0.0,0.0,10.0,0.0,0.0,0.0,10.0
1446037193344016791,99,1446037193339123964,robocape_mag,13.95,0.9,13.8,10.0,0.0,0.0,0.0,10.0,0.0,0.0,0.0,10.0
1446037193379048416,100,1446037193371959924,robocape_mag,13.95,0.9,13.8,10.0,0.0,0.0,0.0,10.0,0.0,0.0,0.0,10.0
1446037193410695500,101,1446037193405699014,robocape_mag,13.95,0.9,13.8,10.0,0.0,0.0,0.0,10.0,0.0,0.0,0.0,10.0
1446037193448207500,102,1446037193439264059,robocape_mag,13.95,0.9,13.8,10.0,0.0,0.0,0.0,10.0,0.0,0.0,0.0,10.0
1446037193478728625,103,1446037193473668098,robocape_mag,14.85,0.6,22.5,10.0,0.0,0.0,0.0,10.0,0.0,0.0,0.0,10.0
1446037193511282958,104,1446037193506181001,robocape_mag,14.85,0.6,22.5,10.0,0.0,0.0,0.0,10.0,0.0,0.0,0.0,10.0
1446037193544638875,105,1446037193539688110,robocape_mag,14.85,0.6,22.5,10.0,0.0,0.0,0.0,10.0,0.0,0.0,0.0,10.0
1446037193578282458,106,1446037193572799921,robocape_mag,14.85,0.6,22.5,10.0,0.0,0.0,0.0,10.0,0.0,0.0,0.0,10.0
1446037193615311833,107,1446037193607768058,robocape_mag,14.85,0.6,22.5,10.0,0.0,0.0,0.0,10.0,0.0,0.0,0.0,10.0
1446037193645973625,108,1446037193639152050,robocape_mag,15.75,3.9,25.8,10.0,0.0,0.0,0.0,10.0,0.0,0.0,0.0,10.0
1446037193679839042,109,1446037193672717094,robocape_mag,15.75,3.9,25.8,10.0,0.0,0.0,0.0,10.0,0.0,0.0,0.0,10.0
1446037193719159333,110,1446037193707221984,robocape_mag,15.75,3.9,25.8,10.0,0.0,0.0,0.0,10.0,0.0,0.0,0.0,10.0
1446037193750444208,111,1446037193741566896,robocape_mag,15.75,3.9,25.8,10.0,0.0,0.0,0.0,10.0,0.0,0.0,0.0,10.0
1446037193781056417,112,1446037193774642944,robocape_mag,15.75,3.9,25.8,10.0,0.0,0.0,0.0,10.0,0.0,0.0,0.0,10.0
1446037193817060083,113,1446037193808180093,robocape_mag,9.15,8.1,24.6,10.0,0.0,0.0,0.0,10.0,0.0,0.0,0.0,10.0
1446037193850464375,114,1446037193842689037,robocape_mag,9.15,8.1,24.6,10.0,0.0,0.0,0.0,10.0,0.0,0.0,0.0,10.0
1446037193885411542,115,1446037193875300884,robocape_mag,9.15,8.1,24.6,10.0,0.0,0.0,0.0,10.0,0.0,0.0,0.0,10.0
1446037193918586833,116,1446037193908834934,robocape_mag,9.15,8.1,24.6,10.0,0.0,0.0,0.0,10.0,0.0,0.0,0.0,10.0
1446037193947123375,117,1446037193941684961,robocape_mag,9.15,8.1,24.6,10.0,0.0,0.0,0.0,10.0,0.0,0.0,0.0,10.0
1446037193980747708,118,1446037193975640058,robocape_mag,10.95,6.9,24.6,10.0,0.0,0.0,0.0,10.0,0.0,0.0,0.0,10.0
1446037194014439083,119,1446037194007530927,robocape_mag,10.95,6.9,24.6,10.0,0.0,0.0,0.0,10.0,0.0,0.0,0.0,10.0
1446037194045767833,120,1446037194040726900,robocape_mag,10.95,6.9,24.6,10.0,0.0,0.0,0.0,10.0,0.0,0.0,0.0,10.0
1446037194079680625,121,1446037194074698925,robocape_mag,10.95,6.9,24.6,10.0,0.0,0.0,0.0,10.0,0.0,0.0,0.0,10.0
1446037194112456542,122,1446037194107239007,robocape_mag,10.65,6.0,24.9,10.0,0.0,0.0,0.0,10.0,0.0,0.0,0.0,10.0
1446037194145978417,123,1446037194140877008,robocape_mag,10.65,6.0,24.9,10.0,0.0,0.0,0.0,10.0,0.0,0.0,0.0,10.0
1446037194179480625,124,1446037194174325942,robocape_mag,10.65,6.0,24.9,10.0,0.0,0.0,0.0,10.0,0.0,0.0,0.0,10.0
1446037194212272500,125,1446037194207179069,robocape_mag,10.65,6.0,24.9,10.0,0.0,0.0,0.0,10.0,0.0,0.0,0.0,10.0
1446037194250072292,126,1446037194240462064,robocape_mag,10.65,6.0,24.9,10.0,0.0,0.0,0.0,10.0,0.0,0.0,0.0,10.0
1446037194278783500,127,1446037194273636102,robocape_mag,10.65,4.8,24.9,10.0,0.0,0.0,0.0,10.0,0.0,0.0,0.0,10.0
1446037194313373125,128,1446037194307001113,robocape_mag,10.65,4.8,24.9,10.0,0.0,0.0,0.0,10.0,0.0,0.0,0.0,10.0
1446037194349519708,129,1446037194340809106,robocape_mag,10.65,4.8,24.9,10.0,0.0,0.0,0.0,10.0,0.0,0.0,0.0,10.0
1446037194377542667,130,1446037194372580051,robocape_mag,10.65,4.8,24.9,10.0,0.0,0.0,0.0,10.0,0.0,0.0,0.0,10.0
1446037194410765667,131,1446037194405672073,robocape_mag,10.65,4.8,24.9,10.0,0.0,0.0,0.0,10.0,0.0,0.0,0.0,10.0
1446037194446808709,132,1446037194440882921,robocape_mag,16.65,3.0,26.1,10.0,0.0,0.0,0.0,10.0,0.0,0.0,0.0,10.0
1446037194477251375,133,1446037194472291946,robocape_mag,16.65,3.0,26.1,10.0,0.0,0.0,0.0,10.0,0.0,0.0,0.0,10.0
1446037194510277292,134,1446037194505142927,robocape_mag,16.65,3.0,26.1,10.0,0.0,0.0,0.0,10.0,0.0,0.0,0.0,10.0
1446037194543000917,135,1446037194537930965,robocape_mag,16.65,3.0,26.1,10.0,0.0,0.0,0.0,10.0,0.0,0.0,0.0,10.0
1446037194576379167,136,1446037194571382045,robocape_mag,16.65,3.0,26.1,10.0,0.0,0.0,0.0,10.0,0.0,0.0,0.0,10.0
1446037194609385417,137,1446037194604362964,robocape_mag,14.25,4.2,24.3,10.0,0.0,0.0,0.0,10.0,0.0,0.0,0.0,10.0
1446037194642352250,138,1446037194637526035,robocape_mag,14.25,4.2,24.3,10.0,0.0,0.0,0.0,10.0,0.0,0.0,0.0,10.0
1446037194675860167,139,1446037194671005964,robocape_mag,14.25,4.2,24.3,10.0,0.0,0.0,0.0,10.0,0.0,0.0,0.0,10.0
1446037194709364000,140,1446037194704454898,robocape_mag,14.25,4.2,24.3,10.0,0.0,0.0,0.0,10.0,0.0,0.0,0.0,10.0
1446037194742575250,141,1446037194737814903,robocape_mag,14.25,4.2,24.3,10.0,0.0,0.0,0.0,10.0,0.0,0.0,0.0,10.0
1446037194775928292,142,1446037194771126985,robocape_mag,14.85,3.6,26.1,10.0,0.0,0.0,0.0,10.0,0.0,0.0,0.0,10.0
1446037194809404917,143,1446037194804420948,robocape_mag,14.85,3.6,26.1,10.0,0.0,0.0,0.0,10.0,0.0,0.0,0.0,10.0
1446037194843336959,144,1446037194838325977,robocape_mag,14.85,3.6,26.1,10.0,0.0,0.0,0.0,10.0,0.0,0.0,0.0,10.0
1446037194876069042,145,1446037194871305942,robocape_mag,14.85,3.6,26.1,10.0,0.0,0.0,0.0,10.0,0.0,0.0,0.0,10.0
1446037194909597959,146,1446037194904652118,robocape_mag,14.85,6.0,24.9,10.0,0.0,0.0,0.0,10.0,0.0,0.0,0.0,10.0
1446037194943505542,147,1446037194938571929,robocape_mag,12.45,6.0,24.9,10.0,0.0,0.0,0.0,10.0,0.0,0.0,0.0,10.0
1446037194976846292,148,1446037194972031116,robocape_mag,12.45,6.0,24.9,10.0,0.0,0.0,0.0,10.0,0.0,0.0,0.0,10.0
1446037195009445125,149,1446037195004415988,robocape_mag,12.45,6.0,24.9,10.0,0.0,0.0,0.0,10.0,0.0,0.0,0.0,10.0
1446037195043573125,150,1446037195038795948,robocape_mag,12.45,6.0,24.9,10.0,0.0,0.0,0.0,10.0,0.0,0.0,0.0,10.0
1446037195076056417,151,1446037195071136951,robocape_mag,11.25,5.4,23.7,10.0,0.0,0.0,0.0,10.0,0.0,0.0,0.0,10.0
1446037195109134667,152,1446037195104137897,robocape_mag,11.25,5.4,23.7,10.0,0.0,0.0,0.0,10.0,0.0,0.0,0.0,10.0
1446037195142448709,153,1446037195137538909,robocape_mag,11.25,5.4,23.7,10.0,0.0,0.0,0.0,10.0,0.0,0.0,0.0,10.0
1446037195176727834,154,1446037195171009063,robocape_mag,11.25,5.4,23.7,10.0,0.0,0.0,0.0,10.0,0.0,0.0,0.0,10.0
1446037195209732126,155,1446037195204153060,robocape_mag,11.25,5.4,23.7,10.0,0.0,0.0,0.0,10.0,0.0,0.0,0.0,10.0
1446037195242749334,156,1446037195237808942,robocape_mag,15.15,3.9,24.6,10.0,0.0,0.0,0.0,10.0,0.0,0.0,0.0,10.0
1446037195275877876,157,1446037195270953893,robocape_mag,15.15,3.9,24.6,10.0,0.0,0.0,0.0,10.0,0.0,0.0,0.0,10.0
1446037195309435542,158,1446037195304197072,robocape_mag,15.15,3.9,24.6,10.0,0.0,0.0,0.0,10.0,0.0,0.0,0.0,10.0
1446037195344991251,159,1446037195338099956,robocape_mag,15.15,3.9,24.6,10.0,0.0,0.0,0.0,10.0,0.0,0.0,0.0,10.0
1446037195376234792,160,1446037195371054887,robocape_mag,15.15,3.9,24.6,10.0,0.0,0.0,0.0,10.0,0.0,0.0,0.0,10.0
1446037195409435209,161,1446037195404139041,robocape_mag,12.45,4.8,23.7,10.0,0.0,0.0,0.0,10.0,0.0,0.0,0.0,10.0
1446037195448881376,162,1446037195439661979,robocape_mag,12.45,4.8,23.7,10.0,0.0,0.0,0.0,10.0,0.0,0.0,0.0,10.0
1446037195476145876,163,1446037195470861911,robocape_mag,12.45,4.8,23.7,10.0,0.0,0.0,0.0,10.0,0.0,0.0,0.0,10.0
1446037195509559917,164,1446037195504323959,robocape_mag,12.45,4.8,23.7,10.0,0.0,0.0,0.0,10.0,0.0,0.0,0.0,10.0
1446037195542353126,165,1446037195537492990,robocape_mag,12.45,4.8,23.7,10.0,0.0,0.0,0.0,10.0,0.0,0.0,0.0,10.0
1446037195576183209,166,1446037195571007966,robocape_mag,10.95,5.1,24.6,10.0,0.0,0.0,0.0,10.0,0.0,0.0,0.0,10.0
1446037195609344626,167,1446037195604203939,robocape_mag,10.95,5.1,24.6,10.0,0.0,0.0,0.0,10.0,0.0,0.0,0.0,10.0
1446037195643593834,168,1446037195638055086,robocape_mag,10.95,5.1,24.6,10.0,0.0,0.0,0.0,10.0,0.0,0.0,0.0,10.0
1446037195677389792,169,1446037195672049999,robocape_mag,10.95,5.1,24.6,10.0,0.0,0.0,0.0,10.0,0.0,0.0,0.0,10.0
1446037195710821417,170,1446037195705739021,robocape_mag,10.95,5.7,22.8,10.0,0.0,0.0,0.0,10.0,0.0,0.0,0.0,10.0
1446037195744454959,171,1446037195739058971,robocape_mag,12.75,5.7,22.8,10.0,0.0,0.0,0.0,10.0,0.0,0.0,0.0,10.0
1446037195778437084,172,1446037195772900104,robocape_mag,12.75,5.7,22.8,10.0,0.0,0.0,0.0,10.0,0.0,0.0,0.0,10.0
1446037195814524584,173,1446037195806236028,robocape_mag,12.75,5.7,22.8,10.0,0.0,0.0,0.0,10.0,0.0,0.0,0.0,10.0
1446037195844940668,174,1446037195838402986,robocape_mag,12.75,5.7,22.8,10.0,0.0,0.0,0.0,10.0,0.0,0.0,0.0,10.0
1446037195881182626,175,1446037195872803926,robocape_mag,14.55,5.1,22.8,10.0,0.0,0.0,0.0,10.0,0.0,0.0,0.0,10.0
1446037195913797251,176,1446037195906311035,robocape_mag,14.55,5.1,22.8,10.0,0.0,0.0,0.0,10.0,0.0,0.0,0.0,10.0
1446037195947064126,177,1446037195939682960,robocape_mag,14.55,5.1,22.8,10.0,0.0,0.0,0.0,10.0,0.0,0.0,0.0,10.0
1446037195982105751,178,1446037195972745895,robocape_mag,14.55,5.1,22.8,10.0,0.0,0.0,0.0,10.0,0.0,0.0,0.0,10.0
1446037196014819043,179,1446037196007180929,robocape_mag,14.55,5.1,22.8,10.0,0.0,0.0,0.0,10.0,0.0,0.0,0.0,10.0
1446037196046422918,180,1446037196041282892,robocape_mag,14.25,5.4,25.5,10.0,0.0,0.0,0.0,10.0,0.0,0.0,0.0,10.0
1446037196085961751,181,1446037196074189901,robocape_mag,14.25,5.4,25.5,10.0,0.0,0.0,0.0,10.0,0.0,0.0,0.0,10.0
1446037196113806459,182,1446037196107705116,robocape_mag,14.25,5.4,25.5,10.0,0.0,0.0,0.0,10.0,0.0,0.0,0.0,10.0
1446037196148158459,183,1446037196142151117,robocape_mag,14.25,5.4,25.5,10.0,0.0,0.0,0.0,10.0,0.0,0.0,0.0,10.0
1446037196181788626,184,1446037196176059007,robocape_mag,14.25,5.4,25.5,10.0,0.0,0.0,0.0,10.0,0.0,0.0,0.0,10.0
1446037196213141376,185,1446037196207806110,robocape_mag,9.15,5.1,24.6,10.0,0.0,0.0,0.0,10.0,0.0,0.0,0.0,10.0
1446037196250715459,186,1446037196240865945,robocape_mag,9.15,5.1,24.6,10.0,0.0,0.0,0.0,10.0,0.0,0.0,0.0,10.0
1446037196281751584,187,1446037196273256063,robocape_mag,9.15,5.1,24.6,10.0,0.0,0.0,0.0,10.0,0.0,0.0,0.0,10.0
1446037196315302043,188,1446037196308063983,robocape_mag,9.15,5.1,24.6,10.0,0.0,0.0,0.0,10.0,0.0,0.0,0.0,10.0
1446037196348046334,189,1446037196343089103,robocape_mag,9.15,5.1,24.6,10.0,0.0,0.0,0.0,10.0,0.0,0.0,0.0,10.0
1446037196382201876,190,1446037196374692916,robocape_mag,15.75,4.5,25.2,10.0,0.0,0.0,0.0,10.0,0.0,0.0,0.0,10.0
1446037196412837793,191,1446037196406486988,robocape_mag,15.75,4.5,25.2,10.0,0.0,0.0,0.0,10.0,0.0,0.0,0.0,10.0
1446037196455309960,192,1446037196443454980,robocape_mag,15.75,4.5,25.2,10.0,0.0,0.0,0.0,10.0,0.0,0.0,0.0,10.0
1446037196479650751,193,1446037196474272966,robocape_mag,15.75,4.5,25.2,10.0,0.0,0.0,0.0,10.0,0.0,0.0,0.0,10.0
1446037196513145376,194,1446037196507838964,robocape_mag,11.85,6.0,21.9,10.0,0.0,0.0,0.0,10.0,0.0,0.0,0.0,10.0
1446037196545462001,195,1446037196540469884,robocape_mag,11.85,6.0,21.9,10.0,0.0,0.0,0.0,10.0,0.0,0.0,0.0,10.0
1446037196581107918,196,1446037196572905063,robocape_mag,11.85,6.0,21.9,10.0,0.0,0.0,0.0,10.0,0.0,0.0,0.0,10.0
1446037196612338626,197,1446037196606822967,robocape_mag,11.85,6.0,21.9,10.0,0.0,0.0,0.0,10.0,0.0,0.0,0.0,10.0
1446037196644486168,198,1446037196639633893,robocape_mag,11.85,6.0,21.9,10.0,0.0,0.0,0.0,10.0,0.0,0.0,0.0,10.0
1446037196678443418,199,1446037196673171043,robocape_mag,8.55,6.3,22.8,10.0,0.0,0.0,0.0,10.0,0.0,0.0,0.0,10.0
1446037196711204668,200,1446037196706224918,robocape_mag,8.55,6.3,22.8,10.0,0.0,0.0,0.0,10.0,0.0,0.0,0.0,10.0
1446037196744049543,201,1446037196739227056,robocape_mag,8.55,6.3,22.8,10.0,0.0,0.0,0.0,10.0,0.0,0.0,0.0,10.0
1446037196776290960,202,1446037196771497964,robocape_mag,8.55,6.3,22.8,10.0,0.0,0.0,0.0,10.0,0.0,0.0,0.0,10.0
1446037196810497335,203,1446037196805639982,robocape_mag,8.55,6.3,22.8,10.0,0.0,0.0,0.0,10.0,0.0,0.0,0.0,10.0
1446037196844234085,204,1446037196838654994,robocape_mag,12.45,6.0,24.9,10.0,0.0,0.0,0.0,10.0,0.0,0.0,0.0,10.0
1446037196877149168,205,1446037196872204065,robocape_mag,12.45,6.0,24.9,10.0,0.0,0.0,0.0,10.0,0.0,0.0,0.0,10.0
1446037196911716585,206,1446037196905435085,robocape_mag,12.45,6.0,24.9,10.0,0.0,0.0,0.0,10.0,0.0,0.0,0.0,10.0
1446037196943194043,207,1446037196937750101,robocape_mag,12.45,6.0,24.9,10.0,0.0,0.0,0.0,10.0,0.0,0.0,0.0,10.0
1446037196978453210,208,1446037196972589015,robocape_mag,12.45,6.0,24.9,10.0,0.0,0.0,0.0,10.0,0.0,0.0,0.0,10.0
1446037197014905293,209,1446037197006509065,robocape_mag,14.55,2.7,24.0,10.0,0.0,0.0,0.0,10.0,0.0,0.0,0.0,10.0
1446037197044854210,210,1446037197039350986,robocape_mag,14.55,2.7,24.0,10.0,0.0,0.0,0.0,10.0,0.0,0.0,0.0,10.0
1446037197082887043,211,1446037197072786092,robocape_mag,14.55,2.7,24.0,10.0,0.0,0.0,0.0,10.0,0.0,0.0,0.0,10.0
1446037197110609460,212,1446037197105376958,robocape_mag,14.55,2.7,24.0,10.0,0.0,0.0,0.0,10.0,0.0,0.0,0.0,10.0
1446037197148820751,213,1446037197141697883,robocape_mag,14.55,2.7,24.0,10.0,0.0,0.0,0.0,10.0,0.0,0.0,0.0,10.0
1446037197185626752,214,1446037197175359964,robocape_mag,10.05,6.6,23.7,10.0,0.0,0.0,0.0,10.0,0.0,0.0,0.0,10.0
1446037197214580710,215,1446037197208750009,robocape_mag,10.05,6.6,23.7,10.0,0.0,0.0,0.0,10.0,0.0,0.0,0.0,10.0
1446037197242097710,216,1446037197237317085,robocape_mag,10.05,6.6,23.7,10.0,0.0,0.0,0.0,10.0,0.0,0.0,0.0,10.0
1446037197275910127,217,1446037197271020889,robocape_mag,10.05,6.6,23.7,10.0,0.0,0.0,0.0,10.0,0.0,0.0,0.0,10.0
1446037197309416335,218,1446037197304569005,robocape_mag,10.05,7.2,23.7,10.0,0.0,0.0,0.0,10.0,0.0,0.0,0.0,10.0
1446037197342661918,219,1446037197337877988,robocape_mag,11.85,7.2,23.7,10.0,0.0,0.0,0.0,10.0,0.0,0.0,0.0,10.0
1446037197378490502,220,1446037197372901916,robocape_mag,11.85,7.2,23.7,10.0,0.0,0.0,0.0,10.0,0.0,0.0,0.0,10.0
1446037197409045043,221,1446037197404179096,robocape_mag,11.85,7.2,23.7,10.0,0.0,0.0,0.0,10.0,0.0,0.0,0.0,10.0
1446037197444766668,222,1446037197439270019,robocape_mag,11.85,7.2,23.7,10.0,0.0,0.0,0.0,10.0,0.0,0.0,0.0,10.0
1446037197476167877,223,1446037197471154928,robocape_mag,9.75,5.7,24.0,10.0,0.0,0.0,0.0,10.0,0.0,0.0,0.0,10.0
1446037197511182793,224,1446037197504297971,robocape_mag,9.75,5.7,24.0,10.0,0.0,0.0,0.0,10.0,0.0,0.0,0.0,10.0
1446037197544185877,225,1446037197537451028,robocape_mag,9.75,5.7,24.0,10.0,0.0,0.0,0.0,10.0,0.0,0.0,0.0,10.0
1446037197576144710,226,1446037197571017026,robocape_mag,9.75,5.7,24.0,10.0,0.0,0.0,0.0,10.0,0.0,0.0,0.0,10.0
1446037197609274960,227,1446037197604192018,robocape_mag,9.75,5.7,24.0,10.0,0.0,0.0,0.0,10.0,0.0,0.0,0.0,10.0
1446037197642584710,228,1446037197637553930,robocape_mag,17.85,1.8,23.7,10.0,0.0,0.0,0.0,10.0,0.0,0.0,0.0,10.0
1446037197677857127,229,1446037197670865058,robocape_mag,17.85,1.8,23.7,10.0,0.0,0.0,0.0,10.0,0.0,0.0,0.0,10.0
1446037197709448043,230,1446037197704112052,robocape_mag,17.85,1.8,23.7,10.0,0.0,0.0,0.0,10.0,0.0,0.0,0.0,10.0
1446037197745556710,231,1446037197740715026,robocape_mag,17.85,1.8,23.7,10.0,0.0,0.0,0.0,10.0,0.0,0.0,0.0,10.0
1446037197780738127,232,1446037197774378061,robocape_mag,17.85,1.8,23.7,10.0,0.0,0.0,0.0,10.0,0.0,0.0,0.0,10.0
1446037197812711085,233,1446037197807816982,robocape_mag,10.65,6.0,26.7,10.0,0.0,0.0,0.0,10.0,0.0,0.0,0.0,10.0
1446037197844980002,234,1446037197840044021,robocape_mag,10.65,6.0,26.7,10.0,0.0,0.0,0.0,10.0,0.0,0.0,0.0,10.0
1446037197878030877,235,1446037197873043060,robocape_mag,10.65,6.0,26.7,10.0,0.0,0.0,0.0,10.0,0.0,0.0,0.0,10.0
1446037197909115794,236,1446037197904196023,robocape_mag,10.65,6.0,26.7,10.0,0.0,0.0,0.0,10.0,0.0,0.0,0.0,10.0
1446037197942308544,237,1446037197937524080,robocape_mag,10.65,6.0,26.7,10.0,0.0,0.0,0.0,10.0,0.0,0.0,0.0,10.0
1446037197976599669,238,1446037197971724033,robocape_mag,15.45,3.0,25.5,10.0,0.0,0.0,0.0,10.0,0.0,0.0,0.0,10.0
1446037198009890669,239,1446037198004766941,robocape_mag,15.45,3.0,25.5,10.0,0.0,0.0,0.0,10.0,0.0,0.0,0.0,10.0
1446037198042586627,240,1446037198037755012,robocape_mag,15.45,3.0,25.5,10.0,0.0,0.0,0.0,10.0,0.0,0.0,0.0,10.0
1446037198075984877,241,1446037198071127891,robocape_mag,15.45,3.0,25.5,10.0,0.0,0.0,0.0,10.0,0.0,0.0,0.0,10.0
1446037198109347169,242,1446037198104326963,robocape_mag,15.45,6.3,24.6,10.0,0.0,0.0,0.0,10.0,0.0,0.0,0.0,10.0
1446037198142465460,243,1446037198137526035,robocape_mag,10.95,6.3,24.6,10.0,0.0,0.0,0.0,10.0,0.0,0.0,0.0,10.0
1446037198175859669,244,1446037198170952081,robocape_mag,10.95,6.3,24.6,10.0,0.0,0.0,0.0,10.0,0.0,0.0,0.0,10.0
1446037198209266877,245,1446037198204135894,robocape_mag,10.95,6.3,24.6,10.0,0.0,0.0,0.0,10.0,0.0,0.0,0.0,10.0
1446037198242247252,246,1446037198237456083,robocape_mag,10.95,6.3,24.6,10.0,0.0,0.0,0.0,10.0,0.0,0.0,0.0,10.0
1446037198276180669,247,1446037198271131038,robocape_mag,8.85,6.6,24.3,10.0,0.0,0.0,0.0,10.0,0.0,0.0,0.0,10.0
1446037198309791919,248,1446037198304775953,robocape_mag,8.85,6.6,24.3,10.0,0.0,0.0,0.0,10.0,0.0,0.0,0.0,10.0
1446037198342813544,249,1446037198337999105,robocape_mag,8.85,6.6,24.3,10.0,0.0,0.0,0.0,10.0,0.0,0.0,0.0,10.0
1446037198375958335,250,1446037198371145963,robocape_mag,8.85,6.6,24.3,10.0,0.0,0.0,0.0,10.0,0.0,0.0,0.0,10.0
1446037198412875835,251,1446037198404278993,robocape_mag,8.85,6.6,24.3,10.0,0.0,0.0,0.0,10.0,0.0,0.0,0.0,10.0
1446037198444950169,252,1446037198440068960,robocape_mag,12.75,4.5,25.2,10.0,0.0,0.0,0.0,10.0,0.0,0.0,0.0,10.0
1446037198476144502,253,1446037198471292972,robocape_mag,12.75,4.5,25.2,10.0,0.0,0.0,0.0,10.0,0.0,0.0,0.0,10.0
1446037198516132627,254,1446037198507896900,robocape_mag,12.75,4.5,25.2,10.0,0.0,0.0,0.0,10.0,0.0,0.0,0.0,10.0
1446037198545751085,255,1446037198541004896,robocape_mag,12.75,4.5,25.2,10.0,0.0,0.0,0.0,10.0,0.0,0.0,0.0,10.0
1446037198575949752,256,1446037198570960044,robocape_mag,12.75,4.5,25.2,10.0,0.0,0.0,0.0,10.0,0.0,0.0,0.0,10.0
1446037198609027252,257,1446037198604038000,robocape_mag,13.35,5.7,24.6,10.0,0.0,0.0,0.0,10.0,0.0,0.0,0.0,10.0
1446037198642399919,258,1446037198637532949,robocape_mag,13.35,5.7,24.6,10.0,0.0,0.0,0.0,10.0,0.0,0.0,0.0,10.0
1446037198677759211,259,1446037198670758962,robocape_mag,13.35,5.7,24.6,10.0,0.0,0.0,0.0,10.0,0.0,0.0,0.0,10.0
1446037198710763127,260,1446037198704169034,robocape_mag,13.35,5.7,24.6,10.0,0.0,0.0,0.0,10.0,0.0,0.0,0.0,10.0
1446037198742474961,261,1446037198737396001,robocape_mag,13.35,5.7,24.6,10.0,0.0,0.0,0.0,10.0,0.0,0.0,0.0,10.0
1446037198776012086,262,1446037198770827054,robocape_mag,12.75,5.7,27.0,10.0,0.0,0.0,0.0,10.0,0.0,0.0,0.0,10.0
1446037198809640252,263,1446037198804320096,robocape_mag,12.75,5.7,27.0,10.0,0.0,0.0,0.0,10.0,0.0,0.0,0.0,10.0
1446037198842927461,264,1446037198837765932,robocape_mag,12.75,5.7,27.0,10.0,0.0,0.0,0.0,10.0,0.0,0.0,0.0,10.0
1446037198875999877,265,1446037198870835065,robocape_mag,12.75,5.7,27.0,10.0,0.0,0.0,0.0,10.0,0.0,0.0,0.0,10.0
1446037198911970377,266,1446037198906795978,robocape_mag,12.75,6.3,21.6,10.0,0.0,0.0,0.0,10.0,0.0,0.0,0.0,10.0
1446037198945325294,267,1446037198940284013,robocape_mag,12.75,6.3,21.6,10.0,0.0,0.0,0.0,10.0,0.0,0.0,0.0,10.0
1446037198978603377,268,1446037198973537921,robocape_mag,12.75,6.3,21.6,10.0,0.0,0.0,0.0,10.0,0.0,0.0,0.0,10.0
1446037199015448502,269,1446037199006678104,robocape_mag,12.75,6.3,21.6,10.0,0.0,0.0,0.0,10.0,0.0,0.0,0.0,10.0
1446037199044720961,270,1446037199039900064,robocape_mag,12.75,6.3,21.6,10.0,0.0,0.0,0.0,10.0,0.0,0.0,0.0,10.0
1446037199077293586,271,1446037199072396039,robocape_mag,16.95,4.5,26.4,10.0,0.0,0.0,0.0,10.0,0.0,0.0,0.0,10.0
1446037199110151169,272,1446037199105022907,robocape_mag,16.95,4.5,26.4,10.0,0.0,0.0,0.0,10.0,0.0,0.0,0.0,10.0
1446037199143521461,273,1446037199138767004,robocape_mag,16.95,4.5,26.4,10.0,0.0,0.0,0.0,10.0,0.0,0.0,0.0,10.0
1446037199177013461,274,1446037199171972036,robocape_mag,16.95,4.5,26.4,10.0,0.0,0.0,0.0,10.0,0.0,0.0,0.0,10.0
1446037199212006002,275,1446037199204583883,robocape_mag,16.95,4.5,26.4,10.0,0.0,0.0,0.0,10.0,0.0,0.0,0.0,10.0
1446037199267410794,276,1446037199238003969,robocape_mag,11.25,6.0,26.1,10.0,0.0,0.0,0.0,10.0,0.0,0.0,0.0,10.0
1446037199290986003,277,1446037199284084081,robocape_mag,11.25,6.0,26.1,10.0,0.0,0.0,0.0,10.0,0.0,0.0,0.0,10.0
1446037199314592711,278,1446037199305660963,robocape_mag,11.25,6.0,26.1,10.0,0.0,0.0,0.0,10.0,0.0,0.0,0.0,10.0
1446037199344234753,279,1446037199339240074,robocape_mag,11.25,6.0,26.1,10.0,0.0,0.0,0.0,10.0,0.0,0.0,0.0,10.0
1446037199380479336,280,1446037199372775077,robocape_mag,11.25,6.0,26.1,10.0,0.0,0.0,0.0,10.0,0.0,0.0,0.0,10.0
1446037199410281961,281,1446037199405160903,robocape_mag,6.15,6.9,25.8,10.0,0.0,0.0,0.0,10.0,0.0,0.0,0.0,10.0
1446037199446918003,282,1446037199441967964,robocape_mag,6.15,6.9,25.8,10.0,0.0,0.0,0.0,10.0,0.0,0.0,0.0,10.0
1446037199481676419,283,1446037199474575042,robocape_mag,6.15,6.9,25.8,10.0,0.0,0.0,0.0,10.0,0.0,0.0,0.0,10.0
1446037199516527711,284,1446037199507297039,robocape_mag,6.15,6.9,25.8,10.0,0.0,0.0,0.0,10.0,0.0,0.0,0.0,10.0
1446037199547203794,285,1446037199540429115,robocape_mag,6.15,6.9,25.8,10.0,0.0,0.0,0.0,10.0,0.0,0.0,0.0,10.0
1446037199584408169,286,1446037199575040102,robocape_mag,15.75,3.3,26.4,10.0,0.0,0.0,0.0,10.0,0.0,0.0,0.0,10.0
1446037199613618753,287,1446037199607494115,robocape_mag,15.75,3.3,26.4,10.0,0.0,0.0,0.0,10.0,0.0,0.0,0.0,10.0
1446037199647045294,288,1446037199642081022,robocape_mag,15.75,3.3,26.4,10.0,0.0,0.0,0.0,10.0,0.0,0.0,0.0,10.0
1446037199684250628,289,1446037199674858093,robocape_mag,15.75,3.3,26.4,10.0,0.0,0.0,0.0,10.0,0.0,0.0,0.0,10.0
1446037199713456044,290,1446037199708185911,robocape_mag,10.05,7.2,23.1,10.0,0.0,0.0,0.0,10.0,0.0,0.0,0.0,10.0
1446037199746197253,291,1446037199740983963,robocape_mag,10.05,7.2,23.1,10.0,0.0,0.0,0.0,10.0,0.0,0.0,0.0,10.0
1446037199783734794,292,1446037199775083065,robocape_mag,10.05,7.2,23.1,10.0,0.0,0.0,0.0,10.0,0.0,0.0,0.0,10.0
1446037199813197169,293,1446037199807988882,robocape_mag,10.05,7.2,23.1,10.0,0.0,0.0,0.0,10.0,0.0,0.0,0.0,10.0
1446037199846778794,294,1446037199841680049,robocape_mag,10.05,7.2,23.1,10.0,0.0,0.0,0.0,10.0,0.0,0.0,0.0,10.0
1446037199879920878,295,1446037199874954938,robocape_mag,14.85,4.8,26.7,10.0,0.0,0.0,0.0,10.0,0.0,0.0,0.0,10.0
1446037199915005586,296,1446037199906757116,robocape_mag,14.85,4.8,26.7,10.0,0.0,0.0,0.0,10.0,0.0,0.0,0.0,10.0
1446037199947752919,297,1446037199940798044,robocape_mag,14.85,4.8,26.7,10.0,0.0,0.0,0.0,10.0,0.0,0.0,0.0,10.0
1446037199975983503,298,1446037199970839977,robocape_mag,14.85,4.8,26.7,10.0,0.0,0.0,0.0,10.0,0.0,0.0,0.0,10.0
1446037200009343836,299,1446037200004204988,robocape_mag,14.85,4.8,26.7,10.0,0.0,0.0,0.0,10.0,0.0,0.0,0.0,10.0
1446037200042740795,300,1446037200037427902,robocape_mag,17.25,2.4,23.7,10.0,0.0,0.0,0.0,10.0,0.0,0.0,0.0,10.0
1446037200076061086,301,1446037200070883989,robocape_mag,17.25,2.4,23.7,10.0,0.0,0.0,0.0,10.0,0.0,0.0,0.0,10.0
1446037200109174753,302,1446037200104089975,robocape_mag,17.25,2.4,23.7,10.0,0.0,0.0,0.0,10.0,0.0,0.0,0.0,10.0
1446037200142418295,303,1446037200137530088,robocape_mag,17.25,2.4,23.7,10.0,0.0,0.0,0.0,10.0,0.0,0.0,0.0,10.0
1446037200179766086,304,1446037200171731948,robocape_mag,17.25,2.4,23.7,10.0,0.0,0.0,0.0,10.0,0.0,0.0,0.0,10.0
1446037200209073795,305,1446037200204235076,robocape_mag,12.45,6.0,25.5,10.0,0.0,0.0,0.0,10.0,0.0,0.0,0.0,10.0
1446037200242447753,306,1446037200237457036,robocape_mag,12.45,6.0,25.5,10.0,0.0,0.0,0.0,10.0,0.0,0.0,0.0,10.0
1446037200275970378,307,1446037200270977020,robocape_mag,12.45,6.0,25.5,10.0,0.0,0.0,0.0,10.0,0.0,0.0,0.0,10.0
1446037200309433503,308,1446037200304440021,robocape_mag,12.45,6.0,25.5,10.0,0.0,0.0,0.0,10.0,0.0,0.0,0.0,10.0
1446037200343437045,309,1446037200338618040,robocape_mag,12.45,6.0,25.5,10.0,0.0,0.0,0.0,10.0,0.0,0.0,0.0,10.0
1446037200377186545,310,1446037200372262954,robocape_mag,16.35,2.7,24.6,10.0,0.0,0.0,0.0,10.0,0.0,0.0,0.0,10.0
1446037200411699045,311,1446037200406232118,robocape_mag,16.35,2.7,24.6,10.0,0.0,0.0,0.0,10.0,0.0,0.0,0.0,10.0
1446037200447474670,312,1446037200439661026,robocape_mag,16.35,2.7,24.6,10.0,0.0,0.0,0.0,10.0,0.0,0.0,0.0,10.0
1446037200481087336,313,1446037200472718954,robocape_mag,16.35,2.7,24.6,10.0,0.0,0.0,0.0,10.0,0.0,0.0,0.0,10.0
1446037200509602628,314,1446037200504726886,robocape_mag,16.35,4.8,23.1,10.0,0.0,0.0,0.0,10.0,0.0,0.0,0.0,10.0
1446037200544439211,315,1446037200539285898,robocape_mag,12.45,4.8,23.1,10.0,0.0,0.0,0.0,10.0,0.0,0.0,0.0,10.0
1446037200581792086,316,1446037200574927091,robocape_mag,12.45,4.8,23.1,10.0,0.0,0.0,0.0,10.0,0.0,0.0,0.0,10.0
1446037200612463420,317,1446037200605979919,robocape_mag,12.45,4.8,23.1,10.0,0.0,0.0,0.0,10.0,0.0,0.0,0.0,10.0
1446037200646670920,318,1446037200641777992,robocape_mag,12.45,4.8,23.1,10.0,0.0,0.0,0.0,10.0,0.0,0.0,0.0,10.0
1446037200681577087,319,1446037200673342943,robocape_mag,8.55,6.3,24.6,10.0,0.0,0.0,0.0,10.0,0.0,0.0,0.0,10.0
1446037200714470212,320,1446037200707314968,robocape_mag,8.55,6.3,24.6,10.0,0.0,0.0,0.0,10.0,0.0,0.0,0.0,10.0
1446037200745520378,321,1446037200740652084,robocape_mag,8.55,6.3,24.6,10.0,0.0,0.0,0.0,10.0,0.0,0.0,0.0,10.0
1446037200781090795,322,1446037200774888992,robocape_mag,8.55,6.3,24.6,10.0,0.0,0.0,0.0,10.0,0.0,0.0,0.0,10.0
1446037200813984128,323,1446037200808572053,robocape_mag,8.55,6.3,24.6,10.0,0.0,0.0,0.0,10.0,0.0,0.0,0.0,10.0
1446037200846616628,324,1446037200841249942,robocape_mag,12.45,2.4,27.9,10.0,0.0,0.0,0.0,10.0,0.0,0.0,0.0,10.0
1446037200880262003,325,1446037200874995946,robocape_mag,12.45,2.4,27.9,10.0,0.0,0.0,0.0,10.0,0.0,0.0,0.0,10.0
1446037200913758712,326,1446037200908428907,robocape_mag,12.45,2.4,27.9,10.0,0.0,0.0,0.0,10.0,0.0,0.0,0.0,10.0
1446037200946224753,327,1446037200941121101,robocape_mag,12.45,2.4,27.9,10.0,0.0,0.0,0.0,10.0,0.0,0.0,0.0,10.0
1446037200980463295,328,1446037200975337982,robocape_mag,12.45,2.4,27.9,10.0,0.0,0.0,0.0,10.0,0.0,0.0,0.0,10.0
1446037201013547128,329,1446037201008438110,robocape_mag,9.15,5.7,24.6,10.0,0.0,0.0,0.0,10.0,0.0,0.0,0.0,10.0
1446037201046122045,330,1446037201041203975,robocape_mag,9.15,5.7,24.6,10.0,0.0,0.0,0.0,10.0,0.0,0.0,0.0,10.0
1446037201080068920,331,1446037201075109004,robocape_mag,9.15,5.7,24.6,10.0,0.0,0.0,0.0,10.0,0.0,0.0,0.0,10.0
1446037201112457712,332,1446037201107423067,robocape_mag,9.15,5.7,24.6,10.0,0.0,0.0,0.0,10.0,0.0,0.0,0.0,10.0
1446037201146009587,333,1446037201141156911,robocape_mag,9.15,5.7,24.6,10.0,0.0,0.0,0.0,10.0,0.0,0.0,0.0,10.0
1446037201179431503,334,1446037201174284934,robocape_mag,10.35,3.9,25.2,10.0,0.0,0.0,0.0,10.0,0.0,0.0,0.0,10.0
1446037201212598962,335,1446037201207410097,robocape_mag,10.35,3.9,25.2,10.0,0.0,0.0,0.0,10.0,0.0,0.0,0.0,10.0
1446037201245321503,336,1446037201240545988,robocape_mag,10.35,3.9,25.2,10.0,0.0,0.0,0.0,10.0,0.0,0.0,0.0,10.0
1446037201279326962,337,1446037201274342060,robocape_mag,10.35,3.9,25.2,10.0,0.0,0.0,0.0,10.0,0.0,0.0,0.0,10.0
1446037201312527170,338,1446037201307271003,robocape_mag,11.85,4.8,22.5,10.0,0.0,0.0,0.0,10.0,0.0,0.0,0.0,10.0
1446037201344171087,339,1446037201339323997,robocape_mag,11.85,4.8,22.5,10.0,0.0,0.0,0.0,10.0,0.0,0.0,0.0,10.0
1446037201378572670,340,1446037201373734951,robocape_mag,11.85,4.8,22.5,10.0,0.0,0.0,0.0,10.0,0.0,0.0,0.0,10.0
1446037201410494212,341,1446037201405491113,robocape_mag,11.85,4.8,22.5,10.0,0.0,0.0,0.0,10.0,0.0,0.0,0.0,10.0
1446037201450638212,342,1446037201440299987,robocape_mag,11.85,4.8,22.5,10.0,0.0,0.0,0.0,10.0,0.0,0.0,0.0,10.0
1446037201476835545,343,1446037201471822977,robocape_mag,9.45,4.8,25.5,10.0,0.0,0.0,0.0,10.0,0.0,0.0,0.0,10.0
1446037201510071504,344,1446037201505038022,robocape_mag,9.45,4.8,25.5,10.0,0.0,0.0,0.0,10.0,0.0,0.0,0.0,10.0
1446037201543665129,345,1446037201538712978,robocape_mag,9.45,4.8,25.5,10.0,0.0,0.0,0.0,10.0,0.0,0.0,0.0,10.0
1446037201576552004,346,1446037201571542978,robocape_mag,9.45,4.8,25.5,10.0,0.0,0.0,0.0,10.0,0.0,0.0,0.0,10.0
1446037201609709212,347,1446037201604581117,robocape_mag,9.45,4.8,25.5,10.0,0.0,0.0,0.0,10.0,0.0,0.0,0.0,10.0
1446037201642436212,348,1446037201637617111,robocape_mag,13.65,4.2,24.9,10.0,0.0,0.0,0.0,10.0,0.0,0.0,0.0,10.0
1446037201676124337,349,1446037201671091079,robocape_mag,13.65,4.2,24.9,10.0,0.0,0.0,0.0,10.0,0.0,0.0,0.0,10.0
1446037201709161462,350,1446037201704282999,robocape_mag,13.65,4.2,24.9,10.0,0.0,0.0,0.0,10.0,0.0,0.0,0.0,10.0
1446037201742525504,351,1446037201737719058,robocape_mag,13.65,4.2,24.9,10.0,0.0,0.0,0.0,10.0,0.0,0.0,0.0,10.0
1446037201776785420,352,1446037201771697998,robocape_mag,13.65,4.2,24.9,10.0,0.0,0.0,0.0,10.0,0.0,0.0,0.0,10.0
1446037201809658712,353,1446037201804883956,robocape_mag,11.25,7.8,24.9,10.0,0.0,0.0,0.0,10.0,0.0,0.0,0.0,10.0
1446037201842429754,354,1446037201837598085,robocape_mag,11.25,7.8,24.9,10.0,0.0,0.0,0.0,10.0,0.0,0.0,0.0,10.0
1446037201876141837,355,1446037201871254920,robocape_mag,11.25,7.8,24.9,10.0,0.0,0.0,0.0,10.0,0.0,0.0,0.0,10.0
1446037201909370962,356,1446037201904602050,robocape_mag,11.25,7.8,24.9,10.0,0.0,0.0,0.0,10.0,0.0,0.0,0.0,10.0
1446037201942508045,357,1446037201937697887,robocape_mag,11.25,7.8,24.9,10.0,0.0,0.0,0.0,10.0,0.0,0.0,0.0,10.0
1446037201976100754,358,1446037201971168041,robocape_mag,12.15,6.3,23.4,10.0,0.0,0.0,0.0,10.0,0.0,0.0,0.0,10.0
1446037202009158379,359,1446037202004322052,robocape_mag,12.15,6.3,23.4,10.0,0.0,0.0,0.0,10.0,0.0,0.0,0.0,10.0
1446037202042561504,360,1446037202037728071,robocape_mag,12.15,6.3,23.4,10.0,0.0,0.0,0.0,10.0,0.0,0.0,0.0,10.0
1446037202076151254,361,1446037202070938110,robocape_mag,12.15,6.3,23.4,10.0,0.0,0.0,0.0,10.0,0.0,0.0,0.0,10.0
1446037202109051671,362,1446037202104211091,robocape_mag,12.15,6.3,22.5,10.0,0.0,0.0,0.0,10.0,0.0,0.0,0.0,10.0
1446037202142645712,363,1446037202137648105,robocape_mag,11.25,4.8,22.5,10.0,0.0,0.0,0.0,10.0,0.0,0.0,0.0,10.0
1446037202178495046,364,1446037202171292066,robocape_mag,11.25,4.8,22.5,10.0,0.0,0.0,0.0,10.0,0.0,0.0,0.0,10.0
1446037202211025587,365,1446037202204315900,robocape_mag,11.25,4.8,22.5,10.0,0.0,0.0,0.0,10.0,0.0,0.0,0.0,10.0
1446037202244159879,366,1446037202237476110,robocape_mag,11.25,4.8,22.5,10.0,0.0,0.0,0.0,10.0,0.0,0.0,0.0,10.0
1446037202276328337,367,1446037202270809888,robocape_mag,16.35,3.3,25.2,10.0,0.0,0.0,0.0,10.0,0.0,0.0,0.0,10.0
1446037202309501129,368,1446037202304356098,robocape_mag,16.35,3.3,25.2,10.0,0.0,0.0,0.0,10.0,0.0,0.0,0.0,10.0
1446037202342615712,369,1446037202337524890,robocape_mag,16.35,3.3,25.2,10.0,0.0,0.0,0.0,10.0,0.0,0.0,0.0,10.0
1446037202377922754,370,1446037202370786905,robocape_mag,16.35,3.3,25.2,10.0,0.0,0.0,0.0,10.0,0.0,0.0,0.0,10.0
1446037202409195712,371,1446037202404243946,robocape_mag,16.35,3.3,25.2,10.0,0.0,0.0,0.0,10.0,0.0,0.0,0.0,10.0
1446037202449350796,372,1446037202440412998,robocape_mag,16.05,1.2,24.3,10.0,0.0,0.0,0.0,10.0,0.0,0.0,0.0,10.0
1446037202476587671,373,1446037202471118927,robocape_mag,16.05,1.2,24.3,10.0,0.0,0.0,0.0,10.0,0.0,0.0,0.0,10.0
1446037202509375504,374,1446037202504545927,robocape_mag,16.05,1.2,24.3,10.0,0.0,0.0,0.0,10.0,0.0,0.0,0.0,10.0
1446037202542483962,375,1446037202537636995,robocape_mag,16.05,1.2,24.3,10.0,0.0,0.0,0.0,10.0,0.0,0.0,0.0,10.0
1446037202575834421,376,1446037202570857048,robocape_mag,16.05,1.2,24.3,10.0,0.0,0.0,0.0,10.0,0.0,0.0,0.0,10.0
1446037202609066337,377,1446037202604204893,robocape_mag,10.35,6.3,24.0,10.0,0.0,0.0,0.0,10.0,0.0,0.0,0.0,10.0
1446037202642731254,378,1446037202637871980,robocape_mag,10.35,6.3,24.0,10.0,0.0,0.0,0.0,10.0,0.0,0.0,0.0,10.0
1446037202677619504,379,1446037202671116113,robocape_mag,10.35,6.3,24.0,10.0,0.0,0.0,0.0,10.0,0.0,0.0,0.0,10.0
1446037202710526046,380,1446037202705693006,robocape_mag,10.35,6.3,24.0,10.0,0.0,0.0,0.0,10.0,0.0,0.0,0.0,10.0
1446037202743724712,381,1446037202738889932,robocape_mag,10.35,6.3,24.0,10.0,0.0,0.0,0.0,10.0,0.0,0.0,0.0,10.0
1446037202781972379,382,1446037202772125959,robocape_mag,14.25,3.0,24.3,10.0,0.0,0.0,0.0,10.0,0.0,0.0,0.0,10.0
1446037202811306546,383,1446037202806257009,robocape_mag,14.25,3.0,24.3,10.0,0.0,0.0,0.0,10.0,0.0,0.0,0.0,10.0
1446037202844488129,384,1446037202839432954,robocape_mag,14.25,3.0,24.3,10.0,0.0,0.0,0.0,10.0,0.0,0.0,0.0,10.0
1446037202882067004,385,1446037202873003959,robocape_mag,14.25,3.0,24.3,10.0,0.0,0.0,0.0,10.0,0.0,0.0,0.0,10.0
1446037202910753629,386,1446037202905982971,robocape_mag,13.65,6.6,22.5,10.0,0.0,0.0,0.0,10.0,0.0,0.0,0.0,10.0
1446037202944689129,387,1446037202939523935,robocape_mag,13.65,6.6,22.5,10.0,0.0,0.0,0.0,10.0,0.0,0.0,0.0,10.0
1446037202979840921,388,1446037202971591949,robocape_mag,13.65,6.6,22.5,10.0,0.0,0.0,0.0,10.0,0.0,0.0,0.0,10.0
1446037203019757588,389,1446037203008405923,robocape_mag,13.65,6.6,22.5,10.0,0.0,0.0,0.0,10.0,0.0,0.0,0.0,10.0
1446037203043737421,390,1446037203038613080,robocape_mag,13.65,6.6,22.5,10.0,0.0,0.0,0.0,10.0,0.0,0.0,0.0,10.0
1446037203084778963,391,1446037203075084924,robocape_mag,10.65,6.0,23.7,10.0,0.0,0.0,0.0,10.0,0.0,0.0,0.0,10.0
1446037203114254046,392,1446037203108848094,robocape_mag,10.65,6.0,23.7,10.0,0.0,0.0,0.0,10.0,0.0,0.0,0.0,10.0
1446037203146861129,393,1446037203140923976,robocape_mag,10.65,6.0,23.7,10.0,0.0,0.0,0.0,10.0,0.0,0.0,0.0,10.0
1446037203181966504,394,1446037203173319101,robocape_mag,10.65,6.0,23.7,10.0,0.0,0.0,0.0,10.0,0.0,0.0,0.0,10.0
1446037203214415546,395,1446037203209182024,robocape_mag,10.65,6.0,23.7,10.0,0.0,0.0,0.0,10.0,0.0,0.0,0.0,10.0
1446037203246794379,396,1446037203241667985,robocape_mag,11.25,24.0,23.1,10.0,0.0,0.0,0.0,10.0,0.0,0.0,0.0,10.0
1446037203281543963,397,1446037203275981903,robocape_mag,11.25,24.0,23.1,10.0,0.0,0.0,0.0,10.0,0.0,0.0,0.0,10.0
1446037203313875963,398,1446037203308840990,robocape_mag,11.25,24.0,23.1,10.0,0.0,0.0,0.0,10.0,0.0,0.0,0.0,10.0
1446037203346690129,399,1446037203341715097,robocape_mag,11.25,24.0,23.1,10.0,0.0,0.0,0.0,10.0,0.0,0.0,0.0,10.0
1446037203379372171,400,1446037203374376058,robocape_mag,11.25,24.0,23.1,10.0,0.0,0.0,0.0,10.0,0.0,0.0,0.0,10.0
1446037203412363713,401,1446037203407004117,robocape_mag,1.35,18.9,13.2,10.0,0.0,0.0,0.0,10.0,0.0,0.0,0.0,10.0
1446037203454459463,402,1446037203442609071,robocape_mag,1.35,18.9,13.2,10.0,0.0,0.0,0.0,10.0,0.0,0.0,0.0,10.0
1446037203478520755,403,1446037203473558902,robocape_mag,1.35,18.9,13.2,10.0,0.0,0.0,0.0,10.0,0.0,0.0,0.0,10.0
1446037203513385046,404,1446037203508358001,robocape_mag,1.35,18.9,13.2,10.0,0.0,0.0,0.0,10.0,0.0,0.0,0.0,10.0
1446037203546116796,405,1446037203541284084,robocape_mag,1.35,18.9,13.2,10.0,0.0,0.0,0.0,10.0,0.0,0.0,0.0,10.0
1446037203579556630,406,1446037203573853969,robocape_mag,8.85,-7.2,8.7,10.0,0.0,0.0,0.0,10.0,0.0,0.0,0.0,10.0
1446037203613036630,407,1446037203607978105,robocape_mag,8.85,-7.2,8.7,10.0,0.0,0.0,0.0,10.0,0.0,0.0,0.0,10.0
1446037203645364338,408,1446037203640522956,robocape_mag,8.85,-7.2,8.7,10.0,0.0,0.0,0.0,10.0,0.0,0.0,0.0,10.0
1446037203678029046,409,1446037203672801017,robocape_mag,8.85,-7.2,8.7,10.0,0.0,0.0,0.0,10.0,0.0,0.0,0.0,10.0
1446037203710918338,410,1446037203705765962,robocape_mag,72.75,5.7,21.0,10.0,0.0,0.0,0.0,10.0,0.0,0.0,0.0,10.0
1446037203742361463,411,1446037203737538099,robocape_mag,-4.05,5.7,21.0,10.0,0.0,0.0,0.0,10.0,0.0,0.0,0.0,10.0
1446037203776106046,412,1446037203771164894,robocape_mag,-4.05,5.7,21.0,10.0,0.0,0.0,0.0,10.0,0.0,0.0,0.0,10.0
1446037203809499630,413,1446037203804425001,robocape_mag,-4.05,5.7,21.0,10.0,0.0,0.0,0.0,10.0,0.0,0.0,0.0,10.0
1446037203847548421,414,1446037203838726043,robocape_mag,-4.05,5.7,21.0,10.0,0.0,0.0,0.0,10.0,0.0,0.0,0.0,10.0
1446037203877166838,415,1446037203872113943,robocape_mag,23.25,6.0,21.3,10.0,0.0,0.0,0.0,10.0,0.0,0.0,0.0,10.0
1446037203910853838,416,1446037203905736923,robocape_mag,23.25,6.0,21.3,10.0,0.0,0.0,0.0,10.0,0.0,0.0,0.0,10.0
1446037203944085505,417,1446037203939248085,robocape_mag,23.25,6.0,21.3,10.0,0.0,0.0,0.0,10.0,0.0,0.0,0.0,10.0
1446037203978178588,418,1446037203972331047,robocape_mag,23.25,6.0,21.3,10.0,0.0,0.0,0.0,10.0,0.0,0.0,0.0,10.0
1446037204014521671,419,1446037204005909919,robocape_mag,23.25,6.0,21.3,10.0,0.0,0.0,0.0,10.0,0.0,0.0,0.0,10.0
1446037204044413921,420,1446037204039324045,robocape_mag,-12.45,5.1,10.8,10.0,0.0,0.0,0.0,10.0,0.0,0.0,0.0,10.0
1446037204081785213,421,1446037204072953939,robocape_mag,-12.45,5.1,10.8,10.0,0.0,0.0,0.0,10.0,0.0,0.0,0.0,10.0
1446037204111332671,422,1446037204105987071,robocape_mag,-12.45,5.1,10.8,10.0,0.0,0.0,0.0,10.0,0.0,0.0,0.0,10.0
1446037204142482880,423,1446037204137536048,robocape_mag,-12.45,5.1,10.8,10.0,0.0,0.0,0.0,10.0,0.0,0.0,0.0,10.0
1446037204176483672,424,1446037204171530961,robocape_mag,-12.45,5.1,10.8,10.0,0.0,0.0,0.0,10.0,0.0,0.0,0.0,10.0
1446037204209508380,425,1446037204204266071,robocape_mag,-21.75,3.6,11.1,10.0,0.0,0.0,0.0,10.0,0.0,0.0,0.0,10.0
1446037204242915088,426,1446037204237978935,robocape_mag,-21.75,3.6,11.1,10.0,0.0,0.0,0.0,10.0,0.0,0.0,0.0,10.0
1446037204280489838,427,1446037204274267911,robocape_mag,-21.75,3.6,11.1,10.0,0.0,0.0,0.0,10.0,0.0,0.0,0.0,10.0
1446037204313697505,428,1446037204308096885,robocape_mag,-21.75,3.6,11.1,10.0,0.0,0.0,0.0,10.0,0.0,0.0,0.0,10.0
1446037204346449755,429,1446037204340158939,robocape_mag,-21.75,3.6,11.1,10.0,0.0,0.0,0.0,10.0,0.0,0.0,0.0,10.0
1446037204383604922,430,1446037204375171899,robocape_mag,-16.35,-1.8,8.7,10.0,0.0,0.0,0.0,10.0,0.0,0.0,0.0,10.0
1446037204418576672,431,1446037204408233880,robocape_mag,-16.35,-1.8,8.7,10.0,0.0,0.0,0.0,10.0,0.0,0.0,0.0,10.0
1446037204450244588,432,1446037204441642999,robocape_mag,-16.35,-1.8,8.7,10.0,0.0,0.0,0.0,10.0,0.0,0.0,0.0,10.0
1446037204480144297,433,1446037204474852085,robocape_mag,-16.35,-1.8,8.7,10.0,0.0,0.0,0.0,10.0,0.0,0.0,0.0,10.0
1446037204518166380,434,1446037204508274078,robocape_mag,-5.25,2.1,20.4,10.0,0.0,0.0,0.0,10.0,0.0,0.0,0.0,10.0
1446037204546946172,435,1446037204541729927,robocape_mag,-5.25,2.1,20.4,10.0,0.0,0.0,0.0,10.0,0.0,0.0,0.0,10.0
1446037204582616047,436,1446037204573937892,robocape_mag,-5.25,2.1,20.4,10.0,0.0,0.0,0.0,10.0,0.0,0.0,0.0,10.0
1446037204613100922,437,1446037204607558965,robocape_mag,-5.25,2.1,20.4,10.0,0.0,0.0,0.0,10.0,0.0,0.0,0.0,10.0
1446037204646424005,438,1446037204641419887,robocape_mag,-5.25,2.1,20.4,10.0,0.0,0.0,0.0,10.0,0.0,0.0,0.0,10.0
1446037204679871672,439,1446037204674734115,robocape_mag,-11.55,2.4,20.1,10.0,0.0,0.0,0.0,10.0,0.0,0.0,0.0,10.0
1446037204716743088,440,1446037204707068920,robocape_mag,-11.55,2.4,20.1,10.0,0.0,0.0,0.0,10.0,0.0,0.0,0.0,10.0
1446037204748195047,441,1446037204740008115,robocape_mag,-11.55,2.4,20.1,10.0,0.0,0.0,0.0,10.0,0.0,0.0,0.0,10.0
1446037204778804797,442,1446037204773835897,robocape_mag,-11.55,2.4,20.1,10.0,0.0,0.0,0.0,10.0,0.0,0.0,0.0,10.0
1446037204816406130,443,1446037204807177066,robocape_mag,-11.55,2.4,20.1,10.0,0.0,0.0,0.0,10.0,0.0,0.0,0.0,10.0
1446037204845116047,444,1446037204840096950,robocape_mag,-11.55,-2.4,15.9,10.0,0.0,0.0,0.0,10.0,0.0,0.0,0.0,10.0
1446037204878415839,445,1446037204873555898,robocape_mag,-11.55,-2.4,15.9,10.0,0.0,0.0,0.0,10.0,0.0,0.0,0.0,10.0
1446037204911053339,446,1446037204906235933,robocape_mag,-11.55,-2.4,15.9,10.0,0.0,0.0,0.0,10.0,0.0,0.0,0.0,10.0
1446037204942350505,447,1446037204937549114,robocape_mag,-11.55,-2.4,15.9,10.0,0.0,0.0,0.0,10.0,0.0,0.0,0.0,10.0
1446037204976031089,448,1446037204971054077,robocape_mag,-11.55,-2.4,15.9,10.0,0.0,0.0,0.0,10.0,0.0,0.0,0.0,10.0
1446037205010573297,449,1446037205005728006,robocape_mag,-15.45,-4.5,10.8,10.0,0.0,0.0,0.0,10.0,0.0,0.0,0.0,10.0
1446037205043606297,450,1446037205038774013,robocape_mag,-15.45,-4.5,10.8,10.0,0.0,0.0,0.0,10.0,0.0,0.0,0.0,10.0
1446037205075908047,451,1446037205070892095,robocape_mag,-15.45,-4.5,10.8,10.0,0.0,0.0,0.0,10.0,0.0,0.0,0.0,10.0
1446037205110020839,452,1446037205105211973,robocape_mag,-15.45,-4.5,10.8,10.0,0.0,0.0,0.0,10.0,0.0,0.0,0.0,10.0
1446037205150219714,453,1446037205143573045,robocape_mag,-15.45,-4.5,10.8,10.0,0.0,0.0,0.0,10.0,0.0,0.0,0.0,10.0
1446037205175783255,454,1446037205170716047,robocape_mag,-4.65,-4.5,21.0,10.0,0.0,0.0,0.0,10.0,0.0,0.0,0.0,10.0
1446037205211164755,455,1446037205204319953,robocape_mag,-4.65,-4.5,21.0,10.0,0.0,0.0,0.0,10.0,0.0,0.0,0.0,10.0
1446037205242466964,456,1446037205237663984,robocape_mag,-4.65,-4.5,21.0,10.0,0.0,0.0,0.0,10.0,0.0,0.0,0.0,10.0
1446037205276118339,457,1446037205271114110,robocape_mag,-4.65,-4.5,21.0,10.0,0.0,0.0,0.0,10.0,0.0,0.0,0.0,10.0
1446037205309413339,458,1446037205304586887,robocape_mag,-4.65,-8.1,7.8,10.0,0.0,0.0,0.0,10.0,0.0,0.0,0.0,10.0
1446037205342648880,459,1446037205337774991,robocape_mag,1.35,-8.1,7.8,10.0,0.0,0.0,0.0,10.0,0.0,0.0,0.0,10.0
1446037205376132797,460,1446037205371221065,robocape_mag,1.35,-8.1,7.8,10.0,0.0,0.0,0.0,10.0,0.0,0.0,0.0,10.0
1446037205409593172,461,1446037205404664993,robocape_mag,1.35,-8.1,7.8,10.0,0.0,0.0,0.0,10.0,0.0,0.0,0.0,10.0
1446037205447950172,462,1446037205440036058,robocape_mag,1.35,-8.1,7.8,10.0,0.0,0.0,0.0,10.0,0.0,0.0,0.0,10.0
1446037205476351005,463,1446037205471307992,robocape_mag,18.15,-8.1,10.8,10.0,0.0,0.0,0.0,10.0,0.0,0.0,0.0,10.0
1446037205509000922,464,1446037205504261016,robocape_mag,18.15,-8.1,10.8,10.0,0.0,0.0,0.0,10.0,0.0,0.0,0.0,10.0
1446037205548266131,465,1446037205540975093,robocape_mag,18.15,-8.1,10.8,10.0,0.0,0.0,0.0,10.0,0.0,0.0,0.0,10.0
1446037205584554797,466,1446037205575099945,robocape_mag,18.15,-8.1,10.8,10.0,0.0,0.0,0.0,10.0,0.0,0.0,0.0,10.0
1446037205615055922,467,1446037205606911897,robocape_mag,18.15,-8.1,10.8,10.0,0.0,0.0,0.0,10.0,0.0,0.0,0.0,10.0
1446037205652382756,468,1446037205642772912,robocape_mag,16.05,-6.0,17.1,10.0,0.0,0.0,0.0,10.0,0.0,0.0,0.0,10.0
1446037205675498214,469,1446037205670686960,robocape_mag,16.05,-6.0,17.1,10.0,0.0,0.0,0.0,10.0,0.0,0.0,0.0,10.0
1446037205709960089,470,1446037205704180002,robocape_mag,16.05,-6.0,17.1,10.0,0.0,0.0,0.0,10.0,0.0,0.0,0.0,10.0
1446037205743138256,471,1446037205738125085,robocape_mag,16.05,-6.0,17.1,10.0,0.0,0.0,0.0,10.0,0.0,0.0,0.0,10.0
1446037205782953006,472,1446037205774316072,robocape_mag,16.05,-6.0,17.1,10.0,0.0,0.0,0.0,10.0,0.0,0.0,0.0,10.0
1446037205812658297,473,1446037205807787895,robocape_mag,-6.15,-6.0,10.5,10.0,0.0,0.0,0.0,10.0,0.0,0.0,0.0,10.0
1446037205842655631,474,1446037205837544918,robocape_mag,-6.15,-6.0,10.5,10.0,0.0,0.0,0.0,10.0,0.0,0.0,0.0,10.0
1446037205876106506,475,1446037205870927095,robocape_mag,-6.15,-6.0,10.5,10.0,0.0,0.0,0.0,10.0,0.0,0.0,0.0,10.0
1446037205912209339,476,1446037205907084941,robocape_mag,-6.15,-6.0,10.5,10.0,0.0,0.0,0.0,10.0,0.0,0.0,0.0,10.0
1446037205945735881,477,1446037205940576076,robocape_mag,-6.15,-6.0,10.5,10.0,0.0,0.0,0.0,10.0,0.0,0.0,0.0,10.0
1446037205975621756,478,1446037205970639944,robocape_mag,10.65,-10.8,14.1,10.0,0.0,0.0,0.0,10.0,0.0,0.0,0.0,10.0
1446037206009338464,479,1446037206004276037,robocape_mag,10.65,-10.8,14.1,10.0,0.0,0.0,0.0,10.0,0.0,0.0,0.0,10.0
1446037206042203464,480,1446037206037486076,robocape_mag,10.65,-10.8,14.1,10.0,0.0,0.0,0.0,10.0,0.0,0.0,0.0,10.0
1446037206076830256,481,1446037206071815013,robocape_mag,10.65,-10.8,14.1,10.0,0.0,0.0,0.0,10.0,0.0,0.0,0.0,10.0
1446037206111682506,482,1446037206105709075,robocape_mag,72.75,-6.3,11.4,10.0,0.0,0.0,0.0,10.0,0.0,0.0,0.0,10.0
1446037206142328547,483,1446037206137551069,robocape_mag,-4.05,-6.3,11.4,10.0,0.0,0.0,0.0,10.0,0.0,0.0,0.0,10.0
1446037206179940006,484,1446037206170737981,robocape_mag,-4.05,-6.3,11.4,10.0,0.0,0.0,0.0,10.0,0.0,0.0,0.0,10.0
1446037206209584381,485,1446037206204699039,robocape_mag,-4.05,-6.3,11.4,10.0,0.0,0.0,0.0,10.0,0.0,0.0,0.0,10.0
1446037206243088631,486,1446037206238109111,robocape_mag,-4.05,-6.3,11.4,10.0,0.0,0.0,0.0,10.0,0.0,0.0,0.0,10.0
1446037206275860464,487,1446037206270859956,robocape_mag,6.75,-10.5,12.6,10.0,0.0,0.0,0.0,10.0,0.0,0.0,0.0,10.0
1446037206309368881,488,1446037206304544925,robocape_mag,6.75,-10.5,12.6,10.0,0.0,0.0,0.0,10.0,0.0,0.0,0.0,10.0
1446037206342425839,489,1446037206337639093,robocape_mag,6.75,-10.5,12.6,10.0,0.0,0.0,0.0,10.0,0.0,0.0,0.0,10.0
1446037206375708173,490,1446037206370733976,robocape_mag,6.75,-10.5,12.6,10.0,0.0,0.0,0.0,10.0,0.0,0.0,0.0,10.0
1446037206408890256,491,1446037206404153108,robocape_mag,6.75,-10.5,12.6,10.0,0.0,0.0,0.0,10.0,0.0,0.0,0.0,10.0
1446037206448000464,492,1446037206439646959,robocape_mag,10.05,-7.2,17.1,10.0,0.0,0.0,0.0,10.0,0.0,0.0,0.0,10.0
1446037206475656548,493,1446037206470839977,robocape_mag,10.05,-7.2,17.1,10.0,0.0,0.0,0.0,10.0,0.0,0.0,0.0,10.0
1446037206509033589,494,1446037206504275083,robocape_mag,10.05,-7.2,17.1,10.0,0.0,0.0,0.0,10.0,0.0,0.0,0.0,10.0
1446037206542380881,495,1446037206537539958,robocape_mag,10.05,-7.2,17.1,10.0,0.0,0.0,0.0,10.0,0.0,0.0,0.0,10.0
1446037206575646548,496,1446037206570651054,robocape_mag,10.05,-7.2,17.1,10.0,0.0,0.0,0.0,10.0,0.0,0.0,0.0,10.0
1446037206616421298,497,1446037206607001066,robocape_mag,6.75,-8.7,9.6,10.0,0.0,0.0,0.0,10.0,0.0,0.0,0.0,10.0
1446037206642394589,498,1446037206637576103,robocape_mag,6.75,-8.7,9.6,10.0,0.0,0.0,0.0,10.0,0.0,0.0,0.0,10.0
1446037206675676173,499,1446037206670640945,robocape_mag,6.75,-8.7,9.6,10.0,0.0,0.0,0.0,10.0,0.0,0.0,0.0,10.0
1446037206709440131,500,1446037206704231977,robocape_mag,6.75,-8.7,9.6,10.0,0.0,0.0,0.0,10.0,0.0,0.0,0.0,10.0
1446037206742302256,501,1446037206737509012,robocape_mag,6.75,-8.7,9.6,10.0,0.0,0.0,0.0,10.0,0.0,0.0,0.0,10.0
1446037206775542256,502,1446037206770653009,robocape_mag,15.75,-7.5,11.4,10.0,0.0,0.0,0.0,10.0,0.0,0.0,0.0,10.0
1446037206809122548,503,1446037206804326057,robocape_mag,15.75,-7.5,11.4,10.0,0.0,0.0,0.0,10.0,0.0,0.0,0.0,10.0
1446037206842572339,504,1446037206837750911,robocape_mag,15.75,-7.5,11.4,10.0,0.0,0.0,0.0,10.0,0.0,0.0,0.0,10.0
1446037206875792048,505,1446037206870868921,robocape_mag,15.75,-7.5,11.4,10.0,0.0,0.0,0.0,10.0,0.0,0.0,0.0,10.0
1446037206910257089,506,1446037206904153108,robocape_mag,15.75,-7.5,17.7,10.0,0.0,0.0,0.0,10.0,0.0,0.0,0.0,10.0
1446037206942415381,507,1446037206937473058,robocape_mag,14.25,-6.6,17.7,10.0,0.0,0.0,0.0,10.0,0.0,0.0,0.0,10.0
1446037206975602965,508,1446037206970865011,robocape_mag,14.25,-6.6,17.7,10.0,0.0,0.0,0.0,10.0,0.0,0.0,0.0,10.0
1446037207009179256,509,1446037207004221916,robocape_mag,14.25,-6.6,17.7,10.0,0.0,0.0,0.0,10.0,0.0,0.0,0.0,10.0
1446037207042521506,510,1446037207037703037,robocape_mag,14.25,-6.6,17.7,10.0,0.0,0.0,0.0,10.0,0.0,0.0,0.0,10.0
1446037207075697423,511,1446037207070823907,robocape_mag,16.65,-5.4,14.1,10.0,0.0,0.0,0.0,10.0,0.0,0.0,0.0,10.0
1446037207109553173,512,1446037207103975057,robocape_mag,16.65,-5.4,14.1,10.0,0.0,0.0,0.0,10.0,0.0,0.0,0.0,10.0
1446037207142521048,513,1446037207137531995,robocape_mag,16.65,-5.4,14.1,10.0,0.0,0.0,0.0,10.0,0.0,0.0,0.0,10.0
1446037207175986881,514,1446037207170967102,robocape_mag,16.65,-5.4,14.1,10.0,0.0,0.0,0.0,10.0,0.0,0.0,0.0,10.0
1446037207209380798,515,1446037207204107999,robocape_mag,16.65,-5.4,14.1,10.0,0.0,0.0,0.0,10.0,0.0,0.0,0.0,10.0
1446037207242571590,516,1446037207237818956,robocape_mag,22.05,-7.8,0.3,10.0,0.0,0.0,0.0,10.0,0.0,0.0,0.0,10.0
1446037207275734381,517,1446037207270827054,robocape_mag,22.05,-7.8,0.3,10.0,0.0,0.0,0.0,10.0,0.0,0.0,0.0,10.0
1446037207310781715,518,1446037207304218053,robocape_mag,22.05,-7.8,0.3,10.0,0.0,0.0,0.0,10.0,0.0,0.0,0.0,10.0
1446037207342917006,519,1446037207338098049,robocape_mag,22.05,-7.8,0.3,10.0,0.0,0.0,0.0,10.0,0.0,0.0,0.0,10.0
1446037207376080131,520,1446037207371249914,robocape_mag,22.05,-7.8,0.3,10.0,0.0,0.0,0.0,10.0,0.0,0.0,0.0,10.0
1446037207409360840,521,1446037207404160022,robocape_mag,24.75,-3.9,0.6,10.0,0.0,0.0,0.0,10.0,0.0,0.0,0.0,10.0
1446037207449859715,522,1446037207439649105,robocape_mag,24.75,-3.9,0.6,10.0,0.0,0.0,0.0,10.0,0.0,0.0,0.0,10.0
1446037207477075965,523,1446037207472242116,robocape_mag,24.75,-3.9,0.6,10.0,0.0,0.0,0.0,10.0,0.0,0.0,0.0,10.0
1446037207509035590,524,1446037207504271984,robocape_mag,24.75,-3.9,0.6,10.0,0.0,0.0,0.0,10.0,0.0,0.0,0.0,10.0
1446037207544172840,525,1446037207539277076,robocape_mag,24.75,-3.9,0.6,10.0,0.0,0.0,0.0,10.0,0.0,0.0,0.0,10.0
1446037207575685381,526,1446037207570831060,robocape_mag,35.25,-6.6,6.3,10.0,0.0,0.0,0.0,10.0,0.0,0.0,0.0,10.0
1446037207609026715,527,1446037207604083061,robocape_mag,35.25,-6.6,6.3,10.0,0.0,0.0,0.0,10.0,0.0,0.0,0.0,10.0
1446037207646116882,528,1446037207641155958,robocape_mag,35.25,-6.6,6.3,10.0,0.0,0.0,0.0,10.0,0.0,0.0,0.0,10.0
1446037207675490507,529,1446037207670643091,robocape_mag,35.25,-6.6,6.3,10.0,0.0,0.0,0.0,10.0,0.0,0.0,0.0,10.0
1446037207708793298,530,1446037207704008102,robocape_mag,35.25,-6.6,7.2,10.0,0.0,0.0,0.0,10.0,0.0,0.0,0.0,10.0
1446037207742680673,531,1446037207737380981,robocape_mag,30.15,-2.7,7.2,10.0,0.0,0.0,0.0,10.0,0.0,0.0,0.0,10.0
1446037207775490340,532,1446037207770720958,robocape_mag,30.15,-2.7,7.2,10.0,0.0,0.0,0.0,10.0,0.0,0.0,0.0,10.0
1446037207809046382,533,1446037207804260969,robocape_mag,30.15,-2.7,7.2,10.0,0.0,0.0,0.0,10.0,0.0,0.0,0.0,10.0
1446037207846409965,534,1446037207840943098,robocape_mag,30.15,-2.7,7.2,10.0,0.0,0.0,0.0,10.0,0.0,0.0,0.0,10.0
1446037207879451673,535,1446037207874480009,robocape_mag,15.45,1.8,14.1,10.0,0.0,0.0,0.0,10.0,0.0,0.0,0.0,10.0
1446037207909082298,536,1446037207904339075,robocape_mag,15.45,1.8,14.1,10.0,0.0,0.0,0.0,10.0,0.0,0.0,0.0,10.0
