%time,field.header.seq,field.header.stamp,field.header.frame_id,field.magnetic_field.x,field.magnetic_field.y,field.magnetic_field.z,field.magnetic_field_covariance0,field.magnetic_field_covariance1,field.magnetic_field_covariance2,field.magnetic_field_covariance3,field.magnetic_field_covariance4,field.magnetic_field_covariance5,field.magnetic_field_covariance6,field.magnetic_field_covariance7,field.magnetic_field_covariance8
1446035243702692274,1,1446035243514322042,robocape_mag,10.010824015,10.2167283677,-6.52404679175,10.0,0.0,0.0,0.0,10.0,0.0,0.0,0.0,10.0
1446035243719094065,2,1446035243532658100,robocape_mag,10.010824015,10.2167283677,-6.52404679175,10.0,0.0,0.0,0.0,10.0,0.0,0.0,0.0,10.0
1446035243728106690,3,1446035243559281110,robocape_mag,10.010824015,10.2167283677,-6.52404679175,10.0,0.0,0.0,0.0,10.0,0.0,0.0,0.0,10.0
1446035243728266690,4,1446035243573873996,robocape_mag,10.010824015,10.2167283677,-6.52404679175,10.0,0.0,0.0,0.0,10.0,0.0,0.0,0.0,10.0
1446035243728353440,5,1446035243615797042,robocape_mag,10.010824015,10.2167283677,-6.52404679175,10.0,0.0,0.0,0.0,10.0,0.0,0.0,0.0,10.0
1446035243728388899,6,1446035243648164987,robocape_mag,9.99056673294,10.2087066864,-6.51966577288,10.0,0.0,0.0,0.0,10.0,0.0,0.0,0.0,10.0
1446035243728427399,7,1446035243667931079,robocape_mag,9.99056673294,10.2087066864,-6.51966577288,10.0,0.0,0.0,0.0,10.0,0.0,0.0,0.0,10.0
1446035243728460190,8,1446035243690401077,robocape_mag,9.99056673294,10.2087066864,-6.51966577288,10.0,0.0,0.0,0.0,10.0,0.0,0.0,0.0,10.0
1446035243746931149,9,1446035243711082935,robocape_mag,9.99056673294,10.2087066864,-6.51966577288,10.0,0.0,0.0,0.0,10.0,0.0,0.0,0.0,10.0
1446035243747081607,10,1446035243724895954,robocape_mag,9.99056673294,10.2087066864,-6.51966577288,10.0,0.0,0.0,0.0,10.0,0.0,0.0,0.0,10.0
1446035243780646315,11,1446035243751833915,robocape_mag,9.99056673294,10.2087066864,-6.51966577288,10.0,0.0,0.0,0.0,10.0,0.0,0.0,0.0,10.0
1446035243789493315,12,1446035243781975984,robocape_mag,9.99056673294,10.2087066864,-6.51966577288,10.0,0.0,0.0,0.0,10.0,0.0,0.0,0.0,10.0
1446035243802431149,13,1446035243799124002,robocape_mag,10.0332891224,10.2334217552,-6.50240621576,10.0,0.0,0.0,0.0,10.0,0.0,0.0,0.0,10.0
1446035243822836107,14,1446035243818114995,robocape_mag,10.0332891224,10.2334217552,-6.50240621576,10.0,0.0,0.0,0.0,10.0,0.0,0.0,0.0,10.0
1446035243845064149,15,1446035243841614961,robocape_mag,10.0332891224,10.2334217552,-6.50240621576,10.0,0.0,0.0,0.0,10.0,0.0,0.0,0.0,10.0
1446035243872699024,16,1446035243868942022,robocape_mag,10.0332891224,10.2334217552,-6.50240621576,10.0,0.0,0.0,0.0,10.0,0.0,0.0,0.0,10.0
1446035243897470441,17,1446035243894469022,robocape_mag,10.0332891224,10.2334217552,-6.50240621576,10.0,0.0,0.0,0.0,10.0,0.0,0.0,0.0,10.0
1446035243917925066,18,1446035243914480924,robocape_mag,10.0332891224,10.2334217552,-6.50240621576,10.0,0.0,0.0,0.0,10.0,0.0,0.0,0.0,10.0
1446035243942947982,19,1446035243939090967,robocape_mag,10.0332891224,10.2334217552,-6.50240621576,10.0,0.0,0.0,0.0,10.0,0.0,0.0,0.0,10.0
1446035243971648191,20,1446035243967750072,robocape_mag,9.99471298237,10.2145627693,-6.50463787582,10.0,0.0,0.0,0.0,10.0,0.0,0.0,0.0,10.0
1446035243994927232,21,1446035243990680932,robocape_mag,9.99471298237,10.2145627693,-6.50463787582,10.0,0.0,0.0,0.0,10.0,0.0,0.0,0.0,10.0
1446035244017003191,22,1446035244013360977,robocape_mag,9.99471298237,10.2145627693,-6.50463787582,10.0,0.0,0.0,0.0,10.0,0.0,0.0,0.0,10.0
1446035244042473191,23,1446035244038754940,robocape_mag,9.99471298237,10.2145627693,-6.50463787582,10.0,0.0,0.0,0.0,10.0,0.0,0.0,0.0,10.0
1446035244070841107,24,1446035244067070007,robocape_mag,9.99471298237,10.2145627693,-6.50463787582,10.0,0.0,0.0,0.0,10.0,0.0,0.0,0.0,10.0
1446035244093666899,25,1446035244090277910,robocape_mag,9.99471298237,10.2145627693,-6.50463787582,10.0,0.0,0.0,0.0,10.0,0.0,0.0,0.0,10.0
1446035244117011607,26,1446035244113430023,robocape_mag,9.96051043894,10.2151107408,-6.45503691359,10.0,0.0,0.0,0.0,10.0,0.0,0.0,0.0,10.0
1446035244142333066,27,1446035244138808012,robocape_mag,9.96051043894,10.2151107408,-6.45503691359,10.0,0.0,0.0,0.0,10.0,0.0,0.0,0.0,10.0
1446035244169776649,28,1446035244165990114,robocape_mag,9.96051043894,10.2151107408,-6.45503691359,10.0,0.0,0.0,0.0,10.0,0.0,0.0,0.0,10.0
1446035244196826524,29,1446035244192207098,robocape_mag,9.96051043894,10.2151107408,-6.45503691359,10.0,0.0,0.0,0.0,10.0,0.0,0.0,0.0,10.0
1446035244216976774,30,1446035244213342905,robocape_mag,9.96051043894,10.2151107408,-6.45503691359,10.0,0.0,0.0,0.0,10.0,0.0,0.0,0.0,10.0
1446035244242518316,31,1446035244238867998,robocape_mag,9.96051043894,10.2151107408,-6.45503691359,10.0,0.0,0.0,0.0,10.0,0.0,0.0,0.0,10.0
1446035244268996441,32,1446035244265495061,robocape_mag,9.96051043894,10.2151107408,-6.45503691359,10.0,0.0,0.0,0.0,10.0,0.0,0.0,0.0,10.0
1446035244296010691,33,1446035244291662931,robocape_mag,9.94903539587,10.2009694349,-6.48557924555,10.0,0.0,0.0,0.0,10.0,0.0,0.0,0.0,10.0
1446035244317080399,34,1446035244313539028,robocape_mag,9.94903539587,10.2009694349,-6.48557924555,10.0,0.0,0.0,0.0,10.0,0.0,0.0,0.0,10.0
1446035244342355024,35,1446035244338717937,robocape_mag,9.94903539587,10.2009694349,-6.48557924555,10.0,0.0,0.0,0.0,10.0,0.0,0.0,0.0,10.0
1446035244368533482,36,1446035244364923954,robocape_mag,9.94903539587,10.2009694349,-6.48557924555,10.0,0.0,0.0,0.0,10.0,0.0,0.0,0.0,10.0
1446035244397376899,37,1446035244393223047,robocape_mag,9.94903539587,10.2009694349,-6.48557924555,10.0,0.0,0.0,0.0,10.0,0.0,0.0,0.0,10.0
1446035244416967607,38,1446035244413413047,robocape_mag,9.94903539587,10.2009694349,-6.48557924555,10.0,0.0,0.0,0.0,10.0,0.0,0.0,0.0,10.0
1446035244442203649,39,1446035244438568115,robocape_mag,9.98456496061,10.2094285123,-6.50711686698,10.0,0.0,0.0,0.0,10.0,0.0,0.0,0.0,10.0
1446035244467916732,40,1446035244464427947,robocape_mag,9.98456496061,10.2094285123,-6.50711686698,10.0,0.0,0.0,0.0,10.0,0.0,0.0,0.0,10.0
1446035244497186524,41,1446035244493180990,robocape_mag,9.98456496061,10.2094285123,-6.50711686698,10.0,0.0,0.0,0.0,10.0,0.0,0.0,0.0,10.0
1446035244519154691,42,1446035244514972925,robocape_mag,9.98456496061,10.2094285123,-6.50711686698,10.0,0.0,0.0,0.0,10.0,0.0,0.0,0.0,10.0
1446035244542131691,43,1446035244538410902,robocape_mag,9.98456496061,10.2094285123,-6.50711686698,10.0,0.0,0.0,0.0,10.0,0.0,0.0,0.0,10.0
1446035244567689858,44,1446035244563769102,robocape_mag,9.98456496061,10.2094285123,-6.50711686698,10.0,0.0,0.0,0.0,10.0,0.0,0.0,0.0,10.0
1446035244595365149,45,1446035244591718912,robocape_mag,9.98261065911,10.2139542631,-6.48821375956,10.0,0.0,0.0,0.0,10.0,0.0,0.0,0.0,10.0
1446035244617798149,46,1446035244614082098,robocape_mag,9.96522352828,10.2072313753,-6.4862274518,10.0,0.0,0.0,0.0,10.0,0.0,0.0,0.0,10.0
1446035244642296066,47,1446035244638434886,robocape_mag,9.96522352828,10.2072313753,-6.4862274518,10.0,0.0,0.0,0.0,10.0,0.0,0.0,0.0,10.0
1446035244667397149,48,1446035244663634061,robocape_mag,9.96522352828,10.2072313753,-6.4862274518,10.0,0.0,0.0,0.0,10.0,0.0,0.0,0.0,10.0
1446035244704167358,49,1446035244691658973,robocape_mag,9.96522352828,10.2072313753,-6.4862274518,10.0,0.0,0.0,0.0,10.0,0.0,0.0,0.0,10.0
1446035244723132608,50,1446035244718997955,robocape_mag,9.96522352828,10.2072313753,-6.4862274518,10.0,0.0,0.0,0.0,10.0,0.0,0.0,0.0,10.0
1446035244742161358,51,1446035244738492012,robocape_mag,9.96522352828,10.2072313753,-6.4862274518,10.0,0.0,0.0,0.0,10.0,0.0,0.0,0.0,10.0
1446035244767336316,52,1446035244763786077,robocape_mag,9.98382823378,10.2117118018,-6.4977700178,10.0,0.0,0.0,0.0,10.0,0.0,0.0,0.0,10.0
1446035244794746024,53,1446035244791279077,robocape_mag,9.98382823378,10.2117118018,-6.4977700178,10.0,0.0,0.0,0.0,10.0,0.0,0.0,0.0,10.0
1446035244819926399,54,1446035244814553976,robocape_mag,9.98382823378,10.2117118018,-6.4977700178,10.0,0.0,0.0,0.0,10.0,0.0,0.0,0.0,10.0
1446035244842181983,55,1446035244838455915,robocape_mag,9.98382823378,10.2117118018,-6.4977700178,10.0,0.0,0.0,0.0,10.0,0.0,0.0,0.0,10.0
1446035244868094858,56,1446035244864403009,robocape_mag,9.98382823378,10.2117118018,-6.4977700178,10.0,0.0,0.0,0.0,10.0,0.0,0.0,0.0,10.0
1446035244893572483,57,1446035244890038013,robocape_mag,9.98382823378,10.2117118018,-6.4977700178,10.0,0.0,0.0,0.0,10.0,0.0,0.0,0.0,10.0
1446035244922374149,58,1446035244917947053,robocape_mag,10.0052204492,10.2085150117,-6.54738977538,10.0,0.0,0.0,0.0,10.0,0.0,0.0,0.0,10.0
1446035244942266816,59,1446035244938611030,robocape_mag,10.0052204492,10.2085150117,-6.54738977538,10.0,0.0,0.0,0.0,10.0,0.0,0.0,0.0,10.0
1446035244967786024,60,1446035244964297056,robocape_mag,10.0052204492,10.2085150117,-6.54738977538,10.0,0.0,0.0,0.0,10.0,0.0,0.0,0.0,10.0
1446035244992965191,61,1446035244989226102,robocape_mag,10.0052204492,10.2085150117,-6.54738977538,10.0,0.0,0.0,0.0,10.0,0.0,0.0,0.0,10.0
1446035245020623399,62,1446035245016824007,robocape_mag,10.0052204492,10.2085150117,-6.54738977538,10.0,0.0,0.0,0.0,10.0,0.0,0.0,0.0,10.0
1446035245043824774,63,1446035245039675951,robocape_mag,10.0052204492,10.2085150117,-6.54738977538,10.0,0.0,0.0,0.0,10.0,0.0,0.0,0.0,10.0
1446035245067187191,64,1446035245063527107,robocape_mag,10.0052204492,10.2085150117,-6.54738977538,10.0,0.0,0.0,0.0,10.0,0.0,0.0,0.0,10.0
1446035245092404524,65,1446035245088700056,robocape_mag,9.96579593085,10.190735829,-6.55142506611,10.0,0.0,0.0,0.0,10.0,0.0,0.0,0.0,10.0
1446035245120944733,66,1446035245117368936,robocape_mag,9.96579593085,10.190735829,-6.55142506611,10.0,0.0,0.0,0.0,10.0,0.0,0.0,0.0,10.0
1446035245144180774,67,1446035245139739990,robocape_mag,9.96579593085,10.190735829,-6.55142506611,10.0,0.0,0.0,0.0,10.0,0.0,0.0,0.0,10.0
1446035245167313608,68,1446035245163574934,robocape_mag,9.96579593085,10.190735829,-6.55142506611,10.0,0.0,0.0,0.0,10.0,0.0,0.0,0.0,10.0
1446035245192376525,69,1446035245188622951,robocape_mag,9.96579593085,10.190735829,-6.55142506611,10.0,0.0,0.0,0.0,10.0,0.0,0.0,0.0,10.0
1446035245220335108,70,1446035245216649055,robocape_mag,9.96579593085,10.190735829,-6.55142506611,10.0,0.0,0.0,0.0,10.0,0.0,0.0,0.0,10.0
1446035245244369816,71,1446035245240073919,robocape_mag,10.0125867764,10.2245109866,-6.49842269729,10.0,0.0,0.0,0.0,10.0,0.0,0.0,0.0,10.0
1446035245267244400,72,1446035245263475894,robocape_mag,10.0125867764,10.2245109866,-6.49842269729,10.0,0.0,0.0,0.0,10.0,0.0,0.0,0.0,10.0
1446035245292320900,73,1446035245288609981,robocape_mag,10.0125867764,10.2245109866,-6.49842269729,10.0,0.0,0.0,0.0,10.0,0.0,0.0,0.0,10.0
1446035245319954316,74,1446035245316358089,robocape_mag,10.0125867764,10.2245109866,-6.49842269729,10.0,0.0,0.0,0.0,10.0,0.0,0.0,0.0,10.0
1446035245346747108,75,1446035245342560052,robocape_mag,10.0125867764,10.2245109866,-6.49842269729,10.0,0.0,0.0,0.0,10.0,0.0,0.0,0.0,10.0
1446035245367027275,76,1446035245363449096,robocape_mag,10.0125867764,10.2245109866,-6.49842269729,10.0,0.0,0.0,0.0,10.0,0.0,0.0,0.0,10.0
1446035245392809983,77,1446035245389015913,robocape_mag,10.0125867764,10.2245109866,-6.49842269729,10.0,0.0,0.0,0.0,10.0,0.0,0.0,0.0,10.0
1446035245419688025,78,1446035245416165113,robocape_mag,9.97434797259,10.2038336414,-6.5117785629,10.0,0.0,0.0,0.0,10.0,0.0,0.0,0.0,10.0
1446035245446477816,79,1446035245442015886,robocape_mag,9.97434797259,10.2038336414,-6.5117785629,10.0,0.0,0.0,0.0,10.0,0.0,0.0,0.0,10.0
1446035245467110108,80,1446035245463521957,robocape_mag,9.97434797259,10.2038336414,-6.5117785629,10.0,0.0,0.0,0.0,10.0,0.0,0.0,0.0,10.0
1446035245492538650,81,1446035245488856077,robocape_mag,9.97434797259,10.2038336414,-6.5117785629,10.0,0.0,0.0,0.0,10.0,0.0,0.0,0.0,10.0
1446035245517990983,82,1446035245514420986,robocape_mag,9.97434797259,10.2038336414,-6.5117785629,10.0,0.0,0.0,0.0,10.0,0.0,0.0,0.0,10.0
1446035245546989400,83,1446035245542341947,robocape_mag,9.97434797259,10.2038336414,-6.5117785629,10.0,0.0,0.0,0.0,10.0,0.0,0.0,0.0,10.0
1446035245567313150,84,1446035245563630104,robocape_mag,10.0016096645,10.2164587382,-6.50903420133,10.0,0.0,0.0,0.0,10.0,0.0,0.0,0.0,10.0
1446035245592203941,85,1446035245588566064,robocape_mag,10.0016096645,10.2164587382,-6.50903420133,10.0,0.0,0.0,0.0,10.0,0.0,0.0,0.0,10.0
1446035245617750650,86,1446035245613858938,robocape_mag,10.0016096645,10.2164587382,-6.50903420133,10.0,0.0,0.0,0.0,10.0,0.0,0.0,0.0,10.0
1446035245647123608,87,1446035245643248081,robocape_mag,10.0016096645,10.2164587382,-6.50903420133,10.0,0.0,0.0,0.0,10.0,0.0,0.0,0.0,10.0
1446035245668568900,88,1446035245664716005,robocape_mag,10.0016096645,10.2164587382,-6.50903420133,10.0,0.0,0.0,0.0,10.0,0.0,0.0,0.0,10.0
1446035245699377733,89,1446035245688471078,robocape_mag,10.0016096645,10.2164587382,-6.50903420133,10.0,0.0,0.0,0.0,10.0,0.0,0.0,0.0,10.0
1446035245721156400,90,1446035245717479944,robocape_mag,10.0275707523,10.2344299404,-6.48928612664,10.0,0.0,0.0,0.0,10.0,0.0,0.0,0.0,10.0
1446035245746018525,91,1446035245741898059,robocape_mag,10.0275707523,10.2344299404,-6.48928612664,10.0,0.0,0.0,0.0,10.0,0.0,0.0,0.0,10.0
1446035245768779400,92,1446035245764638900,robocape_mag,10.0275707523,10.2344299404,-6.48928612664,10.0,0.0,0.0,0.0,10.0,0.0,0.0,0.0,10.0
1446035245792185691,93,1446035245788403034,robocape_mag,10.0275707523,10.2344299404,-6.48928612664,10.0,0.0,0.0,0.0,10.0,0.0,0.0,0.0,10.0
1446035245817485233,94,1446035245813962936,robocape_mag,10.0275707523,10.2344299404,-6.48928612664,10.0,0.0,0.0,0.0,10.0,0.0,0.0,0.0,10.0
1446035245846176650,95,1446035245842171907,robocape_mag,10.0275707523,10.2344299404,-6.48928612664,10.0,0.0,0.0,0.0,10.0,0.0,0.0,0.0,10.0
1446035245871312441,96,1446035245867394924,robocape_mag,10.0275707523,10.2344299404,-6.48928612664,10.0,0.0,0.0,0.0,10.0,0.0,0.0,0.0,10.0
1446035245891965650,97,1446035245888370990,robocape_mag,9.95965299822,10.1954182166,-6.52112991022,10.0,0.0,0.0,0.0,10.0,0.0,0.0,0.0,10.0
1446035245917508983,98,1446035245913882970,robocape_mag,9.95965299822,10.1954182166,-6.52112991022,10.0,0.0,0.0,0.0,10.0,0.0,0.0,0.0,10.0
1446035245946464275,99,1446035245942244052,robocape_mag,9.95965299822,10.1954182166,-6.52112991022,10.0,0.0,0.0,0.0,10.0,0.0,0.0,0.0,10.0
1446035245971148317,100,1446035245966938018,robocape_mag,9.95965299822,10.1954182166,-6.52112991022,10.0,0.0,0.0,0.0,10.0,0.0,0.0,0.0,10.0
1446035245992049442,101,1446035245988475084,robocape_mag,9.95965299822,10.1954182166,-6.52112991022,10.0,0.0,0.0,0.0,10.0,0.0,0.0,0.0,10.0
1446035246017817067,102,1446035246014187097,robocape_mag,9.95965299822,10.1954182166,-6.52112991022,10.0,0.0,0.0,0.0,10.0,0.0,0.0,0.0,10.0
1446035246044075858,103,1446035246040302991,robocape_mag,10.0049558227,10.2174039762,-6.51117989944,10.0,0.0,0.0,0.0,10.0,0.0,0.0,0.0,10.0
1446035246072505025,104,1446035246068762063,robocape_mag,10.0049558227,10.2174039762,-6.51117989944,10.0,0.0,0.0,0.0,10.0,0.0,0.0,0.0,10.0
1446035246092026442,105,1446035246088489055,robocape_mag,10.0049558227,10.2174039762,-6.51117989944,10.0,0.0,0.0,0.0,10.0,0.0,0.0,0.0,10.0
1446035246117661650,106,1446035246113933086,robocape_mag,10.0049558227,10.2174039762,-6.51117989944,10.0,0.0,0.0,0.0,10.0,0.0,0.0,0.0,10.0
1446035246143531900,107,1446035246140007019,robocape_mag,10.0049558227,10.2174039762,-6.51117989944,10.0,0.0,0.0,0.0,10.0,0.0,0.0,0.0,10.0
1446035246171817483,108,1446035246168087005,robocape_mag,10.0049558227,10.2174039762,-6.51117989944,10.0,0.0,0.0,0.0,10.0,0.0,0.0,0.0,10.0
1446035246193125942,109,1446035246189395904,robocape_mag,10.0049558227,10.2174039762,-6.51117989944,10.0,0.0,0.0,0.0,10.0,0.0,0.0,0.0,10.0
1446035246217074400,110,1446035246213484048,robocape_mag,9.981000381,10.210999111,-6.495999746,10.0,0.0,0.0,0.0,10.0,0.0,0.0,0.0,10.0
1446035246242620317,111,1446035246239098072,robocape_mag,9.981000381,10.210999111,-6.495999746,10.0,0.0,0.0,0.0,10.0,0.0,0.0,0.0,10.0
1446035246271667483,112,1446035246268042087,robocape_mag,9.981000381,10.210999111,-6.495999746,10.0,0.0,0.0,0.0,10.0,0.0,0.0,0.0,10.0
1446035246294160983,113,1446035246289673089,robocape_mag,9.981000381,10.210999111,-6.495999746,10.0,0.0,0.0,0.0,10.0,0.0,0.0,0.0,10.0
1446035246317069317,114,1446035246313565015,robocape_mag,9.981000381,10.210999111,-6.495999746,10.0,0.0,0.0,0.0,10.0,0.0,0.0,0.0,10.0
1446035246342388317,115,1446035246338721990,robocape_mag,9.981000381,10.210999111,-6.495999746,10.0,0.0,0.0,0.0,10.0,0.0,0.0,0.0,10.0
1446035246370668567,116,1446035246367234945,robocape_mag,9.95745936593,10.1910318981,-6.53552438044,10.0,0.0,0.0,0.0,10.0,0.0,0.0,0.0,10.0
1446035246394639483,117,1446035246390460968,robocape_mag,9.95745936593,10.1910318981,-6.53552438044,10.0,0.0,0.0,0.0,10.0,0.0,0.0,0.0,10.0
1446035246420187067,118,1446035246416629076,robocape_mag,9.95745936593,10.1910318981,-6.53552438044,10.0,0.0,0.0,0.0,10.0,0.0,0.0,0.0,10.0
1446035246443469858,119,1446035246439876079,robocape_mag,9.95745936593,10.1910318981,-6.53552438044,10.0,0.0,0.0,0.0,10.0,0.0,0.0,0.0,10.0
1446035246470066442,120,1446035246466594934,robocape_mag,9.95745936593,10.1910318981,-6.53552438044,10.0,0.0,0.0,0.0,10.0,0.0,0.0,0.0,10.0
1446035246495975567,121,1446035246490242958,robocape_mag,9.95745936593,10.1910318981,-6.53552438044,10.0,0.0,0.0,0.0,10.0,0.0,0.0,0.0,10.0
1446035246517368983,122,1446035246513547897,robocape_mag,9.98106848976,10.1974693664,-6.54943763697,10.0,0.0,0.0,0.0,10.0,0.0,0.0,0.0,10.0
1446035246542238150,123,1446035246538696050,robocape_mag,9.98106848976,10.1974693664,-6.54943763697,10.0,0.0,0.0,0.0,10.0,0.0,0.0,0.0,10.0
1446035246569645650,124,1446035246566189050,robocape_mag,9.98106848976,10.1974693664,-6.54943763697,10.0,0.0,0.0,0.0,10.0,0.0,0.0,0.0,10.0
1446035246595838275,125,1446035246593071937,robocape_mag,9.98106848976,10.1974693664,-6.54943763697,10.0,0.0,0.0,0.0,10.0,0.0,0.0,0.0,10.0
1446035246617790442,126,1446035246613945007,robocape_mag,9.98106848976,10.1974693664,-6.54943763697,10.0,0.0,0.0,0.0,10.0,0.0,0.0,0.0,10.0
1446035246642258359,127,1446035246638786077,robocape_mag,9.98106848976,10.1974693664,-6.54943763697,10.0,0.0,0.0,0.0,10.0,0.0,0.0,0.0,10.0
1446035246668275525,128,1446035246664554119,robocape_mag,9.98106848976,10.1974693664,-6.54943763697,10.0,0.0,0.0,0.0,10.0,0.0,0.0,0.0,10.0
1446035246698538442,129,1446035246691942930,robocape_mag,9.99038298006,10.2107943232,-6.5114326233,10.0,0.0,0.0,0.0,10.0,0.0,0.0,0.0,10.0
1446035246721997984,130,1446035246717952966,robocape_mag,9.99038298006,10.2107943232,-6.5114326233,10.0,0.0,0.0,0.0,10.0,0.0,0.0,0.0,10.0
1446035246742525317,131,1446035246739028930,robocape_mag,9.99038298006,10.2107943232,-6.5114326233,10.0,0.0,0.0,0.0,10.0,0.0,0.0,0.0,10.0
1446035246768204192,132,1446035246764481067,robocape_mag,9.99038298006,10.2107943232,-6.5114326233,10.0,0.0,0.0,0.0,10.0,0.0,0.0,0.0,10.0
1446035246796407192,133,1446035246792490959,robocape_mag,9.99038298006,10.2107943232,-6.5114326233,10.0,0.0,0.0,0.0,10.0,0.0,0.0,0.0,10.0
1446035246818496025,134,1446035246814682006,robocape_mag,9.99038298006,10.2107943232,-6.5114326233,10.0,0.0,0.0,0.0,10.0,0.0,0.0,0.0,10.0
1446035246841957817,135,1446035246838476896,robocape_mag,10.1014410082,10.3554360787,-6.30933972004,10.0,0.0,0.0,0.0,10.0,0.0,0.0,0.0,10.0
1446035246867364317,136,1446035246863866090,robocape_mag,10.1014410082,10.3554360787,-6.30933972004,10.0,0.0,0.0,0.0,10.0,0.0,0.0,0.0,10.0
1446035246896697650,137,1446035246893033981,robocape_mag,10.1014410082,10.3554360787,-6.30933972004,10.0,0.0,0.0,0.0,10.0,0.0,0.0,0.0,10.0
1446035246919356067,138,1446035246914901971,robocape_mag,10.1014410082,10.3554360787,-6.30933972004,10.0,0.0,0.0,0.0,10.0,0.0,0.0,0.0,10.0
1446035246942222275,139,1446035246938564062,robocape_mag,10.1014410082,10.3554360787,-6.30933972004,10.0,0.0,0.0,0.0,10.0,0.0,0.0,0.0,10.0
1446035246967723817,140,1446035246963931083,robocape_mag,10.1014410082,10.3554360787,-6.30933972004,10.0,0.0,0.0,0.0,10.0,0.0,0.0,0.0,10.0
1446035246995602400,141,1446035246992113113,robocape_mag,9.90795428929,10.7547179181,-5.86346492477,10.0,0.0,0.0,0.0,10.0,0.0,0.0,0.0,10.0
1446035247022851192,142,1446035247017815113,robocape_mag,9.89091634633,10.7527772641,-5.85848216446,10.0,0.0,0.0,0.0,10.0,0.0,0.0,0.0,10.0
1446035247042084775,143,1446035247038358926,robocape_mag,9.89091634633,10.7527772641,-5.85848216446,10.0,0.0,0.0,0.0,10.0,0.0,0.0,0.0,10.0
1446035247067569609,144,1446035247063857078,robocape_mag,9.89091634633,10.7527772641,-5.85848216446,10.0,0.0,0.0,0.0,10.0,0.0,0.0,0.0,10.0
1446035247094801359,145,1446035247091253995,robocape_mag,9.89091634633,10.7527772641,-5.85848216446,10.0,0.0,0.0,0.0,10.0,0.0,0.0,0.0,10.0
1446035247121492859,146,1446035247117844104,robocape_mag,9.89091634633,10.7527772641,-5.85848216446,10.0,0.0,0.0,0.0,10.0,0.0,0.0,0.0,10.0
1446035247142278234,147,1446035247138535022,robocape_mag,9.89091634633,10.7527772641,-5.85848216446,10.0,0.0,0.0,0.0,10.0,0.0,0.0,0.0,10.0
1446035247167271817,148,1446035247163757085,robocape_mag,10.1270462767,10.6783629786,-6.01213521263,10.0,0.0,0.0,0.0,10.0,0.0,0.0,0.0,10.0
1446035247193723317,149,1446035247190191984,robocape_mag,10.1270462767,10.6783629786,-6.01213521263,10.0,0.0,0.0,0.0,10.0,0.0,0.0,0.0,10.0
1446035247221405650,150,1446035247217247962,robocape_mag,10.1270462767,10.6783629786,-6.01213521263,10.0,0.0,0.0,0.0,10.0,0.0,0.0,0.0,10.0
1446035247243212192,151,1446035247239689111,robocape_mag,10.1270462767,10.6783629786,-6.01213521263,10.0,0.0,0.0,0.0,10.0,0.0,0.0,0.0,10.0
1446035247267450400,152,1446035247263978004,robocape_mag,10.1270462767,10.6783629786,-6.01213521263,10.0,0.0,0.0,0.0,10.0,0.0,0.0,0.0,10.0
1446035247292506942,153,1446035247289031982,robocape_mag,10.1270462767,10.6783629786,-6.01213521263,10.0,0.0,0.0,0.0,10.0,0.0,0.0,0.0,10.0
1446035247320506609,154,1446035247316582918,robocape_mag,10.1773502692,10.5226497308,-6.17264973081,10.0,0.0,0.0,0.0,10.0,0.0,0.0,0.0,10.0
1446035247343683109,155,1446035247339685916,robocape_mag,10.1773502692,10.5226497308,-6.17264973081,10.0,0.0,0.0,0.0,10.0,0.0,0.0,0.0,10.0
1446035247367044692,156,1446035247363615036,robocape_mag,10.1773502692,10.5226497308,-6.17264973081,10.0,0.0,0.0,0.0,10.0,0.0,0.0,0.0,10.0
1446035247393024817,157,1446035247389313936,robocape_mag,10.1773502692,10.5226497308,-6.17264973081,10.0,0.0,0.0,0.0,10.0,0.0,0.0,0.0,10.0
1446035247421707401,158,1446035247418201923,robocape_mag,10.1773502692,10.5226497308,-6.17264973081,10.0,0.0,0.0,0.0,10.0,0.0,0.0,0.0,10.0
1446035247443200776,159,1446035247439018964,robocape_mag,10.1773502692,10.5226497308,-6.17264973081,10.0,0.0,0.0,0.0,10.0,0.0,0.0,0.0,10.0
1446035247467087526,160,1446035247463474035,robocape_mag,10.1773502692,10.5226497308,-6.17264973081,10.0,0.0,0.0,0.0,10.0,0.0,0.0,0.0,10.0
1446035247492470526,161,1446035247488693952,robocape_mag,10.3829459392,10.4910420473,-6.87714506705,10.0,0.0,0.0,0.0,10.0,0.0,0.0,0.0,10.0
1446035247520891526,162,1446035247517427921,robocape_mag,10.3829459392,10.4910420473,-6.87714506705,10.0,0.0,0.0,0.0,10.0,0.0,0.0,0.0,10.0
1446035247544748734,163,1446035247540446043,robocape_mag,10.3829459392,10.4910420473,-6.87714506705,10.0,0.0,0.0,0.0,10.0,0.0,0.0,0.0,10.0
1446035247567479776,164,1446035247563664913,robocape_mag,10.3829459392,10.4910420473,-6.87714506705,10.0,0.0,0.0,0.0,10.0,0.0,0.0,0.0,10.0
1446035247592440776,165,1446035247588742971,robocape_mag,10.3829459392,10.4910420473,-6.87714506705,10.0,0.0,0.0,0.0,10.0,0.0,0.0,0.0,10.0
1446035247620351026,166,1446035247616513013,robocape_mag,10.3829459392,10.4910420473,-6.87714506705,10.0,0.0,0.0,0.0,10.0,0.0,0.0,0.0,10.0
1446035247646973901,167,1446035247642858982,robocape_mag,10.3564741159,10.4610364263,-6.61045623104,10.0,0.0,0.0,0.0,10.0,0.0,0.0,0.0,10.0
1446035247667297067,168,1446035247663651943,robocape_mag,10.3564741159,10.4610364263,-6.61045623104,10.0,0.0,0.0,0.0,10.0,0.0,0.0,0.0,10.0
1446035247700087776,169,1446035247688607931,robocape_mag,10.3564741159,10.4610364263,-6.61045623104,10.0,0.0,0.0,0.0,10.0,0.0,0.0,0.0,10.0
1446035247722224734,170,1446035247718305110,robocape_mag,10.3564741159,10.4610364263,-6.61045623104,10.0,0.0,0.0,0.0,10.0,0.0,0.0,0.0,10.0
1446035247746869067,171,1446035247742489099,robocape_mag,10.3564741159,10.4610364263,-6.61045623104,10.0,0.0,0.0,0.0,10.0,0.0,0.0,0.0,10.0
1446035247767146026,172,1446035247763660907,robocape_mag,10.3564741159,10.4610364263,-6.61045623104,10.0,0.0,0.0,0.0,10.0,0.0,0.0,0.0,10.0
1446035247792134609,173,1446035247788640975,robocape_mag,10.3564741159,10.4610364263,-6.61045623104,10.0,0.0,0.0,0.0,10.0,0.0,0.0,0.0,10.0
1446035247818498401,174,1446035247814681053,robocape_mag,10.5240707565,10.9006906212,-7.07614261993,10.0,0.0,0.0,0.0,10.0,0.0,0.0,0.0,10.0
1446035247847194026,175,1446035247842781066,robocape_mag,10.5240707565,10.9006906212,-7.07614261993,10.0,0.0,0.0,0.0,10.0,0.0,0.0,0.0,10.0
1446035247867083234,176,1446035247863662004,robocape_mag,10.5240707565,10.9006906212,-7.07614261993,10.0,0.0,0.0,0.0,10.0,0.0,0.0,0.0,10.0
1446035247891993401,177,1446035247888475894,robocape_mag,10.5240707565,10.9006906212,-7.07614261993,10.0,0.0,0.0,0.0,10.0,0.0,0.0,0.0,10.0
1446035247918305067,178,1446035247914202928,robocape_mag,10.5240707565,10.9006906212,-7.07614261993,10.0,0.0,0.0,0.0,10.0,0.0,0.0,0.0,10.0
1446035247946120984,179,1446035247941812992,robocape_mag,10.5240707565,10.9006906212,-7.07614261993,10.0,0.0,0.0,0.0,10.0,0.0,0.0,0.0,10.0
1446035247969103109,180,1446035247965259075,robocape_mag,10.3911197488,10.6214213865,-6.36909049132,10.0,0.0,0.0,0.0,10.0,0.0,0.0,0.0,10.0
1446035247992029776,181,1446035247988614082,robocape_mag,10.3911197488,10.6214213865,-6.36909049132,10.0,0.0,0.0,0.0,10.0,0.0,0.0,0.0,10.0
1446035248017803359,182,1446035248013784885,robocape_mag,10.3911197488,10.6214213865,-6.36909049132,10.0,0.0,0.0,0.0,10.0,0.0,0.0,0.0,10.0
1446035248045336776,183,1446035248041435956,robocape_mag,10.3911197488,10.6214213865,-6.36909049132,10.0,0.0,0.0,0.0,10.0,0.0,0.0,0.0,10.0
1446035248069687651,184,1446035248065572977,robocape_mag,10.3911197488,10.6214213865,-6.36909049132,10.0,0.0,0.0,0.0,10.0,0.0,0.0,0.0,10.0
1446035248092052734,185,1446035248088396072,robocape_mag,10.3911197488,10.6214213865,-6.36909049132,10.0,0.0,0.0,0.0,10.0,0.0,0.0,0.0,10.0
1446035248117099276,186,1446035248113643884,robocape_mag,10.3234577093,10.7784632403,-6.13908015661,10.0,0.0,0.0,0.0,10.0,0.0,0.0,0.0,10.0
1446035248146108151,187,1446035248142261981,robocape_mag,10.3234577093,10.7784632403,-6.13908015661,10.0,0.0,0.0,0.0,10.0,0.0,0.0,0.0,10.0
1446035248169100068,188,1446035248165215015,robocape_mag,10.3234577093,10.7784632403,-6.13908015661,10.0,0.0,0.0,0.0,10.0,0.0,0.0,0.0,10.0
1446035248192288526,189,1446035248188532114,robocape_mag,10.3234577093,10.7784632403,-6.13908015661,10.0,0.0,0.0,0.0,10.0,0.0,0.0,0.0,10.0
1446035248217717984,190,1446035248214200019,robocape_mag,10.3234577093,10.7784632403,-6.13908015661,10.0,0.0,0.0,0.0,10.0,0.0,0.0,0.0,10.0
1446035248245036609,191,1446035248241345882,robocape_mag,10.3234577093,10.7784632403,-6.13908015661,10.0,0.0,0.0,0.0,10.0,0.0,0.0,0.0,10.0
1446035248270300109,192,1446035248266551017,robocape_mag,10.3234577093,10.7784632403,-6.13908015661,10.0,0.0,0.0,0.0,10.0,0.0,0.0,0.0,10.0
1446035248292034943,193,1446035248288408041,robocape_mag,10.2167421446,11.5891403216,-6.13325785541,10.0,0.0,0.0,0.0,10.0,0.0,0.0,0.0,10.0
1446035248317268276,194,1446035248313705921,robocape_mag,10.2167421446,11.5891403216,-6.13325785541,10.0,0.0,0.0,0.0,10.0,0.0,0.0,0.0,10.0
1446035248344411526,195,1446035248340773105,robocape_mag,10.2167421446,11.5891403216,-6.13325785541,10.0,0.0,0.0,0.0,10.0,0.0,0.0,0.0,10.0
1446035248371272109,196,1446035248367407083,robocape_mag,10.2167421446,11.5891403216,-6.13325785541,10.0,0.0,0.0,0.0,10.0,0.0,0.0,0.0,10.0
1446035248395143609,197,1446035248390957117,robocape_mag,10.2167421446,11.5891403216,-6.13325785541,10.0,0.0,0.0,0.0,10.0,0.0,0.0,0.0,10.0
1446035248419497026,198,1446035248413669109,robocape_mag,10.2167421446,11.5891403216,-6.13325785541,10.0,0.0,0.0,0.0,10.0,0.0,0.0,0.0,10.0
1446035248443227276,199,1446035248439804077,robocape_mag,10.1979521671,10.6091437434,-6.11634919609,10.0,0.0,0.0,0.0,10.0,0.0,0.0,0.0,10.0
1446035248472650068,200,1446035248468960046,robocape_mag,10.1979521671,10.6091437434,-6.11634919609,10.0,0.0,0.0,0.0,10.0,0.0,0.0,0.0,10.0
1446035248491997318,201,1446035248488497018,robocape_mag,10.1979521671,10.6091437434,-6.11634919609,10.0,0.0,0.0,0.0,10.0,0.0,0.0,0.0,10.0
1446035248516914818,202,1446035248513380050,robocape_mag,10.1979521671,10.6091437434,-6.11634919609,10.0,0.0,0.0,0.0,10.0,0.0,0.0,0.0,10.0
1446035248542976859,203,1446035248539433956,robocape_mag,10.1979521671,10.6091437434,-6.11634919609,10.0,0.0,0.0,0.0,10.0,0.0,0.0,0.0,10.0
1446035248572169818,204,1446035248568099975,robocape_mag,10.1979521671,10.6091437434,-6.11634919609,10.0,0.0,0.0,0.0,10.0,0.0,0.0,0.0,10.0
1446035248593465359,205,1446035248589787006,robocape_mag,10.1979521671,10.6091437434,-6.11634919609,10.0,0.0,0.0,0.0,10.0,0.0,0.0,0.0,10.0
1446035248616874068,206,1446035248613385915,robocape_mag,10.295814743,10.4365487334,-6.47491045044,10.0,0.0,0.0,0.0,10.0,0.0,0.0,0.0,10.0
1446035248642490234,207,1446035248639034032,robocape_mag,10.295814743,10.4365487334,-6.47491045044,10.0,0.0,0.0,0.0,10.0,0.0,0.0,0.0,10.0
1446035248670918651,208,1446035248667342901,robocape_mag,10.295814743,10.4365487334,-6.47491045044,10.0,0.0,0.0,0.0,10.0,0.0,0.0,0.0,10.0
1446035248698779485,209,1446035248688972949,robocape_mag,10.295814743,10.4365487334,-6.47491045044,10.0,0.0,0.0,0.0,10.0,0.0,0.0,0.0,10.0
1446035248719774651,210,1446035248716048002,robocape_mag,10.295814743,10.4365487334,-6.47491045044,10.0,0.0,0.0,0.0,10.0,0.0,0.0,0.0,10.0
1446035248743308776,211,1446035248739749908,robocape_mag,10.295814743,10.4365487334,-6.47491045044,10.0,0.0,0.0,0.0,10.0,0.0,0.0,0.0,10.0
1446035248770105735,212,1446035248766577959,robocape_mag,10.4866586277,10.7098702038,-6.50173558425,10.0,0.0,0.0,0.0,10.0,0.0,0.0,0.0,10.0
1446035248792705318,213,1446035248789256095,robocape_mag,10.4866586277,10.7098702038,-6.50173558425,10.0,0.0,0.0,0.0,10.0,0.0,0.0,0.0,10.0
1446035248817298318,214,1446035248813565015,robocape_mag,10.4866586277,10.7098702038,-6.50173558425,10.0,0.0,0.0,0.0,10.0,0.0,0.0,0.0,10.0
1446035248842170318,215,1446035248838644981,robocape_mag,10.4866586277,10.7098702038,-6.50173558425,10.0,0.0,0.0,0.0,10.0,0.0,0.0,0.0,10.0
1446035248870771693,216,1446035248867348909,robocape_mag,10.4866586277,10.7098702038,-6.50173558425,10.0,0.0,0.0,0.0,10.0,0.0,0.0,0.0,10.0
1446035248895014860,217,1446035248890173912,robocape_mag,10.4866586277,10.7098702038,-6.50173558425,10.0,0.0,0.0,0.0,10.0,0.0,0.0,0.0,10.0
1446035248917337526,218,1446035248913650989,robocape_mag,9.54744923114,10.8372461557,-5.78656923757,10.0,0.0,0.0,0.0,10.0,0.0,0.0,0.0,10.0
1446035248942766735,219,1446035248938740968,robocape_mag,9.54744923114,10.8372461557,-5.78656923757,10.0,0.0,0.0,0.0,10.0,0.0,0.0,0.0,10.0
1446035248969112443,220,1446035248965415000,robocape_mag,9.54744923114,10.8372461557,-5.78656923757,10.0,0.0,0.0,0.0,10.0,0.0,0.0,0.0,10.0
1446035248997576693,221,1446035248993871927,robocape_mag,9.54744923114,10.8372461557,-5.78656923757,10.0,0.0,0.0,0.0,10.0,0.0,0.0,0.0,10.0
1446035249017444818,222,1446035249013741970,robocape_mag,9.54744923114,10.8372461557,-5.78656923757,10.0,0.0,0.0,0.0,10.0,0.0,0.0,0.0,10.0
1446035249042401110,223,1446035249038893938,robocape_mag,9.54744923114,10.8372461557,-5.78656923757,10.0,0.0,0.0,0.0,10.0,0.0,0.0,0.0,10.0
1446035249068608610,224,1446035249064853906,robocape_mag,9.54744923114,10.8372461557,-5.78656923757,10.0,0.0,0.0,0.0,10.0,0.0,0.0,0.0,10.0
1446035249094853151,225,1446035249091335058,robocape_mag,9.50954081956,11.0588821907,-5.75494901516,10.0,0.0,0.0,0.0,10.0,0.0,0.0,0.0,10.0
1446035249118848985,226,1446035249114711999,robocape_mag,9.50954081956,11.0588821907,-5.75494901516,10.0,0.0,0.0,0.0,10.0,0.0,0.0,0.0,10.0
1446035249142330860,227,1446035249138761043,robocape_mag,9.50954081956,11.0588821907,-5.75494901516,10.0,0.0,0.0,0.0,10.0,0.0,0.0,0.0,10.0
1446035249167842193,228,1446035249164248943,robocape_mag,9.50954081956,11.0588821907,-5.75494901516,10.0,0.0,0.0,0.0,10.0,0.0,0.0,0.0,10.0
1446035249196402610,229,1446035249192435026,robocape_mag,9.50954081956,11.0588821907,-5.75494901516,10.0,0.0,0.0,0.0,10.0,0.0,0.0,0.0,10.0
1446035249219290026,230,1446035249215049982,robocape_mag,9.50954081956,11.0588821907,-5.75494901516,10.0,0.0,0.0,0.0,10.0,0.0,0.0,0.0,10.0
1446035249242604901,231,1446035249238538980,robocape_mag,9.63528923366,10.3589260931,-6.07950456042,10.0,0.0,0.0,0.0,10.0,0.0,0.0,0.0,10.0
1446035249267771610,232,1446035249263962030,robocape_mag,9.63528923366,10.3589260931,-6.07950456042,10.0,0.0,0.0,0.0,10.0,0.0,0.0,0.0,10.0
1446035249294927568,233,1446035249291111946,robocape_mag,9.63528923366,10.3589260931,-6.07950456042,10.0,0.0,0.0,0.0,10.0,0.0,0.0,0.0,10.0
1446035249318495776,234,1446035249314873933,robocape_mag,9.63528923366,10.3589260931,-6.07950456042,10.0,0.0,0.0,0.0,10.0,0.0,0.0,0.0,10.0
1446035249342564485,235,1446035249338629007,robocape_mag,9.63528923366,10.3589260931,-6.07950456042,10.0,0.0,0.0,0.0,10.0,0.0,0.0,0.0,10.0
1446035249367754276,236,1446035249363922119,robocape_mag,9.63528923366,10.3589260931,-6.07950456042,10.0,0.0,0.0,0.0,10.0,0.0,0.0,0.0,10.0
1446035249395346735,237,1446035249391782999,robocape_mag,9.6313631451,10.3551253038,-6.08353316655,10.0,0.0,0.0,0.0,10.0,0.0,0.0,0.0,10.0
1446035249420674235,238,1446035249416506052,robocape_mag,9.52957349768,10.3566091421,-6.08486081139,10.0,0.0,0.0,0.0,10.0,0.0,0.0,0.0,10.0
1446035249442499193,239,1446035249438633918,robocape_mag,9.52957349768,10.3566091421,-6.08486081139,10.0,0.0,0.0,0.0,10.0,0.0,0.0,0.0,10.0
1446035249467902318,240,1446035249464057922,robocape_mag,9.52957349768,10.3566091421,-6.08486081139,10.0,0.0,0.0,0.0,10.0,0.0,0.0,0.0,10.0
1446035249492194027,241,1446035249488661050,robocape_mag,9.52957349768,10.3566091421,-6.08486081139,10.0,0.0,0.0,0.0,10.0,0.0,0.0,0.0,10.0
1446035249517353568,242,1446035249513763904,robocape_mag,9.52957349768,10.3566091421,-6.08486081139,10.0,0.0,0.0,0.0,10.0,0.0,0.0,0.0,10.0
1446035249544027985,243,1446035249540343046,robocape_mag,9.52957349768,10.3566091421,-6.08486081139,10.0,0.0,0.0,0.0,10.0,0.0,0.0,0.0,10.0
1446035249570907777,244,1446035249567922115,robocape_mag,9.50737387184,10.6059939831,-5.88548947047,10.0,0.0,0.0,0.0,10.0,0.0,0.0,0.0,10.0
1446035249592101443,245,1446035249588593006,robocape_mag,9.50737387184,10.6059939831,-5.88548947047,10.0,0.0,0.0,0.0,10.0,0.0,0.0,0.0,10.0
1446035249617522735,246,1446035249614031076,robocape_mag,9.50737387184,10.6059939831,-5.88548947047,10.0,0.0,0.0,0.0,10.0,0.0,0.0,0.0,10.0
1446035249643071402,247,1446035249639394044,robocape_mag,9.50737387184,10.6059939831,-5.88548947047,10.0,0.0,0.0,0.0,10.0,0.0,0.0,0.0,10.0
1446035249670400110,248,1446035249666152000,robocape_mag,9.50737387184,10.6059939831,-5.88548947047,10.0,0.0,0.0,0.0,10.0,0.0,0.0,0.0,10.0
1446035249702472027,249,1446035249689994096,robocape_mag,9.50737387184,10.6059939831,-5.88548947047,10.0,0.0,0.0,0.0,10.0,0.0,0.0,0.0,10.0
1446035249719243068,250,1446035249716556072,robocape_mag,9.50199427194,10.1852798715,-6.35797708777,10.0,0.0,0.0,0.0,10.0,0.0,0.0,0.0,10.0
1446035249743740568,251,1446035249740025997,robocape_mag,9.50199427194,10.1852798715,-6.35797708777,10.0,0.0,0.0,0.0,10.0,0.0,0.0,0.0,10.0
1446035249771248902,252,1446035249766838073,robocape_mag,9.50199427194,10.1852798715,-6.35797708777,10.0,0.0,0.0,0.0,10.0,0.0,0.0,0.0,10.0
1446035249793250443,253,1446035249789755105,robocape_mag,9.50199427194,10.1852798715,-6.35797708777,10.0,0.0,0.0,0.0,10.0,0.0,0.0,0.0,10.0
1446035249817045693,254,1446035249813519001,robocape_mag,9.50199427194,10.1852798715,-6.35797708777,10.0,0.0,0.0,0.0,10.0,0.0,0.0,0.0,10.0
1446035249842717860,255,1446035249839046001,robocape_mag,9.50199427194,10.1852798715,-6.35797708777,10.0,0.0,0.0,0.0,10.0,0.0,0.0,0.0,10.0
1446035249870935610,256,1446035249867274999,robocape_mag,9.50199427194,10.1852798715,-6.35797708777,10.0,0.0,0.0,0.0,10.0,0.0,0.0,0.0,10.0
1446035249893681610,257,1446035249890068054,robocape_mag,9.56001421464,10.4069130538,-6.03025586355,10.0,0.0,0.0,0.0,10.0,0.0,0.0,0.0,10.0
1446035249917426902,258,1446035249913652896,robocape_mag,9.56001421464,10.4069130538,-6.03025586355,10.0,0.0,0.0,0.0,10.0,0.0,0.0,0.0,10.0
1446035249942661693,259,1446035249938992977,robocape_mag,9.56001421464,10.4069130538,-6.03025586355,10.0,0.0,0.0,0.0,10.0,0.0,0.0,0.0,10.0
1446035249969955527,260,1446035249966080904,robocape_mag,9.56001421464,10.4069130538,-6.03025586355,10.0,0.0,0.0,0.0,10.0,0.0,0.0,0.0,10.0
1446035249996201860,261,1446035249991993904,robocape_mag,9.56001421464,10.4069130538,-6.03025586355,10.0,0.0,0.0,0.0,10.0,0.0,0.0,0.0,10.0
1446035250017175943,262,1446035250013416051,robocape_mag,9.56001421464,10.4069130538,-6.03025586355,10.0,0.0,0.0,0.0,10.0,0.0,0.0,0.0,10.0
1446035250042536068,263,1446035250038871049,robocape_mag,9.49530757776,10.7376031538,-5.82387472631,10.0,0.0,0.0,0.0,10.0,0.0,0.0,0.0,10.0
1446035250071154360,264,1446035250066545963,robocape_mag,9.49530757776,10.7376031538,-5.82387472631,10.0,0.0,0.0,0.0,10.0,0.0,0.0,0.0,10.0
1446035250096390069,265,1446035250092235088,robocape_mag,9.49530757776,10.7376031538,-5.82387472631,10.0,0.0,0.0,0.0,10.0,0.0,0.0,0.0,10.0
1446035250117012319,266,1446035250113569974,robocape_mag,9.49530757776,10.7376031538,-5.82387472631,10.0,0.0,0.0,0.0,10.0,0.0,0.0,0.0,10.0
1446035250142816777,267,1446035250139097929,robocape_mag,9.49530757776,10.7376031538,-5.82387472631,10.0,0.0,0.0,0.0,10.0,0.0,0.0,0.0,10.0
1446035250168997652,268,1446035250165484905,robocape_mag,9.49530757776,10.7376031538,-5.82387472631,10.0,0.0,0.0,0.0,10.0,0.0,0.0,0.0,10.0
1446035250195508860,269,1446035250191041946,robocape_mag,9.47621854137,10.6715257201,-5.85496483758,10.0,0.0,0.0,0.0,10.0,0.0,0.0,0.0,10.0
1446035250218723860,270,1446035250215477943,robocape_mag,9.54136776713,10.7091184475,-5.83142835163,10.0,0.0,0.0,0.0,10.0,0.0,0.0,0.0,10.0
1446035250242524402,271,1446035250238858938,robocape_mag,9.54136776713,10.7091184475,-5.83142835163,10.0,0.0,0.0,0.0,10.0,0.0,0.0,0.0,10.0
1446035250267968819,272,1446035250264478921,robocape_mag,9.54136776713,10.7091184475,-5.83142835163,10.0,0.0,0.0,0.0,10.0,0.0,0.0,0.0,10.0
1446035250296297902,273,1446035250292510032,robocape_mag,9.54136776713,10.7091184475,-5.83142835163,10.0,0.0,0.0,0.0,10.0,0.0,0.0,0.0,10.0
1446035250317448277,274,1446035250313530921,robocape_mag,9.54136776713,10.7091184475,-5.83142835163,10.0,0.0,0.0,0.0,10.0,0.0,0.0,0.0,10.0
1446035250342605944,275,1446035250338949918,robocape_mag,9.54136776713,10.7091184475,-5.83142835163,10.0,0.0,0.0,0.0,10.0,0.0,0.0,0.0,10.0
1446035250368001402,276,1446035250364439964,robocape_mag,9.52220901584,10.7499405713,-5.8165081901,10.0,0.0,0.0,0.0,10.0,0.0,0.0,0.0,10.0
1446035250395322152,277,1446035250391632080,robocape_mag,9.52220901584,10.7499405713,-5.8165081901,10.0,0.0,0.0,0.0,10.0,0.0,0.0,0.0,10.0
1446035250418910819,278,1446035250415277004,robocape_mag,9.52220901584,10.7499405713,-5.8165081901,10.0,0.0,0.0,0.0,10.0,0.0,0.0,0.0,10.0
1446035250442212860,279,1446035250438549995,robocape_mag,9.52220901584,10.7499405713,-5.8165081901,10.0,0.0,0.0,0.0,10.0,0.0,0.0,0.0,10.0
1446035250467905235,280,1446035250464090108,robocape_mag,9.52220901584,10.7499405713,-5.8165081901,10.0,0.0,0.0,0.0,10.0,0.0,0.0,0.0,10.0
1446035250495269944,281,1446035250491748094,robocape_mag,9.52220901584,10.7499405713,-5.8165081901,10.0,0.0,0.0,0.0,10.0,0.0,0.0,0.0,10.0
1446035250521436152,282,1446035250516544103,robocape_mag,9.51423124063,10.7283353761,-5.82560337125,10.0,0.0,0.0,0.0,10.0,0.0,0.0,0.0,10.0
1446035250542231985,283,1446035250538469076,robocape_mag,9.51423124063,10.7283353761,-5.82560337125,10.0,0.0,0.0,0.0,10.0,0.0,0.0,0.0,10.0
1446035250567934152,284,1446035250564431905,robocape_mag,9.51423124063,10.7283353761,-5.82560337125,10.0,0.0,0.0,0.0,10.0,0.0,0.0,0.0,10.0
1446035250594952902,285,1446035250591424942,robocape_mag,9.51423124063,10.7283353761,-5.82560337125,10.0,0.0,0.0,0.0,10.0,0.0,0.0,0.0,10.0
1446035250622134110,286,1446035250617912054,robocape_mag,9.51423124063,10.7283353761,-5.82560337125,10.0,0.0,0.0,0.0,10.0,0.0,0.0,0.0,10.0
1446035250642124527,287,1446035250638475894,robocape_mag,9.51423124063,10.7283353761,-5.82560337125,10.0,0.0,0.0,0.0,10.0,0.0,0.0,0.0,10.0
1446035250667446944,288,1446035250663932085,robocape_mag,9.51423124063,10.7283353761,-5.82560337125,10.0,0.0,0.0,0.0,10.0,0.0,0.0,0.0,10.0
1446035250697475319,289,1446035250690321922,robocape_mag,9.61087792222,10.1753766113,-6.36927272232,10.0,0.0,0.0,0.0,10.0,0.0,0.0,0.0,10.0
1446035250723608277,290,1446035250719794034,robocape_mag,9.61087792222,10.1753766113,-6.36927272232,10.0,0.0,0.0,0.0,10.0,0.0,0.0,0.0,10.0
1446035250742297652,291,1446035250738744974,robocape_mag,9.61087792222,10.1753766113,-6.36927272232,10.0,0.0,0.0,0.0,10.0,0.0,0.0,0.0,10.0
1446035250767551277,292,1446035250764023065,robocape_mag,9.61087792222,10.1753766113,-6.36927272232,10.0,0.0,0.0,0.0,10.0,0.0,0.0,0.0,10.0
1446035250793403027,293,1446035250789654970,robocape_mag,9.61087792222,10.1753766113,-6.36927272232,10.0,0.0,0.0,0.0,10.0,0.0,0.0,0.0,10.0
1446035250820165527,294,1446035250816515922,robocape_mag,9.61087792222,10.1753766113,-6.36927272232,10.0,0.0,0.0,0.0,10.0,0.0,0.0,0.0,10.0
1446035250843734944,295,1446035250839616060,robocape_mag,9.63011665693,10.2145702862,-6.28620348326,10.0,0.0,0.0,0.0,10.0,0.0,0.0,0.0,10.0
1446035250867117986,296,1446035250863678932,robocape_mag,9.63011665693,10.2145702862,-6.28620348326,10.0,0.0,0.0,0.0,10.0,0.0,0.0,0.0,10.0
1446035250892314652,297,1446035250888868093,robocape_mag,9.63011665693,10.2145702862,-6.28620348326,10.0,0.0,0.0,0.0,10.0,0.0,0.0,0.0,10.0
1446035250920651319,298,1446035250916953086,robocape_mag,9.63011665693,10.2145702862,-6.28620348326,10.0,0.0,0.0,0.0,10.0,0.0,0.0,0.0,10.0
1446035250943307277,299,1446035250939672946,robocape_mag,9.63011665693,10.2145702862,-6.28620348326,10.0,0.0,0.0,0.0,10.0,0.0,0.0,0.0,10.0
1446035250967114861,300,1446035250963593959,robocape_mag,9.63011665693,10.2145702862,-6.28620348326,10.0,0.0,0.0,0.0,10.0,0.0,0.0,0.0,10.0
1446035250992731861,301,1446035250989039897,robocape_mag,9.63011665693,10.2145702862,-6.28620348326,10.0,0.0,0.0,0.0,10.0,0.0,0.0,0.0,10.0
1446035251020531069,302,1446035251016923904,robocape_mag,9.74777498671,10.4975327465,-5.96565583974,10.0,0.0,0.0,0.0,10.0,0.0,0.0,0.0,10.0
1446035251043709486,303,1446035251039925098,robocape_mag,9.74777498671,10.4975327465,-5.96565583974,10.0,0.0,0.0,0.0,10.0,0.0,0.0,0.0,10.0
1446035251067565527,304,1446035251063693046,robocape_mag,9.74777498671,10.4975327465,-5.96565583974,10.0,0.0,0.0,0.0,10.0,0.0,0.0,0.0,10.0
1446035251092545736,305,1446035251088970899,robocape_mag,9.74777498671,10.4975327465,-5.96565583974,10.0,0.0,0.0,0.0,10.0,0.0,0.0,0.0,10.0
1446035251120565861,306,1446035251116585969,robocape_mag,9.74777498671,10.4975327465,-5.96565583974,10.0,0.0,0.0,0.0,10.0,0.0,0.0,0.0,10.0
1446035251146474527,307,1446035251142090082,robocape_mag,9.74777498671,10.4975327465,-5.96565583974,10.0,0.0,0.0,0.0,10.0,0.0,0.0,0.0,10.0
1446035251167133319,308,1446035251163429021,robocape_mag,9.75588157499,10.2726285635,-6.21040993274,10.0,0.0,0.0,0.0,10.0,0.0,0.0,0.0,10.0
1446035251192576652,309,1446035251189066886,robocape_mag,9.75588157499,10.2726285635,-6.21040993274,10.0,0.0,0.0,0.0,10.0,0.0,0.0,0.0,10.0
1446035251219155861,310,1446035251215584039,robocape_mag,9.75588157499,10.2726285635,-6.21040993274,10.0,0.0,0.0,0.0,10.0,0.0,0.0,0.0,10.0
1446035251247816402,311,1446035251243913888,robocape_mag,9.75588157499,10.2726285635,-6.21040993274,10.0,0.0,0.0,0.0,10.0,0.0,0.0,0.0,10.0
1446035251267149902,312,1446035251263612985,robocape_mag,9.75588157499,10.2726285635,-6.21040993274,10.0,0.0,0.0,0.0,10.0,0.0,0.0,0.0,10.0
1446035251292863777,313,1446035251289402961,robocape_mag,9.75588157499,10.2726285635,-6.21040993274,10.0,0.0,0.0,0.0,10.0,0.0,0.0,0.0,10.0
1446035251318004277,314,1446035251314578056,robocape_mag,10.1017631085,10.2577547821,-6.55287877879,10.0,0.0,0.0,0.0,10.0,0.0,0.0,0.0,10.0
1446035251345968736,315,1446035251342137098,robocape_mag,10.1017631085,10.2577547821,-6.55287877879,10.0,0.0,0.0,0.0,10.0,0.0,0.0,0.0,10.0
1446035251367099111,316,1446035251363657951,robocape_mag,10.1017631085,10.2577547821,-6.55287877879,10.0,0.0,0.0,0.0,10.0,0.0,0.0,0.0,10.0
1446035251392258027,317,1446035251388739109,robocape_mag,10.1017631085,10.2577547821,-6.55287877879,10.0,0.0,0.0,0.0,10.0,0.0,0.0,0.0,10.0
1446035251417738777,318,1446035251414292097,robocape_mag,10.1017631085,10.2577547821,-6.55287877879,10.0,0.0,0.0,0.0,10.0,0.0,0.0,0.0,10.0
1446035251446714361,319,1446035251442790985,robocape_mag,10.1017631085,10.2577547821,-6.55287877879,10.0,0.0,0.0,0.0,10.0,0.0,0.0,0.0,10.0
1446035251469038402,320,1446035251464643955,robocape_mag,10.1017631085,10.2577547821,-6.55287877879,10.0,0.0,0.0,0.0,10.0,0.0,0.0,0.0,10.0
1446035251492164861,321,1446035251488523960,robocape_mag,9.84897257829,10.2231835286,-6.33865400109,10.0,0.0,0.0,0.0,10.0,0.0,0.0,0.0,10.0
1446035251517401569,322,1446035251514015913,robocape_mag,9.84897257829,10.2231835286,-6.33865400109,10.0,0.0,0.0,0.0,10.0,0.0,0.0,0.0,10.0
1446035251546163194,323,1446035251542268037,robocape_mag,9.84897257829,10.2231835286,-6.33865400109,10.0,0.0,0.0,0.0,10.0,0.0,0.0,0.0,10.0
1446035251569322403,324,1446035251565160036,robocape_mag,9.84897257829,10.2231835286,-6.33865400109,10.0,0.0,0.0,0.0,10.0,0.0,0.0,0.0,10.0
1446035251592297653,325,1446035251588392019,robocape_mag,9.84897257829,10.2231835286,-6.33865400109,10.0,0.0,0.0,0.0,10.0,0.0,0.0,0.0,10.0
1446035251617121986,326,1446035251613704919,robocape_mag,9.84897257829,10.2231835286,-6.33865400109,10.0,0.0,0.0,0.0,10.0,0.0,0.0,0.0,10.0
1446035251645974653,327,1446035251642478942,robocape_mag,10.2142529082,10.406488652,-6.37352241109,10.0,0.0,0.0,0.0,10.0,0.0,0.0,0.0,10.0
1446035251669177653,328,1446035251665436029,robocape_mag,10.2142529082,10.406488652,-6.37352241109,10.0,0.0,0.0,0.0,10.0,0.0,0.0,0.0,10.0
1446035251697173611,329,1446035251688518047,robocape_mag,10.2142529082,10.406488652,-6.37352241109,10.0,0.0,0.0,0.0,10.0,0.0,0.0,0.0,10.0
1446035251720641153,330,1446035251717225074,robocape_mag,10.2142529082,10.406488652,-6.37352241109,10.0,0.0,0.0,0.0,10.0,0.0,0.0,0.0,10.0
1446035251744797861,331,1446035251741183996,robocape_mag,10.2142529082,10.406488652,-6.37352241109,10.0,0.0,0.0,0.0,10.0,0.0,0.0,0.0,10.0
1446035251772316028,332,1446035251767333030,robocape_mag,10.2142529082,10.406488652,-6.37352241109,10.0,0.0,0.0,0.0,10.0,0.0,0.0,0.0,10.0
1446035251792152944,333,1446035251788302898,robocape_mag,10.2142529082,10.406488652,-6.37352241109,10.0,0.0,0.0,0.0,10.0,0.0,0.0,0.0,10.0
1446035251817582403,334,1446035251814013957,robocape_mag,9.94380369957,10.4479585008,-6.07424790085,10.0,0.0,0.0,0.0,10.0,0.0,0.0,0.0,10.0
1446035251843983819,335,1446035251840118885,robocape_mag,9.94380369957,10.4479585008,-6.07424790085,10.0,0.0,0.0,0.0,10.0,0.0,0.0,0.0,10.0
1446035251871608736,336,1446035251867513895,robocape_mag,9.94380369957,10.4479585008,-6.07424790085,10.0,0.0,0.0,0.0,10.0,0.0,0.0,0.0,10.0
1446035251893504028,337,1446035251889851093,robocape_mag,9.94380369957,10.4479585008,-6.07424790085,10.0,0.0,0.0,0.0,10.0,0.0,0.0,0.0,10.0
1446035251917483528,338,1446035251913935899,robocape_mag,9.94380369957,10.4479585008,-6.07424790085,10.0,0.0,0.0,0.0,10.0,0.0,0.0,0.0,10.0
1446035251944007611,339,1446035251940042018,robocape_mag,9.94380369957,10.4479585008,-6.07424790085,10.0,0.0,0.0,0.0,10.0,0.0,0.0,0.0,10.0
1446035251970999444,340,1446035251966660976,robocape_mag,9.98251842612,10.4350064284,-6.10854602389,10.0,0.0,0.0,0.0,10.0,0.0,0.0,0.0,10.0
1446035251992140278,341,1446035251988687038,robocape_mag,9.98251842612,10.4350064284,-6.10854602389,10.0,0.0,0.0,0.0,10.0,0.0,0.0,0.0,10.0
1446035252017277944,342,1446035252013767957,robocape_mag,9.98251842612,10.4350064284,-6.10854602389,10.0,0.0,0.0,0.0,10.0,0.0,0.0,0.0,10.0
1446035252042164653,343,1446035252038683891,robocape_mag,9.98251842612,10.4350064284,-6.10854602389,10.0,0.0,0.0,0.0,10.0,0.0,0.0,0.0,10.0
1446035252070964486,344,1446035252066916942,robocape_mag,9.98251842612,10.4350064284,-6.10854602389,10.0,0.0,0.0,0.0,10.0,0.0,0.0,0.0,10.0
1446035252093957361,345,1446035252089797973,robocape_mag,9.98251842612,10.4350064284,-6.10854602389,10.0,0.0,0.0,0.0,10.0,0.0,0.0,0.0,10.0
1446035252117358569,346,1446035252113853931,robocape_mag,9.98516003899,10.4663496133,-6.07907606111,10.0,0.0,0.0,0.0,10.0,0.0,0.0,0.0,10.0
1446035252142987819,347,1446035252138818979,robocape_mag,9.98516003899,10.4663496133,-6.07907606111,10.0,0.0,0.0,0.0,10.0,0.0,0.0,0.0,10.0
1446035252167786736,348,1446035252163800001,robocape_mag,9.98516003899,10.4663496133,-6.07907606111,10.0,0.0,0.0,0.0,10.0,0.0,0.0,0.0,10.0
1446035252192434778,349,1446035252188682079,robocape_mag,9.98516003899,10.4663496133,-6.07907606111,10.0,0.0,0.0,0.0,10.0,0.0,0.0,0.0,10.0
1446035252221161528,350,1446035252217549085,robocape_mag,9.98516003899,10.4663496133,-6.07907606111,10.0,0.0,0.0,0.0,10.0,0.0,0.0,0.0,10.0
1446035252243380486,351,1446035252239830970,robocape_mag,9.98516003899,10.4663496133,-6.07907606111,10.0,0.0,0.0,0.0,10.0,0.0,0.0,0.0,10.0
1446035252267670861,352,1446035252263724088,robocape_mag,9.98516003899,10.4663496133,-6.07907606111,10.0,0.0,0.0,0.0,10.0,0.0,0.0,0.0,10.0
1446035252292462195,353,1446035252288635015,robocape_mag,10.0181175249,10.4345453477,-6.13165718152,10.0,0.0,0.0,0.0,10.0,0.0,0.0,0.0,10.0
1446035252320613486,354,1446035252317091941,robocape_mag,10.0181175249,10.4345453477,-6.13165718152,10.0,0.0,0.0,0.0,10.0,0.0,0.0,0.0,10.0
1446035252346412570,355,1446035252341310977,robocape_mag,10.0181175249,10.4345453477,-6.13165718152,10.0,0.0,0.0,0.0,10.0,0.0,0.0,0.0,10.0
1446035252368201611,356,1446035252364337921,robocape_mag,10.0181175249,10.4345453477,-6.13165718152,10.0,0.0,0.0,0.0,10.0,0.0,0.0,0.0,10.0
1446035252392905695,357,1446035252389324903,robocape_mag,10.0181175249,10.4345453477,-6.13165718152,10.0,0.0,0.0,0.0,10.0,0.0,0.0,0.0,10.0
1446035252419571528,358,1446035252416023015,robocape_mag,10.0181175249,10.4345453477,-6.13165718152,10.0,0.0,0.0,0.0,10.0,0.0,0.0,0.0,10.0
1446035252443244653,359,1446035252439537048,robocape_mag,9.9804674,10.4460716562,-6.09607165624,10.0,0.0,0.0,0.0,10.0,0.0,0.0,0.0,10.0
1446035252467432778,360,1446035252463593959,robocape_mag,9.9804674,10.4460716562,-6.09607165624,10.0,0.0,0.0,0.0,10.0,0.0,0.0,0.0,10.0
1446035252492439570,361,1446035252488848924,robocape_mag,9.9804674,10.4460716562,-6.09607165624,10.0,0.0,0.0,0.0,10.0,0.0,0.0,0.0,10.0
1446035252517859528,362,1446035252514343023,robocape_mag,9.9804674,10.4460716562,-6.09607165624,10.0,0.0,0.0,0.0,10.0,0.0,0.0,0.0,10.0
1446035252545975195,363,1446035252541732072,robocape_mag,9.9804674,10.4460716562,-6.09607165624,10.0,0.0,0.0,0.0,10.0,0.0,0.0,0.0,10.0
1446035252570316861,364,1446035252566519975,robocape_mag,9.9804674,10.4460716562,-6.09607165624,10.0,0.0,0.0,0.0,10.0,0.0,0.0,0.0,10.0
1446035252592485403,365,1446035252588952064,robocape_mag,9.9804674,10.4460716562,-6.09607165624,10.0,0.0,0.0,0.0,10.0,0.0,0.0,0.0,10.0
1446035252617486486,366,1446035252613966941,robocape_mag,10.0072521565,10.4483965496,-6.11003232548,10.0,0.0,0.0,0.0,10.0,0.0,0.0,0.0,10.0
1446035252647120361,367,1446035252642854928,robocape_mag,10.0072521565,10.4483965496,-6.11003232548,10.0,0.0,0.0,0.0,10.0,0.0,0.0,0.0,10.0
1446035252668503903,368,1446035252664855957,robocape_mag,10.0072521565,10.4483965496,-6.11003232548,10.0,0.0,0.0,0.0,10.0,0.0,0.0,0.0,10.0
1446035252696029695,369,1446035252688468933,robocape_mag,10.0072521565,10.4483965496,-6.11003232548,10.0,0.0,0.0,0.0,10.0,0.0,0.0,0.0,10.0
1446035252720937903,370,1446035252717190980,robocape_mag,10.0072521565,10.4483965496,-6.11003232548,10.0,0.0,0.0,0.0,10.0,0.0,0.0,0.0,10.0
1446035252746556403,371,1446035252742579936,robocape_mag,10.0072521565,10.4483965496,-6.11003232548,10.0,0.0,0.0,0.0,10.0,0.0,0.0,0.0,10.0
1446035252769494486,372,1446035252765326023,robocape_mag,10.1422949934,10.5407582881,-6.1229714139,10.0,0.0,0.0,0.0,10.0,0.0,0.0,0.0,10.0
1446035252792024820,373,1446035252788419961,robocape_mag,10.1422949934,10.5407582881,-6.1229714139,10.0,0.0,0.0,0.0,10.0,0.0,0.0,0.0,10.0
1446035252817129778,374,1446035252813627004,robocape_mag,10.1422949934,10.5407582881,-6.1229714139,10.0,0.0,0.0,0.0,10.0,0.0,0.0,0.0,10.0
1446035252845305903,375,1446035252841856956,robocape_mag,10.1422949934,10.5407582881,-6.1229714139,10.0,0.0,0.0,0.0,10.0,0.0,0.0,0.0,10.0
1446035252869107861,376,1446035252865118026,robocape_mag,10.1422949934,10.5407582881,-6.1229714139,10.0,0.0,0.0,0.0,10.0,0.0,0.0,0.0,10.0
1446035252892351112,377,1446035252888770103,robocape_mag,10.1422949934,10.5407582881,-6.1229714139,10.0,0.0,0.0,0.0,10.0,0.0,0.0,0.0,10.0
1446035252917229112,378,1446035252913675069,robocape_mag,10.1321326253,10.2534253688,-6.7379060767,10.0,0.0,0.0,0.0,10.0,0.0,0.0,0.0,10.0
1446035252944797653,379,1446035252941286087,robocape_mag,10.1321326253,10.2534253688,-6.7379060767,10.0,0.0,0.0,0.0,10.0,0.0,0.0,0.0,10.0
1446035252972836945,380,1446035252968142986,robocape_mag,10.1321326253,10.2534253688,-6.7379060767,10.0,0.0,0.0,0.0,10.0,0.0,0.0,0.0,10.0
1446035252992442320,381,1446035252988574981,robocape_mag,10.1321326253,10.2534253688,-6.7379060767,10.0,0.0,0.0,0.0,10.0,0.0,0.0,0.0,10.0
1446035253017303862,382,1446035253013870954,robocape_mag,10.1321326253,10.2534253688,-6.7379060767,10.0,0.0,0.0,0.0,10.0,0.0,0.0,0.0,10.0
1446035253043616195,383,1446035253040102958,robocape_mag,10.1321326253,10.2534253688,-6.7379060767,10.0,0.0,0.0,0.0,10.0,0.0,0.0,0.0,10.0
1446035253071388362,384,1446035253067471027,robocape_mag,10.1321326253,10.2534253688,-6.7379060767,10.0,0.0,0.0,0.0,10.0,0.0,0.0,0.0,10.0
1446035253092316820,385,1446035253088795900,robocape_mag,9.99578628055,10.4444789728,-6.10684729411,10.0,0.0,0.0,0.0,10.0,0.0,0.0,0.0,10.0
1446035253117459778,386,1446035253113862037,robocape_mag,9.99578628055,10.4444789728,-6.10684729411,10.0,0.0,0.0,0.0,10.0,0.0,0.0,0.0,10.0
1446035253142696195,387,1446035253139055967,robocape_mag,9.99578628055,10.4444789728,-6.10684729411,10.0,0.0,0.0,0.0,10.0,0.0,0.0,0.0,10.0
1446035253171616945,388,1446035253166717052,robocape_mag,9.99578628055,10.4444789728,-6.10684729411,10.0,0.0,0.0,0.0,10.0,0.0,0.0,0.0,10.0
1446035253194018153,389,1446035253188740015,robocape_mag,9.99578628055,10.4444789728,-6.10684729411,10.0,0.0,0.0,0.0,10.0,0.0,0.0,0.0,10.0
1446035253216963487,390,1446035253213479995,robocape_mag,9.99578628055,10.4444789728,-6.10684729411,10.0,0.0,0.0,0.0,10.0,0.0,0.0,0.0,10.0
1446035253242510028,391,1446035253238915920,robocape_mag,10.0080632784,10.2223844561,-6.49845414347,10.0,0.0,0.0,0.0,10.0,0.0,0.0,0.0,10.0
1446035253271334612,392,1446035253267383098,robocape_mag,10.0080632784,10.2223844561,-6.49845414347,10.0,0.0,0.0,0.0,10.0,0.0,0.0,0.0,10.0
1446035253293088487,393,1446035253289608955,robocape_mag,10.0080632784,10.2223844561,-6.49845414347,10.0,0.0,0.0,0.0,10.0,0.0,0.0,0.0,10.0
1446035253317079028,394,1446035253313589096,robocape_mag,10.0080632784,10.2223844561,-6.49845414347,10.0,0.0,0.0,0.0,10.0,0.0,0.0,0.0,10.0
1446035253342421778,395,1446035253338702917,robocape_mag,10.0080632784,10.2223844561,-6.49845414347,10.0,0.0,0.0,0.0,10.0,0.0,0.0,0.0,10.0
1446035253370872612,396,1446035253367048025,robocape_mag,10.0080632784,10.2223844561,-6.49845414347,10.0,0.0,0.0,0.0,10.0,0.0,0.0,0.0,10.0
1446035253393701362,397,1446035253390127897,robocape_mag,10.0080632784,10.2223844561,-6.49845414347,10.0,0.0,0.0,0.0,10.0,0.0,0.0,0.0,10.0
1446035253417283528,398,1446035253413495063,robocape_mag,9.97710651468,10.4939359585,-6.04965932987,10.0,0.0,0.0,0.0,10.0,0.0,0.0,0.0,10.0
1446035253442492153,399,1446035253438796043,robocape_mag,9.97710651468,10.4939359585,-6.04965932987,10.0,0.0,0.0,0.0,10.0,0.0,0.0,0.0,10.0
1446035253471643945,400,1446035253467864036,robocape_mag,9.97710651468,10.4939359585,-6.04965932987,10.0,0.0,0.0,0.0,10.0,0.0,0.0,0.0,10.0
1446035253496568612,401,1446035253492876052,robocape_mag,9.97710651468,10.4939359585,-6.04965932987,10.0,0.0,0.0,0.0,10.0,0.0,0.0,0.0,10.0
1446035253517075362,402,1446035253513375997,robocape_mag,9.97710651468,10.4939359585,-6.04965932987,10.0,0.0,0.0,0.0,10.0,0.0,0.0,0.0,10.0
1446035253542219028,403,1446035253538579940,robocape_mag,9.97710651468,10.4939359585,-6.04965932987,10.0,0.0,0.0,0.0,10.0,0.0,0.0,0.0,10.0
1446035253570155612,404,1446035253566540956,robocape_mag,10.1220354996,10.5059596039,-6.13795837975,10.0,0.0,0.0,0.0,10.0,0.0,0.0,0.0,10.0
1446035253594767237,405,1446035253590325117,robocape_mag,10.1220354996,10.5059596039,-6.13795837975,10.0,0.0,0.0,0.0,10.0,0.0,0.0,0.0,10.0
1446035253616955695,406,1446035253613451957,robocape_mag,10.1220354996,10.5059596039,-6.13795837975,10.0,0.0,0.0,0.0,10.0,0.0,0.0,0.0,10.0
1446035253642268362,407,1446035253638653039,robocape_mag,10.1220354996,10.5059596039,-6.13795837975,10.0,0.0,0.0,0.0,10.0,0.0,0.0,0.0,10.0
1446035253668682820,408,1446035253665162086,robocape_mag,10.1220354996,10.5059596039,-6.13795837975,10.0,0.0,0.0,0.0,10.0,0.0,0.0,0.0,10.0
1446035253702745279,409,1446035253695033073,robocape_mag,10.1220354996,10.5059596039,-6.13795837975,10.0,0.0,0.0,0.0,10.0,0.0,0.0,0.0,10.0
1446035253721843820,410,1446035253718223094,robocape_mag,10.1154888674,10.2464856458,-6.67394426547,10.0,0.0,0.0,0.0,10.0,0.0,0.0,0.0,10.0
1446035253742466237,411,1446035253738845109,robocape_mag,10.1154888674,10.2464856458,-6.67394426547,10.0,0.0,0.0,0.0,10.0,0.0,0.0,0.0,10.0
1446035253768083695,412,1446035253764571905,robocape_mag,10.1154888674,10.2464856458,-6.67394426547,10.0,0.0,0.0,0.0,10.0,0.0,0.0,0.0,10.0
1446035253796649237,413,1446035253792747974,robocape_mag,10.1154888674,10.2464856458,-6.67394426547,10.0,0.0,0.0,0.0,10.0,0.0,0.0,0.0,10.0
1446035253819136820,414,1446035253814979076,robocape_mag,10.1154888674,10.2464856458,-6.67394426547,10.0,0.0,0.0,0.0,10.0,0.0,0.0,0.0,10.0
1446035253841940279,415,1446035253838409900,robocape_mag,10.1154888674,10.2464856458,-6.67394426547,10.0,0.0,0.0,0.0,10.0,0.0,0.0,0.0,10.0
1446035253867359237,416,1446035253863873004,robocape_mag,10.1154888674,10.2464856458,-6.67394426547,10.0,0.0,0.0,0.0,10.0,0.0,0.0,0.0,10.0
1446035253896588445,417,1446035253892710924,robocape_mag,9.99986166349,10.3355585845,-6.24429260205,10.0,0.0,0.0,0.0,10.0,0.0,0.0,0.0,10.0
1446035253918828945,418,1446035253914812088,robocape_mag,9.99986166349,10.3355585845,-6.24429260205,10.0,0.0,0.0,0.0,10.0,0.0,0.0,0.0,10.0
1446035253942354362,419,1446035253938548088,robocape_mag,9.99986166349,10.3355585845,-6.24429260205,10.0,0.0,0.0,0.0,10.0,0.0,0.0,0.0,10.0
1446035253968006029,420,1446035253964438915,robocape_mag,9.99986166349,10.3355585845,-6.24429260205,10.0,0.0,0.0,0.0,10.0,0.0,0.0,0.0,10.0
1446035253996746695,421,1446035253992898941,robocape_mag,9.99986166349,10.3355585845,-6.24429260205,10.0,0.0,0.0,0.0,10.0,0.0,0.0,0.0,10.0
1446035254018053570,422,1446035254013987064,robocape_mag,9.99986166349,10.3355585845,-6.24429260205,10.0,0.0,0.0,0.0,10.0,0.0,0.0,0.0,10.0
1446035254042070779,423,1446035254038281917,robocape_mag,9.98134683864,10.3185515602,-6.25612458602,10.0,0.0,0.0,0.0,10.0,0.0,0.0,0.0,10.0
1446035254067698570,424,1446035254064188957,robocape_mag,9.98134683864,10.3185515602,-6.25612458602,10.0,0.0,0.0,0.0,10.0,0.0,0.0,0.0,10.0
1446035254095007529,425,1446035254091496944,robocape_mag,9.98134683864,10.3185515602,-6.25612458602,10.0,0.0,0.0,0.0,10.0,0.0,0.0,0.0,10.0
1446035254122102070,426,1446035254117877960,robocape_mag,9.98134683864,10.3185515602,-6.25612458602,10.0,0.0,0.0,0.0,10.0,0.0,0.0,0.0,10.0
1446035254142079320,427,1446035254138410091,robocape_mag,9.98134683864,10.3185515602,-6.25612458602,10.0,0.0,0.0,0.0,10.0,0.0,0.0,0.0,10.0
1446035254167397654,428,1446035254163791894,robocape_mag,9.98134683864,10.3185515602,-6.25612458602,10.0,0.0,0.0,0.0,10.0,0.0,0.0,0.0,10.0
1446035254194265779,429,1446035254190465927,robocape_mag,9.98134683864,10.3185515602,-6.25612458602,10.0,0.0,0.0,0.0,10.0,0.0,0.0,0.0,10.0
1446035254221298237,430,1446035254216718912,robocape_mag,10.0107688059,10.2027944502,-6.58785441871,10.0,0.0,0.0,0.0,10.0,0.0,0.0,0.0,10.0
