%time,field.header.seq,field.header.stamp,field.header.frame_id,field.orientation.x,field.orientation.y,field.orientation.z,field.orientation.w,field.orientation_covariance0,field.orientation_covariance1,field.orientation_covariance2,field.orientation_covariance3,field.orientation_covariance4,field.orientation_covariance5,field.orientation_covariance6,field.orientation_covariance7,field.orientation_covariance8,field.angular_velocity.x,field.angular_velocity.y,field.angular_velocity.z,field.angular_velocity_covariance0,field.angular_velocity_covariance1,field.angular_velocity_covariance2,field.angular_velocity_covariance3,field.angular_velocity_covariance4,field.angular_velocity_covariance5,field.angular_velocity_covariance6,field.angular_velocity_covariance7,field.angular_velocity_covariance8,field.linear_acceleration.x,field.linear_acceleration.y,field.linear_acceleration.z,field.linear_acceleration_covariance0,field.linear_acceleration_covariance1,field.linear_acceleration_covariance2,field.linear_acceleration_covariance3,field.linear_acceleration_covariance4,field.linear_acceleration_covariance5,field.linear_acceleration_covariance6,field.linear_acceleration_covariance7,field.linear_acceleration_covariance8
1446038353793030165,1,1446038353789957046,robocape,-10.6863677286,-1.52550097076,-60.45041339,0.0,10.0,0.0,0.0,0.0,10.0,0.0,0.0,0.0,10.0,-0.819454667417,0.291482981309,-2.90897085869,1.0,0.0,0.0,0.0,1.0,0.0,0.0,0.0,1.0,-1.01548828125,-2.95305908203,9.54894287109,0.1,0.0,0.0,0.0,0.1,0.0,0.0,0.0,0.1
1446038353826183081,2,1446038353823276996,robocape,-11.4543565679,-1.8327250855,-65.1424680254,0.0,10.0,0.0,0.0,0.0,10.0,0.0,0.0,0.0,10.0,-0.596148610014,0.365785175722,-3.14013324131,1.0,0.0,0.0,0.0,1.0,0.0,0.0,0.0,1.0,-1.37953125,-2.78181518555,9.48307983398,0.1,0.0,0.0,0.0,0.1,0.0,0.0,0.0,0.1
1446038353859537665,3,1446038353856494903,robocape,-11.8153319283,-2.14183339152,-69.7782645481,0.0,10.0,0.0,0.0,0.0,10.0,0.0,0.0,0.0,10.0,-0.407729962891,0.393615209114,-3.20551384607,1.0,0.0,0.0,0.0,1.0,0.0,0.0,0.0,1.0,-1.79626464844,-2.69319946289,9.6183984375,0.1,0.0,0.0,0.0,0.1,0.0,0.0,0.0,0.1
1446038353892866998,4,1446038353889669895,robocape,-11.8327584845,-2.63252343315,-74.1766351994,0.0,10.0,0.0,0.0,0.0,10.0,0.0,0.0,0.0,10.0,-0.242081343088,0.286422975238,-3.1603732656,1.0,0.0,0.0,0.0,1.0,0.0,0.0,0.0,1.0,-2.18186279297,-1.14841186523,9.62438598633,0.1,0.0,0.0,0.0,0.1,0.0,0.0,0.0,0.1
1446038353926261956,5,1446038353923163890,robocape,-12.038281629,-3.34917598959,-78.1897893503,0.0,10.0,0.0,0.0,0.0,10.0,0.0,0.0,0.0,10.0,-0.355265689417,0.129562787032,-3.01043729623,1.0,0.0,0.0,0.0,1.0,0.0,0.0,0.0,1.0,-2.13276489258,-0.189206542969,9.61720092773,0.1,0.0,0.0,0.0,0.1,0.0,0.0,0.0,0.1
1446038353959479706,6,1446038353956398963,robocape,-12.5200823599,-4.23675646972,-81.8787039525,0.0,10.0,0.0,0.0,0.0,10.0,0.0,0.0,0.0,10.0,-0.524243260582,0.0151800182135,-2.88540188305,1.0,0.0,0.0,0.0,1.0,0.0,0.0,0.0,1.0,-1.7591418457,-0.0802331542969,9.82317260742,0.1,0.0,0.0,0.0,0.1,0.0,0.0,0.0,0.1
1446038353992853040,7,1446038353989604949,robocape,-13.1349036353,-5.29840202154,-85.3644064522,0.0,10.0,0.0,0.0,0.0,10.0,0.0,0.0,0.0,10.0,-0.631302336403,-0.0792290424299,-2.84865026,1.0,0.0,0.0,0.0,1.0,0.0,0.0,0.0,1.0,-1.39749389648,0.182021484375,9.91178833008,0.1,0.0,0.0,0.0,0.1,0.0,0.0,0.0,0.1
1446038354026486206,8,1446038354023171901,robocape,-13.4854817008,-6.69004463338,-88.7736545225,0.0,10.0,0.0,0.0,0.0,10.0,0.0,0.0,0.0,10.0,-0.547279604011,-0.240882920598,-2.93280615045,1.0,0.0,0.0,0.0,1.0,0.0,0.0,0.0,1.0,-1.3064831543,-1.29810058594,9.66989135742,0.1,0.0,0.0,0.0,0.1,0.0,0.0,0.0,0.1
1446038354059637956,9,1446038354056387901,robocape,-13.507923255,-8.37162458366,-92.0879130624,0.0,10.0,0.0,0.0,0.0,10.0,0.0,0.0,0.0,10.0,-0.434494731846,-0.400406269893,-2.98553674003,1.0,0.0,0.0,0.0,1.0,0.0,0.0,0.0,1.0,-1.26936035156,0.668210449219,9.4998449707,0.1,0.0,0.0,0.0,0.1,0.0,0.0,0.0,0.1
1446038354093525248,10,1446038354089756011,robocape,-13.8687253668,-10.2801960706,-95.1723830008,0.0,10.0,0.0,0.0,0.0,10.0,0.0,0.0,0.0,10.0,-0.668719749719,-0.550741713428,-2.94718722034,1.0,0.0,0.0,0.0,1.0,0.0,0.0,0.0,1.0,-0.543669433594,1.01069824219,9.44475952148,0.1,0.0,0.0,0.0,0.1,0.0,0.0,0.0,0.1
1446038354126486998,11,1446038354122940063,robocape,-14.2572070828,-12.1843357714,-98.1450601221,0.0,10.0,0.0,0.0,0.0,10.0,0.0,0.0,0.0,10.0,-0.753674588492,-0.560062777244,-2.94971722337,1.0,0.0,0.0,0.0,1.0,0.0,0.0,0.0,1.0,0.598754882812,0.0107775878906,9.50104248047,0.1,0.0,0.0,0.0,0.1,0.0,0.0,0.0,0.1
1446038354159451165,12,1446038354156352996,robocape,-14.6439920369,-13.5844747942,-101.124564357,0.0,10.0,0.0,0.0,0.0,10.0,0.0,0.0,0.0,10.0,-0.827843624851,-0.295744039053,-2.94345879481,1.0,0.0,0.0,0.0,1.0,0.0,0.0,0.0,1.0,1.78788208008,0.183218994141,9.85790039062,0.1,0.0,0.0,0.0,0.1,0.0,0.0,0.0,0.1
1446038354192990373,13,1446038354189698934,robocape,-15.6183720928,-14.2566270636,-104.021913136,0.0,10.0,0.0,0.0,0.0,10.0,0.0,0.0,0.0,10.0,-1.1780493082,0.08455536461,-2.83573392872,1.0,0.0,0.0,0.0,1.0,0.0,0.0,0.0,1.0,1.81302978516,0.912502441406,9.48786987305,0.1,0.0,0.0,0.0,0.1,0.0,0.0,0.0,0.1
1446038354226576832,14,1446038354223020076,robocape,-16.9385949909,-14.3143660499,-106.863135485,0.0,10.0,0.0,0.0,0.0,10.0,0.0,0.0,0.0,10.0,-1.37645480941,0.432497361029,-2.72734327235,1.0,0.0,0.0,0.0,1.0,0.0,0.0,0.0,1.0,1.56394775391,-0.0874182128906,8.79570922852,0.1,0.0,0.0,0.0,0.1,0.0,0.0,0.0,0.1
1446038354259416707,15,1446038354256376028,robocape,-18.1137649876,-14.0226464545,-109.707563772,0.0,10.0,0.0,0.0,0.0,10.0,0.0,0.0,0.0,10.0,-1.30148682472,0.662061846994,-2.66728898977,1.0,0.0,0.0,0.0,1.0,0.0,0.0,0.0,1.0,1.33163085938,-1.09093139648,8.44004882813,0.1,0.0,0.0,0.0,0.1,0.0,0.0,0.0,0.1
1446038354292964040,16,1446038354289638996,robocape,-18.8828564579,-13.5752683103,-112.510347929,0.0,10.0,0.0,0.0,0.0,10.0,0.0,0.0,0.0,10.0,-1.04835336311,0.772050400014,-2.52414408118,1.0,0.0,0.0,0.0,1.0,0.0,0.0,0.0,1.0,1.03584594727,-1.55436767578,8.60650268555,0.1,0.0,0.0,0.0,0.1,0.0,0.0,0.0,0.1
1446038354326409165,17,1446038354323029041,robocape,-19.1701300954,-13.0847308711,-115.19621389,0.0,10.0,0.0,0.0,0.0,10.0,0.0,0.0,0.0,10.0,-0.712262433542,0.784167782974,-2.24650953754,1.0,0.0,0.0,0.0,1.0,0.0,0.0,0.0,1.0,-0.184416503906,-1.83458496094,8.66757568359,0.1,0.0,0.0,0.0,0.1,0.0,0.0,0.0,0.1
1446038354359416665,18,1446038354356417894,robocape,-18.989537058,-12.9046380331,-117.716244577,0.0,10.0,0.0,0.0,0.0,10.0,0.0,0.0,0.0,10.0,-0.384693619462,0.592020710325,-2.01934189655,1.0,0.0,0.0,0.0,1.0,0.0,0.0,0.0,1.0,-1.1076965332,-1.36516113281,8.42567871094,0.1,0.0,0.0,0.0,0.1,0.0,0.0,0.0,0.1
1446038354393018373,19,1446038354389735937,robocape,-18.5582822842,-12.9380006872,-120.080102485,0.0,10.0,0.0,0.0,0.0,10.0,0.0,0.0,0.0,10.0,-0.184823379651,0.435693154337,-1.78551635284,1.0,0.0,0.0,0.0,1.0,0.0,0.0,0.0,1.0,-0.779578857422,-1.51005981445,8.06762329102,0.1,0.0,0.0,0.0,0.1,0.0,0.0,0.0,0.1
1446038354431031873,20,1446038354427903890,robocape,-17.629762938,-13.0717294678,-122.398810492,0.0,10.0,0.0,0.0,0.0,10.0,0.0,0.0,0.0,10.0,0.120774355435,0.346077783656,-1.60415508261,1.0,0.0,0.0,0.0,1.0,0.0,0.0,0.0,1.0,-0.589174804688,-1.86093017578,7.98978515625,0.1,0.0,0.0,0.0,0.1,0.0,0.0,0.0,0.1
1446038354459415832,21,1446038354456410884,robocape,-16.4990821753,-13.1899223292,-124.709857373,0.0,10.0,0.0,0.0,0.0,10.0,0.0,0.0,0.0,10.0,0.241415552816,0.323041440227,-1.53664394898,1.0,0.0,0.0,0.0,1.0,0.0,0.0,0.0,1.0,-0.767603759766,-0.875379638672,7.85446655273,0.1,0.0,0.0,0.0,0.1,0.0,0.0,0.0,0.1
1446038354493134957,22,1446038354489804983,robocape,-15.3064912776,-13.1883788614,-127.014773558,0.0,10.0,0.0,0.0,0.0,10.0,0.0,0.0,0.0,10.0,0.286822449402,0.35153726389,-1.46593702203,1.0,0.0,0.0,0.0,1.0,0.0,0.0,0.0,1.0,-0.789158935547,-1.38791381836,7.96822998047,0.1,0.0,0.0,0.0,0.1,0.0,0.0,0.0,0.1
1446038354526601832,23,1446038354523164987,robocape,-13.794197617,-13.1419547574,-129.338989966,0.0,10.0,0.0,0.0,0.0,10.0,0.0,0.0,0.0,10.0,0.468450035745,0.341816725912,-1.4042848428,1.0,0.0,0.0,0.0,1.0,0.0,0.0,0.0,1.0,-0.952020263672,-1.31726074219,8.04606811523,0.1,0.0,0.0,0.0,0.1,0.0,0.0,0.0,0.1
1446038354559430748,24,1446038354556417942,robocape,-12.1482192315,-13.2027212353,-131.597344466,0.0,10.0,0.0,0.0,0.0,10.0,0.0,0.0,0.0,10.0,0.572446476313,0.235556598418,-1.24968834152,1.0,0.0,0.0,0.0,1.0,0.0,0.0,0.0,1.0,-1.18673217773,0.0634680175781,7.69639526367,0.1,0.0,0.0,0.0,0.1,0.0,0.0,0.0,0.1
1446038354593105707,25,1446038354589751958,robocape,-11.0116747818,-13.1799922254,-133.713148316,0.0,10.0,0.0,0.0,0.0,10.0,0.0,0.0,0.0,10.0,0.352868844435,0.224504479894,-0.987633290256,1.0,0.0,0.0,0.0,1.0,0.0,0.0,0.0,1.0,-1.61783569336,0.467028808594,7.50599121094,0.1,0.0,0.0,0.0,0.1,0.0,0.0,0.0,0.1
1446038354626519040,26,1446038354622963905,robocape,-10.9902417882,-13.2790656015,-135.472926577,0.0,10.0,0.0,0.0,0.0,10.0,0.0,0.0,0.0,10.0,-0.104129598622,0.0913464253897,-0.279631914458,1.0,0.0,0.0,0.0,1.0,0.0,0.0,0.0,1.0,-0.484991455078,1.23583007813,7.46407836914,0.1,0.0,0.0,0.0,0.1,0.0,0.0,0.0,0.1
1446038354659505082,27,1446038354656409025,robocape,-11.1198119004,-13.126952283,-137.140652559,0.0,10.0,0.0,0.0,0.0,10.0,0.0,0.0,0.0,10.0,-0.101066963369,0.188285489069,0.246475558887,1.0,0.0,0.0,0.0,1.0,0.0,0.0,0.0,1.0,-0.05748046875,-1.4908996582,8.22449707031,0.1,0.0,0.0,0.0,0.1,0.0,0.0,0.0,0.1
1446038354693073290,28,1446038354689776897,robocape,-11.0209984123,-12.4912365164,-138.955408018,0.0,10.0,0.0,0.0,0.0,10.0,0.0,0.0,0.0,10.0,-0.00226368692657,0.448343169515,0.180029689689,1.0,0.0,0.0,0.0,1.0,0.0,0.0,0.0,1.0,-0.225131835938,-0.367635498047,9.10107421875,0.1,0.0,0.0,0.0,0.1,0.0,0.0,0.0,0.1
1446038354726847207,29,1446038354722970008,robocape,-10.9027847717,-11.6454737513,-140.9017687,0.0,10.0,0.0,0.0,0.0,10.0,0.0,0.0,0.0,10.0,-0.0464721610219,0.581900698182,-0.172572838637,1.0,0.0,0.0,0.0,1.0,0.0,0.0,0.0,1.0,-0.244291992188,0.398770751953,9.6219909668,0.1,0.0,0.0,0.0,0.1,0.0,0.0,0.0,0.1
1446038354759445373,30,1446038354756371021,robocape,-10.8191915642,-10.7354362732,-142.921642482,0.0,10.0,0.0,0.0,0.0,10.0,0.0,0.0,0.0,10.0,-0.0960069572974,0.633299707221,-0.446212640643,1.0,0.0,0.0,0.0,1.0,0.0,0.0,0.0,1.0,-0.805924072266,0.864602050781,9.24238037109,0.1,0.0,0.0,0.0,0.1,0.0,0.0,0.0,0.1
1446038354793082707,31,1446038354789680957,robocape,-10.8021648488,-10.0566371402,-144.95909524,0.0,10.0,0.0,0.0,0.0,10.0,0.0,0.0,0.0,10.0,-0.15020228548,0.528504318326,-0.698280837819,1.0,0.0,0.0,0.0,1.0,0.0,0.0,0.0,1.0,-2.00702636719,0.270637207031,8.91426269531,0.1,0.0,0.0,0.0,0.1,0.0,0.0,0.0,0.1
1446038354826394290,32,1446038354823090076,robocape,-10.5557432073,-9.82131667029,-146.973437241,0.0,10.0,0.0,0.0,0.0,10.0,0.0,0.0,0.0,10.0,-0.0175768631945,0.293080877963,-0.695617676729,1.0,0.0,0.0,0.0,1.0,0.0,0.0,0.0,1.0,-2.71954467773,-0.572409667969,8.90947265625,0.1,0.0,0.0,0.0,0.1,0.0,0.0,0.0,0.1
1446038354859561040,33,1446038354856561899,robocape,-10.0927784893,-9.81935090286,-148.947656968,0.0,10.0,0.0,0.0,0.0,10.0,0.0,0.0,0.0,10.0,0.137019638085,0.14101437972,-0.369646759303,1.0,0.0,0.0,0.0,1.0,0.0,0.0,0.0,1.0,-2.62374389648,-0.896934814453,9.45673461914,0.1,0.0,0.0,0.0,0.1,0.0,0.0,0.0,0.1
1446038354893069749,34,1446038354889715909,robocape,-9.61786067992,-9.95245159797,-150.880522947,0.0,10.0,0.0,0.0,0.0,10.0,0.0,0.0,0.0,10.0,0.18242653467,0.0386158358061,-0.0111852765783,1.0,0.0,0.0,0.0,1.0,0.0,0.0,0.0,1.0,-2.44291992188,-0.511336669922,10.0219592285,0.1,0.0,0.0,0.0,0.1,0.0,0.0,0.0,0.1
1446038354926605124,35,1446038354923290014,robocape,-9.13770382803,-10.1040776756,-152.802494793,0.0,10.0,0.0,0.0,0.0,10.0,0.0,0.0,0.0,10.0,0.213718677479,0.00479368996214,0.283626656093,1.0,0.0,0.0,0.0,1.0,0.0,0.0,0.0,1.0,-1.65974853516,0.32572265625,11.0410400391,0.1,0.0,0.0,0.0,0.1,0.0,0.0,0.0,0.1
1446038354959645582,36,1446038354956612110,robocape,-8.79476852649,-9.67451318877,-154.777341884,0.0,10.0,0.0,0.0,0.0,10.0,0.0,0.0,0.0,10.0,0.155129133497,0.295610880999,0.458463181657,1.0,0.0,0.0,0.0,1.0,0.0,0.0,0.0,1.0,-0.650247802734,1.92799072266,12.2792651367,0.1,0.0,0.0,0.0,0.1,0.0,0.0,0.0,0.1
1446038354992857707,37,1446038354989651918,robocape,-8.59592802064,-8.83130125569,-156.80150508,0.0,10.0,0.0,0.0,0.0,10.0,0.0,0.0,0.0,10.0,0.0748348266312,0.51146008735,0.422377348887,1.0,0.0,0.0,0.0,1.0,0.0,0.0,0.0,1.0,-0.597557373047,-1.25858276367,12.8157495117,0.1,0.0,0.0,0.0,0.1,0.0,0.0,0.0,0.1
1446038355026495707,38,1446038355023072004,robocape,-7.90417924446,-8.04579585971,-158.889090312,0.0,10.0,0.0,0.0,0.0,10.0,0.0,0.0,0.0,10.0,0.316117221392,0.486160056994,0.23768712729,1.0,0.0,0.0,0.0,1.0,0.0,0.0,0.0,1.0,-1.45018432617,-0.13412109375,13.1714099121,0.1,0.0,0.0,0.0,0.1,0.0,0.0,0.0,0.1
1446038355059686165,39,1446038355056545972,robocape,-7.68337296411,-7.61016810263,-160.923956702,0.0,10.0,0.0,0.0,0.0,10.0,0.0,0.0,0.0,10.0,0.067644291688,0.302535099833,0.156194397933,1.0,0.0,0.0,0.0,1.0,0.0,0.0,0.0,1.0,-2.13755493164,1.01189575195,14.0000866699,0.1,0.0,0.0,0.0,0.1,0.0,0.0,0.0,0.1
1446038355092833707,40,1446038355089720964,robocape,-7.15724253034,-7.56371031146,-162.97032061,0.0,10.0,0.0,0.0,0.0,10.0,0.0,0.0,0.0,10.0,0.219044999659,0.09933590866,0.0521979573656,1.0,0.0,0.0,0.0,1.0,0.0,0.0,0.0,1.0,-2.31598388672,-0.825084228516,14.4311901855,0.1,0.0,0.0,0.0,0.1,0.0,0.0,0.0,0.1
1446038355126543249,41,1446038355123039007,robocape,-6.19389696219,-7.99032619547,-165.034235341,0.0,10.0,0.0,0.0,0.0,10.0,0.0,0.0,0.0,10.0,0.436758418773,-0.152599130462,-0.032490565299,1.0,0.0,0.0,0.0,1.0,0.0,0.0,0.0,1.0,-1.90284301758,0.949625244141,13.5306628418,0.1,0.0,0.0,0.0,0.1,0.0,0.0,0.0,0.1
1446038355159579957,42,1446038355156523942,robocape,-5.43031291516,-8.76840115589,-167.081910573,0.0,10.0,0.0,0.0,0.0,10.0,0.0,0.0,0.0,10.0,0.322109333845,-0.343414622566,-0.0659132369795,1.0,0.0,0.0,0.0,1.0,0.0,0.0,0.0,1.0,-0.580792236328,0.240699462891,13.6743640137,0.1,0.0,0.0,0.0,0.1,0.0,0.0,0.0,0.1
1446038355193395832,43,1446038355190119028,robocape,-4.86806102914,-9.19241157774,-169.152158676,0.0,10.0,0.0,0.0,0.0,10.0,0.0,0.0,0.0,10.0,0.204131297555,-0.162186510386,-0.118910142672,1.0,0.0,0.0,0.0,1.0,0.0,0.0,0.0,1.0,0.614322509766,0.637075195313,13.7438195801,0.1,0.0,0.0,0.0,0.1,0.0,0.0,0.0,0.1
1446038355226344582,44,1446038355223047018,robocape,-4.63736624141,-9.03754621147,-171.233548872,0.0,10.0,0.0,0.0,0.0,10.0,0.0,0.0,0.0,10.0,0.0315584589174,0.135288583376,-0.0765658813398,1.0,0.0,0.0,0.0,1.0,0.0,0.0,0.0,1.0,0.947230224609,0.514929199219,13.626463623,0.1,0.0,0.0,0.0,0.1,0.0,0.0,0.0,0.1
1446038355259448790,45,1446038355256375074,robocape,-4.62648685918,-8.51043998646,-173.320311939,0.0,10.0,0.0,0.0,0.0,10.0,0.0,0.0,0.0,10.0,-0.0805606229749,0.328234604352,-0.0757669330128,1.0,0.0,0.0,0.0,1.0,0.0,0.0,0.0,1.0,0.086220703125,0.0167651367188,13.0947692871,0.1,0.0,0.0,0.0,0.1,0.0,0.0,0.0,0.1
1446038355292812082,46,1446038355289748907,robocape,-4.56269970821,-8.03554062308,-175.413103572,0.0,10.0,0.0,0.0,0.0,10.0,0.0,0.0,0.0,10.0,-0.0581900698182,0.303467206215,-0.200269713974,1.0,0.0,0.0,0.0,1.0,0.0,0.0,0.0,1.0,-0.380808105469,0.352067871094,11.9906652832,0.1,0.0,0.0,0.0,0.1,0.0,0.0,0.0,0.1
1446038355326162957,47,1446038355323190927,robocape,-4.63426003987,-7.84206777795,-177.486744349,0.0,10.0,0.0,0.0,0.0,10.0,0.0,0.0,0.0,10.0,-0.125834361506,0.155395449606,-0.206927616699,1.0,0.0,0.0,0.0,1.0,0.0,0.0,0.0,1.0,-0.628692626953,0.878972167969,11.8924694824,0.1,0.0,0.0,0.0,0.1,0.0,0.0,0.0,0.1
1446038355359420374,48,1446038355356406927,robocape,-4.7961222839,-7.93915632295,-179.543957225,0.0,10.0,0.0,0.0,0.0,10.0,0.0,0.0,0.0,10.0,-0.172972312801,0.00359526747161,-0.208791829462,1.0,0.0,0.0,0.0,1.0,0.0,0.0,0.0,1.0,-0.456251220703,-0.482596435547,12.170291748,0.1,0.0,0.0,0.0,0.1,0.0,0.0,0.0,0.1
1446038355392787957,49,1446038355389827013,robocape,-4.8284106837,-8.06066924621,178.390224508,0.0,10.0,0.0,0.0,0.0,10.0,0.0,0.0,0.0,10.0,-0.113850136601,-0.00559263828917,-0.302135625669,1.0,0.0,0.0,0.0,1.0,0.0,0.0,0.0,1.0,-0.239501953125,-0.799936523438,11.766730957,0.1,0.0,0.0,0.0,0.1,0.0,0.0,0.0,0.1
1446038355431355082,50,1446038355428245067,robocape,-4.79972552422,-7.99709185143,176.3135054,0.0,10.0,0.0,0.0,0.0,10.0,0.0,0.0,0.0,10.0,-0.0922785317712,0.0960069572974,-0.431831570756,1.0,0.0,0.0,0.0,1.0,0.0,0.0,0.0,1.0,-0.531694335938,0.298179931641,11.3679602051,0.1,0.0,0.0,0.0,0.1,0.0,0.0,0.0,0.1
1446038355459429874,51,1446038355456418991,robocape,-4.80145348961,-7.86383125641,174.238856967,0.0,10.0,0.0,0.0,0.0,10.0,0.0,0.0,0.0,10.0,-0.105194863058,0.130228577305,-0.400805744057,1.0,0.0,0.0,0.0,1.0,0.0,0.0,0.0,1.0,-0.787961425781,-0.17244140625,11.0063122559,0.1,0.0,0.0,0.0,0.1,0.0,0.0,0.0,0.1
1446038355492700707,52,1446038355489687919,robocape,-4.64188112512,-7.65764488943,172.15626991,0.0,10.0,0.0,0.0,0.0,10.0,0.0,0.0,0.0,10.0,-0.0103863282513,0.160322297623,-0.267780847607,1.0,0.0,0.0,0.0,1.0,0.0,0.0,0.0,1.0,-0.990340576172,-0.180823974609,11.1033105469,0.1,0.0,0.0,0.0,0.1,0.0,0.0,0.0,0.1
1446038355526198082,53,1446038355523209095,robocape,-4.42097775254,-7.39041897916,170.078311732,0.0,10.0,0.0,0.0,0.0,10.0,0.0,0.0,0.0,10.0,0.0418116291142,0.176700738327,0.00452737385313,1.0,0.0,0.0,0.0,1.0,0.0,0.0,0.0,1.0,-1.4597644043,0.675395507813,11.3895153809,0.1,0.0,0.0,0.0,0.1,0.0,0.0,0.0,0.1
1446038355559623624,54,1446038355556540966,robocape,-4.33688529454,-7.28860763053,168.027989997,0.0,10.0,0.0,0.0,0.0,10.0,0.0,0.0,0.0,10.0,-0.0157126504315,0.0786964102118,0.207193932808,1.0,0.0,0.0,0.0,1.0,0.0,0.0,0.0,1.0,-2.40459960937,1.00471069336,11.3559851074,0.1,0.0,0.0,0.0,0.1,0.0,0.0,0.0,0.1
1446038355592812624,55,1446038355589742898,robocape,-4.35307518743,-7.5848892058,166.008974816,0.0,10.0,0.0,0.0,0.0,10.0,0.0,0.0,0.0,10.0,-0.068443240015,-0.133024896449,0.233026595382,1.0,0.0,0.0,0.0,1.0,0.0,0.0,0.0,1.0,-2.82372802734,0.255069580078,11.0242749023,0.1,0.0,0.0,0.0,0.1,0.0,0.0,0.0,0.1
1446038355626391207,56,1446038355623171091,robocape,-4.4389218674,-8.24298140306,164.018305145,0.0,10.0,0.0,0.0,0.0,10.0,0.0,0.0,0.0,10.0,-0.110388027184,-0.323973546608,0.216248680514,1.0,0.0,0.0,0.0,1.0,0.0,0.0,0.0,1.0,-2.21778808594,-0.0922082519531,10.1297351074,0.1,0.0,0.0,0.0,0.1,0.0,0.0,0.0,0.1
1446038355659469707,57,1446038355656393051,robocape,-4.45650440831,-8.87190703183,162.03585493,0.0,10.0,0.0,0.0,0.0,10.0,0.0,0.0,0.0,10.0,-0.0810932551929,-0.310391425049,0.194410759576,1.0,0.0,0.0,0.0,1.0,0.0,0.0,0.0,1.0,-0.63228515625,-1.35318603516,10.0686621094,0.1,0.0,0.0,0.0,0.1,0.0,0.0,0.0,0.1
1446038355692686041,58,1446038355689629077,robocape,-4.22073530373,-9.11214087535,160.036322225,0.0,10.0,0.0,0.0,0.0,10.0,0.0,0.0,0.0,10.0,0.0424774193868,-0.106659601658,0.114782242982,1.0,0.0,0.0,0.0,1.0,0.0,0.0,0.0,1.0,-0.0778381347656,-1.08494384766,9.86388793945,0.1,0.0,0.0,0.0,0.1,0.0,0.0,0.0,0.1
1446038355726236207,59,1446038355723025083,robocape,-3.84869515086,-8.941127206,158.027165534,0.0,10.0,0.0,0.0,0.0,10.0,0.0,0.0,0.0,10.0,0.104262756677,0.111186975511,-0.016911072922,1.0,0.0,0.0,0.0,1.0,0.0,0.0,0.0,1.0,-0.285007324219,-1.24062011719,10.0698596191,0.1,0.0,0.0,0.0,0.1,0.0,0.0,0.0,0.1
1446038355759445249,60,1446038355756369113,robocape,-3.31250172042,-8.46454720377,156.021088792,0.0,10.0,0.0,0.0,0.0,10.0,0.0,0.0,0.0,10.0,0.192812862922,0.266848741226,-0.0391484680242,1.0,0.0,0.0,0.0,1.0,0.0,0.0,0.0,1.0,-1.17116455078,0.100590820313,10.2566711426,0.1,0.0,0.0,0.0,0.1,0.0,0.0,0.0,0.1
1446038355792726291,61,1446038355789705038,robocape,-3.24528045156,-8.08214637008,154.083528291,0.0,10.0,0.0,0.0,0.0,10.0,0.0,0.0,0.0,10.0,-0.0356863586071,0.208658671408,0.117978036291,1.0,0.0,0.0,0.0,1.0,0.0,0.0,0.0,1.0,-1.91841064453,0.748443603516,10.463840332,0.1,0.0,0.0,0.0,0.1,0.0,0.0,0.0,0.1
1446038355826241582,62,1446038355823268890,robocape,-3.42633885331,-8.0753561545,152.194044286,0.0,10.0,0.0,0.0,0.0,10.0,0.0,0.0,0.0,10.0,-0.161387562059,0.00972053797879,0.163518090931,1.0,0.0,0.0,0.0,1.0,0.0,0.0,0.0,1.0,-3.11831542969,-0.433498535156,10.8590185547,0.1,0.0,0.0,0.0,0.1,0.0,0.0,0.0,0.1
1446038355859574416,63,1446038355856544971,robocape,-3.5692465922,-8.33055861221,150.32740385,0.0,10.0,0.0,0.0,0.0,10.0,0.0,0.0,0.0,10.0,-0.144609647191,-0.127698574269,0.139682799175,1.0,0.0,0.0,0.0,1.0,0.0,0.0,0.0,1.0,-1.32205078125,-0.990340576172,10.0471069336,0.1,0.0,0.0,0.0,0.1,0.0,0.0,0.0,0.1
1446038355892612124,64,1446038355889636039,robocape,-3.65112076019,-8.64827066108,148.486655497,0.0,10.0,0.0,0.0,0.0,10.0,0.0,0.0,0.0,10.0,-0.11265171411,-0.163917565094,0.170042835602,1.0,0.0,0.0,0.0,1.0,0.0,0.0,0.0,1.0,-1.19032470703,-1.19511474609,10.0722546387,0.1,0.0,0.0,0.0,0.1,0.0,0.0,0.0,0.1
1446038355926542374,65,1446038355923515081,robocape,-3.64621470327,-8.8557373593,146.65157637,0.0,10.0,0.0,0.0,0.0,10.0,0.0,0.0,0.0,10.0,-0.0748348266312,-0.103730124459,0.0833569421195,1.0,0.0,0.0,0.0,1.0,0.0,0.0,0.0,1.0,-0.623902587891,-0.849034423828,9.95609619141,0.1,0.0,0.0,0.0,0.1,0.0,0.0,0.0,0.1
1446038355959634582,66,1446038355956633090,robocape,-3.51089962094,-9.00815499732,144.825494442,0.0,10.0,0.0,0.0,0.0,10.0,0.0,0.0,0.0,10.0,-0.0106526443603,-0.0753674588492,0.0386158358061,1.0,0.0,0.0,0.0,1.0,0.0,0.0,0.0,1.0,-1.37234619141,-1.71363647461,10.6865771484,0.1,0.0,0.0,0.0,0.1,0.0,0.0,0.0,0.1
1446038355993899166,67,1446038355990648031,robocape,-3.24773627219,-9.24319588225,143.032664377,0.0,10.0,0.0,0.0,0.0,10.0,0.0,0.0,0.0,10.0,0.0620516533988,-0.127565416215,0.121573303762,1.0,0.0,0.0,0.0,1.0,0.0,0.0,0.0,1.0,-0.811911621094,0.231119384766,9.90819580078,0.1,0.0,0.0,0.0,0.1,0.0,0.0,0.0,0.1
1446038356026350041,68,1446038356023150920,robocape,-2.96033689367,-9.58042004913,141.271339197,0.0,10.0,0.0,0.0,0.0,10.0,0.0,0.0,0.0,10.0,0.0765658813398,-0.187486540742,0.153264920734,1.0,0.0,0.0,0.0,1.0,0.0,0.0,0.0,1.0,-1.16517700195,-0.0502954101563,10.0315393066,0.1,0.0,0.0,0.0,0.1,0.0,0.0,0.0,0.1
1446038356059860082,69,1446038356056765079,robocape,-2.75609881272,-10.0251343725,139.540195925,0.0,10.0,0.0,0.0,0.0,10.0,0.0,0.0,0.0,10.0,0.0311589847539,-0.247540823323,0.145142279409,1.0,0.0,0.0,0.0,1.0,0.0,0.0,0.0,1.0,-0.968785400391,-0.0323327636719,9.8483203125,0.1,0.0,0.0,0.0,0.1,0.0,0.0,0.0,0.1
1446038356092850707,70,1446038356089797019,robocape,-2.53697076064,-10.5167364592,137.822773018,0.0,10.0,0.0,0.0,0.0,10.0,0.0,0.0,0.0,10.0,0.033023197517,-0.274039276169,0.0988032764419,1.0,0.0,0.0,0.0,1.0,0.0,0.0,0.0,1.0,-0.877774658203,-0.0407153320313,10.1608703613,0.1,0.0,0.0,0.0,0.1,0.0,0.0,0.0,0.1
1446038356126399666,71,1446038356123197078,robocape,-2.4372081753,-11.047475928,136.132495608,0.0,10.0,0.0,0.0,0.0,10.0,0.0,0.0,0.0,10.0,-0.0339553038985,-0.296676145435,0.0723048235957,1.0,0.0,0.0,0.0,1.0,0.0,0.0,0.0,1.0,0.0502954101563,0.441881103516,10.172845459,0.1,0.0,0.0,0.0,0.1,0.0,0.0,0.0,0.1
1446038356159973374,72,1446038356156923055,robocape,-2.5311722987,-11.4530185205,134.481509221,0.0,10.0,0.0,0.0,0.0,10.0,0.0,0.0,0.0,10.0,-0.137818586412,-0.232094489,0.0611195470173,1.0,0.0,0.0,0.0,1.0,0.0,0.0,0.0,1.0,-0.399968261719,0.0790356445313,10.402767334,0.1,0.0,0.0,0.0,0.1,0.0,0.0,0.0,0.1
1446038356192778832,73,1446038356189718961,robocape,-2.55809292727,-11.755305479,132.835686303,0.0,10.0,0.0,0.0,0.0,10.0,0.0,0.0,0.0,10.0,-0.110654343293,-0.176301264163,-0.000133158054504,1.0,0.0,0.0,0.0,1.0,0.0,0.0,0.0,1.0,0.00598754882813,-0.634680175781,10.3836071777,0.1,0.0,0.0,0.0,0.1,0.0,0.0,0.0,0.1
1446038356226446041,74,1446038356223047018,robocape,-2.44102657787,-11.9561099571,131.176794677,0.0,10.0,0.0,0.0,0.0,10.0,0.0,0.0,0.0,10.0,-0.0464721610219,-0.119842249054,-0.0938764284253,1.0,0.0,0.0,0.0,1.0,0.0,0.0,0.0,1.0,-0.117355957031,-0.520916748047,10.0902172852,0.1,0.0,0.0,0.0,0.1,0.0,0.0,0.0,0.1
1446038356260194166,75,1446038356257157087,robocape,-2.32935159219,-12.1848360643,129.541657546,0.0,10.0,0.0,0.0,0.0,10.0,0.0,0.0,0.0,10.0,-0.050200586548,-0.136753321976,-0.0994690667145,1.0,0.0,0.0,0.0,1.0,0.0,0.0,0.0,1.0,-0.744851074219,-0.470621337891,9.96447875977,0.1,0.0,0.0,0.0,0.1,0.0,0.0,0.0,0.1
1446038356292670916,76,1446038356289654970,robocape,-2.2484096021,-12.5265506286,127.966024427,0.0,10.0,0.0,0.0,0.0,10.0,0.0,0.0,0.0,10.0,-0.0560595409462,-0.204930245882,-0.00572579634367,1.0,0.0,0.0,0.0,1.0,0.0,0.0,0.0,1.0,-0.24908203125,-1.46694946289,9.83275268555,0.1,0.0,0.0,0.0,0.1,0.0,0.0,0.0,0.1
1446038356326296374,77,1446038356323173999,robocape,-1.99080495306,-12.8828708816,126.420821238,0.0,10.0,0.0,0.0,0.0,10.0,0.0,0.0,0.0,10.0,0.0415453130052,-0.220376580204,0.0455400546404,1.0,0.0,0.0,0.0,1.0,0.0,0.0,0.0,1.0,-0.513731689453,-1.46934448242,9.94891113281,0.1,0.0,0.0,0.0,0.1,0.0,0.0,0.0,0.1
1446038356360016374,78,1446038356356950044,robocape,-1.60256153972,-13.2490153178,124.913780555,0.0,10.0,0.0,0.0,0.0,10.0,0.0,0.0,0.0,10.0,0.117445404072,-0.23475765009,0.10612696944,1.0,0.0,0.0,0.0,1.0,0.0,0.0,0.0,1.0,-0.931662597656,-0.847836914063,10.1488952637,0.1,0.0,0.0,0.0,0.1,0.0,0.0,0.0,0.1
1446038356392873416,79,1446038356389848947,robocape,-1.35377992251,-13.6520400183,123.473929535,0.0,10.0,0.0,0.0,0.0,10.0,0.0,0.0,0.0,10.0,0.0552605926191,-0.262587683482,0.180296005798,1.0,0.0,0.0,0.0,1.0,0.0,0.0,0.0,1.0,-0.684975585938,-0.0335302734375,10.0183666992,0.1,0.0,0.0,0.0,0.1,0.0,0.0,0.0,0.1
1446038356430648958,80,1446038356427341938,robocape,-1.38217513861,-14.1055886243,122.117473669,0.0,10.0,0.0,0.0,0.0,10.0,0.0,0.0,0.0,10.0,-0.0781637779938,-0.295877197108,0.256995045193,1.0,0.0,0.0,0.0,1.0,0.0,0.0,0.0,1.0,-0.690963134766,0.108973388672,9.89861572266,0.1,0.0,0.0,0.0,0.1,0.0,0.0,0.0,0.1
1446038356460440541,81,1446038356457360982,robocape,-1.53563027311,-14.6451399217,120.796453864,0.0,10.0,0.0,0.0,0.0,10.0,0.0,0.0,0.0,10.0,-0.144476489137,-0.343148306457,0.254331884103,1.0,0.0,0.0,0.0,1.0,0.0,0.0,0.0,1.0,-0.706530761719,-0.296982421875,9.93933105469,0.1,0.0,0.0,0.0,0.1,0.0,0.0,0.0,0.1
1446038356492683333,82,1446038356489644050,robocape,-1.60099702763,-15.2937286599,119.452419797,0.0,10.0,0.0,0.0,0.0,10.0,0.0,0.0,0.0,10.0,-0.11265171411,-0.398675215185,0.174303893346,1.0,0.0,0.0,0.0,1.0,0.0,0.0,0.0,1.0,4.76369384766,-0.829874267578,10.1465002441,0.1,0.0,0.0,0.0,0.1,0.0,0.0,0.0,0.1
1446038356526184666,83,1446038356523117065,robocape,-1.4242524173,-14.9000513277,118.061322416,0.0,10.0,0.0,0.0,0.0,10.0,0.0,0.0,0.0,10.0,-0.0110521185238,0.162585984549,-0.0149137021044,1.0,0.0,0.0,0.0,1.0,0.0,0.0,0.0,1.0,0.112565917969,-0.184416503906,11.0302624512,0.1,0.0,0.0,0.0,0.1,0.0,0.0,0.0,0.1
1446038356560876333,84,1446038356557008981,robocape,-1.29250819555,-14.5424638372,116.717720597,0.0,10.0,0.0,0.0,0.0,10.0,0.0,0.0,0.0,10.0,-0.0245010820287,0.141280695829,0.0167779148675,1.0,0.0,0.0,0.0,1.0,0.0,0.0,0.0,1.0,-0.434696044922,-0.749641113281,10.0997973633,0.1,0.0,0.0,0.0,0.1,0.0,0.0,0.0,0.1
1446038356592869416,85,1446038356589709997,robocape,-1.13325045894,-14.22639891,115.386931721,0.0,10.0,0.0,0.0,0.0,10.0,0.0,0.0,0.0,10.0,-0.00918790576077,0.120508039326,-0.00386158358061,1.0,0.0,0.0,0.0,1.0,0.0,0.0,0.0,1.0,-0.283809814453,-0.668210449219,10.1800305176,0.1,0.0,0.0,0.0,0.1,0.0,0.0,0.0,0.1
1446038356626397291,86,1446038356623188018,robocape,-0.962002050693,-13.9356496075,114.086654407,0.0,10.0,0.0,0.0,0.0,10.0,0.0,0.0,0.0,10.0,0.00266316109008,0.10612696944,0.00532632218016,1.0,0.0,0.0,0.0,1.0,0.0,0.0,0.0,1.0,0.108973388672,-0.801134033203,10.290201416,0.1,0.0,0.0,0.0,0.1,0.0,0.0,0.0,0.1
1446038356660014791,87,1446038356656950950,robocape,-0.806243388246,-13.6873355859,112.816337027,0.0,10.0,0.0,0.0,0.0,10.0,0.0,0.0,0.0,10.0,-0.00066579027252,0.0830906260105,0.0115847507418,1.0,0.0,0.0,0.0,1.0,0.0,0.0,0.0,1.0,0.336500244141,-0.352067871094,10.2123632813,0.1,0.0,0.0,0.0,0.1,0.0,0.0,0.0,0.1
1446038356692799916,88,1446038356689667940,robocape,-0.730298375059,-13.475220611,111.586061208,0.0,10.0,0.0,0.0,0.0,10.0,0.0,0.0,0.0,10.0,-0.0366184649886,0.0633832339439,0.0267647689553,1.0,0.0,0.0,0.0,1.0,0.0,0.0,0.0,1.0,0.311352539063,-0.729283447266,10.1081799316,0.1,0.0,0.0,0.0,0.1,0.0,0.0,0.0,0.1
1446038356726215416,89,1446038356722981929,robocape,-0.558593269632,-13.2423375561,110.362890157,0.0,10.0,0.0,0.0,0.0,10.0,0.0,0.0,0.0,10.0,0.0135821215594,0.0749679846857,0.0067910607797,1.0,0.0,0.0,0.0,1.0,0.0,0.0,0.0,1.0,0.225131835938,-1.24062011719,9.96208374023,0.1,0.0,0.0,0.0,0.1,0.0,0.0,0.0,0.1
1446038356760006583,90,1446038356756973028,robocape,-0.171320346703,-12.8964181686,109.14231325,0.0,10.0,0.0,0.0,0.0,10.0,0.0,0.0,0.0,10.0,0.127698574269,0.133957002831,-0.0134489635049,1.0,0.0,0.0,0.0,1.0,0.0,0.0,0.0,1.0,0.100590820313,-1.2298425293,9.96807128906,0.1,0.0,0.0,0.0,0.1,0.0,0.0,0.0,0.1
1446038356792786791,91,1446038356789635896,robocape,0.352967091278,-12.5682314447,107.924122593,0.0,10.0,0.0,0.0,0.0,10.0,0.0,0.0,0.0,10.0,0.20133497841,0.123437516525,-0.033289513626,1.0,0.0,0.0,0.0,1.0,0.0,0.0,0.0,1.0,-0.355660400391,-1.08135131836,10.4937780762,0.1,0.0,0.0,0.0,0.1,0.0,0.0,0.0,0.1
1446038356826176999,92,1446038356823205947,robocape,0.885514216238,-12.3603002481,106.752873602,0.0,10.0,0.0,0.0,0.0,10.0,0.0,0.0,0.0,10.0,0.216648154678,0.0557932248372,0.0105194863058,1.0,0.0,0.0,0.0,1.0,0.0,0.0,0.0,1.0,-1.33881591797,-1.02027832031,10.1465002441,0.1,0.0,0.0,0.0,0.1,0.0,0.0,0.0,0.1
1446038356859999916,93,1446038356856946945,robocape,1.44837265981,-12.1150581132,105.601378751,0.0,10.0,0.0,0.0,0.0,10.0,0.0,0.0,0.0,10.0,0.236488704799,0.0736364041407,0.00359526747161,1.0,0.0,0.0,0.0,1.0,0.0,0.0,0.0,1.0,-0.1916015625,-0.149688720703,10.2482885742,0.1,0.0,0.0,0.0,0.1,0.0,0.0,0.0,0.1
1446038356893081583,94,1446038356889981985,robocape,1.97849028298,-11.9167392246,104.456493718,0.0,10.0,0.0,0.0,0.0,10.0,0.0,0.0,0.0,10.0,0.22024342215,0.0479368996214,-0.0193079179031,1.0,0.0,0.0,0.0,1.0,0.0,0.0,0.0,1.0,0.0383203125,-0.117355957031,10.1740429688,0.1,0.0,0.0,0.0,0.1,0.0,0.0,0.0,0.1
1446038356926553041,95,1446038356923552989,robocape,2.44550876714,-11.7406965673,103.342309437,0.0,10.0,0.0,0.0,0.0,10.0,0.0,0.0,0.0,10.0,0.192413388758,0.034621094171,-0.0122505410144,1.0,0.0,0.0,0.0,1.0,0.0,0.0,0.0,1.0,0.0526904296875,-0.122145996094,10.132130127,0.1,0.0,0.0,0.0,0.1,0.0,0.0,0.0,0.1
1446038356960240375,96,1446038356957134008,robocape,2.91107532777,-11.5752571433,102.253292469,0.0,10.0,0.0,0.0,0.0,10.0,0.0,0.0,0.0,10.0,0.196274972339,0.0274305592278,-0.00705737688871,1.0,0.0,0.0,0.0,1.0,0.0,0.0,0.0,1.0,0.0443078613281,0.009580078125,10.1201550293,0.1,0.0,0.0,0.0,0.1,0.0,0.0,0.0,0.1
1446038356992863333,97,1446038356989789009,robocape,3.19579847804,-11.4152663685,101.207136979,0.0,10.0,0.0,0.0,0.0,10.0,0.0,0.0,0.0,10.0,0.106925917767,0.0246342400832,0.00426105774413,1.0,0.0,0.0,0.0,1.0,0.0,0.0,0.0,1.0,-0.131726074219,0.261057128906,10.1345251465,0.1,0.0,0.0,0.0,0.1,0.0,0.0,0.0,0.1
1446038357026184333,98,1446038357023052930,robocape,3.33190140671,-11.2607922726,100.194216376,0.0,10.0,0.0,0.0,0.0,10.0,0.0,0.0,0.0,10.0,0.03222424919,0.0226368692657,0.00652474467069,1.0,0.0,0.0,0.0,1.0,0.0,0.0,0.0,1.0,-0.086220703125,0.386795654297,10.1213525391,0.1,0.0,0.0,0.0,0.1,0.0,0.0,0.0,0.1
1446038357060881375,99,1446038357057826042,robocape,3.31986121051,-11.1131265641,99.2147595789,0.0,10.0,0.0,0.0,0.0,10.0,0.0,0.0,0.0,10.0,-0.0427437354958,0.0206394984481,0.0101200121423,1.0,0.0,0.0,0.0,1.0,0.0,0.0,0.0,1.0,-0.101788330078,0.270637207031,10.1093774414,0.1,0.0,0.0,0.0,0.1,0.0,0.0,0.0,0.1
1446038357092836791,100,1446038357089678049,robocape,3.20803181875,-10.9711516492,98.2636240293,0.0,10.0,0.0,0.0,0.0,10.0,0.0,0.0,0.0,10.0,-0.0932106381528,0.0194410759576,0.0125168571234,1.0,0.0,0.0,0.0,1.0,0.0,0.0,0.0,1.0,-0.0922082519531,-0.028740234375,10.157277832,0.1,0.0,0.0,0.0,0.1,0.0,0.0,0.0,0.1
1446038357126544083,101,1446038357123323917,robocape,3.06389428244,-10.8321728951,97.3388458275,0.0,10.0,0.0,0.0,0.0,10.0,0.0,0.0,0.0,10.0,-0.108124340257,0.0194410759576,0.0189084437396,1.0,0.0,0.0,0.0,1.0,0.0,0.0,0.0,1.0,-0.0814306640625,-0.258662109375,10.1333276367,0.1,0.0,0.0,0.0,0.1,0.0,0.0,0.0,0.1
1446038357160131791,102,1446038357157129049,robocape,2.94019626094,-10.6964123757,96.4309190745,0.0,10.0,0.0,0.0,0.0,10.0,0.0,0.0,0.0,10.0,-0.0965395895154,0.0190416017941,0.0187752856851,1.0,0.0,0.0,0.0,1.0,0.0,0.0,0.0,1.0,-0.0730480957031,-0.397573242188,10.1441052246,0.1,0.0,0.0,0.0,0.1,0.0,0.0,0.0,0.1
1446038357192980625,103,1446038357189713954,robocape,2.85090616457,-10.5634749756,95.5383971611,0.0,10.0,0.0,0.0,0.0,10.0,0.0,0.0,0.0,10.0,-0.0776311457758,0.0186421276306,0.0183758115215,1.0,0.0,0.0,0.0,1.0,0.0,0.0,0.0,1.0,-0.0634680175781,-0.437091064453,10.1285375977,0.1,0.0,0.0,0.0,0.1,0.0,0.0,0.0,0.1
1446038357226227750,104,1446038357223011016,robocape,2.79448086763,-10.4321612313,94.6582933852,0.0,10.0,0.0,0.0,0.0,10.0,0.0,0.0,0.0,10.0,-0.0599211245268,0.0187752856851,0.0146473859954,1.0,0.0,0.0,0.0,1.0,0.0,0.0,0.0,1.0,-0.0969982910156,-0.450263671875,10.1213525391,0.1,0.0,0.0,0.0,0.1,0.0,0.0,0.0,0.1
1446038357260057625,105,1446038357257016897,robocape,2.76890183233,-10.3025299942,93.7889609108,0.0,10.0,0.0,0.0,0.0,10.0,0.0,0.0,0.0,10.0,-0.0434095257683,0.0187752856851,0.00932106381528,1.0,0.0,0.0,0.0,1.0,0.0,0.0,0.0,1.0,-0.240699462891,-0.501756591797,10.1967956543,0.1,0.0,0.0,0.0,0.1,0.0,0.0,0.0,0.1
1446038357293473208,106,1446038357290368080,robocape,2.77991038615,-10.1698679652,92.9361354457,0.0,10.0,0.0,0.0,0.0,10.0,0.0,0.0,0.0,10.0,-0.0227700273202,0.0210389726116,0.0107858024148,1.0,0.0,0.0,0.0,1.0,0.0,0.0,0.0,1.0,-0.1916015625,-0.511336669922,10.1357226563,0.1,0.0,0.0,0.0,0.1,0.0,0.0,0.0,0.1
1446038357326130458,107,1446038357323194026,robocape,2.86452725119,-10.0382910816,92.0931428215,0.0,10.0,0.0,0.0,0.0,10.0,0.0,0.0,0.0,10.0,0.0167779148675,0.0207726565026,0.00798948327024,1.0,0.0,0.0,0.0,1.0,0.0,0.0,0.0,1.0,-0.0275427246094,-0.510139160156,10.1069824219,0.1,0.0,0.0,0.0,0.1,0.0,0.0,0.0,0.1
1446038357360318708,108,1446038357357134103,robocape,3.01165675891,-9.90518861067,91.2585786864,0.0,10.0,0.0,0.0,0.0,10.0,0.0,0.0,0.0,10.0,0.050466902657,0.0217047628841,0.00306263525359,1.0,0.0,0.0,0.0,1.0,0.0,0.0,0.0,1.0,-0.047900390625,-0.432301025391,10.1309326172,0.1,0.0,0.0,0.0,0.1,0.0,0.0,0.0,0.1
1446038357392717708,109,1446038357389681100,robocape,3.18593218028,-9.77309973761,90.4339924521,0.0,10.0,0.0,0.0,0.0,10.0,0.0,0.0,0.0,10.0,0.065780078925,0.0213052887206,-0.00173105470855,1.0,0.0,0.0,0.0,1.0,0.0,0.0,0.0,1.0,-0.123343505859,-0.365240478516,10.1381176758,0.1,0.0,0.0,0.0,0.1,0.0,0.0,0.0,0.1
1446038357429602958,110,1446038357426510095,robocape,3.35596798252,-9.63995945254,89.6282492018,0.0,10.0,0.0,0.0,0.0,10.0,0.0,0.0,0.0,10.0,0.065780078925,0.0221042370477,0.00119842249054,1.0,0.0,0.0,0.0,1.0,0.0,0.0,0.0,1.0,-0.100590820313,-0.258662109375,10.1560803223,0.1,0.0,0.0,0.0,0.1,0.0,0.0,0.0,0.1
1446038357460240000,111,1446038357457123041,robocape,3.50274285656,-9.50812610173,88.8406908038,0.0,10.0,0.0,0.0,0.0,10.0,0.0,0.0,0.0,10.0,0.0555269087282,0.0218379209386,0.00292947719909,1.0,0.0,0.0,0.0,1.0,0.0,0.0,0.0,1.0,-0.130528564453,-0.178428955078,10.1237475586,0.1,0.0,0.0,0.0,0.1,0.0,0.0,0.0,0.1
1446038357492723458,112,1446038357489660978,robocape,3.61704894885,-9.37814905945,88.0699635636,0.0,10.0,0.0,0.0,0.0,10.0,0.0,0.0,0.0,10.0,0.0400805744057,0.0214384467751,0.0031957933081,1.0,0.0,0.0,0.0,1.0,0.0,0.0,0.0,1.0,-0.140108642578,-0.147293701172,10.136920166,0.1,0.0,0.0,0.0,0.1,0.0,0.0,0.0,0.1
1446038357526189666,113,1446038357523221015,robocape,3.69656815245,-9.2497804551,87.3162101905,0.0,10.0,0.0,0.0,0.0,10.0,0.0,0.0,0.0,10.0,0.0233026595382,0.0213052887206,0.00386158358061,1.0,0.0,0.0,0.0,1.0,0.0,0.0,0.0,1.0,-0.100590820313,-0.195194091797,10.136920166,0.1,0.0,0.0,0.0,0.1,0.0,0.0,0.0,0.1
1446038357559946833,114,1446038357556829929,robocape,3.75404157695,-9.12259270255,86.5793085705,0.0,10.0,0.0,0.0,0.0,10.0,0.0,0.0,0.0,10.0,0.0131826473959,0.0214384467751,0.00545948023466,1.0,0.0,0.0,0.0,1.0,0.0,0.0,0.0,1.0,-0.0718505859375,-0.239501953125,10.1345251465,0.1,0.0,0.0,0.0,0.1,0.0,0.0,0.0,0.1
1446038357592842666,115,1446038357589767932,robocape,3.79591795109,-8.99765652909,85.8589785807,0.0,10.0,0.0,0.0,0.0,10.0,0.0,0.0,0.0,10.0,0.00639158661619,0.0210389726116,0.00759000910673,1.0,0.0,0.0,0.0,1.0,0.0,0.0,0.0,1.0,-0.0922082519531,-0.233514404297,10.1381176758,0.1,0.0,0.0,0.0,0.1,0.0,0.0,0.0,0.1
1446038357626301542,116,1446038357623003959,robocape,3.82168182849,-8.87476099386,85.1527214722,0.0,10.0,0.0,0.0,0.0,10.0,0.0,0.0,0.0,10.0,-0.00106526443603,0.0207726565026,0.00759000910673,1.0,0.0,0.0,0.0,1.0,0.0,0.0,0.0,1.0,-0.120948486328,-0.241896972656,10.1333276367,0.1,0.0,0.0,0.0,0.1,0.0,0.0,0.0,0.1
1446038357660450417,117,1446038357657392024,robocape,3.83663170009,-8.75418326349,84.460702366,0.0,10.0,0.0,0.0,0.0,10.0,0.0,0.0,0.0,10.0,-0.00572579634367,0.0203731823391,0.00838895743375,1.0,0.0,0.0,0.0,1.0,0.0,0.0,0.0,1.0,-0.09580078125,-0.2682421875,10.1345251465,0.1,0.0,0.0,0.0,0.1,0.0,0.0,0.0,0.1
1446038357692971083,118,1446038357689796924,robocape,3.84895781264,-8.63533861199,83.7813765735,0.0,10.0,0.0,0.0,0.0,10.0,0.0,0.0,0.0,10.0,-0.00625842856169,0.0202400242846,0.00838895743375,1.0,0.0,0.0,0.0,1.0,0.0,0.0,0.0,1.0,-0.102985839844,-0.2682421875,10.1381176758,0.1,0.0,0.0,0.0,0.1,0.0,0.0,0.0,0.1
1446038357726205750,119,1446038357723007917,robocape,3.86027983916,-8.51743997981,83.1142715205,0.0,10.0,0.0,0.0,0.0,10.0,0.0,0.0,0.0,10.0,-0.00599211245268,0.0205063403936,0.00825579937925,1.0,0.0,0.0,0.0,1.0,0.0,0.0,0.0,1.0,-0.106578369141,-0.286204833984,10.1453027344,0.1,0.0,0.0,0.0,0.1,0.0,0.0,0.0,0.1
1446038357760218375,120,1446038357757036924,robocape,3.87188270345,-8.40197418329,82.4591639507,0.0,10.0,0.0,0.0,0.0,10.0,0.0,0.0,0.0,10.0,-0.00506000607115,0.0199737081756,0.00838895743375,1.0,0.0,0.0,0.0,1.0,0.0,0.0,0.0,1.0,-0.09580078125,-0.294587402344,10.1548828125,0.1,0.0,0.0,0.0,0.1,0.0,0.0,0.0,0.1
1446038357792711000,121,1446038357789690971,robocape,3.88627342368,-8.28709694056,81.8149356449,0.0,10.0,0.0,0.0,0.0,10.0,0.0,0.0,0.0,10.0,-0.00292947719909,0.0203731823391,0.00772316716123,1.0,0.0,0.0,0.0,1.0,0.0,0.0,0.0,1.0,-0.104183349609,-0.307760009766,10.1357226563,0.1,0.0,0.0,0.0,0.1,0.0,0.0,0.0,0.1
1446038357826114792,122,1446038357823050022,robocape,3.9017837832,-8.17206022015,81.1821722174,0.0,10.0,0.0,0.0,0.0,10.0,0.0,0.0,0.0,10.0,-0.00159789665405,0.0211721306661,0.00772316716123,1.0,0.0,0.0,0.0,1.0,0.0,0.0,0.0,1.0,-0.101788330078,-0.305364990234,10.1237475586,0.1,0.0,0.0,0.0,0.1,0.0,0.0,0.0,0.1
1446038357860049958,123,1446038357856997966,robocape,3.92103218701,-8.06008644939,80.560179298,0.0,10.0,0.0,0.0,0.0,10.0,0.0,0.0,0.0,10.0,0.00106526443603,0.0202400242846,0.00772316716123,1.0,0.0,0.0,0.0,1.0,0.0,0.0,0.0,1.0,-0.111368408203,-0.299377441406,10.1189575195,0.1,0.0,0.0,0.0,0.1,0.0,0.0,0.0,0.1
1446038357892774542,124,1446038357889791011,robocape,3.94172727631,-7.94813012407,79.9490648707,0.0,10.0,0.0,0.0,0.0,10.0,0.0,0.0,0.0,10.0,0.00253000303558,0.0209058145571,0.00772316716123,1.0,0.0,0.0,0.0,1.0,0.0,0.0,0.0,1.0,-0.105380859375,-0.310155029297,10.1333276367,0.1,0.0,0.0,0.0,0.1,0.0,0.0,0.0,0.1
1446038357926470625,125,1446038357923460006,robocape,3.96301265587,-7.83792490341,79.3479974811,0.0,10.0,0.0,0.0,0.0,10.0,0.0,0.0,0.0,10.0,0.0034621094171,0.0206394984481,0.00732369299772,1.0,0.0,0.0,0.0,1.0,0.0,0.0,0.0,1.0,-0.0993933105469,-0.300574951172,10.1429077148,0.1,0.0,0.0,0.0,0.1,0.0,0.0,0.0,0.1
1446038357959993708,126,1446038357956902027,robocape,3.98633000078,-7.72793483276,78.7572423134,0.0,10.0,0.0,0.0,0.0,10.0,0.0,0.0,0.0,10.0,0.00519316412565,0.0211721306661,0.00732369299772,1.0,0.0,0.0,0.0,1.0,0.0,0.0,0.0,1.0,-0.122145996094,-0.314945068359,10.1261425781,0.1,0.0,0.0,0.0,0.1,0.0,0.0,0.0,0.1
1446038357992726958,127,1446038357989716053,robocape,4.01181763907,-7.62139328561,78.1759480759,0.0,10.0,0.0,0.0,0.0,10.0,0.0,0.0,0.0,10.0,0.00692421883421,0.0199737081756,0.00705737688871,1.0,0.0,0.0,0.0,1.0,0.0,0.0,0.0,1.0,-0.102985839844,-0.299377441406,10.1417102051,0.1,0.0,0.0,0.0,0.1,0.0,0.0,0.0,0.1
1446038358026594833,128,1446038358023354053,robocape,4.03892345937,-7.51474473204,77.6043656004,0.0,10.0,0.0,0.0,0.0,10.0,0.0,0.0,0.0,10.0,0.00838895743375,0.0206394984481,0.00692421883421,1.0,0.0,0.0,0.0,1.0,0.0,0.0,0.0,1.0,-0.0946032714844,-0.308957519531,10.1237475586,0.1,0.0,0.0,0.0,0.1,0.0,0.0,0.0,0.1
1446038358060178958,129,1446038358057090997,robocape,4.06572853985,-7.40923391558,77.0419187061,0.0,10.0,0.0,0.0,0.0,10.0,0.0,0.0,0.0,10.0,0.00878843159726,0.0206394984481,0.00652474467069,1.0,0.0,0.0,0.0,1.0,0.0,0.0,0.0,1.0,-0.0946032714844,-0.313747558594,10.1620678711,0.1,0.0,0.0,0.0,0.1,0.0,0.0,0.0,0.1
1446038358093051833,130,1446038358089965105,robocape,4.09142900813,-7.30537225711,76.4888292088,0.0,10.0,0.0,0.0,0.0,10.0,0.0,0.0,0.0,10.0,0.00878843159726,0.0203731823391,0.00652474467069,1.0,0.0,0.0,0.0,1.0,0.0,0.0,0.0,1.0,-0.104183349609,-0.302969970703,10.1417102051,0.1,0.0,0.0,0.0,0.1,0.0,0.0,0.0,0.1
1446038358127521833,131,1446038358124495029,robocape,4.11533678175,-7.20263886305,75.9447870432,0.0,10.0,0.0,0.0,0.0,10.0,0.0,0.0,0.0,10.0,0.00838895743375,0.0203731823391,0.00639158661619,1.0,0.0,0.0,0.0,1.0,0.0,0.0,0.0,1.0,-0.0993933105469,-0.292192382813,10.1345251465,0.1,0.0,0.0,0.0,0.1,0.0,0.0,0.0,0.1
1446038358160125333,132,1446038358157035112,robocape,4.13514002482,-7.10156786878,75.410090995,0.0,10.0,0.0,0.0,0.0,10.0,0.0,0.0,0.0,10.0,0.0067910607797,0.0201068662301,0.0066579027252,1.0,0.0,0.0,0.0,1.0,0.0,0.0,0.0,1.0,-0.0993933105469,-0.269439697266,10.1393151855,0.1,0.0,0.0,0.0,0.1,0.0,0.0,0.0,0.1
1446038358192900875,133,1446038358189857959,robocape,4.15157796315,-7.00040093062,74.8849678921,0.0,10.0,0.0,0.0,0.0,10.0,0.0,0.0,0.0,10.0,0.00559263828917,0.0207726565026,0.00719053494321,1.0,0.0,0.0,0.0,1.0,0.0,0.0,0.0,1.0,-0.0969982910156,-0.285007324219,10.1225500488,0.1,0.0,0.0,0.0,0.1,0.0,0.0,0.0,0.1
1446038358226517167,134,1446038358223278045,robocape,4.16311813571,-6.90188546005,74.3682183751,0.0,10.0,0.0,0.0,0.0,10.0,0.0,0.0,0.0,10.0,0.0034621094171,0.0199737081756,0.00705737688871,1.0,0.0,0.0,0.0,1.0,0.0,0.0,0.0,1.0,-0.119750976563,-0.292192382813,10.1560803223,0.1,0.0,0.0,0.0,0.1,0.0,0.0,0.0,0.1
1446038358260316292,135,1446038358257262945,robocape,4.17229729039,-6.8037320078,73.8599014708,0.0,10.0,0.0,0.0,0.0,10.0,0.0,0.0,0.0,10.0,0.00266316109008,0.0203731823391,0.00705737688871,1.0,0.0,0.0,0.0,1.0,0.0,0.0,0.0,1.0,-0.0981958007813,-0.296982421875,10.1405126953,0.1,0.0,0.0,0.0,0.1,0.0,0.0,0.0,0.1
1446038358292798208,136,1446038358289722919,robocape,4.17983589913,-6.70645456052,73.3602323548,0.0,10.0,0.0,0.0,0.0,10.0,0.0,0.0,0.0,10.0,0.00226368692657,0.0205063403936,0.00745685105222,1.0,0.0,0.0,0.0,1.0,0.0,0.0,0.0,1.0,-0.102985839844,-0.307760009766,10.132130127,0.1,0.0,0.0,0.0,0.1,0.0,0.0,0.0,0.1
1446038358326126750,137,1446038358323158025,robocape,4.18882484181,-6.61127284083,72.8687913475,0.0,10.0,0.0,0.0,0.0,10.0,0.0,0.0,0.0,10.0,0.0034621094171,0.0199737081756,0.00785632521573,1.0,0.0,0.0,0.0,1.0,0.0,0.0,0.0,1.0,-0.09580078125,-0.313747558594,10.1453027344,0.1,0.0,0.0,0.0,0.1,0.0,0.0,0.0,0.1
1446038358360014792,138,1446038358356928110,robocape,4.20002993669,-6.51656451218,72.384026896,0.0,10.0,0.0,0.0,0.0,10.0,0.0,0.0,0.0,10.0,0.00492684801665,0.0202400242846,0.00705737688871,1.0,0.0,0.0,0.0,1.0,0.0,0.0,0.0,1.0,-0.100590820313,-0.313747558594,10.1393151855,0.1,0.0,0.0,0.0,0.1,0.0,0.0,0.0,0.1
1446038358392842375,139,1446038358389856100,robocape,4.21353646026,-6.42184970732,71.9067977041,0.0,10.0,0.0,0.0,0.0,10.0,0.0,0.0,0.0,10.0,0.00652474467069,0.0207726565026,0.00705737688871,1.0,0.0,0.0,0.0,1.0,0.0,0.0,0.0,1.0,-0.110170898438,-0.308957519531,10.1608703613,0.1,0.0,0.0,0.0,0.1,0.0,0.0,0.0,0.1
1446038358432959459,140,1446038358429832935,robocape,4.22865272664,-6.32734659774,71.4366039152,0.0,10.0,0.0,0.0,0.0,10.0,0.0,0.0,0.0,10.0,0.00772316716123,0.0211721306661,0.0067910607797,1.0,0.0,0.0,0.0,1.0,0.0,0.0,0.0,1.0,-0.101788330078,-0.307760009766,10.1345251465,0.1,0.0,0.0,0.0,0.1,0.0,0.0,0.0,0.1
1446038358460112084,141,1446038358456645965,robocape,4.24279162708,-6.23408924128,70.9737829699,0.0,10.0,0.0,0.0,0.0,10.0,0.0,0.0,0.0,10.0,0.00759000910673,0.0210389726116,0.00692421883421,1.0,0.0,0.0,0.0,1.0,0.0,0.0,0.0,1.0,-0.0910107421875,-0.300574951172,10.1225500488,0.1,0.0,0.0,0.0,0.1,0.0,0.0,0.0,0.1
1446038358492713875,142,1446038358489706993,robocape,4.25652980811,-6.14305543925,70.5178926921,0.0,10.0,0.0,0.0,0.0,10.0,0.0,0.0,0.0,10.0,0.00772316716123,0.0203731823391,0.00692421883421,1.0,0.0,0.0,0.0,1.0,0.0,0.0,0.0,1.0,-0.106578369141,-0.294587402344,10.1357226563,0.1,0.0,0.0,0.0,0.1,0.0,0.0,0.0,0.1
1446038358526217709,143,1446038358523068904,robocape,4.26812429471,-6.05398365293,70.0688559379,0.0,10.0,0.0,0.0,0.0,10.0,0.0,0.0,0.0,10.0,0.00692421883421,0.0198405501211,0.00692421883421,1.0,0.0,0.0,0.0,1.0,0.0,0.0,0.0,1.0,-0.102985839844,-0.288599853516,10.1381176758,0.1,0.0,0.0,0.0,0.1,0.0,0.0,0.0,0.1
1446038358560143792,144,1446038358556653976,robocape,4.27755698884,-5.96434980548,69.626907205,0.0,10.0,0.0,0.0,0.0,10.0,0.0,0.0,0.0,10.0,0.00612527050718,0.0206394984481,0.00705737688871,1.0,0.0,0.0,0.0,1.0,0.0,0.0,0.0,1.0,-0.0993933105469,-0.299377441406,10.1476977539,0.1,0.0,0.0,0.0,0.1,0.0,0.0,0.0,0.1
1446038358592845834,145,1446038358589761018,robocape,4.28361640324,-5.87617654102,69.1917562431,0.0,10.0,0.0,0.0,0.0,10.0,0.0,0.0,0.0,10.0,0.00466053190764,0.0203731823391,0.00719053494321,1.0,0.0,0.0,0.0,1.0,0.0,0.0,0.0,1.0,-0.107775878906,-0.290994873047,10.1476977539,0.1,0.0,0.0,0.0,0.1,0.0,0.0,0.0,0.1
1446038358626268584,146,1446038358622977972,robocape,4.28893949868,-5.78839887548,68.76273912,0.0,10.0,0.0,0.0,0.0,10.0,0.0,0.0,0.0,10.0,0.00452737385313,0.0206394984481,0.00692421883421,1.0,0.0,0.0,0.0,1.0,0.0,0.0,0.0,1.0,-0.110170898438,-0.288599853516,10.1237475586,0.1,0.0,0.0,0.0,0.1,0.0,0.0,0.0,0.1
1446038358660048042,147,1446038358656543970,robocape,4.29342654732,-5.70181056284,68.3405131076,0.0,10.0,0.0,0.0,0.0,10.0,0.0,0.0,0.0,10.0,0.00439421579863,0.0205063403936,0.00732369299772,1.0,0.0,0.0,0.0,1.0,0.0,0.0,0.0,1.0,-0.110170898438,-0.3065625,10.1213525391,0.1,0.0,0.0,0.0,0.1,0.0,0.0,0.0,0.1
1446038358692784667,148,1446038358689752101,robocape,4.29788752193,-5.6163801801,67.9247378727,0.0,10.0,0.0,0.0,0.0,10.0,0.0,0.0,0.0,10.0,0.00466053190764,0.0203731823391,0.00759000910673,1.0,0.0,0.0,0.0,1.0,0.0,0.0,0.0,1.0,-0.112565917969,-0.308957519531,10.1584753418,0.1,0.0,0.0,0.0,0.1,0.0,0.0,0.0,0.1
1446038358726036125,149,1446038358722985982,robocape,4.30162870567,-5.53157041544,67.5149955811,0.0,10.0,0.0,0.0,0.0,10.0,0.0,0.0,0.0,10.0,0.00452737385313,0.0205063403936,0.00759000910673,1.0,0.0,0.0,0.0,1.0,0.0,0.0,0.0,1.0,-0.101788330078,-0.308957519531,10.1488952637,0.1,0.0,0.0,0.0,0.1,0.0,0.0,0.0,0.1
1446038358760057834,150,1446038358756541967,robocape,4.30705064415,-5.44781386484,67.1103369871,0.0,10.0,0.0,0.0,0.0,10.0,0.0,0.0,0.0,10.0,0.00559263828917,0.0203731823391,0.00705737688871,1.0,0.0,0.0,0.0,1.0,0.0,0.0,0.0,1.0,-0.102985839844,-0.298179931641,10.1249450684,0.1,0.0,0.0,0.0,0.1,0.0,0.0,0.0,0.1
1446038358792813167,151,1446038358789777994,robocape,4.31256226601,-5.36462615257,66.7112601793,0.0,10.0,0.0,0.0,0.0,10.0,0.0,0.0,0.0,10.0,0.00585895439817,0.0205063403936,0.00692421883421,1.0,0.0,0.0,0.0,1.0,0.0,0.0,0.0,1.0,-0.102985839844,-0.304167480469,10.1476977539,0.1,0.0,0.0,0.0,0.1,0.0,0.0,0.0,0.1
1446038358826274750,152,1446038358823175907,robocape,4.31833297289,-5.28203432681,66.3183429995,0.0,10.0,0.0,0.0,0.0,10.0,0.0,0.0,0.0,10.0,0.00625842856169,0.0206394984481,0.00732369299772,1.0,0.0,0.0,0.0,1.0,0.0,0.0,0.0,1.0,-0.113763427734,-0.308957519531,10.1488952637,0.1,0.0,0.0,0.0,0.1,0.0,0.0,0.0,0.1
1446038358859958292,153,1446038358856544017,robocape,4.32314019862,-5.20027311827,65.931300843,0.0,10.0,0.0,0.0,0.0,10.0,0.0,0.0,0.0,10.0,0.00599211245268,0.0206394984481,0.00759000910673,1.0,0.0,0.0,0.0,1.0,0.0,0.0,0.0,1.0,-0.100590820313,-0.300574951172,10.1740429688,0.1,0.0,0.0,0.0,0.1,0.0,0.0,0.0,0.1
1446038358892767625,154,1446038358889782905,robocape,4.32708146545,-5.11980089794,65.5494342334,0.0,10.0,0.0,0.0,0.0,10.0,0.0,0.0,0.0,10.0,0.00572579634367,0.0203731823391,0.00745685105222,1.0,0.0,0.0,0.0,1.0,0.0,0.0,0.0,1.0,-0.107775878906,-0.316142578125,10.1453027344,0.1,0.0,0.0,0.0,0.1,0.0,0.0,0.0,0.1
1446038358926483375,155,1446038358923367977,robocape,4.33024419858,-5.04031681303,65.1721127663,0.0,10.0,0.0,0.0,0.0,10.0,0.0,0.0,0.0,10.0,0.00545948023466,0.0202400242846,0.00692421883421,1.0,0.0,0.0,0.0,1.0,0.0,0.0,0.0,1.0,-0.112565917969,-0.300574951172,10.1393151855,0.1,0.0,0.0,0.0,0.1,0.0,0.0,0.0,0.1
1446038358959957667,156,1446038358956466913,robocape,4.33279927132,-4.96134723856,64.7999848711,0.0,10.0,0.0,0.0,0.0,10.0,0.0,0.0,0.0,10.0,0.00532632218016,0.0203731823391,0.00692421883421,1.0,0.0,0.0,0.0,1.0,0.0,0.0,0.0,1.0,-0.113763427734,-0.298179931641,10.1405126953,0.1,0.0,0.0,0.0,0.1,0.0,0.0,0.0,0.1
1446038358993028209,157,1446038358990026950,robocape,4.33423351107,-4.88289567374,64.4331369874,0.0,10.0,0.0,0.0,0.0,10.0,0.0,0.0,0.0,10.0,0.00492684801665,0.0205063403936,0.00705737688871,1.0,0.0,0.0,0.0,1.0,0.0,0.0,0.0,1.0,-0.0946032714844,-0.300574951172,10.1333276367,0.1,0.0,0.0,0.0,0.1,0.0,0.0,0.0,0.1
1446038359026425626,158,1446038359023185968,robocape,4.33507085536,-4.80494943127,64.0714471979,0.0,10.0,0.0,0.0,0.0,10.0,0.0,0.0,0.0,10.0,0.00479368996214,0.0206394984481,0.00719053494321,1.0,0.0,0.0,0.0,1.0,0.0,0.0,0.0,1.0,-0.0910107421875,-0.310155029297,10.1488952637,0.1,0.0,0.0,0.0,0.1,0.0,0.0,0.0,0.1
1446038359060071792,159,1446038359056622028,robocape,4.33690203817,-4.72897702737,63.7142764635,0.0,10.0,0.0,0.0,0.0,10.0,0.0,0.0,0.0,10.0,0.00545948023466,0.0199737081756,0.00705737688871,1.0,0.0,0.0,0.0,1.0,0.0,0.0,0.0,1.0,-0.111368408203,-0.312550048828,10.1441052246,0.1,0.0,0.0,0.0,0.1,0.0,0.0,0.0,0.1
1446038359093326459,160,1446038359089997053,robocape,4.33895425968,-4.65243964947,63.3617618268,0.0,10.0,0.0,0.0,0.0,10.0,0.0,0.0,0.0,10.0,0.00572579634367,0.0206394984481,0.00692421883421,1.0,0.0,0.0,0.0,1.0,0.0,0.0,0.0,1.0,-0.105380859375,-0.305364990234,10.1536853027,0.1,0.0,0.0,0.0,0.1,0.0,0.0,0.0,0.1
1446038359126219751,161,1446038359122970104,robocape,4.33991054471,-4.57612973188,63.0143284713,0.0,10.0,0.0,0.0,0.0,10.0,0.0,0.0,0.0,10.0,0.00532632218016,0.0209058145571,0.00719053494321,1.0,0.0,0.0,0.0,1.0,0.0,0.0,0.0,1.0,-0.104183349609,-0.298179931641,10.1441052246,0.1,0.0,0.0,0.0,0.1,0.0,0.0,0.0,0.1
1446038359159997959,162,1446038359156883001,robocape,4.34167594212,-4.50122917462,62.6708034483,0.0,10.0,0.0,0.0,0.0,10.0,0.0,0.0,0.0,10.0,0.00585895439817,0.0205063403936,0.0067910607797,1.0,0.0,0.0,0.0,1.0,0.0,0.0,0.0,1.0,-0.104183349609,-0.305364990234,10.1261425781,0.1,0.0,0.0,0.0,0.1,0.0,0.0,0.0,0.1
1446038359193735417,163,1446038359189765930,robocape,4.34317471694,-4.42700559892,62.3317444166,0.0,10.0,0.0,0.0,0.0,10.0,0.0,0.0,0.0,10.0,0.00585895439817,0.0205063403936,0.0067910607797,1.0,0.0,0.0,0.0,1.0,0.0,0.0,0.0,1.0,-0.104183349609,-0.293389892578,10.1668579102,0.1,0.0,0.0,0.0,0.1,0.0,0.0,0.0,0.1
1446038359226285084,164,1446038359223053932,robocape,4.34496574587,-4.35341970569,61.9966769864,0.0,10.0,0.0,0.0,0.0,10.0,0.0,0.0,0.0,10.0,0.00612527050718,0.0205063403936,0.00652474467069,1.0,0.0,0.0,0.0,1.0,0.0,0.0,0.0,1.0,-0.0910107421875,-0.312550048828,10.1465002441,0.1,0.0,0.0,0.0,0.1,0.0,0.0,0.0,0.1
1446038359260025792,165,1446038359256659030,robocape,4.34595715175,-4.28001003475,61.6663294053,0.0,10.0,0.0,0.0,0.0,10.0,0.0,0.0,0.0,10.0,0.00585895439817,0.0207726565026,0.0067910607797,1.0,0.0,0.0,0.0,1.0,0.0,0.0,0.0,1.0,-0.106578369141,-0.294587402344,10.1536853027,0.1,0.0,0.0,0.0,0.1,0.0,0.0,0.0,0.1
1446038359299619876,166,1446038359296489953,robocape,4.34564849237,-4.20829757715,61.3406875849,0.0,10.0,0.0,0.0,0.0,10.0,0.0,0.0,0.0,10.0,0.00532632218016,0.0202400242846,0.00719053494321,1.0,0.0,0.0,0.0,1.0,0.0,0.0,0.0,1.0,-0.101788330078,-0.294587402344,10.1453027344,0.1,0.0,0.0,0.0,0.1,0.0,0.0,0.0,0.1
1446038359326259042,167,1446038359323157072,robocape,4.34534738071,-4.13621951818,61.0194246182,0.0,10.0,0.0,0.0,0.0,10.0,0.0,0.0,0.0,10.0,0.00545948023466,0.0207726565026,0.00732369299772,1.0,0.0,0.0,0.0,1.0,0.0,0.0,0.0,1.0,-0.0993933105469,-0.292192382813,10.1536853027,0.1,0.0,0.0,0.0,0.1,0.0,0.0,0.0,0.1
1446038359359938709,168,1446038359356874942,robocape,4.34431593211,-4.06553856042,60.7023315941,0.0,10.0,0.0,0.0,0.0,10.0,0.0,0.0,0.0,10.0,0.00519316412565,0.0203731823391,0.00745685105222,1.0,0.0,0.0,0.0,1.0,0.0,0.0,0.0,1.0,-0.0934057617188,-0.302969970703,10.1225500488,0.1,0.0,0.0,0.0,0.1,0.0,0.0,0.0,0.1
1446038359392820584,169,1446038359389847993,robocape,4.34439516235,-3.99594143727,60.3887396343,0.0,10.0,0.0,0.0,0.0,10.0,0.0,0.0,0.0,10.0,0.00585895439817,0.0201068662301,0.00719053494321,1.0,0.0,0.0,0.0,1.0,0.0,0.0,0.0,1.0,-0.09580078125,-0.296982421875,10.1357226563,0.1,0.0,0.0,0.0,0.1,0.0,0.0,0.0,0.1
1446038359435790417,170,1446038359432622909,robocape,4.34375499755,-3.92695590985,60.0792284512,0.0,10.0,0.0,0.0,0.0,10.0,0.0,0.0,0.0,10.0,0.00559263828917,0.0201068662301,0.00732369299772,1.0,0.0,0.0,0.0,1.0,0.0,0.0,0.0,1.0,-0.119750976563,-0.302969970703,10.1488952637,0.1,0.0,0.0,0.0,0.1,0.0,0.0,0.0,0.1
1446038359460054209,171,1446038359456959009,robocape,4.34171531911,-3.85726339014,59.7730837874,0.0,10.0,0.0,0.0,0.0,10.0,0.0,0.0,0.0,10.0,0.00492684801665,0.0207726565026,0.00692421883421,1.0,0.0,0.0,0.0,1.0,0.0,0.0,0.0,1.0,-0.104183349609,-0.295784912109,10.1285375977,0.1,0.0,0.0,0.0,0.1,0.0,0.0,0.0,0.1
1446038359492842292,172,1446038359489831924,robocape,4.34123883293,-3.78867933943,59.4709693386,0.0,10.0,0.0,0.0,0.0,10.0,0.0,0.0,0.0,10.0,0.00585895439817,0.0205063403936,0.00719053494321,1.0,0.0,0.0,0.0,1.0,0.0,0.0,0.0,1.0,-0.107775878906,-0.3065625,10.152487793,0.1,0.0,0.0,0.0,0.1,0.0,0.0,0.0,0.1
1446038359526089292,173,1446038359523109912,robocape,4.34033567738,-3.72041393771,59.172541199,0.0,10.0,0.0,0.0,0.0,10.0,0.0,0.0,0.0,10.0,0.00572579634367,0.0206394984481,0.00719053494321,1.0,0.0,0.0,0.0,1.0,0.0,0.0,0.0,1.0,-0.0934057617188,-0.305364990234,10.1608703613,0.1,0.0,0.0,0.0,0.1,0.0,0.0,0.0,0.1
1446038359559697042,174,1446038359556582927,robocape,4.33819843595,-3.65225098176,58.8783422551,0.0,10.0,0.0,0.0,0.0,10.0,0.0,0.0,0.0,10.0,0.00519316412565,0.0209058145571,0.00759000910673,1.0,0.0,0.0,0.0,1.0,0.0,0.0,0.0,1.0,-0.1149609375,-0.28740234375,10.1345251465,0.1,0.0,0.0,0.0,0.1,0.0,0.0,0.0,0.1
1446038359592988042,175,1446038359589900016,robocape,4.3370116072,-3.58457274659,58.5866761727,0.0,10.0,0.0,0.0,0.0,10.0,0.0,0.0,0.0,10.0,0.00572579634367,0.0209058145571,0.00692421883421,1.0,0.0,0.0,0.0,1.0,0.0,0.0,0.0,1.0,-0.104183349609,-0.305364990234,10.1429077148,0.1,0.0,0.0,0.0,0.1,0.0,0.0,0.0,0.1
1446038359626033584,176,1446038359622978925,robocape,4.3354274615,-3.5184504776,58.2983946279,0.0,10.0,0.0,0.0,0.0,10.0,0.0,0.0,0.0,10.0,0.00559263828917,0.0203731823391,0.00692421883421,1.0,0.0,0.0,0.0,1.0,0.0,0.0,0.0,1.0,-0.104183349609,-0.300574951172,10.1429077148,0.1,0.0,0.0,0.0,0.1,0.0,0.0,0.0,0.1
1446038359659995042,177,1446038359656907081,robocape,4.3337159347,-3.45234239847,58.0133564061,0.0,10.0,0.0,0.0,0.0,10.0,0.0,0.0,0.0,10.0,0.00559263828917,0.0206394984481,0.0067910607797,1.0,0.0,0.0,0.0,1.0,0.0,0.0,0.0,1.0,-0.0993933105469,-0.296982421875,10.1584753418,0.1,0.0,0.0,0.0,0.1,0.0,0.0,0.0,0.1
1446038359692890292,178,1446038359689698934,robocape,4.33210682048,-3.38727751366,57.7318003226,0.0,10.0,0.0,0.0,0.0,10.0,0.0,0.0,0.0,10.0,0.00572579634367,0.0203731823391,0.00692421883421,1.0,0.0,0.0,0.0,1.0,0.0,0.0,0.0,1.0,-0.0910107421875,-0.290994873047,10.1333276367,0.1,0.0,0.0,0.0,0.1,0.0,0.0,0.0,0.1
1446038359726144543,179,1446038359723081111,robocape,4.3291406647,-3.32320959207,57.4531157612,0.0,10.0,0.0,0.0,0.0,10.0,0.0,0.0,0.0,10.0,0.00506000607115,0.0201068662301,0.0066579027252,1.0,0.0,0.0,0.0,1.0,0.0,0.0,0.0,1.0,-0.102985839844,-0.3065625,10.1297351074,0.1,0.0,0.0,0.0,0.1,0.0,0.0,0.0,0.1
1446038359759906626,180,1446038359756875991,robocape,4.32625384558,-3.25893171591,57.1782848072,0.0,10.0,0.0,0.0,0.0,10.0,0.0,0.0,0.0,10.0,0.00519316412565,0.0205063403936,0.00705737688871,1.0,0.0,0.0,0.0,1.0,0.0,0.0,0.0,1.0,-0.110170898438,-0.299377441406,10.1309326172,0.1,0.0,0.0,0.0,0.1,0.0,0.0,0.0,0.1
1446038359792910376,181,1446038359789668083,robocape,4.32398329159,-3.19593622191,56.9069189072,0.0,10.0,0.0,0.0,0.0,10.0,0.0,0.0,0.0,10.0,0.00559263828917,0.0201068662301,0.00732369299772,1.0,0.0,0.0,0.0,1.0,0.0,0.0,0.0,1.0,-0.101788330078,-0.299377441406,10.1249450684,0.1,0.0,0.0,0.0,0.1,0.0,0.0,0.0,0.1
1446038359826287501,182,1446038359823148012,robocape,4.32112151263,-3.13214024866,56.6383640452,0.0,10.0,0.0,0.0,0.0,10.0,0.0,0.0,0.0,10.0,0.00532632218016,0.0207726565026,0.00705737688871,1.0,0.0,0.0,0.0,1.0,0.0,0.0,0.0,1.0,-0.105380859375,-0.301772460938,10.1668579102,0.1,0.0,0.0,0.0,0.1,0.0,0.0,0.0,0.1
1446038359861821001,183,1446038359858336925,robocape,4.31918985369,-3.06753613052,56.3725334288,0.0,10.0,0.0,0.0,0.0,10.0,0.0,0.0,0.0,10.0,0.00585895439817,0.0214384467751,0.0067910607797,1.0,0.0,0.0,0.0,1.0,0.0,0.0,0.0,1.0,-0.108973388672,-0.304167480469,10.1429077148,0.1,0.0,0.0,0.0,0.1,0.0,0.0,0.0,0.1
1446038359892733834,184,1446038359889750957,robocape,4.31713038796,-3.00546144045,56.1099250784,0.0,10.0,0.0,0.0,0.0,10.0,0.0,0.0,0.0,10.0,0.00585895439817,0.0203731823391,0.00705737688871,1.0,0.0,0.0,0.0,1.0,0.0,0.0,0.0,1.0,-0.108973388672,-0.305364990234,10.1417102051,0.1,0.0,0.0,0.0,0.1,0.0,0.0,0.0,0.1
1446038359926771501,185,1446038359923692941,robocape,4.31376679063,-2.9432950668,55.8495266508,0.0,10.0,0.0,0.0,0.0,10.0,0.0,0.0,0.0,10.0,0.00519316412565,0.0206394984481,0.00652474467069,1.0,0.0,0.0,0.0,1.0,0.0,0.0,0.0,1.0,-0.100590820313,-0.293389892578,10.136920166,0.1,0.0,0.0,0.0,0.1,0.0,0.0,0.0,0.1
1446038359960045751,186,1446038359956778049,robocape,4.31076284054,-2.88265636717,55.5927155485,0.0,10.0,0.0,0.0,0.0,10.0,0.0,0.0,0.0,10.0,0.00545948023466,0.0201068662301,0.00705737688871,1.0,0.0,0.0,0.0,1.0,0.0,0.0,0.0,1.0,-0.100590820313,-0.312550048828,10.1536853027,0.1,0.0,0.0,0.0,0.1,0.0,0.0,0.0,0.1
1446038359992836126,187,1446038359989825963,robocape,4.30667401535,-2.82195185448,55.3385961695,0.0,10.0,0.0,0.0,0.0,10.0,0.0,0.0,0.0,10.0,0.00492684801665,0.0203731823391,0.00692421883421,1.0,0.0,0.0,0.0,1.0,0.0,0.0,0.0,1.0,-0.0910107421875,-0.295784912109,10.1453027344,0.1,0.0,0.0,0.0,0.1,0.0,0.0,0.0,0.1
1446038360026308334,188,1446038360023166894,robocape,4.30353686657,-2.76218026514,55.0870001701,0.0,10.0,0.0,0.0,0.0,10.0,0.0,0.0,0.0,10.0,0.00545948023466,0.0201068662301,0.0067910607797,1.0,0.0,0.0,0.0,1.0,0.0,0.0,0.0,1.0,-0.0922082519531,-0.307760009766,10.1441052246,0.1,0.0,0.0,0.0,0.1,0.0,0.0,0.0,0.1
1446038360059878084,189,1446038360056634902,robocape,4.30057069475,-2.70208563102,54.8381933283,0.0,10.0,0.0,0.0,0.0,10.0,0.0,0.0,0.0,10.0,0.00559263828917,0.0205063403936,0.0067910607797,1.0,0.0,0.0,0.0,1.0,0.0,0.0,0.0,1.0,-0.107775878906,-0.302969970703,10.1512902832,0.1,0.0,0.0,0.0,0.1,0.0,0.0,0.0,0.1
1446038360092861334,190,1446038360089807033,robocape,4.2965137392,-2.64192107431,54.5921334604,0.0,10.0,0.0,0.0,0.0,10.0,0.0,0.0,0.0,10.0,0.00506000607115,0.0207726565026,0.0067910607797,1.0,0.0,0.0,0.0,1.0,0.0,0.0,0.0,1.0,-0.106578369141,-0.289797363281,10.136920166,0.1,0.0,0.0,0.0,0.1,0.0,0.0,0.0,0.1
1446038360126403709,191,1446038360123142957,robocape,4.29286967746,-2.58296976527,54.3490462094,0.0,10.0,0.0,0.0,0.0,10.0,0.0,0.0,0.0,10.0,0.00532632218016,0.0203731823391,0.00705737688871,1.0,0.0,0.0,0.0,1.0,0.0,0.0,0.0,1.0,-0.105380859375,-0.295784912109,10.1465002441,0.1,0.0,0.0,0.0,0.1,0.0,0.0,0.0,0.1
1446038360159958793,192,1446038360156583070,robocape,4.28963826935,-2.52446328061,54.1089430822,0.0,10.0,0.0,0.0,0.0,10.0,0.0,0.0,0.0,10.0,0.00559263828917,0.0203731823391,0.00732369299772,1.0,0.0,0.0,0.0,1.0,0.0,0.0,0.0,1.0,-0.0981958007813,-0.304167480469,10.1656604004,0.1,0.0,0.0,0.0,0.1,0.0,0.0,0.0,0.1
1446038360194331751,193,1446038360191163063,robocape,4.28607673711,-2.46638202905,53.8715918805,0.0,10.0,0.0,0.0,0.0,10.0,0.0,0.0,0.0,10.0,0.00545948023466,0.0203731823391,0.00745685105222,1.0,0.0,0.0,0.0,1.0,0.0,0.0,0.0,1.0,-0.100590820313,-0.300574951172,10.1488952637,0.1,0.0,0.0,0.0,0.1,0.0,0.0,0.0,0.1
