%time,field.header.seq,field.header.stamp,field.header.frame_id,field.magnetic_field.x,field.magnetic_field.y,field.magnetic_field.z,field.magnetic_field_covariance0,field.magnetic_field_covariance1,field.magnetic_field_covariance2,field.magnetic_field_covariance3,field.magnetic_field_covariance4,field.magnetic_field_covariance5,field.magnetic_field_covariance6,field.magnetic_field_covariance7,field.magnetic_field_covariance8
1446036367606637026,1,1446036367255727052,robocape_mag,15.15,-14.55,8.7,10.0,0.0,0.0,0.0,10.0,0.0,0.0,0.0,10.0
1446036367626143109,2,1446036367287962913,robocape_mag,15.15,-14.55,8.7,10.0,0.0,0.0,0.0,10.0,0.0,0.0,0.0,10.0
1446036367626186609,3,1446036367323363065,robocape_mag,15.15,-14.55,8.7,10.0,0.0,0.0,0.0,10.0,0.0,0.0,0.0,10.0
1446036367627696193,4,1446036367351280927,robocape_mag,15.15,-14.55,8.7,10.0,0.0,0.0,0.0,10.0,0.0,0.0,0.0,10.0
1446036367627799193,5,1446036367397437095,robocape_mag,15.15,-14.55,8.7,10.0,0.0,0.0,0.0,10.0,0.0,0.0,0.0,10.0
1446036367627882443,6,1446036367420954942,robocape_mag,11.55,-14.55,9.9,10.0,0.0,0.0,0.0,10.0,0.0,0.0,0.0,10.0
1446036367628816068,7,1446036367458565950,robocape_mag,11.55,-14.55,9.9,10.0,0.0,0.0,0.0,10.0,0.0,0.0,0.0,10.0
1446036367628861651,8,1446036367486069917,robocape_mag,11.55,-14.55,9.9,10.0,0.0,0.0,0.0,10.0,0.0,0.0,0.0,10.0
1446036367628897484,9,1446036367522380113,robocape_mag,11.55,-14.55,9.9,10.0,0.0,0.0,0.0,10.0,0.0,0.0,0.0,10.0
1446036367628997318,10,1446036367584966897,robocape_mag,13.35,-13.95,8.1,10.0,0.0,0.0,0.0,10.0,0.0,0.0,0.0,10.0
1446036367647842651,11,1446036367612555980,robocape_mag,13.35,-13.95,8.1,10.0,0.0,0.0,0.0,10.0,0.0,0.0,0.0,10.0
1446036367649500109,12,1446036367636486053,robocape_mag,13.35,-13.95,8.1,10.0,0.0,0.0,0.0,10.0,0.0,0.0,0.0,10.0
1446036367664198526,13,1446036367656586885,robocape_mag,13.35,-13.95,8.1,10.0,0.0,0.0,0.0,10.0,0.0,0.0,0.0,10.0
1446036367708524776,14,1446036367696398019,robocape_mag,13.35,-13.95,8.1,10.0,0.0,0.0,0.0,10.0,0.0,0.0,0.0,10.0
1446036367724920943,15,1446036367719907045,robocape_mag,13.35,-13.95,8.1,10.0,0.0,0.0,0.0,10.0,0.0,0.0,0.0,10.0
1446036367755929860,16,1446036367750843048,robocape_mag,13.65,-14.85,10.8,10.0,0.0,0.0,0.0,10.0,0.0,0.0,0.0,10.0
1446036367793566943,17,1446036367785633087,robocape_mag,13.65,-14.85,10.8,10.0,0.0,0.0,0.0,10.0,0.0,0.0,0.0,10.0
1446036367822557193,18,1446036367816633939,robocape_mag,13.65,-14.85,10.8,10.0,0.0,0.0,0.0,10.0,0.0,0.0,0.0,10.0
1446036367854919235,19,1446036367849953889,robocape_mag,13.65,-14.85,10.8,10.0,0.0,0.0,0.0,10.0,0.0,0.0,0.0,10.0
1446036367888559943,20,1446036367883230924,robocape_mag,13.65,-14.85,10.8,10.0,0.0,0.0,0.0,10.0,0.0,0.0,0.0,10.0
1446036367921501401,21,1446036367916457891,robocape_mag,14.85,-14.85,10.2,10.0,0.0,0.0,0.0,10.0,0.0,0.0,0.0,10.0
1446036367956513818,22,1446036367949894905,robocape_mag,14.85,-14.85,10.2,10.0,0.0,0.0,0.0,10.0,0.0,0.0,0.0,10.0
1446036367988446360,23,1446036367983160972,robocape_mag,14.85,-14.85,10.2,10.0,0.0,0.0,0.0,10.0,0.0,0.0,0.0,10.0
1446036368021828360,24,1446036368016877889,robocape_mag,14.85,-14.85,10.2,10.0,0.0,0.0,0.0,10.0,0.0,0.0,0.0,10.0
1446036368056238568,25,1446036368051367044,robocape_mag,13.35,-15.15,8.1,10.0,0.0,0.0,0.0,10.0,0.0,0.0,0.0,10.0
1446036368089754693,26,1446036368084522962,robocape_mag,13.35,-15.15,8.1,10.0,0.0,0.0,0.0,10.0,0.0,0.0,0.0,10.0
1446036368123592776,27,1446036368118872880,robocape_mag,13.35,-15.15,8.1,10.0,0.0,0.0,0.0,10.0,0.0,0.0,0.0,10.0
1446036368157366235,28,1446036368151880025,robocape_mag,13.35,-15.15,8.1,10.0,0.0,0.0,0.0,10.0,0.0,0.0,0.0,10.0
1446036368191004568,29,1446036368185477018,robocape_mag,13.35,-15.15,8.1,10.0,0.0,0.0,0.0,10.0,0.0,0.0,0.0,10.0
1446036368224186193,30,1446036368219347000,robocape_mag,13.35,-17.55,10.5,10.0,0.0,0.0,0.0,10.0,0.0,0.0,0.0,10.0
1446036368256744110,31,1446036368251785039,robocape_mag,13.35,-17.55,10.5,10.0,0.0,0.0,0.0,10.0,0.0,0.0,0.0,10.0
1446036368289177360,32,1446036368283967018,robocape_mag,13.35,-17.55,10.5,10.0,0.0,0.0,0.0,10.0,0.0,0.0,0.0,10.0
1446036368326118193,33,1446036368320043087,robocape_mag,13.35,-17.55,10.5,10.0,0.0,0.0,0.0,10.0,0.0,0.0,0.0,10.0
1446036368358893026,34,1446036368352932929,robocape_mag,13.35,-17.55,10.5,10.0,0.0,0.0,0.0,10.0,0.0,0.0,0.0,10.0
1446036368394619902,35,1446036368386761903,robocape_mag,11.25,-16.65,9.0,10.0,0.0,0.0,0.0,10.0,0.0,0.0,0.0,10.0
1446036368431855235,36,1446036368420310974,robocape_mag,11.25,-16.65,9.0,10.0,0.0,0.0,0.0,10.0,0.0,0.0,0.0,10.0
1446036368458108735,37,1446036368452130079,robocape_mag,11.25,-16.65,9.0,10.0,0.0,0.0,0.0,10.0,0.0,0.0,0.0,10.0
1446036368495188735,38,1446036368485877037,robocape_mag,11.25,-16.65,9.0,10.0,0.0,0.0,0.0,10.0,0.0,0.0,0.0,10.0
1446036368527577318,39,1446036368519417047,robocape_mag,11.25,-16.65,9.0,10.0,0.0,0.0,0.0,10.0,0.0,0.0,0.0,10.0
1446036368558862818,40,1446036368553191900,robocape_mag,13.65,-14.85,10.8,10.0,0.0,0.0,0.0,10.0,0.0,0.0,0.0,10.0
1446036368592485193,41,1446036368587008953,robocape_mag,13.65,-14.85,10.8,10.0,0.0,0.0,0.0,10.0,0.0,0.0,0.0,10.0
1446036368626476402,42,1446036368619399070,robocape_mag,13.65,-14.85,10.8,10.0,0.0,0.0,0.0,10.0,0.0,0.0,0.0,10.0
1446036368661525943,43,1446036368654352903,robocape_mag,13.65,-14.85,10.8,10.0,0.0,0.0,0.0,10.0,0.0,0.0,0.0,10.0
1446036368695709402,44,1446036368687336921,robocape_mag,11.25,-14.25,7.8,10.0,0.0,0.0,0.0,10.0,0.0,0.0,0.0,10.0
1446036368728571068,45,1446036368719955921,robocape_mag,11.25,-14.25,7.8,10.0,0.0,0.0,0.0,10.0,0.0,0.0,0.0,10.0
1446036368763181902,46,1446036368754255056,robocape_mag,11.25,-14.25,7.8,10.0,0.0,0.0,0.0,10.0,0.0,0.0,0.0,10.0
1446036368792197777,47,1446036368786824941,robocape_mag,11.25,-14.25,7.8,10.0,0.0,0.0,0.0,10.0,0.0,0.0,0.0,10.0
1446036368826011818,48,1446036368821043014,robocape_mag,11.25,-14.25,7.8,10.0,0.0,0.0,0.0,10.0,0.0,0.0,0.0,10.0
1446036368863175860,49,1446036368853240966,robocape_mag,10.95,-14.55,8.7,10.0,0.0,0.0,0.0,10.0,0.0,0.0,0.0,10.0
1446036368891954985,50,1446036368886807918,robocape_mag,10.95,-14.55,8.7,10.0,0.0,0.0,0.0,10.0,0.0,0.0,0.0,10.0
1446036368924368777,51,1446036368919466018,robocape_mag,10.95,-14.55,8.7,10.0,0.0,0.0,0.0,10.0,0.0,0.0,0.0,10.0
1446036368957795818,52,1446036368952800989,robocape_mag,10.95,-14.55,8.7,10.0,0.0,0.0,0.0,10.0,0.0,0.0,0.0,10.0
1446036368991455027,53,1446036368986351013,robocape_mag,10.95,-14.55,8.7,10.0,0.0,0.0,0.0,10.0,0.0,0.0,0.0,10.0
1446036369024440652,54,1446036369019428014,robocape_mag,12.15,-14.55,9.3,10.0,0.0,0.0,0.0,10.0,0.0,0.0,0.0,10.0
1446036369057017818,55,1446036369052243947,robocape_mag,12.15,-14.55,9.3,10.0,0.0,0.0,0.0,10.0,0.0,0.0,0.0,10.0
1446036369090009944,56,1446036369085171937,robocape_mag,12.15,-14.55,9.3,10.0,0.0,0.0,0.0,10.0,0.0,0.0,0.0,10.0
1446036369124544652,57,1446036369119549036,robocape_mag,12.15,-14.55,9.3,10.0,0.0,0.0,0.0,10.0,0.0,0.0,0.0,10.0
1446036369156379902,58,1446036369151420116,robocape_mag,12.15,-14.55,9.3,10.0,0.0,0.0,0.0,10.0,0.0,0.0,0.0,10.0
1446036369189335402,59,1446036369184087991,robocape_mag,14.85,-16.65,9.6,10.0,0.0,0.0,0.0,10.0,0.0,0.0,0.0,10.0
1446036369222649819,60,1446036369217820882,robocape_mag,14.85,-16.65,9.6,10.0,0.0,0.0,0.0,10.0,0.0,0.0,0.0,10.0
1446036369255540819,61,1446036369250387907,robocape_mag,14.85,-16.65,9.6,10.0,0.0,0.0,0.0,10.0,0.0,0.0,0.0,10.0
1446036369288379902,62,1446036369283559083,robocape_mag,14.85,-16.65,9.6,10.0,0.0,0.0,0.0,10.0,0.0,0.0,0.0,10.0
1446036369322066194,63,1446036369317054033,robocape_mag,14.85,-16.65,9.6,10.0,0.0,0.0,0.0,10.0,0.0,0.0,0.0,10.0
1446036369354933402,64,1446036369350055932,robocape_mag,12.15,-16.35,9.3,10.0,0.0,0.0,0.0,10.0,0.0,0.0,0.0,10.0
1446036369388287610,65,1446036369383501052,robocape_mag,12.15,-16.35,9.3,10.0,0.0,0.0,0.0,10.0,0.0,0.0,0.0,10.0
1446036369422357819,66,1446036369417392969,robocape_mag,12.15,-16.35,9.3,10.0,0.0,0.0,0.0,10.0,0.0,0.0,0.0,10.0
1446036369454709027,67,1446036369449899911,robocape_mag,12.15,-16.35,9.3,10.0,0.0,0.0,0.0,10.0,0.0,0.0,0.0,10.0
1446036369488073944,68,1446036369483272075,robocape_mag,12.15,-16.35,9.3,10.0,0.0,0.0,0.0,10.0,0.0,0.0,0.0,10.0
1446036369521815610,69,1446036369516947031,robocape_mag,10.05,-14.25,9.6,10.0,0.0,0.0,0.0,10.0,0.0,0.0,0.0,10.0
1446036369555003527,70,1446036369550180912,robocape_mag,10.05,-14.25,9.6,10.0,0.0,0.0,0.0,10.0,0.0,0.0,0.0,10.0
1446036369588281860,71,1446036369583479881,robocape_mag,10.05,-14.25,9.6,10.0,0.0,0.0,0.0,10.0,0.0,0.0,0.0,10.0
1446036369623470902,72,1446036369618629932,robocape_mag,10.05,-14.25,9.6,10.0,0.0,0.0,0.0,10.0,0.0,0.0,0.0,10.0
1446036369659370402,73,1446036369650043964,robocape_mag,12.45,-15.45,7.8,10.0,0.0,0.0,0.0,10.0,0.0,0.0,0.0,10.0
1446036369688403319,74,1446036369683254957,robocape_mag,12.45,-15.45,7.8,10.0,0.0,0.0,0.0,10.0,0.0,0.0,0.0,10.0
1446036369722101944,75,1446036369717149019,robocape_mag,12.45,-15.45,7.8,10.0,0.0,0.0,0.0,10.0,0.0,0.0,0.0,10.0
1446036369756173735,76,1446036369751394033,robocape_mag,12.45,-15.45,7.8,10.0,0.0,0.0,0.0,10.0,0.0,0.0,0.0,10.0
1446036369787847111,77,1446036369783117055,robocape_mag,12.45,-15.45,7.8,10.0,0.0,0.0,0.0,10.0,0.0,0.0,0.0,10.0
1446036369821991444,78,1446036369817059993,robocape_mag,12.45,-14.25,7.8,10.0,0.0,0.0,0.0,10.0,0.0,0.0,0.0,10.0
1446036369854620777,79,1446036369849796056,robocape_mag,12.45,-14.25,7.8,10.0,0.0,0.0,0.0,10.0,0.0,0.0,0.0,10.0
1446036369890665444,80,1446036369883932113,robocape_mag,12.45,-14.25,7.8,10.0,0.0,0.0,0.0,10.0,0.0,0.0,0.0,10.0
1446036369923650402,81,1446036369916759014,robocape_mag,12.45,-14.25,7.8,10.0,0.0,0.0,0.0,10.0,0.0,0.0,0.0,10.0
1446036369955543944,82,1446036369950588941,robocape_mag,12.45,-14.25,7.8,10.0,0.0,0.0,0.0,10.0,0.0,0.0,0.0,10.0
1446036369988420236,83,1446036369983256101,robocape_mag,13.95,-13.95,9.9,10.0,0.0,0.0,0.0,10.0,0.0,0.0,0.0,10.0
1446036370021479027,84,1446036370016510963,robocape_mag,13.95,-13.95,9.9,10.0,0.0,0.0,0.0,10.0,0.0,0.0,0.0,10.0
1446036370054861527,85,1446036370049957036,robocape_mag,13.95,-13.95,9.9,10.0,0.0,0.0,0.0,10.0,0.0,0.0,0.0,10.0
1446036370088390652,86,1446036370083359003,robocape_mag,13.95,-13.95,9.9,10.0,0.0,0.0,0.0,10.0,0.0,0.0,0.0,10.0
1446036370121763527,87,1446036370116641044,robocape_mag,13.95,-13.95,9.9,10.0,0.0,0.0,0.0,10.0,0.0,0.0,0.0,10.0
1446036370157240861,88,1446036370149934053,robocape_mag,11.85,-14.25,8.4,10.0,0.0,0.0,0.0,10.0,0.0,0.0,0.0,10.0
1446036370190200111,89,1446036370183203935,robocape_mag,11.85,-14.25,8.4,10.0,0.0,0.0,0.0,10.0,0.0,0.0,0.0,10.0
1446036370221651611,90,1446036370216485023,robocape_mag,11.85,-14.25,8.4,10.0,0.0,0.0,0.0,10.0,0.0,0.0,0.0,10.0
1446036370254987402,91,1446036370250112056,robocape_mag,11.85,-14.25,8.4,10.0,0.0,0.0,0.0,10.0,0.0,0.0,0.0,10.0
1446036370288000611,92,1446036370283174991,robocape_mag,11.85,-14.25,8.4,10.0,0.0,0.0,0.0,10.0,0.0,0.0,0.0,10.0
1446036370321800069,93,1446036370316658020,robocape_mag,12.75,-15.15,8.7,10.0,0.0,0.0,0.0,10.0,0.0,0.0,0.0,10.0
1446036370355129902,94,1446036370350101947,robocape_mag,12.75,-15.15,8.7,10.0,0.0,0.0,0.0,10.0,0.0,0.0,0.0,10.0
1446036370388198361,95,1446036370383348941,robocape_mag,12.75,-15.15,8.7,10.0,0.0,0.0,0.0,10.0,0.0,0.0,0.0,10.0
1446036370421681861,96,1446036370416688919,robocape_mag,12.75,-15.15,8.7,10.0,0.0,0.0,0.0,10.0,0.0,0.0,0.0,10.0
1446036370456273611,97,1446036370451322078,robocape_mag,10.35,-14.55,9.9,10.0,0.0,0.0,0.0,10.0,0.0,0.0,0.0,10.0
1446036370488561986,98,1446036370483632087,robocape_mag,10.35,-14.55,9.9,10.0,0.0,0.0,0.0,10.0,0.0,0.0,0.0,10.0
1446036370522612819,99,1446036370517502069,robocape_mag,10.35,-14.55,9.9,10.0,0.0,0.0,0.0,10.0,0.0,0.0,0.0,10.0
1446036370556735278,100,1446036370551765918,robocape_mag,10.35,-14.55,9.9,10.0,0.0,0.0,0.0,10.0,0.0,0.0,0.0,10.0
1446036370589897278,101,1446036370584692001,robocape_mag,10.35,-14.55,9.9,10.0,0.0,0.0,0.0,10.0,0.0,0.0,0.0,10.0
1446036370623609111,102,1446036370618413925,robocape_mag,15.15,-16.35,9.3,10.0,0.0,0.0,0.0,10.0,0.0,0.0,0.0,10.0
1446036370659906611,103,1446036370651808023,robocape_mag,15.15,-16.35,9.3,10.0,0.0,0.0,0.0,10.0,0.0,0.0,0.0,10.0
1446036370695309486,104,1446036370687280893,robocape_mag,15.15,-16.35,9.3,10.0,0.0,0.0,0.0,10.0,0.0,0.0,0.0,10.0
1446036370723134361,105,1446036370717689990,robocape_mag,15.15,-16.35,9.3,10.0,0.0,0.0,0.0,10.0,0.0,0.0,0.0,10.0
1446036370758801528,106,1446036370753768920,robocape_mag,15.15,-16.35,9.3,10.0,0.0,0.0,0.0,10.0,0.0,0.0,0.0,10.0
1446036370791104903,107,1446036370786161899,robocape_mag,13.05,-15.45,8.4,10.0,0.0,0.0,0.0,10.0,0.0,0.0,0.0,10.0
1446036370830304194,108,1446036370821413040,robocape_mag,13.05,-15.45,8.4,10.0,0.0,0.0,0.0,10.0,0.0,0.0,0.0,10.0
1446036370859411278,109,1446036370852535009,robocape_mag,13.05,-15.45,8.4,10.0,0.0,0.0,0.0,10.0,0.0,0.0,0.0,10.0
1446036370892689903,110,1446036370887772083,robocape_mag,13.05,-15.45,8.4,10.0,0.0,0.0,0.0,10.0,0.0,0.0,0.0,10.0
1446036370927537486,111,1446036370919997930,robocape_mag,13.05,-15.45,8.4,10.0,0.0,0.0,0.0,10.0,0.0,0.0,0.0,10.0
1446036370963094486,112,1446036370954329013,robocape_mag,12.15,-15.15,8.7,10.0,0.0,0.0,0.0,10.0,0.0,0.0,0.0,10.0
1446036370992102944,113,1446036370986844062,robocape_mag,12.15,-15.15,8.7,10.0,0.0,0.0,0.0,10.0,0.0,0.0,0.0,10.0
1446036371030491028,114,1446036371020989894,robocape_mag,12.15,-15.15,8.7,10.0,0.0,0.0,0.0,10.0,0.0,0.0,0.0,10.0
1446036371060138694,115,1446036371054918050,robocape_mag,12.15,-15.15,8.7,10.0,0.0,0.0,0.0,10.0,0.0,0.0,0.0,10.0
1446036371092905486,116,1446036371087099075,robocape_mag,13.35,-15.15,7.5,10.0,0.0,0.0,0.0,10.0,0.0,0.0,0.0,10.0
1446036371126724194,117,1446036371121185064,robocape_mag,13.35,-15.15,7.5,10.0,0.0,0.0,0.0,10.0,0.0,0.0,0.0,10.0
1446036371162278028,118,1446036371152892112,robocape_mag,13.35,-15.15,7.5,10.0,0.0,0.0,0.0,10.0,0.0,0.0,0.0,10.0
1446036371192411861,119,1446036371187021017,robocape_mag,13.35,-15.15,7.5,10.0,0.0,0.0,0.0,10.0,0.0,0.0,0.0,10.0
1446036371224822945,120,1446036371219415903,robocape_mag,13.35,-15.15,7.5,10.0,0.0,0.0,0.0,10.0,0.0,0.0,0.0,10.0
1446036371257781903,121,1446036371252670049,robocape_mag,12.15,-13.95,8.7,10.0,0.0,0.0,0.0,10.0,0.0,0.0,0.0,10.0
1446036371290785195,122,1446036371285811901,robocape_mag,12.15,-13.95,8.7,10.0,0.0,0.0,0.0,10.0,0.0,0.0,0.0,10.0
1446036371324734736,123,1446036371319515943,robocape_mag,12.15,-13.95,8.7,10.0,0.0,0.0,0.0,10.0,0.0,0.0,0.0,10.0
1446036371357517903,124,1446036371352741956,robocape_mag,12.15,-13.95,8.7,10.0,0.0,0.0,0.0,10.0,0.0,0.0,0.0,10.0
1446036371391216445,125,1446036371386451005,robocape_mag,12.15,-13.95,8.7,10.0,0.0,0.0,0.0,10.0,0.0,0.0,0.0,10.0
1446036371423951861,126,1446036371419220924,robocape_mag,13.05,-13.65,7.8,10.0,0.0,0.0,0.0,10.0,0.0,0.0,0.0,10.0
1446036371456492070,127,1446036371451699972,robocape_mag,13.05,-13.65,7.8,10.0,0.0,0.0,0.0,10.0,0.0,0.0,0.0,10.0
1446036371489603695,128,1446036371484602928,robocape_mag,13.05,-13.65,7.8,10.0,0.0,0.0,0.0,10.0,0.0,0.0,0.0,10.0
1446036371522096653,129,1446036371517338991,robocape_mag,13.05,-13.65,7.8,10.0,0.0,0.0,0.0,10.0,0.0,0.0,0.0,10.0
1446036371555545778,130,1446036371550653934,robocape_mag,13.05,-13.65,7.8,10.0,0.0,0.0,0.0,10.0,0.0,0.0,0.0,10.0
1446036371588939570,131,1446036371584017992,robocape_mag,13.05,-14.85,9.0,10.0,0.0,0.0,0.0,10.0,0.0,0.0,0.0,10.0
1446036371626793070,132,1446036371617870092,robocape_mag,13.05,-14.85,9.0,10.0,0.0,0.0,0.0,10.0,0.0,0.0,0.0,10.0
1446036371656071278,133,1446036371650860071,robocape_mag,13.05,-14.85,9.0,10.0,0.0,0.0,0.0,10.0,0.0,0.0,0.0,10.0
1446036371688598570,134,1446036371683672904,robocape_mag,13.05,-14.85,9.0,10.0,0.0,0.0,0.0,10.0,0.0,0.0,0.0,10.0
1446036371721482528,135,1446036371716681957,robocape_mag,13.05,-14.85,9.0,10.0,0.0,0.0,0.0,10.0,0.0,0.0,0.0,10.0
1446036371754927528,136,1446036371750092029,robocape_mag,14.55,-14.55,8.7,10.0,0.0,0.0,0.0,10.0,0.0,0.0,0.0,10.0
1446036371788384986,137,1446036371783402919,robocape_mag,14.55,-14.55,8.7,10.0,0.0,0.0,0.0,10.0,0.0,0.0,0.0,10.0
1446036371821432695,138,1446036371816476106,robocape_mag,14.55,-14.55,8.7,10.0,0.0,0.0,0.0,10.0,0.0,0.0,0.0,10.0
1446036371854899778,139,1446036371850099086,robocape_mag,14.55,-14.55,8.7,10.0,0.0,0.0,0.0,10.0,0.0,0.0,0.0,10.0
1446036371888316778,140,1446036371883325099,robocape_mag,14.55,-14.55,8.7,10.0,0.0,0.0,0.0,10.0,0.0,0.0,0.0,10.0
1446036371921640445,141,1446036371916841030,robocape_mag,12.15,-13.35,7.5,10.0,0.0,0.0,0.0,10.0,0.0,0.0,0.0,10.0
1446036371955095070,142,1446036371950346946,robocape_mag,12.15,-13.35,7.5,10.0,0.0,0.0,0.0,10.0,0.0,0.0,0.0,10.0
1446036371988433862,143,1446036371983685970,robocape_mag,12.15,-13.35,7.5,10.0,0.0,0.0,0.0,10.0,0.0,0.0,0.0,10.0
1446036372021563820,144,1446036372016741037,robocape_mag,12.15,-13.35,7.5,10.0,0.0,0.0,0.0,10.0,0.0,0.0,0.0,10.0
1446036372054732903,145,1446036372049956083,robocape_mag,12.75,-15.75,8.1,10.0,0.0,0.0,0.0,10.0,0.0,0.0,0.0,10.0
1446036372088294903,146,1446036372083419084,robocape_mag,12.75,-15.75,8.1,10.0,0.0,0.0,0.0,10.0,0.0,0.0,0.0,10.0
1446036372121757987,147,1446036372116882085,robocape_mag,12.75,-15.75,8.1,10.0,0.0,0.0,0.0,10.0,0.0,0.0,0.0,10.0
1446036372154846362,148,1446036372150099039,robocape_mag,12.75,-15.75,8.1,10.0,0.0,0.0,0.0,10.0,0.0,0.0,0.0,10.0
1446036372188398778,149,1446036372183577060,robocape_mag,12.75,-15.75,8.1,10.0,0.0,0.0,0.0,10.0,0.0,0.0,0.0,10.0
1446036372222247945,150,1446036372216422080,robocape_mag,13.05,-15.45,7.8,10.0,0.0,0.0,0.0,10.0,0.0,0.0,0.0,10.0
1446036372254831778,151,1446036372249857902,robocape_mag,13.05,-15.45,7.8,10.0,0.0,0.0,0.0,10.0,0.0,0.0,0.0,10.0
1446036372288712653,152,1446036372283328056,robocape_mag,13.05,-15.45,7.8,10.0,0.0,0.0,0.0,10.0,0.0,0.0,0.0,10.0
1446036372323515528,153,1446036372316737890,robocape_mag,13.05,-15.45,7.8,10.0,0.0,0.0,0.0,10.0,0.0,0.0,0.0,10.0
1446036372354854487,154,1446036372349736928,robocape_mag,13.05,-15.45,7.8,10.0,0.0,0.0,0.0,10.0,0.0,0.0,0.0,10.0
1446036372388561570,155,1446036372383398056,robocape_mag,13.65,-15.45,7.2,10.0,0.0,0.0,0.0,10.0,0.0,0.0,0.0,10.0
1446036372424272487,156,1446036372416492938,robocape_mag,13.65,-15.45,7.2,10.0,0.0,0.0,0.0,10.0,0.0,0.0,0.0,10.0
1446036372455450987,157,1446036372450159072,robocape_mag,13.65,-15.45,7.2,10.0,0.0,0.0,0.0,10.0,0.0,0.0,0.0,10.0
1446036372488351945,158,1446036372483129024,robocape_mag,13.65,-15.45,7.2,10.0,0.0,0.0,0.0,10.0,0.0,0.0,0.0,10.0
1446036372521598612,159,1446036372516506910,robocape_mag,13.65,-15.45,7.2,10.0,0.0,0.0,0.0,10.0,0.0,0.0,0.0,10.0
1446036372554954737,160,1446036372549840927,robocape_mag,13.95,-11.55,9.9,10.0,0.0,0.0,0.0,10.0,0.0,0.0,0.0,10.0
1446036372588209779,161,1446036372583185911,robocape_mag,13.95,-11.55,9.9,10.0,0.0,0.0,0.0,10.0,0.0,0.0,0.0,10.0
1446036372623310570,162,1446036372618410110,robocape_mag,13.95,-11.55,9.9,10.0,0.0,0.0,0.0,10.0,0.0,0.0,0.0,10.0
1446036372654934112,163,1446036372649841070,robocape_mag,13.95,-11.55,9.9,10.0,0.0,0.0,0.0,10.0,0.0,0.0,0.0,10.0
1446036372688957779,164,1446036372684027910,robocape_mag,13.95,-11.55,9.9,10.0,0.0,0.0,0.0,10.0,0.0,0.0,0.0,10.0
1446036372721715612,165,1446036372716821908,robocape_mag,14.55,-16.35,9.3,10.0,0.0,0.0,0.0,10.0,0.0,0.0,0.0,10.0
1446036372755996904,166,1446036372751063108,robocape_mag,14.55,-16.35,9.3,10.0,0.0,0.0,0.0,10.0,0.0,0.0,0.0,10.0
1446036372789337904,167,1446036372784487962,robocape_mag,14.55,-16.35,9.3,10.0,0.0,0.0,0.0,10.0,0.0,0.0,0.0,10.0
1446036372822054362,168,1446036372817318916,robocape_mag,14.55,-16.35,9.3,10.0,0.0,0.0,0.0,10.0,0.0,0.0,0.0,10.0
1446036372856746445,169,1446036372851211071,robocape_mag,16.35,-16.35,5.7,10.0,0.0,0.0,0.0,10.0,0.0,0.0,0.0,10.0
1446036372890315904,170,1446036372885123968,robocape_mag,16.35,-16.35,5.7,10.0,0.0,0.0,0.0,10.0,0.0,0.0,0.0,10.0
1446036372926514779,171,1446036372918544054,robocape_mag,16.35,-16.35,5.7,10.0,0.0,0.0,0.0,10.0,0.0,0.0,0.0,10.0
1446036372956846570,172,1446036372951582908,robocape_mag,16.35,-16.35,5.7,10.0,0.0,0.0,0.0,10.0,0.0,0.0,0.0,10.0
1446036372995141237,173,1446036372988182067,robocape_mag,16.35,-16.35,5.7,10.0,0.0,0.0,0.0,10.0,0.0,0.0,0.0,10.0
1446036373032667237,174,1446036373018767118,robocape_mag,14.55,-14.55,7.5,10.0,0.0,0.0,0.0,10.0,0.0,0.0,0.0,10.0
1446036373058755320,175,1446036373053769111,robocape_mag,14.55,-14.55,7.5,10.0,0.0,0.0,0.0,10.0,0.0,0.0,0.0,10.0
1446036373094248987,176,1446036373084476947,robocape_mag,14.55,-14.55,7.5,10.0,0.0,0.0,0.0,10.0,0.0,0.0,0.0,10.0
1446036373128116070,177,1446036373120768070,robocape_mag,14.55,-14.55,7.5,10.0,0.0,0.0,0.0,10.0,0.0,0.0,0.0,10.0
1446036373160851904,178,1446036373153881072,robocape_mag,14.55,-14.55,7.5,10.0,0.0,0.0,0.0,10.0,0.0,0.0,0.0,10.0
1446036373195501404,179,1446036373186691045,robocape_mag,14.25,-16.65,9.6,10.0,0.0,0.0,0.0,10.0,0.0,0.0,0.0,10.0
1446036373230707445,180,1446036373220546960,robocape_mag,14.25,-16.65,9.6,10.0,0.0,0.0,0.0,10.0,0.0,0.0,0.0,10.0
1446036373259812029,181,1446036373254487991,robocape_mag,14.25,-16.65,9.6,10.0,0.0,0.0,0.0,10.0,0.0,0.0,0.0,10.0
1446036373295307696,182,1446036373286684989,robocape_mag,14.25,-16.65,9.6,10.0,0.0,0.0,0.0,10.0,0.0,0.0,0.0,10.0
1446036373330247529,183,1446036373320919036,robocape_mag,14.25,-16.65,9.6,10.0,0.0,0.0,0.0,10.0,0.0,0.0,0.0,10.0
1446036373359376404,184,1446036373354219913,robocape_mag,14.25,-13.05,9.0,10.0,0.0,0.0,0.0,10.0,0.0,0.0,0.0,10.0
1446036373394831696,185,1446036373387015104,robocape_mag,14.25,-13.05,9.0,10.0,0.0,0.0,0.0,10.0,0.0,0.0,0.0,10.0
1446036373425752654,186,1446036373420696973,robocape_mag,14.25,-13.05,9.0,10.0,0.0,0.0,0.0,10.0,0.0,0.0,0.0,10.0
1446036373458329071,187,1446036373453146934,robocape_mag,14.25,-13.05,9.0,10.0,0.0,0.0,0.0,10.0,0.0,0.0,0.0,10.0
1446036373491366487,188,1446036373486032009,robocape_mag,14.25,-15.75,6.9,10.0,0.0,0.0,0.0,10.0,0.0,0.0,0.0,10.0
1446036373524331154,189,1446036373519252061,robocape_mag,17.55,-15.75,6.9,10.0,0.0,0.0,0.0,10.0,0.0,0.0,0.0,10.0
1446036373558406237,190,1446036373553411960,robocape_mag,17.55,-15.75,6.9,10.0,0.0,0.0,0.0,10.0,0.0,0.0,0.0,10.0
1446036373591321196,191,1446036373586123943,robocape_mag,17.55,-15.75,6.9,10.0,0.0,0.0,0.0,10.0,0.0,0.0,0.0,10.0
1446036373626060862,192,1446036373618658065,robocape_mag,17.55,-15.75,6.9,10.0,0.0,0.0,0.0,10.0,0.0,0.0,0.0,10.0
1446036373657872904,193,1446036373652813911,robocape_mag,14.55,-16.35,6.9,10.0,0.0,0.0,0.0,10.0,0.0,0.0,0.0,10.0
1446036373691212654,194,1446036373686167001,robocape_mag,14.55,-16.35,6.9,10.0,0.0,0.0,0.0,10.0,0.0,0.0,0.0,10.0
1446036373723574529,195,1446036373718712091,robocape_mag,14.55,-16.35,6.9,10.0,0.0,0.0,0.0,10.0,0.0,0.0,0.0,10.0
1446036373757131987,196,1446036373752228021,robocape_mag,14.55,-16.35,6.9,10.0,0.0,0.0,0.0,10.0,0.0,0.0,0.0,10.0
1446036373789512029,197,1446036373784532070,robocape_mag,14.55,-16.35,6.9,10.0,0.0,0.0,0.0,10.0,0.0,0.0,0.0,10.0
1446036373822664946,198,1446036373817859888,robocape_mag,12.45,-14.85,9.0,10.0,0.0,0.0,0.0,10.0,0.0,0.0,0.0,10.0
1446036373856338612,199,1446036373851480007,robocape_mag,12.45,-14.85,9.0,10.0,0.0,0.0,0.0,10.0,0.0,0.0,0.0,10.0
1446036373889349362,200,1446036373884298086,robocape_mag,12.45,-14.85,9.0,10.0,0.0,0.0,0.0,10.0,0.0,0.0,0.0,10.0
1446036373922248321,201,1446036373917248964,robocape_mag,12.45,-14.85,9.0,10.0,0.0,0.0,0.0,10.0,0.0,0.0,0.0,10.0
1446036373955454571,202,1446036373950670957,robocape_mag,12.45,-14.85,9.0,10.0,0.0,0.0,0.0,10.0,0.0,0.0,0.0,10.0
1446036373988546238,203,1446036373983611106,robocape_mag,13.05,-14.25,5.4,10.0,0.0,0.0,0.0,10.0,0.0,0.0,0.0,10.0
1446036374021924529,204,1446036374016990900,robocape_mag,13.05,-14.25,5.4,10.0,0.0,0.0,0.0,10.0,0.0,0.0,0.0,10.0
1446036374055004321,205,1446036374050189971,robocape_mag,13.05,-14.25,5.4,10.0,0.0,0.0,0.0,10.0,0.0,0.0,0.0,10.0
1446036374088462821,206,1446036374083436012,robocape_mag,13.05,-14.25,5.4,10.0,0.0,0.0,0.0,10.0,0.0,0.0,0.0,10.0
1446036374122040654,207,1446036374116911888,robocape_mag,13.05,-14.25,5.4,10.0,0.0,0.0,0.0,10.0,0.0,0.0,0.0,10.0
1446036374154819071,208,1446036374150029897,robocape_mag,14.25,-0.45,4.2,10.0,0.0,0.0,0.0,10.0,0.0,0.0,0.0,10.0
1446036374188687738,209,1446036374183664083,robocape_mag,14.25,-0.45,4.2,10.0,0.0,0.0,0.0,10.0,0.0,0.0,0.0,10.0
1446036374222301113,210,1446036374217169046,robocape_mag,14.25,-0.45,4.2,10.0,0.0,0.0,0.0,10.0,0.0,0.0,0.0,10.0
1446036374255183196,211,1446036374250369071,robocape_mag,14.25,-0.45,4.2,10.0,0.0,0.0,0.0,10.0,0.0,0.0,0.0,10.0
1446036374288432488,212,1446036374283494949,robocape_mag,14.25,-0.45,4.2,10.0,0.0,0.0,0.0,10.0,0.0,0.0,0.0,10.0
1446036374321842571,213,1446036374316754102,robocape_mag,-2.85,-24.15,10.5,10.0,0.0,0.0,0.0,10.0,0.0,0.0,0.0,10.0
1446036374355239529,214,1446036374350465059,robocape_mag,-2.85,-24.15,10.5,10.0,0.0,0.0,0.0,10.0,0.0,0.0,0.0,10.0
1446036374388665821,215,1446036374383512020,robocape_mag,-2.85,-24.15,10.5,10.0,0.0,0.0,0.0,10.0,0.0,0.0,0.0,10.0
1446036374421936654,216,1446036374416889905,robocape_mag,-2.85,-24.15,10.5,10.0,0.0,0.0,0.0,10.0,0.0,0.0,0.0,10.0
1446036374455606196,217,1446036374450814008,robocape_mag,12.75,-9.75,20.7,10.0,0.0,0.0,0.0,10.0,0.0,0.0,0.0,10.0
1446036374490157196,218,1446036374483299970,robocape_mag,12.75,-9.75,20.7,10.0,0.0,0.0,0.0,10.0,0.0,0.0,0.0,10.0
1446036374523147654,219,1446036374516568899,robocape_mag,12.75,-9.75,20.7,10.0,0.0,0.0,0.0,10.0,0.0,0.0,0.0,10.0
1446036374554723404,220,1446036374549920082,robocape_mag,12.75,-9.75,20.7,10.0,0.0,0.0,0.0,10.0,0.0,0.0,0.0,10.0
1446036374588454446,221,1446036374583170890,robocape_mag,12.75,-9.75,20.7,10.0,0.0,0.0,0.0,10.0,0.0,0.0,0.0,10.0
1446036374623762863,222,1446036374618436098,robocape_mag,1.35,-26.55,15.9,10.0,0.0,0.0,0.0,10.0,0.0,0.0,0.0,10.0
1446036374656626196,223,1446036374649820089,robocape_mag,1.35,-26.55,15.9,10.0,0.0,0.0,0.0,10.0,0.0,0.0,0.0,10.0
1446036374688375363,224,1446036374683298110,robocape_mag,1.35,-26.55,15.9,10.0,0.0,0.0,0.0,10.0,0.0,0.0,0.0,10.0
1446036374721408071,225,1446036374716423988,robocape_mag,1.35,-26.55,15.9,10.0,0.0,0.0,0.0,10.0,0.0,0.0,0.0,10.0
1446036374755186988,226,1446036374749953985,robocape_mag,1.35,-26.55,15.9,10.0,0.0,0.0,0.0,10.0,0.0,0.0,0.0,10.0
1446036374788781863,227,1446036374783461093,robocape_mag,4.65,-11.85,24.0,10.0,0.0,0.0,0.0,10.0,0.0,0.0,0.0,10.0
1446036374821688405,228,1446036374816523075,robocape_mag,4.65,-11.85,24.0,10.0,0.0,0.0,0.0,10.0,0.0,0.0,0.0,10.0
1446036374855035405,229,1446036374849952936,robocape_mag,4.65,-11.85,24.0,10.0,0.0,0.0,0.0,10.0,0.0,0.0,0.0,10.0
1446036374888308488,230,1446036374883162021,robocape_mag,4.65,-11.85,24.0,10.0,0.0,0.0,0.0,10.0,0.0,0.0,0.0,10.0
1446036374921348238,231,1446036374916441917,robocape_mag,4.65,-11.85,24.0,10.0,0.0,0.0,0.0,10.0,0.0,0.0,0.0,10.0
1446036374954853030,232,1446036374949986934,robocape_mag,-9.75,-15.45,12.6,10.0,0.0,0.0,0.0,10.0,0.0,0.0,0.0,10.0
1446036374988157863,233,1446036374983161926,robocape_mag,-9.75,-15.45,12.6,10.0,0.0,0.0,0.0,10.0,0.0,0.0,0.0,10.0
1446036375021641988,234,1446036375016856908,robocape_mag,-9.75,-15.45,12.6,10.0,0.0,0.0,0.0,10.0,0.0,0.0,0.0,10.0
1446036375054901321,235,1446036375050106048,robocape_mag,-9.75,-15.45,12.6,10.0,0.0,0.0,0.0,10.0,0.0,0.0,0.0,10.0
1446036375089555696,236,1446036375084444999,robocape_mag,-9.75,-15.45,12.6,10.0,0.0,0.0,0.0,10.0,0.0,0.0,0.0,10.0
1446036375122384363,237,1446036375117053031,robocape_mag,7.05,-26.85,19.8,10.0,0.0,0.0,0.0,10.0,0.0,0.0,0.0,10.0
1446036375155419571,238,1446036375150167942,robocape_mag,7.05,-26.85,19.8,10.0,0.0,0.0,0.0,10.0,0.0,0.0,0.0,10.0
1446036375189415238,239,1446036375184662103,robocape_mag,7.05,-26.85,19.8,10.0,0.0,0.0,0.0,10.0,0.0,0.0,0.0,10.0
1446036375223375946,240,1446036375218417882,robocape_mag,7.05,-26.85,19.8,10.0,0.0,0.0,0.0,10.0,0.0,0.0,0.0,10.0
1446036375256603405,241,1446036375250966072,robocape_mag,19.95,-28.95,15.3,10.0,0.0,0.0,0.0,10.0,0.0,0.0,0.0,10.0
1446036375293042071,242,1446036375284873962,robocape_mag,19.95,-28.95,15.3,10.0,0.0,0.0,0.0,10.0,0.0,0.0,0.0,10.0
1446036375323445905,243,1446036375318468093,robocape_mag,19.95,-28.95,15.3,10.0,0.0,0.0,0.0,10.0,0.0,0.0,0.0,10.0
1446036375359462571,244,1446036375351881027,robocape_mag,19.95,-28.95,15.3,10.0,0.0,0.0,0.0,10.0,0.0,0.0,0.0,10.0
1446036375392433488,245,1446036375386698961,robocape_mag,19.95,-28.95,15.3,10.0,0.0,0.0,0.0,10.0,0.0,0.0,0.0,10.0
1446036375427213822,246,1446036375419765949,robocape_mag,1.65,-28.05,10.8,10.0,0.0,0.0,0.0,10.0,0.0,0.0,0.0,10.0
1446036375460397988,247,1446036375452296018,robocape_mag,1.65,-28.05,10.8,10.0,0.0,0.0,0.0,10.0,0.0,0.0,0.0,10.0
1446036375496125155,248,1446036375487521886,robocape_mag,1.65,-28.05,10.8,10.0,0.0,0.0,0.0,10.0,0.0,0.0,0.0,10.0
1446036375526504905,249,1446036375519886016,robocape_mag,1.65,-28.05,10.8,10.0,0.0,0.0,0.0,10.0,0.0,0.0,0.0,10.0
1446036375559329405,250,1446036375553323984,robocape_mag,1.65,-28.05,10.8,10.0,0.0,0.0,0.0,10.0,0.0,0.0,0.0,10.0
1446036375597394488,251,1446036375586922883,robocape_mag,22.95,-15.15,19.5,10.0,0.0,0.0,0.0,10.0,0.0,0.0,0.0,10.0
1446036375626552822,252,1446036375618650913,robocape_mag,22.95,-15.15,19.5,10.0,0.0,0.0,0.0,10.0,0.0,0.0,0.0,10.0
1446036375657796405,253,1446036375652532100,robocape_mag,22.95,-15.15,19.5,10.0,0.0,0.0,0.0,10.0,0.0,0.0,0.0,10.0
1446036375693247072,254,1446036375686001062,robocape_mag,22.95,-15.15,19.5,10.0,0.0,0.0,0.0,10.0,0.0,0.0,0.0,10.0
1446036375731059488,255,1446036375720941066,robocape_mag,22.95,-15.15,19.5,10.0,0.0,0.0,0.0,10.0,0.0,0.0,0.0,10.0
1446036375758512322,256,1446036375753557920,robocape_mag,5.55,-16.95,8.1,10.0,0.0,0.0,0.0,10.0,0.0,0.0,0.0,10.0
1446036375792419072,257,1446036375787341117,robocape_mag,5.55,-16.95,8.1,10.0,0.0,0.0,0.0,10.0,0.0,0.0,0.0,10.0
1446036375824713405,258,1446036375819752931,robocape_mag,5.55,-16.95,8.1,10.0,0.0,0.0,0.0,10.0,0.0,0.0,0.0,10.0
1446036375857692447,259,1446036375852745056,robocape_mag,5.55,-16.95,8.1,10.0,0.0,0.0,0.0,10.0,0.0,0.0,0.0,10.0
1446036375891548613,260,1446036375886508941,robocape_mag,5.55,-24.75,17.1,10.0,0.0,0.0,0.0,10.0,0.0,0.0,0.0,10.0
1446036375924519405,261,1446036375919717073,robocape_mag,6.75,-24.75,17.1,10.0,0.0,0.0,0.0,10.0,0.0,0.0,0.0,10.0
1446036375957145863,262,1446036375952250003,robocape_mag,6.75,-24.75,17.1,10.0,0.0,0.0,0.0,10.0,0.0,0.0,0.0,10.0
1446036375992045155,263,1446036375987067937,robocape_mag,6.75,-24.75,17.1,10.0,0.0,0.0,0.0,10.0,0.0,0.0,0.0,10.0
1446036376024074238,264,1446036376019310951,robocape_mag,6.75,-24.75,17.1,10.0,0.0,0.0,0.0,10.0,0.0,0.0,0.0,10.0
1446036376057538447,265,1446036376052479028,robocape_mag,5.25,-21.45,7.2,10.0,0.0,0.0,0.0,10.0,0.0,0.0,0.0,10.0
1446036376090052989,266,1446036376085107088,robocape_mag,5.25,-21.45,7.2,10.0,0.0,0.0,0.0,10.0,0.0,0.0,0.0,10.0
1446036376122991489,267,1446036376118236064,robocape_mag,5.25,-21.45,7.2,10.0,0.0,0.0,0.0,10.0,0.0,0.0,0.0,10.0
1446036376156511447,268,1446036376151705980,robocape_mag,5.25,-21.45,7.2,10.0,0.0,0.0,0.0,10.0,0.0,0.0,0.0,10.0
1446036376189592322,269,1446036376184818983,robocape_mag,5.25,-21.45,7.2,10.0,0.0,0.0,0.0,10.0,0.0,0.0,0.0,10.0
1446036376223105905,270,1446036376218210935,robocape_mag,-5.55,-20.85,7.2,10.0,0.0,0.0,0.0,10.0,0.0,0.0,0.0,10.0
1446036376256033239,271,1446036376250634908,robocape_mag,-5.55,-20.85,7.2,10.0,0.0,0.0,0.0,10.0,0.0,0.0,0.0,10.0
1446036376288840364,272,1446036376283857107,robocape_mag,-5.55,-20.85,7.2,10.0,0.0,0.0,0.0,10.0,0.0,0.0,0.0,10.0
1446036376322315364,273,1446036376317466974,robocape_mag,-5.55,-20.85,7.2,10.0,0.0,0.0,0.0,10.0,0.0,0.0,0.0,10.0
1446036376355592697,274,1446036376350217103,robocape_mag,-5.55,-20.85,7.2,10.0,0.0,0.0,0.0,10.0,0.0,0.0,0.0,10.0
1446036376388563155,275,1446036376383516073,robocape_mag,11.25,-23.25,22.2,10.0,0.0,0.0,0.0,10.0,0.0,0.0,0.0,10.0
1446036376421760572,276,1446036376416636943,robocape_mag,11.25,-23.25,22.2,10.0,0.0,0.0,0.0,10.0,0.0,0.0,0.0,10.0
1446036376455105280,277,1446036376449907064,robocape_mag,11.25,-23.25,22.2,10.0,0.0,0.0,0.0,10.0,0.0,0.0,0.0,10.0
1446036376488277989,278,1446036376483411073,robocape_mag,11.25,-23.25,22.2,10.0,0.0,0.0,0.0,10.0,0.0,0.0,0.0,10.0
1446036376523309030,279,1446036376518450021,robocape_mag,11.25,-23.25,22.2,10.0,0.0,0.0,0.0,10.0,0.0,0.0,0.0,10.0
1446036376561642655,280,1446036376555007934,robocape_mag,-1.65,-24.75,8.7,10.0,0.0,0.0,0.0,10.0,0.0,0.0,0.0,10.0
1446036376589021989,281,1446036376584028959,robocape_mag,-1.65,-24.75,8.7,10.0,0.0,0.0,0.0,10.0,0.0,0.0,0.0,10.0
1446036376624406239,282,1446036376618817090,robocape_mag,-1.65,-24.75,8.7,10.0,0.0,0.0,0.0,10.0,0.0,0.0,0.0,10.0
1446036376660114114,283,1446036376654232978,robocape_mag,-1.65,-24.75,8.7,10.0,0.0,0.0,0.0,10.0,0.0,0.0,0.0,10.0
1446036376692056989,284,1446036376684237957,robocape_mag,-1.65,-24.75,8.7,10.0,0.0,0.0,0.0,10.0,0.0,0.0,0.0,10.0
1446036376721362739,285,1446036376716442108,robocape_mag,0.75,-17.55,11.1,10.0,0.0,0.0,0.0,10.0,0.0,0.0,0.0,10.0
1446036376754843989,286,1446036376749923944,robocape_mag,0.75,-17.55,11.1,10.0,0.0,0.0,0.0,10.0,0.0,0.0,0.0,10.0
1446036376796205072,287,1446036376786751985,robocape_mag,0.75,-17.55,11.1,10.0,0.0,0.0,0.0,10.0,0.0,0.0,0.0,10.0
1446036376825286989,288,1446036376820070028,robocape_mag,0.75,-17.55,11.1,10.0,0.0,0.0,0.0,10.0,0.0,0.0,0.0,10.0
1446036376854534072,289,1446036376849641084,robocape_mag,1.95,-18.15,11.1,10.0,0.0,0.0,0.0,10.0,0.0,0.0,0.0,10.0
1446036376888273822,290,1446036376883152008,robocape_mag,1.95,-18.15,11.1,10.0,0.0,0.0,0.0,10.0,0.0,0.0,0.0,10.0
1446036376922555739,291,1446036376916908979,robocape_mag,1.95,-18.15,11.1,10.0,0.0,0.0,0.0,10.0,0.0,0.0,0.0,10.0
1446036376960878947,292,1446036376953816890,robocape_mag,1.95,-18.15,11.1,10.0,0.0,0.0,0.0,10.0,0.0,0.0,0.0,10.0
1446036376991473447,293,1446036376986463069,robocape_mag,1.95,-18.15,11.1,10.0,0.0,0.0,0.0,10.0,0.0,0.0,0.0,10.0
1446036377021555864,294,1446036377016505002,robocape_mag,-0.15,-23.85,8.4,10.0,0.0,0.0,0.0,10.0,0.0,0.0,0.0,10.0
1446036377054820447,295,1446036377049796104,robocape_mag,-0.15,-23.85,8.4,10.0,0.0,0.0,0.0,10.0,0.0,0.0,0.0,10.0
1446036377088846906,296,1446036377083503961,robocape_mag,-0.15,-23.85,8.4,10.0,0.0,0.0,0.0,10.0,0.0,0.0,0.0,10.0
1446036377122047614,297,1446036377116727113,robocape_mag,-0.15,-23.85,8.4,10.0,0.0,0.0,0.0,10.0,0.0,0.0,0.0,10.0
1446036377155014864,298,1446036377149785995,robocape_mag,-0.15,-23.85,8.4,10.0,0.0,0.0,0.0,10.0,0.0,0.0,0.0,10.0
1446036377188644114,299,1446036377183461904,robocape_mag,10.65,-22.05,22.2,10.0,0.0,0.0,0.0,10.0,0.0,0.0,0.0,10.0
1446036377223236906,300,1446036377216464042,robocape_mag,10.65,-22.05,22.2,10.0,0.0,0.0,0.0,10.0,0.0,0.0,0.0,10.0
1446036377256456156,301,1446036377249922990,robocape_mag,10.65,-22.05,22.2,10.0,0.0,0.0,0.0,10.0,0.0,0.0,0.0,10.0
1446036377288291072,302,1446036377283175945,robocape_mag,10.65,-22.05,22.2,10.0,0.0,0.0,0.0,10.0,0.0,0.0,0.0,10.0
1446036377323886739,303,1446036377316682100,robocape_mag,10.65,-22.05,22.2,10.0,0.0,0.0,0.0,10.0,0.0,0.0,0.0,10.0
1446036377356586406,304,1446036377350028038,robocape_mag,5.55,-16.95,10.5,10.0,0.0,0.0,0.0,10.0,0.0,0.0,0.0,10.0
1446036377390147531,305,1446036377384255886,robocape_mag,5.55,-16.95,10.5,10.0,0.0,0.0,0.0,10.0,0.0,0.0,0.0,10.0
1446036377422800572,306,1446036377416958093,robocape_mag,5.55,-16.95,10.5,10.0,0.0,0.0,0.0,10.0,0.0,0.0,0.0,10.0
1446036377456455072,307,1446036377451462984,robocape_mag,5.55,-16.95,10.5,10.0,0.0,0.0,0.0,10.0,0.0,0.0,0.0,10.0
1446036377490974573,308,1446036377484610080,robocape_mag,5.55,-16.95,10.5,10.0,0.0,0.0,0.0,10.0,0.0,0.0,0.0,10.0
1446036377522701031,309,1446036377517113924,robocape_mag,17.85,-23.25,24.0,10.0,0.0,0.0,0.0,10.0,0.0,0.0,0.0,10.0
1446036377556702823,310,1446036377551322937,robocape_mag,17.85,-23.25,24.0,10.0,0.0,0.0,0.0,10.0,0.0,0.0,0.0,10.0
1446036377589976323,311,1446036377585035085,robocape_mag,17.85,-23.25,24.0,10.0,0.0,0.0,0.0,10.0,0.0,0.0,0.0,10.0
1446036377623587656,312,1446036377618603944,robocape_mag,17.85,-23.25,24.0,10.0,0.0,0.0,0.0,10.0,0.0,0.0,0.0,10.0
1446036377657530531,313,1446036377652422904,robocape_mag,4.35,-24.75,8.1,10.0,0.0,0.0,0.0,10.0,0.0,0.0,0.0,10.0
1446036377689223948,314,1446036377684107065,robocape_mag,4.35,-24.75,8.1,10.0,0.0,0.0,0.0,10.0,0.0,0.0,0.0,10.0
1446036377725325448,315,1446036377717672109,robocape_mag,4.35,-24.75,8.1,10.0,0.0,0.0,0.0,10.0,0.0,0.0,0.0,10.0
1446036377764976489,316,1446036377754928112,robocape_mag,4.35,-24.75,8.1,10.0,0.0,0.0,0.0,10.0,0.0,0.0,0.0,10.0
1446036377792108239,317,1446036377787009954,robocape_mag,4.35,-24.75,8.1,10.0,0.0,0.0,0.0,10.0,0.0,0.0,0.0,10.0
1446036377824085823,318,1446036377817502021,robocape_mag,7.35,-16.95,18.9,10.0,0.0,0.0,0.0,10.0,0.0,0.0,0.0,10.0
1446036377863036656,319,1446036377852514982,robocape_mag,7.35,-16.95,18.9,10.0,0.0,0.0,0.0,10.0,0.0,0.0,0.0,10.0
1446036377896668114,320,1446036377886790037,robocape_mag,7.35,-16.95,18.9,10.0,0.0,0.0,0.0,10.0,0.0,0.0,0.0,10.0
1446036377923667406,321,1446036377918381929,robocape_mag,7.35,-16.95,18.9,10.0,0.0,0.0,0.0,10.0,0.0,0.0,0.0,10.0
1446036377958609906,322,1446036377953455924,robocape_mag,7.35,-16.95,18.9,10.0,0.0,0.0,0.0,10.0,0.0,0.0,0.0,10.0
1446036377996213031,323,1446036377987494945,robocape_mag,17.85,-19.65,22.8,10.0,0.0,0.0,0.0,10.0,0.0,0.0,0.0,10.0
1446036378025857489,324,1446036378020582914,robocape_mag,17.85,-19.65,22.8,10.0,0.0,0.0,0.0,10.0,0.0,0.0,0.0,10.0
1446036378059000698,325,1446036378053602933,robocape_mag,17.85,-19.65,22.8,10.0,0.0,0.0,0.0,10.0,0.0,0.0,0.0,10.0
1446036378095799656,326,1446036378086813926,robocape_mag,17.85,-19.65,22.8,10.0,0.0,0.0,0.0,10.0,0.0,0.0,0.0,10.0
1446036378124937739,327,1446036378119707107,robocape_mag,17.85,-19.65,22.8,10.0,0.0,0.0,0.0,10.0,0.0,0.0,0.0,10.0
1446036378158031739,328,1446036378152852058,robocape_mag,23.55,-19.35,22.5,10.0,0.0,0.0,0.0,10.0,0.0,0.0,0.0,10.0
1446036378190840448,329,1446036378185806035,robocape_mag,23.55,-19.35,22.5,10.0,0.0,0.0,0.0,10.0,0.0,0.0,0.0,10.0
1446036378223972156,330,1446036378218801975,robocape_mag,23.55,-19.35,22.5,10.0,0.0,0.0,0.0,10.0,0.0,0.0,0.0,10.0
1446036378257562656,331,1446036378252661943,robocape_mag,23.55,-19.35,22.5,10.0,0.0,0.0,0.0,10.0,0.0,0.0,0.0,10.0
1446036378290890073,332,1446036378286099910,robocape_mag,23.55,-18.15,18.3,10.0,0.0,0.0,0.0,10.0,0.0,0.0,0.0,10.0
1446036378324081156,333,1446036378319066047,robocape_mag,18.15,-18.15,18.3,10.0,0.0,0.0,0.0,10.0,0.0,0.0,0.0,10.0
1446036378357215656,334,1446036378352454900,robocape_mag,18.15,-18.15,18.3,10.0,0.0,0.0,0.0,10.0,0.0,0.0,0.0,10.0
1446036378390524823,335,1446036378385474920,robocape_mag,18.15,-18.15,18.3,10.0,0.0,0.0,0.0,10.0,0.0,0.0,0.0,10.0
1446036378422916990,336,1446036378418041944,robocape_mag,18.15,-18.15,18.3,10.0,0.0,0.0,0.0,10.0,0.0,0.0,0.0,10.0
1446036378456960948,337,1446036378452194929,robocape_mag,17.55,-17.55,20.1,10.0,0.0,0.0,0.0,10.0,0.0,0.0,0.0,10.0
1446036378489972906,338,1446036378484802007,robocape_mag,17.55,-17.55,20.1,10.0,0.0,0.0,0.0,10.0,0.0,0.0,0.0,10.0
1446036378522782781,339,1446036378517972946,robocape_mag,17.55,-17.55,20.1,10.0,0.0,0.0,0.0,10.0,0.0,0.0,0.0,10.0
1446036378555786323,340,1446036378550962924,robocape_mag,17.55,-17.55,20.1,10.0,0.0,0.0,0.0,10.0,0.0,0.0,0.0,10.0
1446036378588823281,341,1446036378583894968,robocape_mag,17.55,-17.55,20.1,10.0,0.0,0.0,0.0,10.0,0.0,0.0,0.0,10.0
1446036378629149906,342,1446036378618058919,robocape_mag,14.55,-16.95,17.1,10.0,0.0,0.0,0.0,10.0,0.0,0.0,0.0,10.0
1446036378658471906,343,1446036378653706073,robocape_mag,14.55,-16.95,17.1,10.0,0.0,0.0,0.0,10.0,0.0,0.0,0.0,10.0
1446036378689227906,344,1446036378684263944,robocape_mag,14.55,-16.95,17.1,10.0,0.0,0.0,0.0,10.0,0.0,0.0,0.0,10.0
1446036378721650740,345,1446036378716814994,robocape_mag,14.55,-16.95,17.1,10.0,0.0,0.0,0.0,10.0,0.0,0.0,0.0,10.0
1446036378754944156,346,1446036378749922037,robocape_mag,14.55,-16.95,17.1,10.0,0.0,0.0,0.0,10.0,0.0,0.0,0.0,10.0
1446036378788197990,347,1446036378783210992,robocape_mag,7.05,-18.45,10.8,10.0,0.0,0.0,0.0,10.0,0.0,0.0,0.0,10.0
1446036378821524365,348,1446036378816569089,robocape_mag,7.05,-18.45,10.8,10.0,0.0,0.0,0.0,10.0,0.0,0.0,0.0,10.0
1446036378854670615,349,1446036378849836111,robocape_mag,7.05,-18.45,10.8,10.0,0.0,0.0,0.0,10.0,0.0,0.0,0.0,10.0
1446036378888288698,350,1446036378883233070,robocape_mag,7.05,-18.45,10.8,10.0,0.0,0.0,0.0,10.0,0.0,0.0,0.0,10.0
1446036378921773407,351,1446036378916868925,robocape_mag,7.05,-18.45,10.8,10.0,0.0,0.0,0.0,10.0,0.0,0.0,0.0,10.0
1446036378954592865,352,1446036378949824094,robocape_mag,13.65,-21.45,5.4,10.0,0.0,0.0,0.0,10.0,0.0,0.0,0.0,10.0
1446036378988292823,353,1446036378983364105,robocape_mag,13.65,-21.45,5.4,10.0,0.0,0.0,0.0,10.0,0.0,0.0,0.0,10.0
1446036379021633073,354,1446036379016644954,robocape_mag,13.65,-21.45,5.4,10.0,0.0,0.0,0.0,10.0,0.0,0.0,0.0,10.0
1446036379054694657,355,1446036379049967050,robocape_mag,13.65,-21.45,5.4,10.0,0.0,0.0,0.0,10.0,0.0,0.0,0.0,10.0
1446036379088186198,356,1446036379083388090,robocape_mag,13.65,-21.45,5.4,10.0,0.0,0.0,0.0,10.0,0.0,0.0,0.0,10.0
1446036379122067907,357,1446036379117042064,robocape_mag,14.25,-22.65,15.6,10.0,0.0,0.0,0.0,10.0,0.0,0.0,0.0,10.0
1446036379154762032,358,1446036379150032997,robocape_mag,14.25,-22.65,15.6,10.0,0.0,0.0,0.0,10.0,0.0,0.0,0.0,10.0
1446036379188668032,359,1446036379183453083,robocape_mag,14.25,-22.65,15.6,10.0,0.0,0.0,0.0,10.0,0.0,0.0,0.0,10.0
1446036379221679740,360,1446036379216645956,robocape_mag,14.25,-22.65,15.6,10.0,0.0,0.0,0.0,10.0,0.0,0.0,0.0,10.0
1446036379254881698,361,1446036379249888896,robocape_mag,23.55,-19.35,20.1,10.0,0.0,0.0,0.0,10.0,0.0,0.0,0.0,10.0
1446036379288805782,362,1446036379283107995,robocape_mag,23.55,-19.35,20.1,10.0,0.0,0.0,0.0,10.0,0.0,0.0,0.0,10.0
1446036379323481948,363,1446036379316621065,robocape_mag,23.55,-19.35,20.1,10.0,0.0,0.0,0.0,10.0,0.0,0.0,0.0,10.0
1446036379354815407,364,1446036379349807024,robocape_mag,23.55,-19.35,20.1,10.0,0.0,0.0,0.0,10.0,0.0,0.0,0.0,10.0
1446036379388331282,365,1446036379383173942,robocape_mag,23.55,-19.35,20.1,10.0,0.0,0.0,0.0,10.0,0.0,0.0,0.0,10.0
1446036379421805490,366,1446036379416582107,robocape_mag,8.55,-15.75,11.7,10.0,0.0,0.0,0.0,10.0,0.0,0.0,0.0,10.0
1446036379454849073,367,1446036379449769020,robocape_mag,8.55,-15.75,11.7,10.0,0.0,0.0,0.0,10.0,0.0,0.0,0.0,10.0
1446036379488532115,368,1446036379483285903,robocape_mag,8.55,-15.75,11.7,10.0,0.0,0.0,0.0,10.0,0.0,0.0,0.0,10.0
1446036379522392532,369,1446036379517297983,robocape_mag,8.55,-15.75,11.7,10.0,0.0,0.0,0.0,10.0,0.0,0.0,0.0,10.0
1446036379554762532,370,1446036379549870967,robocape_mag,8.55,-15.75,11.7,10.0,0.0,0.0,0.0,10.0,0.0,0.0,0.0,10.0
1446036379588510365,371,1446036379583424091,robocape_mag,19.95,-24.75,11.1,10.0,0.0,0.0,0.0,10.0,0.0,0.0,0.0,10.0
1446036379622382074,372,1446036379617312908,robocape_mag,19.95,-24.75,11.1,10.0,0.0,0.0,0.0,10.0,0.0,0.0,0.0,10.0
1446036379655050740,373,1446036379649907112,robocape_mag,19.95,-24.75,11.1,10.0,0.0,0.0,0.0,10.0,0.0,0.0,0.0,10.0
1446036379688412615,374,1446036379683533906,robocape_mag,19.95,-24.75,11.1,10.0,0.0,0.0,0.0,10.0,0.0,0.0,0.0,10.0
1446036379721976407,375,1446036379716872930,robocape_mag,19.95,-24.75,11.1,10.0,0.0,0.0,0.0,10.0,0.0,0.0,0.0,10.0
1446036379755967865,376,1446036379751264095,robocape_mag,21.45,-15.45,13.2,10.0,0.0,0.0,0.0,10.0,0.0,0.0,0.0,10.0
1446036379789356907,377,1446036379784557104,robocape_mag,21.45,-15.45,13.2,10.0,0.0,0.0,0.0,10.0,0.0,0.0,0.0,10.0
1446036379822863449,378,1446036379817887067,robocape_mag,21.45,-15.45,13.2,10.0,0.0,0.0,0.0,10.0,0.0,0.0,0.0,10.0
1446036379856170907,379,1446036379851317882,robocape_mag,21.45,-15.45,13.2,10.0,0.0,0.0,0.0,10.0,0.0,0.0,0.0,10.0
1446036379889918032,380,1446036379885024070,robocape_mag,21.45,-15.45,13.2,10.0,0.0,0.0,0.0,10.0,0.0,0.0,0.0,10.0
1446036379922011282,381,1446036379917113065,robocape_mag,27.75,-16.35,17.1,10.0,0.0,0.0,0.0,10.0,0.0,0.0,0.0,10.0
1446036379956322157,382,1446036379951467037,robocape_mag,27.75,-16.35,17.1,10.0,0.0,0.0,0.0,10.0,0.0,0.0,0.0,10.0
1446036379990034865,383,1446036379985012054,robocape_mag,27.75,-16.35,17.1,10.0,0.0,0.0,0.0,10.0,0.0,0.0,0.0,10.0
1446036380024934074,384,1446036380018151998,robocape_mag,27.75,-16.35,17.1,10.0,0.0,0.0,0.0,10.0,0.0,0.0,0.0,10.0
1446036380056027407,385,1446036380051156997,robocape_mag,28.65,-20.25,13.8,10.0,0.0,0.0,0.0,10.0,0.0,0.0,0.0,10.0
1446036380091358782,386,1446036380086035013,robocape_mag,28.65,-20.25,13.8,10.0,0.0,0.0,0.0,10.0,0.0,0.0,0.0,10.0
1446036380127066615,387,1446036380119195938,robocape_mag,28.65,-20.25,13.8,10.0,0.0,0.0,0.0,10.0,0.0,0.0,0.0,10.0
1446036380159802657,388,1446036380154256105,robocape_mag,28.65,-20.25,13.8,10.0,0.0,0.0,0.0,10.0,0.0,0.0,0.0,10.0
1446036380193022949,389,1446036380186103105,robocape_mag,28.65,-20.25,13.8,10.0,0.0,0.0,0.0,10.0,0.0,0.0,0.0,10.0
1446036380225746574,390,1446036380219850063,robocape_mag,14.85,-16.65,6.6,10.0,0.0,0.0,0.0,10.0,0.0,0.0,0.0,10.0
1446036380259142157,391,1446036380254018068,robocape_mag,14.85,-16.65,6.6,10.0,0.0,0.0,0.0,10.0,0.0,0.0,0.0,10.0
1446036380292077866,392,1446036380286767959,robocape_mag,14.85,-16.65,6.6,10.0,0.0,0.0,0.0,10.0,0.0,0.0,0.0,10.0
1446036380326102616,393,1446036380319097995,robocape_mag,14.85,-16.65,6.6,10.0,0.0,0.0,0.0,10.0,0.0,0.0,0.0,10.0
1446036380363437407,394,1446036380353266000,robocape_mag,14.85,-16.65,6.6,10.0,0.0,0.0,0.0,10.0,0.0,0.0,0.0,10.0
1446036380394764032,395,1446036380385984897,robocape_mag,16.65,-16.65,4.8,10.0,0.0,0.0,0.0,10.0,0.0,0.0,0.0,10.0
1446036380425646532,396,1446036380420455932,robocape_mag,16.65,-16.65,4.8,10.0,0.0,0.0,0.0,10.0,0.0,0.0,0.0,10.0
1446036380462966032,397,1446036380452903032,robocape_mag,16.65,-16.65,4.8,10.0,0.0,0.0,0.0,10.0,0.0,0.0,0.0,10.0
1446036380491726574,398,1446036380486469030,robocape_mag,16.65,-16.65,4.8,10.0,0.0,0.0,0.0,10.0,0.0,0.0,0.0,10.0
1446036380529002866,399,1446036380519155025,robocape_mag,16.65,-16.65,4.8,10.0,0.0,0.0,0.0,10.0,0.0,0.0,0.0,10.0
1446036380558925116,400,1446036380552095890,robocape_mag,16.35,-11.55,9.3,10.0,0.0,0.0,0.0,10.0,0.0,0.0,0.0,10.0
1446036380591991157,401,1446036380587218046,robocape_mag,16.35,-11.55,9.3,10.0,0.0,0.0,0.0,10.0,0.0,0.0,0.0,10.0
1446036380622987741,402,1446036380617949962,robocape_mag,16.35,-11.55,9.3,10.0,0.0,0.0,0.0,10.0,0.0,0.0,0.0,10.0
1446036380660632074,403,1446036380655652999,robocape_mag,16.35,-11.55,9.3,10.0,0.0,0.0,0.0,10.0,0.0,0.0,0.0,10.0
1446036380691607907,404,1446036380686810016,robocape_mag,16.35,-15.75,14.1,10.0,0.0,0.0,0.0,10.0,0.0,0.0,0.0,10.0
1446036380723798574,405,1446036380718955993,robocape_mag,25.95,-15.75,14.1,10.0,0.0,0.0,0.0,10.0,0.0,0.0,0.0,10.0
1446036380757187116,406,1446036380752341985,robocape_mag,25.95,-15.75,14.1,10.0,0.0,0.0,0.0,10.0,0.0,0.0,0.0,10.0
1446036380789750657,407,1446036380784697055,robocape_mag,25.95,-15.75,14.1,10.0,0.0,0.0,0.0,10.0,0.0,0.0,0.0,10.0
1446036380822272532,408,1446036380817478895,robocape_mag,25.95,-15.75,14.1,10.0,0.0,0.0,0.0,10.0,0.0,0.0,0.0,10.0
1446036380855796949,409,1446036380851021051,robocape_mag,30.15,-15.15,18.9,10.0,0.0,0.0,0.0,10.0,0.0,0.0,0.0,10.0
1446036380889009616,410,1446036380883857965,robocape_mag,30.15,-15.15,18.9,10.0,0.0,0.0,0.0,10.0,0.0,0.0,0.0,10.0
1446036380921733866,411,1446036380916968107,robocape_mag,30.15,-15.15,18.9,10.0,0.0,0.0,0.0,10.0,0.0,0.0,0.0,10.0
1446036380955071657,412,1446036380950206995,robocape_mag,30.15,-15.15,18.9,10.0,0.0,0.0,0.0,10.0,0.0,0.0,0.0,10.0
1446036380988610866,413,1446036380983392953,robocape_mag,30.15,-15.15,18.9,10.0,0.0,0.0,0.0,10.0,0.0,0.0,0.0,10.0
1446036381021503949,414,1446036381016740083,robocape_mag,22.95,-15.75,9.9,10.0,0.0,0.0,0.0,10.0,0.0,0.0,0.0,10.0
1446036381054933533,415,1446036381050163984,robocape_mag,22.95,-15.75,9.9,10.0,0.0,0.0,0.0,10.0,0.0,0.0,0.0,10.0
1446036381091508449,416,1446036381083288908,robocape_mag,22.95,-15.75,9.9,10.0,0.0,0.0,0.0,10.0,0.0,0.0,0.0,10.0
1446036381121444783,417,1446036381116667032,robocape_mag,22.95,-15.75,9.9,10.0,0.0,0.0,0.0,10.0,0.0,0.0,0.0,10.0
1446036381154822408,418,1446036381149996995,robocape_mag,22.95,-15.75,9.9,10.0,0.0,0.0,0.0,10.0,0.0,0.0,0.0,10.0
1446036381192102783,419,1446036381183418035,robocape_mag,24.75,-14.55,7.5,10.0,0.0,0.0,0.0,10.0,0.0,0.0,0.0,10.0
1446036381221673616,420,1446036381216759920,robocape_mag,24.75,-14.55,7.5,10.0,0.0,0.0,0.0,10.0,0.0,0.0,0.0,10.0
1446036381254925158,421,1446036381250010013,robocape_mag,24.75,-14.55,7.5,10.0,0.0,0.0,0.0,10.0,0.0,0.0,0.0,10.0
1446036381292849033,422,1446036381283857107,robocape_mag,24.75,-14.55,7.5,10.0,0.0,0.0,0.0,10.0,0.0,0.0,0.0,10.0
1446036381330171491,423,1446036381319428920,robocape_mag,24.75,-14.55,7.5,10.0,0.0,0.0,0.0,10.0,0.0,0.0,0.0,10.0
1446036381357784741,424,1446036381352793931,robocape_mag,20.25,-11.25,2.4,10.0,0.0,0.0,0.0,10.0,0.0,0.0,0.0,10.0
1446036381396668783,425,1446036381386507034,robocape_mag,20.25,-11.25,2.4,10.0,0.0,0.0,0.0,10.0,0.0,0.0,0.0,10.0
1446036381426650908,426,1446036381420078039,robocape_mag,20.25,-11.25,2.4,10.0,0.0,0.0,0.0,10.0,0.0,0.0,0.0,10.0
1446036381460561991,427,1446036381452785968,robocape_mag,20.25,-11.25,2.4,10.0,0.0,0.0,0.0,10.0,0.0,0.0,0.0,10.0
1446036381488389449,428,1446036381483414888,robocape_mag,20.25,-11.25,2.4,10.0,0.0,0.0,0.0,10.0,0.0,0.0,0.0,10.0
1446036381521314283,429,1446036381516511917,robocape_mag,22.05,-5.85,13.2,10.0,0.0,0.0,0.0,10.0,0.0,0.0,0.0,10.0
1446036381554932199,430,1446036381549937963,robocape_mag,22.05,-5.85,13.2,10.0,0.0,0.0,0.0,10.0,0.0,0.0,0.0,10.0
1446036381589575283,431,1446036381583091974,robocape_mag,22.05,-5.85,13.2,10.0,0.0,0.0,0.0,10.0,0.0,0.0,0.0,10.0
1446036381626860658,432,1446036381618499994,robocape_mag,22.05,-5.85,13.2,10.0,0.0,0.0,0.0,10.0,0.0,0.0,0.0,10.0
1446036381659486824,433,1446036381653048992,robocape_mag,27.15,-9.15,21.3,10.0,0.0,0.0,0.0,10.0,0.0,0.0,0.0,10.0
1446036381691867616,434,1446036381686599016,robocape_mag,27.15,-9.15,21.3,10.0,0.0,0.0,0.0,10.0,0.0,0.0,0.0,10.0
1446036381721228033,435,1446036381716466903,robocape_mag,27.15,-9.15,21.3,10.0,0.0,0.0,0.0,10.0,0.0,0.0,0.0,10.0
1446036381754543033,436,1446036381749886035,robocape_mag,27.15,-9.15,21.3,10.0,0.0,0.0,0.0,10.0,0.0,0.0,0.0,10.0
1446036381788915491,437,1446036381783320903,robocape_mag,27.15,-9.15,21.3,10.0,0.0,0.0,0.0,10.0,0.0,0.0,0.0,10.0
1446036381821454991,438,1446036381816601991,robocape_mag,28.05,-10.05,16.8,10.0,0.0,0.0,0.0,10.0,0.0,0.0,0.0,10.0
1446036381854665700,439,1446036381849811077,robocape_mag,28.05,-10.05,16.8,10.0,0.0,0.0,0.0,10.0,0.0,0.0,0.0,10.0
1446036381888454575,440,1446036381883204936,robocape_mag,28.05,-10.05,16.8,10.0,0.0,0.0,0.0,10.0,0.0,0.0,0.0,10.0
1446036381923551033,441,1446036381918679952,robocape_mag,28.05,-10.05,16.8,10.0,0.0,0.0,0.0,10.0,0.0,0.0,0.0,10.0
1446036381955632658,442,1446036381950862884,robocape_mag,28.05,-10.05,16.8,10.0,0.0,0.0,0.0,10.0,0.0,0.0,0.0,10.0
1446036381990596200,443,1446036381982942104,robocape_mag,26.85,-3.45,7.2,10.0,0.0,0.0,0.0,10.0,0.0,0.0,0.0,10.0
1446036382021333033,444,1446036382016629934,robocape_mag,26.85,-3.45,7.2,10.0,0.0,0.0,0.0,10.0,0.0,0.0,0.0,10.0
1446036382056012241,445,1446036382051136970,robocape_mag,26.85,-3.45,7.2,10.0,0.0,0.0,0.0,10.0,0.0,0.0,0.0,10.0
1446036382088215241,446,1446036382083035945,robocape_mag,26.85,-3.45,7.2,10.0,0.0,0.0,0.0,10.0,0.0,0.0,0.0,10.0
1446036382121383491,447,1446036382116652011,robocape_mag,26.85,-3.45,7.2,10.0,0.0,0.0,0.0,10.0,0.0,0.0,0.0,10.0
1446036382155465033,448,1446036382150489091,robocape_mag,34.95,-6.75,12.9,10.0,0.0,0.0,0.0,10.0,0.0,0.0,0.0,10.0
1446036382190978533,449,1446036382183607101,robocape_mag,34.95,-6.75,12.9,10.0,0.0,0.0,0.0,10.0,0.0,0.0,0.0,10.0
1446036382221678866,450,1446036382216881990,robocape_mag,34.95,-6.75,12.9,10.0,0.0,0.0,0.0,10.0,0.0,0.0,0.0,10.0
1446036382254892491,451,1446036382249886989,robocape_mag,34.95,-6.75,12.9,10.0,0.0,0.0,0.0,10.0,0.0,0.0,0.0,10.0
1446036382288037366,452,1446036382283088922,robocape_mag,34.95,-6.75,12.9,10.0,0.0,0.0,0.0,10.0,0.0,0.0,0.0,10.0
1446036382322061283,453,1446036382316560983,robocape_mag,31.35,-2.55,-3.9,10.0,0.0,0.0,0.0,10.0,0.0,0.0,0.0,10.0
1446036382354795700,454,1446036382349699974,robocape_mag,31.35,-2.55,-3.9,10.0,0.0,0.0,0.0,10.0,0.0,0.0,0.0,10.0
1446036382388836700,455,1446036382383884906,robocape_mag,31.35,-2.55,-3.9,10.0,0.0,0.0,0.0,10.0,0.0,0.0,0.0,10.0
1446036382426059492,456,1446036382420245885,robocape_mag,31.35,-2.55,-3.9,10.0,0.0,0.0,0.0,10.0,0.0,0.0,0.0,10.0
1446036382459236408,457,1446036382453243970,robocape_mag,30.75,-7.95,0.3,10.0,0.0,0.0,0.0,10.0,0.0,0.0,0.0,10.0
1446036382491551700,458,1446036382486116886,robocape_mag,30.75,-7.95,0.3,10.0,0.0,0.0,0.0,10.0,0.0,0.0,0.0,10.0
1446036382521409200,459,1446036382516645908,robocape_mag,30.75,-7.95,0.3,10.0,0.0,0.0,0.0,10.0,0.0,0.0,0.0,10.0
1446036382554565075,460,1446036382549721002,robocape_mag,30.75,-7.95,0.3,10.0,0.0,0.0,0.0,10.0,0.0,0.0,0.0,10.0
1446036382590850117,461,1446036382583129882,robocape_mag,30.75,-7.95,0.3,10.0,0.0,0.0,0.0,10.0,0.0,0.0,0.0,10.0
1446036382622166242,462,1446036382617276906,robocape_mag,22.95,-5.55,9.9,10.0,0.0,0.0,0.0,10.0,0.0,0.0,0.0,10.0
1446036382654547700,463,1446036382649754047,robocape_mag,22.95,-5.55,9.9,10.0,0.0,0.0,0.0,10.0,0.0,0.0,0.0,10.0
1446036382688594367,464,1446036382683233022,robocape_mag,22.95,-5.55,9.9,10.0,0.0,0.0,0.0,10.0,0.0,0.0,0.0,10.0
1446036382726536117,465,1446036382720761060,robocape_mag,22.95,-5.55,9.9,10.0,0.0,0.0,0.0,10.0,0.0,0.0,0.0,10.0
1446036382758931242,466,1446036382753823995,robocape_mag,22.95,-5.55,9.9,10.0,0.0,0.0,0.0,10.0,0.0,0.0,0.0,10.0
1446036382787680242,467,1446036382783039093,robocape_mag,25.05,4.35,13.8,10.0,0.0,0.0,0.0,10.0,0.0,0.0,0.0,10.0
1446036382824293658,468,1446036382819529056,robocape_mag,25.05,4.35,13.8,10.0,0.0,0.0,0.0,10.0,0.0,0.0,0.0,10.0
1446036382854622283,469,1446036382849684953,robocape_mag,25.05,4.35,13.8,10.0,0.0,0.0,0.0,10.0,0.0,0.0,0.0,10.0
1446036382887828992,470,1446036382883080005,robocape_mag,25.05,4.35,13.8,10.0,0.0,0.0,0.0,10.0,0.0,0.0,0.0,10.0
1446036382921517992,471,1446036382916591882,robocape_mag,25.05,4.35,13.8,10.0,0.0,0.0,0.0,10.0,0.0,0.0,0.0,10.0
1446036382954980825,472,1446036382949681043,robocape_mag,8.85,6.75,12.6,10.0,0.0,0.0,0.0,10.0,0.0,0.0,0.0,10.0
1446036382987835908,473,1446036382983025074,robocape_mag,8.85,6.75,12.6,10.0,0.0,0.0,0.0,10.0,0.0,0.0,0.0,10.0
1446036383024116992,474,1446036383019344091,robocape_mag,8.85,6.75,12.6,10.0,0.0,0.0,0.0,10.0,0.0,0.0,0.0,10.0
1446036383057264367,475,1446036383052467107,robocape_mag,8.85,6.75,12.6,10.0,0.0,0.0,0.0,10.0,0.0,0.0,0.0,10.0
1446036383087765325,476,1446036383083012104,robocape_mag,8.85,6.75,12.6,10.0,0.0,0.0,0.0,10.0,0.0,0.0,0.0,10.0
1446036383121686242,477,1446036383116755962,robocape_mag,6.15,5.85,15.3,10.0,0.0,0.0,0.0,10.0,0.0,0.0,0.0,10.0
1446036383154711742,478,1446036383149785995,robocape_mag,6.15,5.85,15.3,10.0,0.0,0.0,0.0,10.0,0.0,0.0,0.0,10.0
1446036383187945325,479,1446036383183180093,robocape_mag,6.15,5.85,15.3,10.0,0.0,0.0,0.0,10.0,0.0,0.0,0.0,10.0
1446036383221701950,480,1446036383216785907,robocape_mag,6.15,5.85,15.3,10.0,0.0,0.0,0.0,10.0,0.0,0.0,0.0,10.0
1446036383254606534,481,1446036383249871969,robocape_mag,25.65,-5.25,17.4,10.0,0.0,0.0,0.0,10.0,0.0,0.0,0.0,10.0
1446036383287679159,482,1446036383283027887,robocape_mag,25.65,-5.25,17.4,10.0,0.0,0.0,0.0,10.0,0.0,0.0,0.0,10.0
1446036383321837034,483,1446036383316596984,robocape_mag,25.65,-5.25,17.4,10.0,0.0,0.0,0.0,10.0,0.0,0.0,0.0,10.0
1446036383355896575,484,1446036383351098060,robocape_mag,25.65,-5.25,17.4,10.0,0.0,0.0,0.0,10.0,0.0,0.0,0.0,10.0
1446036383389932742,485,1446036383385060071,robocape_mag,25.65,-5.25,17.4,10.0,0.0,0.0,0.0,10.0,0.0,0.0,0.0,10.0
1446036383426718450,486,1446036383421430110,robocape_mag,16.65,6.15,8.4,10.0,0.0,0.0,0.0,10.0,0.0,0.0,0.0,10.0
1446036383454550992,487,1446036383449635982,robocape_mag,16.65,6.15,8.4,10.0,0.0,0.0,0.0,10.0,0.0,0.0,0.0,10.0
1446036383489440159,488,1446036383484536886,robocape_mag,16.65,6.15,8.4,10.0,0.0,0.0,0.0,10.0,0.0,0.0,0.0,10.0
1446036383525887534,489,1446036383521135091,robocape_mag,16.65,6.15,8.4,10.0,0.0,0.0,0.0,10.0,0.0,0.0,0.0,10.0
1446036383554583492,490,1446036383549727916,robocape_mag,16.65,6.15,8.4,10.0,0.0,0.0,0.0,10.0,0.0,0.0,0.0,10.0
1446036383591024534,491,1446036383586102008,robocape_mag,16.65,-2.25,4.8,10.0,0.0,0.0,0.0,10.0,0.0,0.0,0.0,10.0
1446036383623257992,492,1446036383618087053,robocape_mag,16.65,-2.25,4.8,10.0,0.0,0.0,0.0,10.0,0.0,0.0,0.0,10.0
1446036383654685825,493,1446036383649758100,robocape_mag,16.65,-2.25,4.8,10.0,0.0,0.0,0.0,10.0,0.0,0.0,0.0,10.0
1446036383688495034,494,1446036383683286905,robocape_mag,16.65,-2.25,4.8,10.0,0.0,0.0,0.0,10.0,0.0,0.0,0.0,10.0
1446036383722063700,495,1446036383717009067,robocape_mag,16.65,-2.25,4.8,10.0,0.0,0.0,0.0,10.0,0.0,0.0,0.0,10.0
1446036383754881409,496,1446036383750029087,robocape_mag,15.15,-3.15,5.1,10.0,0.0,0.0,0.0,10.0,0.0,0.0,0.0,10.0
1446036383790848076,497,1446036383786098003,robocape_mag,15.15,-3.15,5.1,10.0,0.0,0.0,0.0,10.0,0.0,0.0,0.0,10.0
1446036383825694326,498,1446036383816590070,robocape_mag,15.15,-3.15,5.1,10.0,0.0,0.0,0.0,10.0,0.0,0.0,0.0,10.0
1446036383859312909,499,1446036383853936910,robocape_mag,15.15,-3.15,5.1,10.0,0.0,0.0,0.0,10.0,0.0,0.0,0.0,10.0
1446036383891330367,500,1446036383886190891,robocape_mag,15.15,-3.15,5.4,10.0,0.0,0.0,0.0,10.0,0.0,0.0,0.0,10.0
1446036383925721159,501,1446036383920413970,robocape_mag,30.45,-2.85,5.4,10.0,0.0,0.0,0.0,10.0,0.0,0.0,0.0,10.0
1446036383956628951,502,1446036383949789047,robocape_mag,30.45,-2.85,5.4,10.0,0.0,0.0,0.0,10.0,0.0,0.0,0.0,10.0
1446036383989890492,503,1446036383983236074,robocape_mag,30.45,-2.85,5.4,10.0,0.0,0.0,0.0,10.0,0.0,0.0,0.0,10.0
1446036384021502117,504,1446036384016478061,robocape_mag,30.45,-2.85,5.4,10.0,0.0,0.0,0.0,10.0,0.0,0.0,0.0,10.0
1446036384055165117,505,1446036384049972057,robocape_mag,29.55,8.25,7.5,10.0,0.0,0.0,0.0,10.0,0.0,0.0,0.0,10.0
1446036384088006367,506,1446036384083298921,robocape_mag,29.55,8.25,7.5,10.0,0.0,0.0,0.0,10.0,0.0,0.0,0.0,10.0
1446036384121454701,507,1446036384116578102,robocape_mag,29.55,8.25,7.5,10.0,0.0,0.0,0.0,10.0,0.0,0.0,0.0,10.0
1446036384154976242,508,1446036384149749040,robocape_mag,29.55,8.25,7.5,10.0,0.0,0.0,0.0,10.0,0.0,0.0,0.0,10.0
1446036384188391784,509,1446036384183284044,robocape_mag,29.55,8.25,7.5,10.0,0.0,0.0,0.0,10.0,0.0,0.0,0.0,10.0
1446036384221747576,510,1446036384216685056,robocape_mag,22.05,-1.05,9.6,10.0,0.0,0.0,0.0,10.0,0.0,0.0,0.0,10.0
1446036384254949784,511,1446036384249990940,robocape_mag,22.05,-1.05,9.6,10.0,0.0,0.0,0.0,10.0,0.0,0.0,0.0,10.0
1446036384287965201,512,1446036384283113002,robocape_mag,22.05,-1.05,9.6,10.0,0.0,0.0,0.0,10.0,0.0,0.0,0.0,10.0
1446036384321663492,513,1446036384316507101,robocape_mag,22.05,-1.05,9.6,10.0,0.0,0.0,0.0,10.0,0.0,0.0,0.0,10.0
1446036384354795367,514,1446036384349929094,robocape_mag,22.05,-1.05,9.6,10.0,0.0,0.0,0.0,10.0,0.0,0.0,0.0,10.0
1446036384388454409,515,1446036384383569955,robocape_mag,24.75,2.25,-2.7,10.0,0.0,0.0,0.0,10.0,0.0,0.0,0.0,10.0
1446036384421511409,516,1446036384416562080,robocape_mag,24.75,2.25,-2.7,10.0,0.0,0.0,0.0,10.0,0.0,0.0,0.0,10.0
1446036384457387992,517,1446036384452449083,robocape_mag,24.75,2.25,-2.7,10.0,0.0,0.0,0.0,10.0,0.0,0.0,0.0,10.0
1446036384488597201,518,1446036384483272075,robocape_mag,24.75,2.25,-2.7,10.0,0.0,0.0,0.0,10.0,0.0,0.0,0.0,10.0
1446036384521797201,519,1446036384516494989,robocape_mag,24.75,2.25,-2.7,10.0,0.0,0.0,0.0,10.0,0.0,0.0,0.0,10.0
1446036384558957701,520,1446036384554055929,robocape_mag,19.65,3.15,-1.2,10.0,0.0,0.0,0.0,10.0,0.0,0.0,0.0,10.0
1446036384590565618,521,1446036384585712909,robocape_mag,19.65,3.15,-1.2,10.0,0.0,0.0,0.0,10.0,0.0,0.0,0.0,10.0
1446036384623003409,522,1446036384617957115,robocape_mag,19.65,3.15,-1.2,10.0,0.0,0.0,0.0,10.0,0.0,0.0,0.0,10.0
1446036384654546909,523,1446036384649792909,robocape_mag,19.65,3.15,-1.2,10.0,0.0,0.0,0.0,10.0,0.0,0.0,0.0,10.0
1446036384688009909,524,1446036384683216094,robocape_mag,19.65,3.15,-1.2,10.0,0.0,0.0,0.0,10.0,0.0,0.0,0.0,10.0
1446036384721887284,525,1446036384716684103,robocape_mag,28.05,14.55,10.8,10.0,0.0,0.0,0.0,10.0,0.0,0.0,0.0,10.0
1446036384757699618,526,1446036384752923011,robocape_mag,28.05,14.55,10.8,10.0,0.0,0.0,0.0,10.0,0.0,0.0,0.0,10.0
1446036384787798034,527,1446036384783082008,robocape_mag,28.05,14.55,10.8,10.0,0.0,0.0,0.0,10.0,0.0,0.0,0.0,10.0
1446036384822752493,528,1446036384816422939,robocape_mag,28.05,14.55,10.8,10.0,0.0,0.0,0.0,10.0,0.0,0.0,0.0,10.0
