%time,field.header.seq,field.header.stamp,field.header.frame_id,field.magnetic_field.x,field.magnetic_field.y,field.magnetic_field.z,field.magnetic_field_covariance0,field.magnetic_field_covariance1,field.magnetic_field_covariance2,field.magnetic_field_covariance3,field.magnetic_field_covariance4,field.magnetic_field_covariance5,field.magnetic_field_covariance6,field.magnetic_field_covariance7,field.magnetic_field_covariance8
1446037646534361507,1,1446037646235785007,robocape_mag,16.2,-8.25,-4.95,10.0,0.0,0.0,0.0,10.0,0.0,0.0,0.0,10.0
1446037646539917924,2,1446037646271158933,robocape_mag,16.2,-8.25,-4.95,10.0,0.0,0.0,0.0,10.0,0.0,0.0,0.0,10.0
1446037646553008466,3,1446037646299530982,robocape_mag,16.2,-8.25,-2.85,10.0,0.0,0.0,0.0,10.0,0.0,0.0,0.0,10.0
1446037646553076549,4,1446037646329545974,robocape_mag,9.9,-7.35,-2.85,10.0,0.0,0.0,0.0,10.0,0.0,0.0,0.0,10.0
1446037646553115924,5,1446037646371160984,robocape_mag,9.9,-7.35,-2.85,10.0,0.0,0.0,0.0,10.0,0.0,0.0,0.0,10.0
1446037646553157716,6,1446037646398571968,robocape_mag,9.9,-7.35,-2.85,10.0,0.0,0.0,0.0,10.0,0.0,0.0,0.0,10.0
1446037646574366716,7,1446037646429627895,robocape_mag,9.9,-7.35,-2.85,10.0,0.0,0.0,0.0,10.0,0.0,0.0,0.0,10.0
1446037646574706632,8,1446037646461232900,robocape_mag,5.7,-8.55,-7.05,10.0,0.0,0.0,0.0,10.0,0.0,0.0,0.0,10.0
1446037646574795591,9,1446037646494764089,robocape_mag,5.7,-8.55,-7.05,10.0,0.0,0.0,0.0,10.0,0.0,0.0,0.0,10.0
1446037646574964882,10,1446037646549154043,robocape_mag,5.7,-8.55,-7.05,10.0,0.0,0.0,0.0,10.0,0.0,0.0,0.0,10.0
1446037646591031007,11,1446037646584623098,robocape_mag,5.7,-8.55,-7.05,10.0,0.0,0.0,0.0,10.0,0.0,0.0,0.0,10.0
1446037646610979882,12,1446037646606343030,robocape_mag,5.7,-8.55,-7.05,10.0,0.0,0.0,0.0,10.0,0.0,0.0,0.0,10.0
1446037646655082008,13,1446037646645590066,robocape_mag,9.9,-12.15,-5.25,10.0,0.0,0.0,0.0,10.0,0.0,0.0,0.0,10.0
1446037646677223508,14,1446037646671941995,robocape_mag,9.9,-12.15,-5.25,10.0,0.0,0.0,0.0,10.0,0.0,0.0,0.0,10.0
1446037646698606258,15,1446037646693703889,robocape_mag,9.9,-12.15,-5.25,10.0,0.0,0.0,0.0,10.0,0.0,0.0,0.0,10.0
1446037646735496174,16,1446037646726368904,robocape_mag,9.9,-12.15,-5.25,10.0,0.0,0.0,0.0,10.0,0.0,0.0,0.0,10.0
1446037646766019799,17,1446037646761195898,robocape_mag,9.9,-12.15,-5.25,10.0,0.0,0.0,0.0,10.0,0.0,0.0,0.0,10.0
1446037646799400716,18,1446037646794476985,robocape_mag,12.3,-18.15,-3.45,10.0,0.0,0.0,0.0,10.0,0.0,0.0,0.0,10.0
1446037646832646174,19,1446037646827397108,robocape_mag,12.3,-18.15,-3.45,10.0,0.0,0.0,0.0,10.0,0.0,0.0,0.0,10.0
1446037646866101216,20,1446037646861340045,robocape_mag,12.3,-18.15,-3.45,10.0,0.0,0.0,0.0,10.0,0.0,0.0,0.0,10.0
1446037646901820633,21,1446037646896568059,robocape_mag,12.3,-18.15,-3.45,10.0,0.0,0.0,0.0,10.0,0.0,0.0,0.0,10.0
1446037646936736633,22,1446037646928347110,robocape_mag,12.3,-18.15,-3.45,10.0,0.0,0.0,0.0,10.0,0.0,0.0,0.0,10.0
1446037646967721133,23,1446037646962949991,robocape_mag,6.3,-12.75,-2.85,10.0,0.0,0.0,0.0,10.0,0.0,0.0,0.0,10.0
1446037646997563341,24,1446037646992712974,robocape_mag,6.3,-12.75,-2.85,10.0,0.0,0.0,0.0,10.0,0.0,0.0,0.0,10.0
1446037647034731799,25,1446037647026182889,robocape_mag,6.3,-12.75,-2.85,10.0,0.0,0.0,0.0,10.0,0.0,0.0,0.0,10.0
1446037647064618591,26,1446037647059664011,robocape_mag,6.3,-12.75,-2.85,10.0,0.0,0.0,0.0,10.0,0.0,0.0,0.0,10.0
1446037647097674133,27,1446037647092838048,robocape_mag,6.3,-12.75,-2.85,10.0,0.0,0.0,0.0,10.0,0.0,0.0,0.0,10.0
1446037647132574133,28,1446037647126096010,robocape_mag,8.4,-10.65,-3.75,10.0,0.0,0.0,0.0,10.0,0.0,0.0,0.0,10.0
1446037647164283758,29,1446037647159240961,robocape_mag,8.4,-10.65,-3.75,10.0,0.0,0.0,0.0,10.0,0.0,0.0,0.0,10.0
1446037647197706258,30,1446037647192822933,robocape_mag,8.4,-10.65,-3.75,10.0,0.0,0.0,0.0,10.0,0.0,0.0,0.0,10.0
1446037647230787841,31,1446037647225964069,robocape_mag,8.4,-10.65,-3.75,10.0,0.0,0.0,0.0,10.0,0.0,0.0,0.0,10.0
1446037647264237008,32,1446037647259262084,robocape_mag,8.4,-10.65,-3.15,10.0,0.0,0.0,0.0,10.0,0.0,0.0,0.0,10.0
1446037647298498591,33,1446037647292995929,robocape_mag,7.8,-12.45,-3.15,10.0,0.0,0.0,0.0,10.0,0.0,0.0,0.0,10.0
1446037647332893299,34,1446037647325794935,robocape_mag,7.8,-12.45,-3.15,10.0,0.0,0.0,0.0,10.0,0.0,0.0,0.0,10.0
1446037647364423925,35,1446037647359456062,robocape_mag,7.8,-12.45,-3.15,10.0,0.0,0.0,0.0,10.0,0.0,0.0,0.0,10.0
1446037647397941508,36,1446037647392672061,robocape_mag,7.8,-12.45,-3.15,10.0,0.0,0.0,0.0,10.0,0.0,0.0,0.0,10.0
1446037647430833883,37,1446037647425828933,robocape_mag,9.3,-13.35,-5.85,10.0,0.0,0.0,0.0,10.0,0.0,0.0,0.0,10.0
1446037647466775883,38,1446037647461905002,robocape_mag,9.3,-13.35,-5.85,10.0,0.0,0.0,0.0,10.0,0.0,0.0,0.0,10.0
1446037647499713341,39,1446037647492773056,robocape_mag,9.3,-13.35,-5.85,10.0,0.0,0.0,0.0,10.0,0.0,0.0,0.0,10.0
1446037647530977966,40,1446037647526010036,robocape_mag,9.3,-13.35,-5.85,10.0,0.0,0.0,0.0,10.0,0.0,0.0,0.0,10.0
1446037647571949216,41,1446037647566951036,robocape_mag,9.3,-13.35,-5.85,10.0,0.0,0.0,0.0,10.0,0.0,0.0,0.0,10.0
1446037647597928508,42,1446037647592736959,robocape_mag,13.8,-16.65,-1.95,10.0,0.0,0.0,0.0,10.0,0.0,0.0,0.0,10.0
1446037647633103716,43,1446037647626089096,robocape_mag,13.8,-16.65,-1.95,10.0,0.0,0.0,0.0,10.0,0.0,0.0,0.0,10.0
1446037647664577466,44,1446037647659600973,robocape_mag,13.8,-16.65,-1.95,10.0,0.0,0.0,0.0,10.0,0.0,0.0,0.0,10.0
1446037647698061508,45,1446037647692902088,robocape_mag,13.8,-16.65,-1.95,10.0,0.0,0.0,0.0,10.0,0.0,0.0,0.0,10.0
1446037647730866341,46,1446037647726075887,robocape_mag,13.8,-16.65,-1.95,10.0,0.0,0.0,0.0,10.0,0.0,0.0,0.0,10.0
1446037647765308758,47,1446037647760471105,robocape_mag,12.9,-16.35,-2.85,10.0,0.0,0.0,0.0,10.0,0.0,0.0,0.0,10.0
1446037647799077841,48,1446037647793940067,robocape_mag,12.9,-16.35,-2.85,10.0,0.0,0.0,0.0,10.0,0.0,0.0,0.0,10.0
1446037647832097341,49,1446037647827224969,robocape_mag,12.9,-16.35,-2.85,10.0,0.0,0.0,0.0,10.0,0.0,0.0,0.0,10.0
1446037647865454550,50,1446037647860569953,robocape_mag,12.9,-16.35,-2.85,10.0,0.0,0.0,0.0,10.0,0.0,0.0,0.0,10.0
1446037647899172550,51,1446037647894139051,robocape_mag,12.9,-16.35,-2.85,10.0,0.0,0.0,0.0,10.0,0.0,0.0,0.0,10.0
1446037647933080716,52,1446037647928194999,robocape_mag,8.7,-11.55,-5.25,10.0,0.0,0.0,0.0,10.0,0.0,0.0,0.0,10.0
1446037647966465591,53,1446037647961155891,robocape_mag,8.7,-11.55,-5.25,10.0,0.0,0.0,0.0,10.0,0.0,0.0,0.0,10.0
1446037647999508883,54,1446037647994443893,robocape_mag,8.7,-11.55,-5.25,10.0,0.0,0.0,0.0,10.0,0.0,0.0,0.0,10.0
1446037648034845925,55,1446037648029046058,robocape_mag,8.7,-11.55,-5.25,10.0,0.0,0.0,0.0,10.0,0.0,0.0,0.0,10.0
1446037648070359258,56,1446037648062290906,robocape_mag,8.7,-13.35,-4.05,10.0,0.0,0.0,0.0,10.0,0.0,0.0,0.0,10.0
1446037648103126175,57,1446037648095345973,robocape_mag,10.5,-13.35,-4.05,10.0,0.0,0.0,0.0,10.0,0.0,0.0,0.0,10.0
1446037648138333342,58,1446037648129793882,robocape_mag,10.5,-13.35,-4.05,10.0,0.0,0.0,0.0,10.0,0.0,0.0,0.0,10.0
1446037648167142758,59,1446037648161227941,robocape_mag,10.5,-13.35,-4.05,10.0,0.0,0.0,0.0,10.0,0.0,0.0,0.0,10.0
1446037648199921842,60,1446037648195153951,robocape_mag,10.5,-13.35,-4.05,10.0,0.0,0.0,0.0,10.0,0.0,0.0,0.0,10.0
1446037648238581675,61,1446037648229196071,robocape_mag,7.2,-14.25,-3.15,10.0,0.0,0.0,0.0,10.0,0.0,0.0,0.0,10.0
1446037648270437425,62,1446037648262810945,robocape_mag,7.2,-14.25,-3.15,10.0,0.0,0.0,0.0,10.0,0.0,0.0,0.0,10.0
1446037648301235675,63,1446037648295288085,robocape_mag,7.2,-14.25,-3.15,10.0,0.0,0.0,0.0,10.0,0.0,0.0,0.0,10.0
1446037648333843008,64,1446037648328428983,robocape_mag,7.2,-14.25,-3.15,10.0,0.0,0.0,0.0,10.0,0.0,0.0,0.0,10.0
1446037648368589217,65,1446037648363367080,robocape_mag,7.2,-14.25,-3.15,10.0,0.0,0.0,0.0,10.0,0.0,0.0,0.0,10.0
1446037648400207175,66,1446037648394968986,robocape_mag,11.7,-15.15,-2.25,10.0,0.0,0.0,0.0,10.0,0.0,0.0,0.0,10.0
1446037648435348925,67,1446037648429946899,robocape_mag,11.7,-15.15,-2.25,10.0,0.0,0.0,0.0,10.0,0.0,0.0,0.0,10.0
1446037648467912467,68,1446037648462845087,robocape_mag,11.7,-15.15,-2.25,10.0,0.0,0.0,0.0,10.0,0.0,0.0,0.0,10.0
1446037648500395633,69,1446037648495182037,robocape_mag,11.7,-15.15,-2.25,10.0,0.0,0.0,0.0,10.0,0.0,0.0,0.0,10.0
1446037648541871300,70,1446037648529118061,robocape_mag,11.7,-15.15,-2.25,10.0,0.0,0.0,0.0,10.0,0.0,0.0,0.0,10.0
1446037648567954175,71,1446037648562853097,robocape_mag,13.5,-17.55,-2.85,10.0,0.0,0.0,0.0,10.0,0.0,0.0,0.0,10.0
1446037648600654925,72,1446037648595772027,robocape_mag,13.5,-17.55,-2.85,10.0,0.0,0.0,0.0,10.0,0.0,0.0,0.0,10.0
1446037648637327758,73,1446037648628954887,robocape_mag,13.5,-17.55,-2.85,10.0,0.0,0.0,0.0,10.0,0.0,0.0,0.0,10.0
1446037648666522508,74,1446037648661350965,robocape_mag,13.5,-17.55,-2.85,10.0,0.0,0.0,0.0,10.0,0.0,0.0,0.0,10.0
1446037648700899717,75,1446037648695792913,robocape_mag,13.5,-17.55,-2.85,10.0,0.0,0.0,0.0,10.0,0.0,0.0,0.0,10.0
1446037648734142508,76,1446037648729198932,robocape_mag,10.8,-16.05,-0.75,10.0,0.0,0.0,0.0,10.0,0.0,0.0,0.0,10.0
1446037648768163509,77,1446037648763190984,robocape_mag,10.8,-16.05,-0.75,10.0,0.0,0.0,0.0,10.0,0.0,0.0,0.0,10.0
1446037648798602259,78,1446037648793621063,robocape_mag,10.8,-16.05,-0.75,10.0,0.0,0.0,0.0,10.0,0.0,0.0,0.0,10.0
1446037648832372759,79,1446037648827565908,robocape_mag,10.8,-16.05,-0.75,10.0,0.0,0.0,0.0,10.0,0.0,0.0,0.0,10.0
1446037648869073009,80,1446037648860220909,robocape_mag,10.8,-18.45,-1.95,10.0,0.0,0.0,0.0,10.0,0.0,0.0,0.0,10.0
1446037648898348634,81,1446037648893520116,robocape_mag,12.6,-18.45,-1.95,10.0,0.0,0.0,0.0,10.0,0.0,0.0,0.0,10.0
1446037648931947092,82,1446037648927131891,robocape_mag,12.6,-18.45,-1.95,10.0,0.0,0.0,0.0,10.0,0.0,0.0,0.0,10.0
1446037648965120550,83,1446037648959955930,robocape_mag,12.6,-18.45,-1.95,10.0,0.0,0.0,0.0,10.0,0.0,0.0,0.0,10.0
1446037648997835550,84,1446037648992887973,robocape_mag,12.6,-18.45,-1.95,10.0,0.0,0.0,0.0,10.0,0.0,0.0,0.0,10.0
1446037649031036259,85,1446037649026197910,robocape_mag,10.2,-14.85,-3.15,10.0,0.0,0.0,0.0,10.0,0.0,0.0,0.0,10.0
1446037649064679842,86,1446037649059828996,robocape_mag,10.2,-14.85,-3.15,10.0,0.0,0.0,0.0,10.0,0.0,0.0,0.0,10.0
1446037649097676800,87,1446037649092742919,robocape_mag,10.2,-14.85,-3.15,10.0,0.0,0.0,0.0,10.0,0.0,0.0,0.0,10.0
1446037649130734425,88,1446037649125869035,robocape_mag,10.2,-14.85,-3.15,10.0,0.0,0.0,0.0,10.0,0.0,0.0,0.0,10.0
1446037649164323717,89,1446037649159544944,robocape_mag,10.2,-14.85,-3.15,10.0,0.0,0.0,0.0,10.0,0.0,0.0,0.0,10.0
1446037649197676467,90,1446037649192806959,robocape_mag,8.4,-16.05,-2.55,10.0,0.0,0.0,0.0,10.0,0.0,0.0,0.0,10.0
1446037649230956967,91,1446037649226212978,robocape_mag,8.4,-16.05,-2.55,10.0,0.0,0.0,0.0,10.0,0.0,0.0,0.0,10.0
1446037649264440800,92,1446037649259644031,robocape_mag,8.4,-16.05,-2.55,10.0,0.0,0.0,0.0,10.0,0.0,0.0,0.0,10.0
1446037649297729592,93,1446037649292869091,robocape_mag,8.4,-16.05,-2.55,10.0,0.0,0.0,0.0,10.0,0.0,0.0,0.0,10.0
1446037649331644009,94,1446037649326536893,robocape_mag,8.4,-16.05,-2.55,10.0,0.0,0.0,0.0,10.0,0.0,0.0,0.0,10.0
1446037649364768717,95,1446037649359895944,robocape_mag,12.0,-17.85,-3.75,10.0,0.0,0.0,0.0,10.0,0.0,0.0,0.0,10.0
1446037649400864384,96,1446037649392709970,robocape_mag,12.0,-17.85,-3.75,10.0,0.0,0.0,0.0,10.0,0.0,0.0,0.0,10.0
1446037649431103384,97,1446037649426173925,robocape_mag,12.0,-17.85,-3.75,10.0,0.0,0.0,0.0,10.0,0.0,0.0,0.0,10.0
1446037649464517551,98,1446037649459490060,robocape_mag,12.0,-17.85,-3.75,10.0,0.0,0.0,0.0,10.0,0.0,0.0,0.0,10.0
1446037649497516634,99,1446037649492594957,robocape_mag,12.0,-17.85,-3.75,10.0,0.0,0.0,0.0,10.0,0.0,0.0,0.0,10.0
1446037649531021634,100,1446037649526201009,robocape_mag,4.2,-13.65,-3.75,10.0,0.0,0.0,0.0,10.0,0.0,0.0,0.0,10.0
1446037649567386801,101,1446037649560405015,robocape_mag,4.2,-13.65,-3.75,10.0,0.0,0.0,0.0,10.0,0.0,0.0,0.0,10.0
1446037649598360551,102,1446037649592760086,robocape_mag,4.2,-13.65,-3.75,10.0,0.0,0.0,0.0,10.0,0.0,0.0,0.0,10.0
1446037649631478926,103,1446037649626030921,robocape_mag,4.2,-13.65,-3.75,10.0,0.0,0.0,0.0,10.0,0.0,0.0,0.0,10.0
1446037649664627134,104,1446037649659290075,robocape_mag,4.2,-13.65,-1.95,10.0,0.0,0.0,0.0,10.0,0.0,0.0,0.0,10.0
1446037649697579801,105,1446037649692470073,robocape_mag,9.6,-17.85,-1.95,10.0,0.0,0.0,0.0,10.0,0.0,0.0,0.0,10.0
1446037649731147051,106,1446037649726144075,robocape_mag,9.6,-17.85,-1.95,10.0,0.0,0.0,0.0,10.0,0.0,0.0,0.0,10.0
1446037649764638301,107,1446037649759435892,robocape_mag,9.6,-17.85,-1.95,10.0,0.0,0.0,0.0,10.0,0.0,0.0,0.0,10.0
1446037649797594134,108,1446037649792519092,robocape_mag,9.6,-17.85,-1.95,10.0,0.0,0.0,0.0,10.0,0.0,0.0,0.0,10.0
1446037649831745717,109,1446037649826694965,robocape_mag,6.3,-13.95,-2.85,10.0,0.0,0.0,0.0,10.0,0.0,0.0,0.0,10.0
1446037649864766676,110,1446037649859486103,robocape_mag,6.3,-13.95,-2.85,10.0,0.0,0.0,0.0,10.0,0.0,0.0,0.0,10.0
1446037649897624592,111,1446037649892683029,robocape_mag,6.3,-13.95,-2.85,10.0,0.0,0.0,0.0,10.0,0.0,0.0,0.0,10.0
1446037649931028467,112,1446037649926059961,robocape_mag,6.3,-13.95,-2.85,10.0,0.0,0.0,0.0,10.0,0.0,0.0,0.0,10.0
1446037649964579092,113,1446037649959394931,robocape_mag,6.3,-13.95,-2.85,10.0,0.0,0.0,0.0,10.0,0.0,0.0,0.0,10.0
1446037649997425259,114,1446037649992588996,robocape_mag,12.0,-16.65,-3.15,10.0,0.0,0.0,0.0,10.0,0.0,0.0,0.0,10.0
1446037650030952134,115,1446037650026061058,robocape_mag,12.0,-16.65,-3.15,10.0,0.0,0.0,0.0,10.0,0.0,0.0,0.0,10.0
1446037650064559134,116,1446037650059319019,robocape_mag,12.0,-16.65,-3.15,10.0,0.0,0.0,0.0,10.0,0.0,0.0,0.0,10.0
1446037650098753926,117,1446037650092745065,robocape_mag,12.0,-16.65,-3.15,10.0,0.0,0.0,0.0,10.0,0.0,0.0,0.0,10.0
1446037650132002176,118,1446037650127224922,robocape_mag,12.0,-16.65,-3.15,10.0,0.0,0.0,0.0,10.0,0.0,0.0,0.0,10.0
1446037650165100676,119,1446037650160141944,robocape_mag,9.0,-15.45,-3.15,10.0,0.0,0.0,0.0,10.0,0.0,0.0,0.0,10.0
1446037650198811009,120,1446037650193955898,robocape_mag,9.0,-15.45,-3.15,10.0,0.0,0.0,0.0,10.0,0.0,0.0,0.0,10.0
1446037650231091718,121,1446037650226325035,robocape_mag,9.0,-15.45,-3.15,10.0,0.0,0.0,0.0,10.0,0.0,0.0,0.0,10.0
1446037650266354009,122,1446037650261189937,robocape_mag,9.0,-15.45,-3.15,10.0,0.0,0.0,0.0,10.0,0.0,0.0,0.0,10.0
1446037650297442843,123,1446037650292537927,robocape_mag,9.0,-15.45,-3.15,10.0,0.0,0.0,0.0,10.0,0.0,0.0,0.0,10.0
1446037650331022509,124,1446037650326214075,robocape_mag,8.4,-13.05,-3.15,10.0,0.0,0.0,0.0,10.0,0.0,0.0,0.0,10.0
1446037650369159676,125,1446037650359570026,robocape_mag,8.4,-13.05,-3.15,10.0,0.0,0.0,0.0,10.0,0.0,0.0,0.0,10.0
1446037650397646093,126,1446037650392659902,robocape_mag,8.4,-13.05,-3.15,10.0,0.0,0.0,0.0,10.0,0.0,0.0,0.0,10.0
1446037650430630509,127,1446037650425873994,robocape_mag,8.4,-13.05,-3.15,10.0,0.0,0.0,0.0,10.0,0.0,0.0,0.0,10.0
1446037650468896676,128,1446037650459670066,robocape_mag,8.4,-13.05,-2.55,10.0,0.0,0.0,0.0,10.0,0.0,0.0,0.0,10.0
1446037650497559759,129,1446037650492547035,robocape_mag,8.4,-15.45,-2.55,10.0,0.0,0.0,0.0,10.0,0.0,0.0,0.0,10.0
1446037650531036551,130,1446037650526067972,robocape_mag,8.4,-15.45,-2.55,10.0,0.0,0.0,0.0,10.0,0.0,0.0,0.0,10.0
1446037650566077426,131,1446037650560961961,robocape_mag,8.4,-15.45,-2.55,10.0,0.0,0.0,0.0,10.0,0.0,0.0,0.0,10.0
1446037650597615426,132,1446037650592601060,robocape_mag,8.4,-15.45,-2.55,10.0,0.0,0.0,0.0,10.0,0.0,0.0,0.0,10.0
1446037650631148718,133,1446037650626370906,robocape_mag,4.8,-14.25,-3.75,10.0,0.0,0.0,0.0,10.0,0.0,0.0,0.0,10.0
1446037650668069801,134,1446037650660922050,robocape_mag,4.8,-14.25,-3.75,10.0,0.0,0.0,0.0,10.0,0.0,0.0,0.0,10.0
1446037650699149051,135,1446037650692708969,robocape_mag,4.8,-14.25,-3.75,10.0,0.0,0.0,0.0,10.0,0.0,0.0,0.0,10.0
1446037650730785051,136,1446037650726005077,robocape_mag,4.8,-14.25,-3.75,10.0,0.0,0.0,0.0,10.0,0.0,0.0,0.0,10.0
1446037650765617134,137,1446037650759846925,robocape_mag,4.8,-14.25,-3.75,10.0,0.0,0.0,0.0,10.0,0.0,0.0,0.0,10.0
1446037650799358093,138,1446037650792500972,robocape_mag,12.3,-18.15,-1.65,10.0,0.0,0.0,0.0,10.0,0.0,0.0,0.0,10.0
1446037650831178009,139,1446037650826028108,robocape_mag,12.3,-18.15,-1.65,10.0,0.0,0.0,0.0,10.0,0.0,0.0,0.0,10.0
1446037650864960510,140,1446037650859734058,robocape_mag,12.3,-18.15,-1.65,10.0,0.0,0.0,0.0,10.0,0.0,0.0,0.0,10.0
1446037650898452801,141,1446037650893155097,robocape_mag,12.3,-18.15,-1.65,10.0,0.0,0.0,0.0,10.0,0.0,0.0,0.0,10.0
1446037650930904968,142,1446037650925867080,robocape_mag,12.3,-18.15,-1.65,10.0,0.0,0.0,0.0,10.0,0.0,0.0,0.0,10.0
1446037650966653885,143,1446037650959599018,robocape_mag,7.2,-14.25,-1.95,10.0,0.0,0.0,0.0,10.0,0.0,0.0,0.0,10.0
1446037650997822843,144,1446037650992502927,robocape_mag,7.2,-14.25,-1.95,10.0,0.0,0.0,0.0,10.0,0.0,0.0,0.0,10.0
1446037651031212468,145,1446037651026204109,robocape_mag,7.2,-14.25,-1.95,10.0,0.0,0.0,0.0,10.0,0.0,0.0,0.0,10.0
1446037651064726176,146,1446037651059535026,robocape_mag,7.2,-14.25,-1.95,10.0,0.0,0.0,0.0,10.0,0.0,0.0,0.0,10.0
1446037651097505343,147,1446037651092611074,robocape_mag,7.2,-14.25,-1.95,10.0,0.0,0.0,0.0,10.0,0.0,0.0,0.0,10.0
1446037651130998510,148,1446037651126136064,robocape_mag,6.6,-13.65,-3.15,10.0,0.0,0.0,0.0,10.0,0.0,0.0,0.0,10.0
1446037651164622135,149,1446037651159820079,robocape_mag,6.6,-13.65,-3.15,10.0,0.0,0.0,0.0,10.0,0.0,0.0,0.0,10.0
1446037651197608218,150,1446037651192814111,robocape_mag,6.6,-13.65,-3.15,10.0,0.0,0.0,0.0,10.0,0.0,0.0,0.0,10.0
1446037651231175468,151,1446037651226299047,robocape_mag,6.6,-13.65,-3.15,10.0,0.0,0.0,0.0,10.0,0.0,0.0,0.0,10.0
1446037651265680093,152,1446037651260854959,robocape_mag,6.6,-13.65,-1.05,10.0,0.0,0.0,0.0,10.0,0.0,0.0,0.0,10.0
1446037651300241635,153,1446037651293777942,robocape_mag,11.7,-17.55,-1.05,10.0,0.0,0.0,0.0,10.0,0.0,0.0,0.0,10.0
1446037651332175885,154,1446037651327276945,robocape_mag,11.7,-17.55,-1.05,10.0,0.0,0.0,0.0,10.0,0.0,0.0,0.0,10.0
1446037651366732843,155,1446037651361152887,robocape_mag,11.7,-17.55,-1.05,10.0,0.0,0.0,0.0,10.0,0.0,0.0,0.0,10.0
1446037651402943760,156,1446037651394292116,robocape_mag,11.7,-17.55,-1.05,10.0,0.0,0.0,0.0,10.0,0.0,0.0,0.0,10.0
1446037651432956635,157,1446037651427844047,robocape_mag,9.0,-14.85,-3.15,10.0,0.0,0.0,0.0,10.0,0.0,0.0,0.0,10.0
1446037651466225593,158,1446037651461159944,robocape_mag,9.0,-14.85,-3.15,10.0,0.0,0.0,0.0,10.0,0.0,0.0,0.0,10.0
1446037651502106593,159,1446037651496108055,robocape_mag,9.0,-14.85,-3.15,10.0,0.0,0.0,0.0,10.0,0.0,0.0,0.0,10.0
1446037651546925718,160,1446037651529175996,robocape_mag,9.0,-14.85,-3.15,10.0,0.0,0.0,0.0,10.0,0.0,0.0,0.0,10.0
1446037651568985677,161,1446037651561961889,robocape_mag,9.0,-14.85,-3.15,10.0,0.0,0.0,0.0,10.0,0.0,0.0,0.0,10.0
1446037651603985427,162,1446037651596415042,robocape_mag,6.3,-15.75,-2.85,10.0,0.0,0.0,0.0,10.0,0.0,0.0,0.0,10.0
1446037651631809802,163,1446037651626945018,robocape_mag,6.3,-15.75,-2.85,10.0,0.0,0.0,0.0,10.0,0.0,0.0,0.0,10.0
1446037651673930927,164,1446037651664311885,robocape_mag,6.3,-15.75,-2.85,10.0,0.0,0.0,0.0,10.0,0.0,0.0,0.0,10.0
1446037651705681468,165,1446037651695823907,robocape_mag,6.3,-15.75,-2.85,10.0,0.0,0.0,0.0,10.0,0.0,0.0,0.0,10.0
1446037651738903635,166,1446037651729140043,robocape_mag,6.3,-15.75,-2.85,10.0,0.0,0.0,0.0,10.0,0.0,0.0,0.0,10.0
1446037651772187093,167,1446037651763828992,robocape_mag,9.6,-16.65,-2.55,10.0,0.0,0.0,0.0,10.0,0.0,0.0,0.0,10.0
1446037651805025802,168,1446037651796015977,robocape_mag,9.6,-16.65,-2.55,10.0,0.0,0.0,0.0,10.0,0.0,0.0,0.0,10.0
1446037651834793593,169,1446037651829687118,robocape_mag,9.6,-16.65,-2.55,10.0,0.0,0.0,0.0,10.0,0.0,0.0,0.0,10.0
1446037651873480677,170,1446037651864224910,robocape_mag,9.6,-16.65,-2.55,10.0,0.0,0.0,0.0,10.0,0.0,0.0,0.0,10.0
1446037651901907885,171,1446037651896481037,robocape_mag,9.6,-16.65,-2.55,10.0,0.0,0.0,0.0,10.0,0.0,0.0,0.0,10.0
1446037651935674802,172,1446037651930533885,robocape_mag,10.5,-14.55,-1.05,10.0,0.0,0.0,0.0,10.0,0.0,0.0,0.0,10.0
1446037651970422177,173,1446037651965219020,robocape_mag,10.5,-14.55,-1.05,10.0,0.0,0.0,0.0,10.0,0.0,0.0,0.0,10.0
1446037652000288385,174,1446037651995246887,robocape_mag,10.5,-14.55,-1.05,10.0,0.0,0.0,0.0,10.0,0.0,0.0,0.0,10.0
1446037652034730802,175,1446037652029828071,robocape_mag,10.5,-14.55,-1.05,10.0,0.0,0.0,0.0,10.0,0.0,0.0,0.0,10.0
1446037652067928052,176,1446037652062767982,robocape_mag,10.5,-17.55,-3.45,10.0,0.0,0.0,0.0,10.0,0.0,0.0,0.0,10.0
1446037652100482885,177,1446037652095710992,robocape_mag,10.5,-17.55,-3.45,10.0,0.0,0.0,0.0,10.0,0.0,0.0,0.0,10.0
1446037652133513802,178,1446037652128704071,robocape_mag,10.5,-17.55,-3.45,10.0,0.0,0.0,0.0,10.0,0.0,0.0,0.0,10.0
1446037652166521718,179,1446037652161475896,robocape_mag,10.5,-17.55,-3.45,10.0,0.0,0.0,0.0,10.0,0.0,0.0,0.0,10.0
1446037652200234510,180,1446037652195471048,robocape_mag,10.5,-17.55,-3.45,10.0,0.0,0.0,0.0,10.0,0.0,0.0,0.0,10.0
1446037652233410802,181,1446037652228617906,robocape_mag,11.4,-14.85,-4.95,10.0,0.0,0.0,0.0,10.0,0.0,0.0,0.0,10.0
1446037652267755385,182,1446037652262886047,robocape_mag,11.4,-14.85,-4.95,10.0,0.0,0.0,0.0,10.0,0.0,0.0,0.0,10.0
1446037652299599177,183,1446037652294805049,robocape_mag,11.4,-14.85,-4.95,10.0,0.0,0.0,0.0,10.0,0.0,0.0,0.0,10.0
1446037652332610969,184,1446037652327826976,robocape_mag,11.4,-14.85,-4.95,10.0,0.0,0.0,0.0,10.0,0.0,0.0,0.0,10.0
1446037652365757760,185,1446037652360374927,robocape_mag,11.4,-14.85,-4.95,10.0,0.0,0.0,0.0,10.0,0.0,0.0,0.0,10.0
1446037652399086802,186,1446037652394066095,robocape_mag,7.8,-15.45,-1.35,10.0,0.0,0.0,0.0,10.0,0.0,0.0,0.0,10.0
1446037652433015177,187,1446037652428117036,robocape_mag,7.8,-15.45,-1.35,10.0,0.0,0.0,0.0,10.0,0.0,0.0,0.0,10.0
1446037652465695260,188,1446037652460057020,robocape_mag,7.8,-15.45,-1.35,10.0,0.0,0.0,0.0,10.0,0.0,0.0,0.0,10.0
1446037652497674135,189,1446037652492862939,robocape_mag,7.8,-15.45,-1.35,10.0,0.0,0.0,0.0,10.0,0.0,0.0,0.0,10.0
1446037652531603344,190,1446037652526501893,robocape_mag,7.8,-15.45,-1.35,10.0,0.0,0.0,0.0,10.0,0.0,0.0,0.0,10.0
1446037652565971385,191,1446037652560203075,robocape_mag,0.0,-35.85,6.45,10.0,0.0,0.0,0.0,10.0,0.0,0.0,0.0,10.0
1446037652597746302,192,1446037652592828989,robocape_mag,0.0,-35.85,6.45,10.0,0.0,0.0,0.0,10.0,0.0,0.0,0.0,10.0
1446037652631197135,193,1446037652626061916,robocape_mag,0.0,-35.85,6.45,10.0,0.0,0.0,0.0,10.0,0.0,0.0,0.0,10.0
1446037652665113177,194,1446037652659712076,robocape_mag,0.0,-35.85,6.45,10.0,0.0,0.0,0.0,10.0,0.0,0.0,0.0,10.0
1446037652697390385,195,1446037652692558050,robocape_mag,0.0,-35.85,6.45,10.0,0.0,0.0,0.0,10.0,0.0,0.0,0.0,10.0
1446037652731359927,196,1446037652726135015,robocape_mag,25.8,0.15,11.25,10.0,0.0,0.0,0.0,10.0,0.0,0.0,0.0,10.0
1446037652770347510,197,1446037652759623050,robocape_mag,25.8,0.15,11.25,10.0,0.0,0.0,0.0,10.0,0.0,0.0,0.0,10.0
1446037652797871885,198,1446037652793102979,robocape_mag,25.8,0.15,11.25,10.0,0.0,0.0,0.0,10.0,0.0,0.0,0.0,10.0
1446037652835169010,199,1446037652825967073,robocape_mag,25.8,0.15,11.25,10.0,0.0,0.0,0.0,10.0,0.0,0.0,0.0,10.0
1446037652868276844,200,1446037652859483957,robocape_mag,25.8,0.15,-0.15,10.0,0.0,0.0,0.0,10.0,0.0,0.0,0.0,10.0
1446037652897295135,201,1446037652892555952,robocape_mag,31.2,-1.65,-0.15,10.0,0.0,0.0,0.0,10.0,0.0,0.0,0.0,10.0
1446037652933767511,202,1446037652926351070,robocape_mag,31.2,-1.65,-0.15,10.0,0.0,0.0,0.0,10.0,0.0,0.0,0.0,10.0
1446037652964711094,203,1446037652959573984,robocape_mag,31.2,-1.65,-0.15,10.0,0.0,0.0,0.0,10.0,0.0,0.0,0.0,10.0
1446037652997630469,204,1446037652992765903,robocape_mag,31.2,-1.65,-0.15,10.0,0.0,0.0,0.0,10.0,0.0,0.0,0.0,10.0
1446037653031854802,205,1446037653025969982,robocape_mag,-15.6,9.15,11.25,10.0,0.0,0.0,0.0,10.0,0.0,0.0,0.0,10.0
1446037653066409344,206,1446037653059571981,robocape_mag,-15.6,9.15,11.25,10.0,0.0,0.0,0.0,10.0,0.0,0.0,0.0,10.0
1446037653097877011,207,1446037653092670917,robocape_mag,-15.6,9.15,11.25,10.0,0.0,0.0,0.0,10.0,0.0,0.0,0.0,10.0
1446037653133022677,208,1446037653125910997,robocape_mag,-15.6,9.15,11.25,10.0,0.0,0.0,0.0,10.0,0.0,0.0,0.0,10.0
1446037653164930552,209,1446037653159727096,robocape_mag,-15.6,9.15,11.25,10.0,0.0,0.0,0.0,10.0,0.0,0.0,0.0,10.0
1446037653197670136,210,1446037653192728996,robocape_mag,-14.7,-9.75,10.35,10.0,0.0,0.0,0.0,10.0,0.0,0.0,0.0,10.0
1446037653230878011,211,1446037653225955963,robocape_mag,-14.7,-9.75,10.35,10.0,0.0,0.0,0.0,10.0,0.0,0.0,0.0,10.0
1446037653265153552,212,1446037653259767055,robocape_mag,-14.7,-9.75,10.35,10.0,0.0,0.0,0.0,10.0,0.0,0.0,0.0,10.0
1446037653297572886,213,1446037653292542934,robocape_mag,-14.7,-9.75,10.35,10.0,0.0,0.0,0.0,10.0,0.0,0.0,0.0,10.0
1446037653337814344,214,1446037653328782081,robocape_mag,-14.7,-9.75,10.35,10.0,0.0,0.0,0.0,10.0,0.0,0.0,0.0,10.0
1446037653371363136,215,1446037653362452983,robocape_mag,17.1,-6.75,9.15,10.0,0.0,0.0,0.0,10.0,0.0,0.0,0.0,10.0
1446037653399915594,216,1446037653394804000,robocape_mag,17.1,-6.75,9.15,10.0,0.0,0.0,0.0,10.0,0.0,0.0,0.0,10.0
1446037653433770802,217,1446037653428565979,robocape_mag,17.1,-6.75,9.15,10.0,0.0,0.0,0.0,10.0,0.0,0.0,0.0,10.0
1446037653465778552,218,1446037653460947036,robocape_mag,17.1,-6.75,9.15,10.0,0.0,0.0,0.0,10.0,0.0,0.0,0.0,10.0
1446037653498577594,219,1446037653493323087,robocape_mag,17.1,-6.75,9.15,10.0,0.0,0.0,0.0,10.0,0.0,0.0,0.0,10.0
1446037653532338177,220,1446037653527483940,robocape_mag,22.5,9.45,-58.65,10.0,0.0,0.0,0.0,10.0,0.0,0.0,0.0,10.0
1446037653568169302,221,1446037653562625885,robocape_mag,22.5,9.45,-58.65,10.0,0.0,0.0,0.0,10.0,0.0,0.0,0.0,10.0
1446037653601904761,222,1446037653593199968,robocape_mag,22.5,9.45,-58.65,10.0,0.0,0.0,0.0,10.0,0.0,0.0,0.0,10.0
1446037653631235636,223,1446037653626425981,robocape_mag,22.5,9.45,-58.65,10.0,0.0,0.0,0.0,10.0,0.0,0.0,0.0,10.0
1446037653664634344,224,1446037653659735918,robocape_mag,22.5,9.45,-43.35,10.0,0.0,0.0,0.0,10.0,0.0,0.0,0.0,10.0
1446037653697778886,225,1446037653692941904,robocape_mag,-40.2,27.75,-43.35,10.0,0.0,0.0,0.0,10.0,0.0,0.0,0.0,10.0
1446037653730884678,226,1446037653726100921,robocape_mag,-40.2,27.75,-43.35,10.0,0.0,0.0,0.0,10.0,0.0,0.0,0.0,10.0
1446037653768224344,227,1446037653759612083,robocape_mag,-40.2,27.75,-43.35,10.0,0.0,0.0,0.0,10.0,0.0,0.0,0.0,10.0
1446037653797390844,228,1446037653792598009,robocape_mag,-40.2,27.75,-43.35,10.0,0.0,0.0,0.0,10.0,0.0,0.0,0.0,10.0
1446037653830942428,229,1446037653826126098,robocape_mag,-37.5,21.45,-12.45,10.0,0.0,0.0,0.0,10.0,0.0,0.0,0.0,10.0
1446037653864884886,230,1446037653859821081,robocape_mag,-37.5,21.45,-12.45,10.0,0.0,0.0,0.0,10.0,0.0,0.0,0.0,10.0
1446037653897341719,231,1446037653892566919,robocape_mag,-37.5,21.45,-12.45,10.0,0.0,0.0,0.0,10.0,0.0,0.0,0.0,10.0
1446037653931675844,232,1446037653926528930,robocape_mag,-37.5,21.45,-12.45,10.0,0.0,0.0,0.0,10.0,0.0,0.0,0.0,10.0
1446037653964440469,233,1446037653959496021,robocape_mag,-37.5,21.45,-12.45,10.0,0.0,0.0,0.0,10.0,0.0,0.0,0.0,10.0
1446037653997586386,234,1446037653992757081,robocape_mag,-8.7,-9.15,2.55,10.0,0.0,0.0,0.0,10.0,0.0,0.0,0.0,10.0
1446037654031051678,235,1446037654026211977,robocape_mag,-8.7,-9.15,2.55,10.0,0.0,0.0,0.0,10.0,0.0,0.0,0.0,10.0
1446037654064457844,236,1446037654059451103,robocape_mag,-8.7,-9.15,2.55,10.0,0.0,0.0,0.0,10.0,0.0,0.0,0.0,10.0
1446037654097582261,237,1446037654092778921,robocape_mag,-8.7,-9.15,2.55,10.0,0.0,0.0,0.0,10.0,0.0,0.0,0.0,10.0
1446037654131117469,238,1446037654126343011,robocape_mag,-8.7,-9.15,2.55,10.0,0.0,0.0,0.0,10.0,0.0,0.0,0.0,10.0
1446037654165634219,239,1446037654160672903,robocape_mag,-14.7,-12.75,16.95,10.0,0.0,0.0,0.0,10.0,0.0,0.0,0.0,10.0
1446037654197489469,240,1446037654192723035,robocape_mag,-14.7,-12.75,16.95,10.0,0.0,0.0,0.0,10.0,0.0,0.0,0.0,10.0
1446037654231018428,241,1446037654226078987,robocape_mag,-14.7,-12.75,16.95,10.0,0.0,0.0,0.0,10.0,0.0,0.0,0.0,10.0
1446037654265179636,242,1446037654259505033,robocape_mag,-14.7,-12.75,16.95,10.0,0.0,0.0,0.0,10.0,0.0,0.0,0.0,10.0
1446037654299559719,243,1446037654292793989,robocape_mag,-14.7,-12.75,16.95,10.0,0.0,0.0,0.0,10.0,0.0,0.0,0.0,10.0
1446037654332781595,244,1446037654325903892,robocape_mag,-14.4,4.95,7.05,10.0,0.0,0.0,0.0,10.0,0.0,0.0,0.0,10.0
1446037654364405970,245,1446037654359282970,robocape_mag,-14.4,4.95,7.05,10.0,0.0,0.0,0.0,10.0,0.0,0.0,0.0,10.0
1446037654400917678,246,1446037654392594099,robocape_mag,-14.4,4.95,7.05,10.0,0.0,0.0,0.0,10.0,0.0,0.0,0.0,10.0
1446037654431475386,247,1446037654426295042,robocape_mag,-14.4,4.95,7.05,10.0,0.0,0.0,0.0,10.0,0.0,0.0,0.0,10.0
1446037654466459470,248,1446037654459378957,robocape_mag,-14.4,4.95,7.05,10.0,0.0,0.0,0.0,10.0,0.0,0.0,0.0,10.0
1446037654497684720,249,1446037654492522001,robocape_mag,-13.8,1.95,1.05,10.0,0.0,0.0,0.0,10.0,0.0,0.0,0.0,10.0
1446037654533381220,250,1446037654526288986,robocape_mag,-13.8,1.95,1.05,10.0,0.0,0.0,0.0,10.0,0.0,0.0,0.0,10.0
1446037654565385053,251,1446037654560343980,robocape_mag,-13.8,1.95,1.05,10.0,0.0,0.0,0.0,10.0,0.0,0.0,0.0,10.0
1446037654597642220,252,1446037654592747926,robocape_mag,-13.8,1.95,1.05,10.0,0.0,0.0,0.0,10.0,0.0,0.0,0.0,10.0
1446037654631032011,253,1446037654626190900,robocape_mag,-15.3,2.85,0.15,10.0,0.0,0.0,0.0,10.0,0.0,0.0,0.0,10.0
1446037654664814970,254,1446037654659709930,robocape_mag,-15.3,2.85,0.15,10.0,0.0,0.0,0.0,10.0,0.0,0.0,0.0,10.0
1446037654697395803,255,1446037654692559003,robocape_mag,-15.3,2.85,0.15,10.0,0.0,0.0,0.0,10.0,0.0,0.0,0.0,10.0
1446037654730932303,256,1446037654726046085,robocape_mag,-15.3,2.85,0.15,10.0,0.0,0.0,0.0,10.0,0.0,0.0,0.0,10.0
1446037654765855553,257,1446037654759731054,robocape_mag,-15.3,2.85,0.15,10.0,0.0,0.0,0.0,10.0,0.0,0.0,0.0,10.0
1446037654800238886,258,1446037654793853998,robocape_mag,-17.7,4.05,0.75,10.0,0.0,0.0,0.0,10.0,0.0,0.0,0.0,10.0
1446037654832099386,259,1446037654827178955,robocape_mag,-17.7,4.05,0.75,10.0,0.0,0.0,0.0,10.0,0.0,0.0,0.0,10.0
1446037654865859303,260,1446037654860918045,robocape_mag,-17.7,4.05,0.75,10.0,0.0,0.0,0.0,10.0,0.0,0.0,0.0,10.0
1446037654899282803,261,1446037654894264936,robocape_mag,-17.7,4.05,0.75,10.0,0.0,0.0,0.0,10.0,0.0,0.0,0.0,10.0
1446037654934104845,262,1446037654927843093,robocape_mag,-17.7,4.05,0.75,10.0,0.0,0.0,0.0,10.0,0.0,0.0,0.0,10.0
1446037654966356803,263,1446037654961252927,robocape_mag,-13.2,0.75,1.05,10.0,0.0,0.0,0.0,10.0,0.0,0.0,0.0,10.0
1446037655001769553,264,1446037654996129035,robocape_mag,-13.2,0.75,1.05,10.0,0.0,0.0,0.0,10.0,0.0,0.0,0.0,10.0
1446037655036284262,265,1446037655028966903,robocape_mag,-13.2,0.75,1.05,10.0,0.0,0.0,0.0,10.0,0.0,0.0,0.0,10.0
1446037655071078637,266,1446037655062099933,robocape_mag,-13.2,0.75,1.05,10.0,0.0,0.0,0.0,10.0,0.0,0.0,0.0,10.0
1446037655103605553,267,1446037655097630023,robocape_mag,-13.2,0.75,1.05,10.0,0.0,0.0,0.0,10.0,0.0,0.0,0.0,10.0
1446037655132014053,268,1446037655126940011,robocape_mag,-14.7,1.65,1.95,10.0,0.0,0.0,0.0,10.0,0.0,0.0,0.0,10.0
1446037655171086428,269,1446037655163177967,robocape_mag,-14.7,1.65,1.95,10.0,0.0,0.0,0.0,10.0,0.0,0.0,0.0,10.0
1446037655197473887,270,1446037655192729949,robocape_mag,-14.7,1.65,1.95,10.0,0.0,0.0,0.0,10.0,0.0,0.0,0.0,10.0
1446037655231082345,271,1446037655226111888,robocape_mag,-14.7,1.65,1.95,10.0,0.0,0.0,0.0,10.0,0.0,0.0,0.0,10.0
1446037655264390887,272,1446037655259310007,robocape_mag,-14.7,1.65,1.95,10.0,0.0,0.0,0.0,10.0,0.0,0.0,0.0,10.0
1446037655297619303,273,1446037655292829036,robocape_mag,-13.2,0.75,-0.15,10.0,0.0,0.0,0.0,10.0,0.0,0.0,0.0,10.0
1446037655333189178,274,1446037655327514886,robocape_mag,-13.2,0.75,-0.15,10.0,0.0,0.0,0.0,10.0,0.0,0.0,0.0,10.0
1446037655364395887,275,1446037655359215021,robocape_mag,-13.2,0.75,-0.15,10.0,0.0,0.0,0.0,10.0,0.0,0.0,0.0,10.0
1446037655397552137,276,1446037655392710924,robocape_mag,-13.2,0.75,-0.15,10.0,0.0,0.0,0.0,10.0,0.0,0.0,0.0,10.0
1446037655432310137,277,1446037655425915002,robocape_mag,-16.5,2.85,0.15,10.0,0.0,0.0,0.0,10.0,0.0,0.0,0.0,10.0
1446037655466616470,278,1446037655459608078,robocape_mag,-16.5,2.85,0.15,10.0,0.0,0.0,0.0,10.0,0.0,0.0,0.0,10.0
1446037655498048470,279,1446037655492933988,robocape_mag,-16.5,2.85,0.15,10.0,0.0,0.0,0.0,10.0,0.0,0.0,0.0,10.0
1446037655530987845,280,1446037655525974988,robocape_mag,-16.5,2.85,0.15,10.0,0.0,0.0,0.0,10.0,0.0,0.0,0.0,10.0
1446037655566156678,281,1446037655560746908,robocape_mag,-16.5,2.85,0.15,10.0,0.0,0.0,0.0,10.0,0.0,0.0,0.0,10.0
1446037655597990637,282,1446037655592863082,robocape_mag,-19.5,2.85,-1.65,10.0,0.0,0.0,0.0,10.0,0.0,0.0,0.0,10.0
1446037655631335595,283,1446037655626012086,robocape_mag,-19.5,2.85,-1.65,10.0,0.0,0.0,0.0,10.0,0.0,0.0,0.0,10.0
1446037655666345678,284,1446037655659251928,robocape_mag,-19.5,2.85,-1.65,10.0,0.0,0.0,0.0,10.0,0.0,0.0,0.0,10.0
1446037655699263887,285,1446037655694250106,robocape_mag,-19.5,2.85,-1.65,10.0,0.0,0.0,0.0,10.0,0.0,0.0,0.0,10.0
1446037655731197304,286,1446037655726289987,robocape_mag,-19.5,2.85,-1.65,10.0,0.0,0.0,0.0,10.0,0.0,0.0,0.0,10.0
1446037655764681845,287,1446037655759428977,robocape_mag,-13.2,0.15,-0.75,10.0,0.0,0.0,0.0,10.0,0.0,0.0,0.0,10.0
1446037655797484429,288,1446037655792675018,robocape_mag,-13.2,0.15,-0.75,10.0,0.0,0.0,0.0,10.0,0.0,0.0,0.0,10.0
1446037655830952845,289,1446037655826189994,robocape_mag,-13.2,0.15,-0.75,10.0,0.0,0.0,0.0,10.0,0.0,0.0,0.0,10.0
1446037655866475512,290,1446037655859534978,robocape_mag,-13.2,0.15,-0.75,10.0,0.0,0.0,0.0,10.0,0.0,0.0,0.0,10.0
1446037655897577720,291,1446037655892746925,robocape_mag,-13.2,0.15,-0.75,10.0,0.0,0.0,0.0,10.0,0.0,0.0,0.0,10.0
1446037655932278345,292,1446037655926290035,robocape_mag,-18.3,3.45,0.75,10.0,0.0,0.0,0.0,10.0,0.0,0.0,0.0,10.0
1446037655965636970,293,1446037655960509061,robocape_mag,-18.3,3.45,0.75,10.0,0.0,0.0,0.0,10.0,0.0,0.0,0.0,10.0
1446037656001822679,294,1446037655996978044,robocape_mag,-18.3,3.45,0.75,10.0,0.0,0.0,0.0,10.0,0.0,0.0,0.0,10.0
1446037656032901720,295,1446037656027406930,robocape_mag,-18.3,3.45,0.75,10.0,0.0,0.0,0.0,10.0,0.0,0.0,0.0,10.0
1446037656067563512,296,1446037656061148881,robocape_mag,-18.3,3.45,3.15,10.0,0.0,0.0,0.0,10.0,0.0,0.0,0.0,10.0
1446037656099856637,297,1446037656094621896,robocape_mag,-16.5,7.05,3.15,10.0,0.0,0.0,0.0,10.0,0.0,0.0,0.0,10.0
1446037656133212387,298,1446037656128273963,robocape_mag,-16.5,7.05,3.15,10.0,0.0,0.0,0.0,10.0,0.0,0.0,0.0,10.0
1446037656165199512,299,1446037656160109996,robocape_mag,-16.5,7.05,3.15,10.0,0.0,0.0,0.0,10.0,0.0,0.0,0.0,10.0
1446037656203969179,300,1446037656196320056,robocape_mag,-16.5,7.05,3.15,10.0,0.0,0.0,0.0,10.0,0.0,0.0,0.0,10.0
1446037656231385887,301,1446037656226623058,robocape_mag,-17.7,2.85,0.15,10.0,0.0,0.0,0.0,10.0,0.0,0.0,0.0,10.0
1446037656276218595,302,1446037656264585018,robocape_mag,-17.7,2.85,0.15,10.0,0.0,0.0,0.0,10.0,0.0,0.0,0.0,10.0
1446037656300804970,303,1446037656294887065,robocape_mag,-17.7,2.85,0.15,10.0,0.0,0.0,0.0,10.0,0.0,0.0,0.0,10.0
1446037656333919970,304,1446037656328738927,robocape_mag,-17.7,2.85,0.15,10.0,0.0,0.0,0.0,10.0,0.0,0.0,0.0,10.0
1446037656370993762,305,1446037656362420082,robocape_mag,-17.7,2.85,0.15,10.0,0.0,0.0,0.0,10.0,0.0,0.0,0.0,10.0
1446037656408738179,306,1446037656397011041,robocape_mag,-13.2,4.35,-1.35,10.0,0.0,0.0,0.0,10.0,0.0,0.0,0.0,10.0
1446037656437093387,307,1446037656429249048,robocape_mag,-13.2,4.35,-1.35,10.0,0.0,0.0,0.0,10.0,0.0,0.0,0.0,10.0
1446037656470416596,308,1446037656463447093,robocape_mag,-13.2,4.35,-1.35,10.0,0.0,0.0,0.0,10.0,0.0,0.0,0.0,10.0
1446037656501432887,309,1446037656496345043,robocape_mag,-13.2,4.35,-1.35,10.0,0.0,0.0,0.0,10.0,0.0,0.0,0.0,10.0
1446037656544792137,310,1446037656529143095,robocape_mag,-13.2,4.35,-1.35,10.0,0.0,0.0,0.0,10.0,0.0,0.0,0.0,10.0
1446037656570744137,311,1446037656563688039,robocape_mag,-3.6,-1.65,-1.35,10.0,0.0,0.0,0.0,10.0,0.0,0.0,0.0,10.0
1446037656598473596,312,1446037656592951059,robocape_mag,-3.6,-1.65,-1.35,10.0,0.0,0.0,0.0,10.0,0.0,0.0,0.0,10.0
1446037656632874804,313,1446037656625890970,robocape_mag,-3.6,-1.65,-1.35,10.0,0.0,0.0,0.0,10.0,0.0,0.0,0.0,10.0
1446037656664599846,314,1446037656659490108,robocape_mag,-3.6,-1.65,-1.35,10.0,0.0,0.0,0.0,10.0,0.0,0.0,0.0,10.0
1446037656697768304,315,1446037656692825078,robocape_mag,-3.6,-1.65,-1.35,10.0,0.0,0.0,0.0,10.0,0.0,0.0,0.0,10.0
1446037656730942679,316,1446037656725917100,robocape_mag,10.5,-0.75,0.15,10.0,0.0,0.0,0.0,10.0,0.0,0.0,0.0,10.0
1446037656764591429,317,1446037656759388923,robocape_mag,10.5,-0.75,0.15,10.0,0.0,0.0,0.0,10.0,0.0,0.0,0.0,10.0
1446037656797731762,318,1446037656792674064,robocape_mag,10.5,-0.75,0.15,10.0,0.0,0.0,0.0,10.0,0.0,0.0,0.0,10.0
1446037656830975429,319,1446037656825789928,robocape_mag,10.5,-0.75,0.15,10.0,0.0,0.0,0.0,10.0,0.0,0.0,0.0,10.0
1446037656864666637,320,1446037656859467983,robocape_mag,10.5,-0.75,0.15,10.0,0.0,0.0,0.0,10.0,0.0,0.0,0.0,10.0
1446037656898081846,321,1446037656893176078,robocape_mag,10.2,3.15,-3.75,10.0,0.0,0.0,0.0,10.0,0.0,0.0,0.0,10.0
1446037656931210512,322,1446037656926209926,robocape_mag,10.2,3.15,-3.75,10.0,0.0,0.0,0.0,10.0,0.0,0.0,0.0,10.0
1446037656964252137,323,1446037656959383010,robocape_mag,10.2,3.15,-3.75,10.0,0.0,0.0,0.0,10.0,0.0,0.0,0.0,10.0
1446037656997733596,324,1446037656992836952,robocape_mag,10.2,3.15,-3.75,10.0,0.0,0.0,0.0,10.0,0.0,0.0,0.0,10.0
1446037657031055429,325,1446037657026091098,robocape_mag,18.6,3.75,-4.95,10.0,0.0,0.0,0.0,10.0,0.0,0.0,0.0,10.0
1446037657064434929,326,1446037657059602975,robocape_mag,18.6,3.75,-4.95,10.0,0.0,0.0,0.0,10.0,0.0,0.0,0.0,10.0
1446037657100932304,327,1446037657093940973,robocape_mag,18.6,3.75,-4.95,10.0,0.0,0.0,0.0,10.0,0.0,0.0,0.0,10.0
1446037657132255013,328,1446037657127336978,robocape_mag,18.6,3.75,-4.95,10.0,0.0,0.0,0.0,10.0,0.0,0.0,0.0,10.0
1446037657167705804,329,1446037657161029100,robocape_mag,18.6,3.75,-4.95,10.0,0.0,0.0,0.0,10.0,0.0,0.0,0.0,10.0
1446037657199399888,330,1446037657193984985,robocape_mag,18.3,5.25,-6.45,10.0,0.0,0.0,0.0,10.0,0.0,0.0,0.0,10.0
1446037657232475054,331,1446037657227523088,robocape_mag,18.3,5.25,-6.45,10.0,0.0,0.0,0.0,10.0,0.0,0.0,0.0,10.0
1446037657266641804,332,1446037657261523008,robocape_mag,18.3,5.25,-6.45,10.0,0.0,0.0,0.0,10.0,0.0,0.0,0.0,10.0
1446037657299719763,333,1446037657294833898,robocape_mag,18.3,5.25,-6.45,10.0,0.0,0.0,0.0,10.0,0.0,0.0,0.0,10.0
1446037657332391096,334,1446037657327528953,robocape_mag,18.3,5.25,-6.45,10.0,0.0,0.0,0.0,10.0,0.0,0.0,0.0,10.0
1446037657372070721,335,1446037657366991043,robocape_mag,26.1,0.45,-11.25,10.0,0.0,0.0,0.0,10.0,0.0,0.0,0.0,10.0
1446037657401365596,336,1446037657395673990,robocape_mag,26.1,0.45,-11.25,10.0,0.0,0.0,0.0,10.0,0.0,0.0,0.0,10.0
1446037657441584804,337,1446037657429974079,robocape_mag,26.1,0.45,-11.25,10.0,0.0,0.0,0.0,10.0,0.0,0.0,0.0,10.0
1446037657470279513,338,1446037657461590051,robocape_mag,26.1,0.45,-11.25,10.0,0.0,0.0,0.0,10.0,0.0,0.0,0.0,10.0
1446037657502398888,339,1446037657495842933,robocape_mag,26.1,0.45,-11.25,10.0,0.0,0.0,0.0,10.0,0.0,0.0,0.0,10.0
1446037657543128513,340,1446037657530076026,robocape_mag,29.1,-1.35,-11.85,10.0,0.0,0.0,0.0,10.0,0.0,0.0,0.0,10.0
1446037657568718971,341,1446037657563097000,robocape_mag,29.1,-1.35,-11.85,10.0,0.0,0.0,0.0,10.0,0.0,0.0,0.0,10.0
1446037657605623846,342,1446037657595226049,robocape_mag,29.1,-1.35,-11.85,10.0,0.0,0.0,0.0,10.0,0.0,0.0,0.0,10.0
1446037657634843596,343,1446037657629579067,robocape_mag,29.1,-1.35,-11.85,10.0,0.0,0.0,0.0,10.0,0.0,0.0,0.0,10.0
1446037657670809846,344,1446037657663783073,robocape_mag,25.5,6.45,-11.25,10.0,0.0,0.0,0.0,10.0,0.0,0.0,0.0,10.0
1446037657703773221,345,1446037657698905944,robocape_mag,25.5,6.45,-11.25,10.0,0.0,0.0,0.0,10.0,0.0,0.0,0.0,10.0
1446037657735205638,346,1446037657730184078,robocape_mag,25.5,6.45,-11.25,10.0,0.0,0.0,0.0,10.0,0.0,0.0,0.0,10.0
1446037657768931138,347,1446037657762588977,robocape_mag,25.5,6.45,-11.25,10.0,0.0,0.0,0.0,10.0,0.0,0.0,0.0,10.0
1446037657829751971,348,1446037657797127962,robocape_mag,25.5,6.45,-11.25,10.0,0.0,0.0,0.0,10.0,0.0,0.0,0.0,10.0
1446037657848858138,349,1446037657843780040,robocape_mag,31.2,-2.25,-13.35,10.0,0.0,0.0,0.0,10.0,0.0,0.0,0.0,10.0
1446037657872843971,350,1446037657865947961,robocape_mag,31.2,-2.25,-13.35,10.0,0.0,0.0,0.0,10.0,0.0,0.0,0.0,10.0
1446037657900808763,351,1446037657896013975,robocape_mag,31.2,-2.25,-13.35,10.0,0.0,0.0,0.0,10.0,0.0,0.0,0.0,10.0
1446037657934051138,352,1446037657929220914,robocape_mag,31.2,-2.25,-13.35,10.0,0.0,0.0,0.0,10.0,0.0,0.0,0.0,10.0
1446037657966940305,353,1446037657962100982,robocape_mag,31.2,-2.25,-13.35,10.0,0.0,0.0,0.0,10.0,0.0,0.0,0.0,10.0
1446037658000235846,354,1446037657995446920,robocape_mag,23.7,1.65,-15.45,10.0,0.0,0.0,0.0,10.0,0.0,0.0,0.0,10.0
1446037658034254180,355,1446037658029289960,robocape_mag,23.7,1.65,-15.45,10.0,0.0,0.0,0.0,10.0,0.0,0.0,0.0,10.0
1446037658066617138,356,1446037658061785936,robocape_mag,23.7,1.65,-15.45,10.0,0.0,0.0,0.0,10.0,0.0,0.0,0.0,10.0
1446037658099952971,357,1446037658094944000,robocape_mag,23.7,1.65,-15.45,10.0,0.0,0.0,0.0,10.0,0.0,0.0,0.0,10.0
1446037658132557930,358,1446037658127578020,robocape_mag,23.7,1.65,-15.45,10.0,0.0,0.0,0.0,10.0,0.0,0.0,0.0,10.0
1446037658166366680,359,1446037658161118030,robocape_mag,24.6,4.95,-13.95,10.0,0.0,0.0,0.0,10.0,0.0,0.0,0.0,10.0
1446037658199301471,360,1446037658194235086,robocape_mag,24.6,4.95,-13.95,10.0,0.0,0.0,0.0,10.0,0.0,0.0,0.0,10.0
1446037658232069055,361,1446037658227221965,robocape_mag,24.6,4.95,-13.95,10.0,0.0,0.0,0.0,10.0,0.0,0.0,0.0,10.0
1446037658265184930,362,1446037658259785890,robocape_mag,24.6,4.95,-13.95,10.0,0.0,0.0,0.0,10.0,0.0,0.0,0.0,10.0
1446037658298350096,363,1446037658293072938,robocape_mag,24.6,4.95,-13.95,10.0,0.0,0.0,0.0,10.0,0.0,0.0,0.0,10.0
1446037658331252680,364,1446037658326399087,robocape_mag,26.7,0.45,-14.25,10.0,0.0,0.0,0.0,10.0,0.0,0.0,0.0,10.0
1446037658364249471,365,1446037658359463930,robocape_mag,26.7,0.45,-14.25,10.0,0.0,0.0,0.0,10.0,0.0,0.0,0.0,10.0
1446037658402765680,366,1446037658393291950,robocape_mag,26.7,0.45,-14.25,10.0,0.0,0.0,0.0,10.0,0.0,0.0,0.0,10.0
1446037658431314263,367,1446037658426455974,robocape_mag,26.7,0.45,-14.25,10.0,0.0,0.0,0.0,10.0,0.0,0.0,0.0,10.0
1446037658464092305,368,1446037658459342956,robocape_mag,26.7,0.45,-14.25,10.0,0.0,0.0,0.0,10.0,0.0,0.0,0.0,10.0
1446037658497662971,369,1446037658492785930,robocape_mag,29.4,-1.05,-13.35,10.0,0.0,0.0,0.0,10.0,0.0,0.0,0.0,10.0
1446037658531092097,370,1446037658526048898,robocape_mag,29.4,-1.05,-13.35,10.0,0.0,0.0,0.0,10.0,0.0,0.0,0.0,10.0
1446037658565567680,371,1446037658560781002,robocape_mag,29.4,-1.05,-13.35,10.0,0.0,0.0,0.0,10.0,0.0,0.0,0.0,10.0
1446037658597705055,372,1446037658592854976,robocape_mag,29.4,-1.05,-13.35,10.0,0.0,0.0,0.0,10.0,0.0,0.0,0.0,10.0
1446037658635281847,373,1446037658626142024,robocape_mag,29.7,2.25,-11.25,10.0,0.0,0.0,0.0,10.0,0.0,0.0,0.0,10.0
1446037658664892180,374,1446037658659857034,robocape_mag,29.7,2.25,-11.25,10.0,0.0,0.0,0.0,10.0,0.0,0.0,0.0,10.0
1446037658697630180,375,1446037658692864894,robocape_mag,29.7,2.25,-11.25,10.0,0.0,0.0,0.0,10.0,0.0,0.0,0.0,10.0
1446037658731110263,376,1446037658726332902,robocape_mag,29.7,2.25,-11.25,10.0,0.0,0.0,0.0,10.0,0.0,0.0,0.0,10.0
1446037658770626888,377,1446037658763428926,robocape_mag,29.7,2.25,-11.25,10.0,0.0,0.0,0.0,10.0,0.0,0.0,0.0,10.0
1446037658805383680,378,1446037658795941114,robocape_mag,29.7,-1.35,-12.45,10.0,0.0,0.0,0.0,10.0,0.0,0.0,0.0,10.0
1446037658835403680,379,1446037658830048084,robocape_mag,29.7,-1.35,-12.45,10.0,0.0,0.0,0.0,10.0,0.0,0.0,0.0,10.0
1446037658867937263,380,1446037658862150907,robocape_mag,29.7,-1.35,-12.45,10.0,0.0,0.0,0.0,10.0,0.0,0.0,0.0,10.0
1446037658902693472,381,1446037658897255897,robocape_mag,29.7,-1.35,-12.45,10.0,0.0,0.0,0.0,10.0,0.0,0.0,0.0,10.0
1446037658934687180,382,1446037658929447889,robocape_mag,29.7,-1.35,-12.45,10.0,0.0,0.0,0.0,10.0,0.0,0.0,0.0,10.0
1446037658970729888,383,1446037658963465929,robocape_mag,29.1,1.05,-13.05,10.0,0.0,0.0,0.0,10.0,0.0,0.0,0.0,10.0
1446037659006067430,384,1446037658995775938,robocape_mag,29.1,1.05,-13.05,10.0,0.0,0.0,0.0,10.0,0.0,0.0,0.0,10.0
1446037659037255847,385,1446037659028306961,robocape_mag,29.1,1.05,-13.05,10.0,0.0,0.0,0.0,10.0,0.0,0.0,0.0,10.0
1446037659067267180,386,1446037659062232971,robocape_mag,29.1,1.05,-13.05,10.0,0.0,0.0,0.0,10.0,0.0,0.0,0.0,10.0
1446037659100124013,387,1446037659095303058,robocape_mag,29.1,1.05,-13.05,10.0,0.0,0.0,0.0,10.0,0.0,0.0,0.0,10.0
1446037659134246097,388,1446037659129160881,robocape_mag,31.2,1.35,-12.75,10.0,0.0,0.0,0.0,10.0,0.0,0.0,0.0,10.0
1446037659167491055,389,1446037659162445068,robocape_mag,31.2,1.35,-12.75,10.0,0.0,0.0,0.0,10.0,0.0,0.0,0.0,10.0
1446037659199902222,390,1446037659195097923,robocape_mag,31.2,1.35,-12.75,10.0,0.0,0.0,0.0,10.0,0.0,0.0,0.0,10.0
1446037659233501805,391,1446037659228423118,robocape_mag,31.2,1.35,-12.75,10.0,0.0,0.0,0.0,10.0,0.0,0.0,0.0,10.0
1446037659267466389,392,1446037659262470960,robocape_mag,33.0,-0.45,-12.75,10.0,0.0,0.0,0.0,10.0,0.0,0.0,0.0,10.0
1446037659299242430,393,1446037659294429063,robocape_mag,33.0,-0.45,-12.75,10.0,0.0,0.0,0.0,10.0,0.0,0.0,0.0,10.0
1446037659332064639,394,1446037659326983928,robocape_mag,33.0,-0.45,-12.75,10.0,0.0,0.0,0.0,10.0,0.0,0.0,0.0,10.0
1446037659365744764,395,1446037659360584020,robocape_mag,33.0,-0.45,-12.75,10.0,0.0,0.0,0.0,10.0,0.0,0.0,0.0,10.0
1446037659398845597,396,1446037659394027948,robocape_mag,33.0,-0.45,-12.75,10.0,0.0,0.0,0.0,10.0,0.0,0.0,0.0,10.0
1446037659432026180,397,1446037659426660060,robocape_mag,32.7,0.45,-14.85,10.0,0.0,0.0,0.0,10.0,0.0,0.0,0.0,10.0
1446037659465259639,398,1446037659460423946,robocape_mag,32.7,0.45,-14.85,10.0,0.0,0.0,0.0,10.0,0.0,0.0,0.0,10.0
1446037659498204014,399,1446037659493081092,robocape_mag,32.7,0.45,-14.85,10.0,0.0,0.0,0.0,10.0,0.0,0.0,0.0,10.0
1446037659531282805,400,1446037659526449918,robocape_mag,32.7,0.45,-14.85,10.0,0.0,0.0,0.0,10.0,0.0,0.0,0.0,10.0
1446037659566220389,401,1446037659561404943,robocape_mag,32.7,0.45,-14.85,10.0,0.0,0.0,0.0,10.0,0.0,0.0,0.0,10.0
1446037659602102972,402,1446037659593421936,robocape_mag,29.1,-0.15,-13.65,10.0,0.0,0.0,0.0,10.0,0.0,0.0,0.0,10.0
1446037659631641597,403,1446037659626583099,robocape_mag,29.1,-0.15,-13.65,10.0,0.0,0.0,0.0,10.0,0.0,0.0,0.0,10.0
1446037659664495889,404,1446037659659565925,robocape_mag,29.1,-0.15,-13.65,10.0,0.0,0.0,0.0,10.0,0.0,0.0,0.0,10.0
1446037659697964764,405,1446037659692922115,robocape_mag,29.1,-0.15,-13.65,10.0,0.0,0.0,0.0,10.0,0.0,0.0,0.0,10.0
1446037659731496097,406,1446037659726682901,robocape_mag,29.1,-0.15,-13.65,10.0,0.0,0.0,0.0,10.0,0.0,0.0,0.0,10.0
1446037659764612347,407,1446037659759751081,robocape_mag,32.4,-4.65,-14.55,10.0,0.0,0.0,0.0,10.0,0.0,0.0,0.0,10.0
1446037659797924472,408,1446037659792830944,robocape_mag,32.4,-4.65,-14.55,10.0,0.0,0.0,0.0,10.0,0.0,0.0,0.0,10.0
1446037659831083097,409,1446037659826337099,robocape_mag,32.4,-4.65,-14.55,10.0,0.0,0.0,0.0,10.0,0.0,0.0,0.0,10.0
1446037659864414389,410,1446037659859535932,robocape_mag,32.4,-4.65,-14.55,10.0,0.0,0.0,0.0,10.0,0.0,0.0,0.0,10.0
1446037659898086222,411,1446037659892884969,robocape_mag,32.4,-4.65,-14.55,10.0,0.0,0.0,0.0,10.0,0.0,0.0,0.0,10.0
1446037659931401014,412,1446037659926143884,robocape_mag,29.1,1.05,-17.25,10.0,0.0,0.0,0.0,10.0,0.0,0.0,0.0,10.0
1446037659966187431,413,1446037659960992097,robocape_mag,29.1,1.05,-17.25,10.0,0.0,0.0,0.0,10.0,0.0,0.0,0.0,10.0
1446037659997696764,414,1446037659992532014,robocape_mag,29.1,1.05,-17.25,10.0,0.0,0.0,0.0,10.0,0.0,0.0,0.0,10.0
1446037660030875222,415,1446037660025866985,robocape_mag,29.1,1.05,-17.25,10.0,0.0,0.0,0.0,10.0,0.0,0.0,0.0,10.0
1446037660064605514,416,1446037660059253931,robocape_mag,29.1,1.05,-17.25,10.0,0.0,0.0,0.0,10.0,0.0,0.0,0.0,10.0
1446037660099857472,417,1446037660092756986,robocape_mag,28.2,-4.05,-15.15,10.0,0.0,0.0,0.0,10.0,0.0,0.0,0.0,10.0
1446037660132857722,418,1446037660127645015,robocape_mag,28.2,-4.05,-15.15,10.0,0.0,0.0,0.0,10.0,0.0,0.0,0.0,10.0
1446037660164839722,419,1446037660159560918,robocape_mag,28.2,-4.05,-15.15,10.0,0.0,0.0,0.0,10.0,0.0,0.0,0.0,10.0
1446037660198029347,420,1446037660192758083,robocape_mag,28.2,-4.05,-15.15,10.0,0.0,0.0,0.0,10.0,0.0,0.0,0.0,10.0
1446037660231344847,421,1446037660226298093,robocape_mag,31.5,-7.95,-13.05,10.0,0.0,0.0,0.0,10.0,0.0,0.0,0.0,10.0
1446037660265163181,422,1446037660259654045,robocape_mag,31.5,-7.95,-13.05,10.0,0.0,0.0,0.0,10.0,0.0,0.0,0.0,10.0
1446037660298023514,423,1446037660292606115,robocape_mag,31.5,-7.95,-13.05,10.0,0.0,0.0,0.0,10.0,0.0,0.0,0.0,10.0
1446037660331155347,424,1446037660325944900,robocape_mag,31.5,-7.95,-13.05,10.0,0.0,0.0,0.0,10.0,0.0,0.0,0.0,10.0
1446037660366258306,425,1446037660359285116,robocape_mag,31.5,-7.95,-13.05,10.0,0.0,0.0,0.0,10.0,0.0,0.0,0.0,10.0
1446037660398284139,426,1446037660392621994,robocape_mag,26.4,-7.05,-12.15,10.0,0.0,0.0,0.0,10.0,0.0,0.0,0.0,10.0
1446037660431585139,427,1446037660426409959,robocape_mag,26.4,-7.05,-12.15,10.0,0.0,0.0,0.0,10.0,0.0,0.0,0.0,10.0
1446037660467277847,428,1446037660459656953,robocape_mag,26.4,-7.05,-12.15,10.0,0.0,0.0,0.0,10.0,0.0,0.0,0.0,10.0
1446037660498553514,429,1446037660492683887,robocape_mag,26.4,-7.05,-12.15,10.0,0.0,0.0,0.0,10.0,0.0,0.0,0.0,10.0
1446037660531689389,430,1446037660526797056,robocape_mag,26.4,-7.05,-12.15,10.0,0.0,0.0,0.0,10.0,0.0,0.0,0.0,10.0
1446037660566130514,431,1446037660559989929,robocape_mag,34.2,-7.65,-12.75,10.0,0.0,0.0,0.0,10.0,0.0,0.0,0.0,10.0
1446037660599624056,432,1446037660594218015,robocape_mag,34.2,-7.65,-12.75,10.0,0.0,0.0,0.0,10.0,0.0,0.0,0.0,10.0
1446037660632048639,433,1446037660627228975,robocape_mag,34.2,-7.65,-12.75,10.0,0.0,0.0,0.0,10.0,0.0,0.0,0.0,10.0
1446037660666175848,434,1446037660660764932,robocape_mag,34.2,-7.65,-12.75,10.0,0.0,0.0,0.0,10.0,0.0,0.0,0.0,10.0
1446037660700354723,435,1446037660694798946,robocape_mag,34.2,-7.65,-12.75,10.0,0.0,0.0,0.0,10.0,0.0,0.0,0.0,10.0
1446037660731571264,436,1446037660726749897,robocape_mag,28.8,-8.25,-10.95,10.0,0.0,0.0,0.0,10.0,0.0,0.0,0.0,10.0
1446037660767459431,437,1446037660760955095,robocape_mag,28.8,-8.25,-10.95,10.0,0.0,0.0,0.0,10.0,0.0,0.0,0.0,10.0
1446037660800245681,438,1446037660794325113,robocape_mag,28.8,-8.25,-10.95,10.0,0.0,0.0,0.0,10.0,0.0,0.0,0.0,10.0
1446037660836621014,439,1446037660831787109,robocape_mag,28.8,-8.25,-10.95,10.0,0.0,0.0,0.0,10.0,0.0,0.0,0.0,10.0
1446037660868335389,440,1446037660860812902,robocape_mag,28.8,-8.25,-12.15,10.0,0.0,0.0,0.0,10.0,0.0,0.0,0.0,10.0
1446037660903400764,441,1446037660895622014,robocape_mag,29.4,-8.85,-12.15,10.0,0.0,0.0,0.0,10.0,0.0,0.0,0.0,10.0
1446037660936589889,442,1446037660928014993,robocape_mag,29.4,-8.85,-12.15,10.0,0.0,0.0,0.0,10.0,0.0,0.0,0.0,10.0
1446037660973140889,443,1446037660962500095,robocape_mag,29.4,-8.85,-12.15,10.0,0.0,0.0,0.0,10.0,0.0,0.0,0.0,10.0
1446037661006304723,444,1446037660995310068,robocape_mag,29.4,-8.85,-12.15,10.0,0.0,0.0,0.0,10.0,0.0,0.0,0.0,10.0
1446037661037409014,445,1446037661030052900,robocape_mag,31.2,-6.45,-15.75,10.0,0.0,0.0,0.0,10.0,0.0,0.0,0.0,10.0
1446037661068684973,446,1446037661061717987,robocape_mag,31.2,-6.45,-15.75,10.0,0.0,0.0,0.0,10.0,0.0,0.0,0.0,10.0
1446037661106335389,447,1446037661095702886,robocape_mag,31.2,-6.45,-15.75,10.0,0.0,0.0,0.0,10.0,0.0,0.0,0.0,10.0
1446037661134494889,448,1446037661128408908,robocape_mag,31.2,-6.45,-15.75,10.0,0.0,0.0,0.0,10.0,0.0,0.0,0.0,10.0
1446037661172559264,449,1446037661163531064,robocape_mag,31.2,-6.45,-15.75,10.0,0.0,0.0,0.0,10.0,0.0,0.0,0.0,10.0
1446037661201843889,450,1446037661196341991,robocape_mag,25.5,-0.75,-19.05,10.0,0.0,0.0,0.0,10.0,0.0,0.0,0.0,10.0
1446037661234675098,451,1446037661229430913,robocape_mag,25.5,-0.75,-19.05,10.0,0.0,0.0,0.0,10.0,0.0,0.0,0.0,10.0
1446037661268309889,452,1446037661262861967,robocape_mag,25.5,-0.75,-19.05,10.0,0.0,0.0,0.0,10.0,0.0,0.0,0.0,10.0
1446037661301987723,453,1446037661296586036,robocape_mag,25.5,-0.75,-19.05,10.0,0.0,0.0,0.0,10.0,0.0,0.0,0.0,10.0
1446037661334261848,454,1446037661329149961,robocape_mag,25.5,-0.75,-19.05,10.0,0.0,0.0,0.0,10.0,0.0,0.0,0.0,10.0
1446037661368397306,455,1446037661361546993,robocape_mag,30.0,-1.05,-13.95,10.0,0.0,0.0,0.0,10.0,0.0,0.0,0.0,10.0
1446037661401616681,456,1446037661395467042,robocape_mag,30.0,-1.05,-13.95,10.0,0.0,0.0,0.0,10.0,0.0,0.0,0.0,10.0
1446037661434501848,457,1446037661429220914,robocape_mag,30.0,-1.05,-13.95,10.0,0.0,0.0,0.0,10.0,0.0,0.0,0.0,10.0
1446037661466452306,458,1446037661461359024,robocape_mag,30.0,-1.05,-13.95,10.0,0.0,0.0,0.0,10.0,0.0,0.0,0.0,10.0
1446037661500599306,459,1446037661495834112,robocape_mag,30.0,-1.05,-13.95,10.0,0.0,0.0,0.0,10.0,0.0,0.0,0.0,10.0
1446037661539754973,460,1446037661528449058,robocape_mag,29.1,-1.35,-11.85,10.0,0.0,0.0,0.0,10.0,0.0,0.0,0.0,10.0
1446037661568816306,461,1446037661562066078,robocape_mag,29.1,-1.35,-11.85,10.0,0.0,0.0,0.0,10.0,0.0,0.0,0.0,10.0
1446037661600580181,462,1446037661595590114,robocape_mag,29.1,-1.35,-11.85,10.0,0.0,0.0,0.0,10.0,0.0,0.0,0.0,10.0
1446037661632988306,463,1446037661627620935,robocape_mag,29.1,-1.35,-11.85,10.0,0.0,0.0,0.0,10.0,0.0,0.0,0.0,10.0
1446037661666610098,464,1446037661661488056,robocape_mag,29.1,1.35,-10.95,10.0,0.0,0.0,0.0,10.0,0.0,0.0,0.0,10.0
1446037661698481473,465,1446037661693598031,robocape_mag,25.2,1.35,-10.95,10.0,0.0,0.0,0.0,10.0,0.0,0.0,0.0,10.0
1446037661732265015,466,1446037661727289915,robocape_mag,25.2,1.35,-10.95,10.0,0.0,0.0,0.0,10.0,0.0,0.0,0.0,10.0
1446037661764729640,467,1446037661759819030,robocape_mag,25.2,1.35,-10.95,10.0,0.0,0.0,0.0,10.0,0.0,0.0,0.0,10.0
1446037661798310515,468,1446037661793380022,robocape_mag,25.2,1.35,-10.95,10.0,0.0,0.0,0.0,10.0,0.0,0.0,0.0,10.0
1446037661831778015,469,1446037661826509952,robocape_mag,31.2,0.75,-10.35,10.0,0.0,0.0,0.0,10.0,0.0,0.0,0.0,10.0
1446037661864444931,470,1446037661859385013,robocape_mag,31.2,0.75,-10.35,10.0,0.0,0.0,0.0,10.0,0.0,0.0,0.0,10.0
1446037661897560181,471,1446037661892756938,robocape_mag,31.2,0.75,-10.35,10.0,0.0,0.0,0.0,10.0,0.0,0.0,0.0,10.0
1446037661931193348,472,1446037661926223993,robocape_mag,31.2,0.75,-10.35,10.0,0.0,0.0,0.0,10.0,0.0,0.0,0.0,10.0
1446037661964571056,473,1446037661959503889,robocape_mag,31.2,0.75,-10.35,10.0,0.0,0.0,0.0,10.0,0.0,0.0,0.0,10.0
1446037661997855598,474,1446037661992856979,robocape_mag,24.3,5.25,-11.85,10.0,0.0,0.0,0.0,10.0,0.0,0.0,0.0,10.0
1446037662031284848,475,1446037662026223897,robocape_mag,24.3,5.25,-11.85,10.0,0.0,0.0,0.0,10.0,0.0,0.0,0.0,10.0
1446037662065560223,476,1446037662059269905,robocape_mag,24.3,5.25,-11.85,10.0,0.0,0.0,0.0,10.0,0.0,0.0,0.0,10.0
1446037662097531640,477,1446037662092668056,robocape_mag,24.3,5.25,-11.85,10.0,0.0,0.0,0.0,10.0,0.0,0.0,0.0,10.0
1446037662130938307,478,1446037662126013040,robocape_mag,24.3,5.25,-11.85,10.0,0.0,0.0,0.0,10.0,0.0,0.0,0.0,10.0
1446037662165389973,479,1446037662160113096,robocape_mag,25.5,5.25,-8.85,10.0,0.0,0.0,0.0,10.0,0.0,0.0,0.0,10.0
1446037662197617765,480,1446037662192826032,robocape_mag,25.5,5.25,-8.85,10.0,0.0,0.0,0.0,10.0,0.0,0.0,0.0,10.0
1446037662231056682,481,1446037662226222991,robocape_mag,25.5,5.25,-8.85,10.0,0.0,0.0,0.0,10.0,0.0,0.0,0.0,10.0
1446037662264492307,482,1446037662259499073,robocape_mag,25.5,5.25,-8.85,10.0,0.0,0.0,0.0,10.0,0.0,0.0,0.0,10.0
1446037662300272682,483,1446037662294636964,robocape_mag,25.5,5.25,-8.85,10.0,0.0,0.0,0.0,10.0,0.0,0.0,0.0,10.0
1446037662330911723,484,1446037662326033115,robocape_mag,24.3,1.65,-6.45,10.0,0.0,0.0,0.0,10.0,0.0,0.0,0.0,10.0
1446037662364052682,485,1446037662359266042,robocape_mag,24.3,1.65,-6.45,10.0,0.0,0.0,0.0,10.0,0.0,0.0,0.0,10.0
1446037662397854432,486,1446037662392628908,robocape_mag,24.3,1.65,-6.45,10.0,0.0,0.0,0.0,10.0,0.0,0.0,0.0,10.0
1446037662435158432,487,1446037662426064014,robocape_mag,24.3,1.65,-6.45,10.0,0.0,0.0,0.0,10.0,0.0,0.0,0.0,10.0
1446037662465716932,488,1446037662459290027,robocape_mag,24.3,1.65,-6.45,10.0,0.0,0.0,0.0,10.0,0.0,0.0,0.0,10.0
1446037662499236390,489,1446037662492527008,robocape_mag,14.7,-1.35,-2.85,10.0,0.0,0.0,0.0,10.0,0.0,0.0,0.0,10.0
1446037662531541015,490,1446037662526216030,robocape_mag,14.7,-1.35,-2.85,10.0,0.0,0.0,0.0,10.0,0.0,0.0,0.0,10.0
1446037662565929557,491,1446037662560645103,robocape_mag,14.7,-1.35,-2.85,10.0,0.0,0.0,0.0,10.0,0.0,0.0,0.0,10.0
1446037662598096140,492,1446037662592820882,robocape_mag,14.7,-1.35,-2.85,10.0,0.0,0.0,0.0,10.0,0.0,0.0,0.0,10.0
1446037662632858140,493,1446037662625961065,robocape_mag,15.3,2.25,-2.85,10.0,0.0,0.0,0.0,10.0,0.0,0.0,0.0,10.0
1446037662666150182,494,1446037662660017967,robocape_mag,15.3,2.25,-2.85,10.0,0.0,0.0,0.0,10.0,0.0,0.0,0.0,10.0
1446037662698278057,495,1446037662693248033,robocape_mag,15.3,2.25,-2.85,10.0,0.0,0.0,0.0,10.0,0.0,0.0,0.0,10.0
1446037662731465224,496,1446037662726288080,robocape_mag,15.3,2.25,-2.85,10.0,0.0,0.0,0.0,10.0,0.0,0.0,0.0,10.0
1446037662764359765,497,1446037662759495019,robocape_mag,15.3,2.25,-2.85,10.0,0.0,0.0,0.0,10.0,0.0,0.0,0.0,10.0
1446037662801634557,498,1446037662792881965,robocape_mag,16.5,2.25,-5.85,10.0,0.0,0.0,0.0,10.0,0.0,0.0,0.0,10.0
1446037662831206015,499,1446037662826291084,robocape_mag,16.5,2.25,-5.85,10.0,0.0,0.0,0.0,10.0,0.0,0.0,0.0,10.0
1446037662865475474,500,1446037662860446929,robocape_mag,16.5,2.25,-5.85,10.0,0.0,0.0,0.0,10.0,0.0,0.0,0.0,10.0
1446037662899072307,501,1446037662894119977,robocape_mag,16.5,2.25,-5.85,10.0,0.0,0.0,0.0,10.0,0.0,0.0,0.0,10.0
1446037662931548557,502,1446037662926529884,robocape_mag,16.5,2.25,-5.85,10.0,0.0,0.0,0.0,10.0,0.0,0.0,0.0,10.0
1446037662964553599,503,1446037662959711074,robocape_mag,23.4,3.15,-4.95,10.0,0.0,0.0,0.0,10.0,0.0,0.0,0.0,10.0
1446037662998090682,504,1446037662993104934,robocape_mag,23.4,3.15,-4.95,10.0,0.0,0.0,0.0,10.0,0.0,0.0,0.0,10.0
1446037663031326640,505,1446037663026284933,robocape_mag,23.4,3.15,-4.95,10.0,0.0,0.0,0.0,10.0,0.0,0.0,0.0,10.0
1446037663064126974,506,1446037663059283018,robocape_mag,23.4,3.15,-4.95,10.0,0.0,0.0,0.0,10.0,0.0,0.0,0.0,10.0
1446037663097446432,507,1446037663092664003,robocape_mag,23.4,3.15,-4.95,10.0,0.0,0.0,0.0,10.0,0.0,0.0,0.0,10.0
1446037663130963974,508,1446037663125974893,robocape_mag,22.8,-0.45,-7.35,10.0,0.0,0.0,0.0,10.0,0.0,0.0,0.0,10.0
1446037663164670099,509,1446037663159699916,robocape_mag,22.8,-0.45,-7.35,10.0,0.0,0.0,0.0,10.0,0.0,0.0,0.0,10.0
1446037663197736682,510,1446037663192915916,robocape_mag,22.8,-0.45,-7.35,10.0,0.0,0.0,0.0,10.0,0.0,0.0,0.0,10.0
1446037663231200890,511,1446037663226233959,robocape_mag,22.8,-0.45,-7.35,10.0,0.0,0.0,0.0,10.0,0.0,0.0,0.0,10.0
1446037663264358890,512,1446037663259418010,robocape_mag,22.8,-0.45,-7.35,10.0,0.0,0.0,0.0,10.0,0.0,0.0,0.0,10.0
1446037663297453640,513,1446037663292654037,robocape_mag,19.2,-0.45,-6.75,10.0,0.0,0.0,0.0,10.0,0.0,0.0,0.0,10.0
1446037663331066849,514,1446037663326054096,robocape_mag,19.2,-0.45,-6.75,10.0,0.0,0.0,0.0,10.0,0.0,0.0,0.0,10.0
1446037663364378349,515,1446037663359532117,robocape_mag,19.2,-0.45,-6.75,10.0,0.0,0.0,0.0,10.0,0.0,0.0,0.0,10.0
1446037663397672224,516,1446037663392730951,robocape_mag,19.2,-0.45,-6.75,10.0,0.0,0.0,0.0,10.0,0.0,0.0,0.0,10.0
1446037663430877974,517,1446037663425904035,robocape_mag,16.2,3.15,-3.15,10.0,0.0,0.0,0.0,10.0,0.0,0.0,0.0,10.0
1446037663464374849,518,1446037663459321022,robocape_mag,16.2,3.15,-3.15,10.0,0.0,0.0,0.0,10.0,0.0,0.0,0.0,10.0
1446037663497864182,519,1446037663492767095,robocape_mag,16.2,3.15,-3.15,10.0,0.0,0.0,0.0,10.0,0.0,0.0,0.0,10.0
1446037663530808016,520,1446037663525823116,robocape_mag,16.2,3.15,-3.15,10.0,0.0,0.0,0.0,10.0,0.0,0.0,0.0,10.0
1446037663566988099,521,1446037663560206890,robocape_mag,16.2,3.15,-3.15,10.0,0.0,0.0,0.0,10.0,0.0,0.0,0.0,10.0
1446037663599751224,522,1446037663592952966,robocape_mag,9.0,2.55,-3.75,10.0,0.0,0.0,0.0,10.0,0.0,0.0,0.0,10.0
1446037663631557432,523,1446037663625929117,robocape_mag,9.0,2.55,-3.75,10.0,0.0,0.0,0.0,10.0,0.0,0.0,0.0,10.0
1446037663664808391,524,1446037663659632921,robocape_mag,9.0,2.55,-3.75,10.0,0.0,0.0,0.0,10.0,0.0,0.0,0.0,10.0
1446037663697735349,525,1446037663692816019,robocape_mag,9.0,2.55,-3.75,10.0,0.0,0.0,0.0,10.0,0.0,0.0,0.0,10.0
1446037663731384807,526,1446037663725955963,robocape_mag,9.0,2.55,-3.75,10.0,0.0,0.0,0.0,10.0,0.0,0.0,0.0,10.0
1446037663764486474,527,1446037663759397029,robocape_mag,18.0,-5.25,-3.15,10.0,0.0,0.0,0.0,10.0,0.0,0.0,0.0,10.0
