%time,field.header.seq,field.header.stamp,field.header.frame_id,field.magnetic_field.x,field.magnetic_field.y,field.magnetic_field.z,field.magnetic_field_covariance0,field.magnetic_field_covariance1,field.magnetic_field_covariance2,field.magnetic_field_covariance3,field.magnetic_field_covariance4,field.magnetic_field_covariance5,field.magnetic_field_covariance6,field.magnetic_field_covariance7,field.magnetic_field_covariance8
1446041345918403454,1,1446041345905283927,robocape_mag,-12.6,17.85,-1.95,10.0,0.0,0.0,0.0,10.0,0.0,0.0,0.0,10.0
1446041345943179579,2,1446041345938443899,robocape_mag,-12.6,17.85,-1.95,10.0,0.0,0.0,0.0,10.0,0.0,0.0,0.0,10.0
1446041345976654163,3,1446041345971721887,robocape_mag,-12.6,17.85,-1.95,10.0,0.0,0.0,0.0,10.0,0.0,0.0,0.0,10.0
1446041346009802413,4,1446041346004961013,robocape_mag,-17.1,12.75,1.95,10.0,0.0,0.0,0.0,10.0,0.0,0.0,0.0,10.0
1446041346042860455,5,1446041346038153886,robocape_mag,-17.1,12.75,1.95,10.0,0.0,0.0,0.0,10.0,0.0,0.0,0.0,10.0
1446041346076639246,6,1446041346071783065,robocape_mag,-17.1,12.75,1.95,10.0,0.0,0.0,0.0,10.0,0.0,0.0,0.0,10.0
1446041346111057830,7,1446041346106172084,robocape_mag,-17.1,12.75,1.95,10.0,0.0,0.0,0.0,10.0,0.0,0.0,0.0,10.0
1446041346143034705,8,1446041346138268947,robocape_mag,-17.1,12.75,1.95,10.0,0.0,0.0,0.0,10.0,0.0,0.0,0.0,10.0
1446041346176758413,9,1446041346171497106,robocape_mag,-18.9,6.75,0.15,10.0,0.0,0.0,0.0,10.0,0.0,0.0,0.0,10.0
1446041346210069580,10,1446041346205259084,robocape_mag,-18.9,6.75,0.15,10.0,0.0,0.0,0.0,10.0,0.0,0.0,0.0,10.0
1446041346242983996,11,1446041346238272905,robocape_mag,-18.9,6.75,0.15,10.0,0.0,0.0,0.0,10.0,0.0,0.0,0.0,10.0
1446041346276703496,12,1446041346271469116,robocape_mag,-18.9,6.75,0.15,10.0,0.0,0.0,0.0,10.0,0.0,0.0,0.0,10.0
1446041346309885996,13,1446041346305085897,robocape_mag,-18.9,6.75,0.15,10.0,0.0,0.0,0.0,10.0,0.0,0.0,0.0,10.0
1446041346343100621,14,1446041346338406085,robocape_mag,-17.4,-0.75,2.85,10.0,0.0,0.0,0.0,10.0,0.0,0.0,0.0,10.0
1446041346376661580,15,1446041346371534109,robocape_mag,-17.4,-0.75,2.85,10.0,0.0,0.0,0.0,10.0,0.0,0.0,0.0,10.0
1446041346410332496,16,1446041346405294895,robocape_mag,-17.4,-0.75,2.85,10.0,0.0,0.0,0.0,10.0,0.0,0.0,0.0,10.0
1446041346443190080,17,1446041346438304901,robocape_mag,-17.4,-0.75,2.85,10.0,0.0,0.0,0.0,10.0,0.0,0.0,0.0,10.0
1446041346476338996,18,1446041346471643924,robocape_mag,-17.4,-0.75,2.85,10.0,0.0,0.0,0.0,10.0,0.0,0.0,0.0,10.0
1446041346509826330,19,1446041346504952907,robocape_mag,-19.8,-6.15,2.85,10.0,0.0,0.0,0.0,10.0,0.0,0.0,0.0,10.0
1446041346543374580,20,1446041346538570880,robocape_mag,-19.8,-6.15,2.85,10.0,0.0,0.0,0.0,10.0,0.0,0.0,0.0,10.0
1446041346582646163,21,1446041346577824115,robocape_mag,-19.8,-6.15,2.85,10.0,0.0,0.0,0.0,10.0,0.0,0.0,0.0,10.0
1446041346610076455,22,1446041346605180978,robocape_mag,-19.8,-6.15,2.85,10.0,0.0,0.0,0.0,10.0,0.0,0.0,0.0,10.0
1446041346643289413,23,1446041346638505935,robocape_mag,-19.8,-6.15,2.85,10.0,0.0,0.0,0.0,10.0,0.0,0.0,0.0,10.0
1446041346676521705,24,1446041346671834945,robocape_mag,-12.3,-16.05,3.15,10.0,0.0,0.0,0.0,10.0,0.0,0.0,0.0,10.0
1446041346709830080,25,1446041346704943895,robocape_mag,-12.3,-16.05,3.15,10.0,0.0,0.0,0.0,10.0,0.0,0.0,0.0,10.0
1446041346743371913,26,1446041346738630056,robocape_mag,-12.3,-16.05,3.15,10.0,0.0,0.0,0.0,10.0,0.0,0.0,0.0,10.0
1446041346776426038,27,1446041346771498918,robocape_mag,-12.3,-16.05,3.15,10.0,0.0,0.0,0.0,10.0,0.0,0.0,0.0,10.0
1446041346809860163,28,1446041346804984092,robocape_mag,-4.5,-23.85,0.75,10.0,0.0,0.0,0.0,10.0,0.0,0.0,0.0,10.0
1446041346843118705,29,1446041346838349103,robocape_mag,-4.5,-23.85,0.75,10.0,0.0,0.0,0.0,10.0,0.0,0.0,0.0,10.0
1446041346876583413,30,1446041346871570110,robocape_mag,-4.5,-23.85,0.75,10.0,0.0,0.0,0.0,10.0,0.0,0.0,0.0,10.0
1446041346910584538,31,1446041346905327081,robocape_mag,-4.5,-23.85,0.75,10.0,0.0,0.0,0.0,10.0,0.0,0.0,0.0,10.0
1446041346943309538,32,1446041346938518047,robocape_mag,-4.5,-23.85,0.75,10.0,0.0,0.0,0.0,10.0,0.0,0.0,0.0,10.0
1446041346976433163,33,1446041346971636056,robocape_mag,1.8,-27.15,-0.75,10.0,0.0,0.0,0.0,10.0,0.0,0.0,0.0,10.0
1446041347010078038,34,1446041347004936933,robocape_mag,1.8,-27.15,-0.75,10.0,0.0,0.0,0.0,10.0,0.0,0.0,0.0,10.0
1446041347043100663,35,1446041347038194894,robocape_mag,1.8,-27.15,-0.75,10.0,0.0,0.0,0.0,10.0,0.0,0.0,0.0,10.0
1446041347076838372,36,1446041347071924924,robocape_mag,1.8,-27.15,-0.75,10.0,0.0,0.0,0.0,10.0,0.0,0.0,0.0,10.0
1446041347110052997,37,1446041347105071067,robocape_mag,1.8,-27.15,-0.75,10.0,0.0,0.0,0.0,10.0,0.0,0.0,0.0,10.0
1446041347143120872,38,1446041347138212919,robocape_mag,7.8,-27.15,-3.15,10.0,0.0,0.0,0.0,10.0,0.0,0.0,0.0,10.0
1446041347176569747,39,1446041347171585083,robocape_mag,7.8,-27.15,-3.15,10.0,0.0,0.0,0.0,10.0,0.0,0.0,0.0,10.0
1446041347210116538,40,1446041347205142974,robocape_mag,7.8,-27.15,-3.15,10.0,0.0,0.0,0.0,10.0,0.0,0.0,0.0,10.0
1446041347243157955,41,1446041347238215923,robocape_mag,7.8,-27.15,-3.15,10.0,0.0,0.0,0.0,10.0,0.0,0.0,0.0,10.0
1446041347276591830,42,1446041347271725893,robocape_mag,7.8,-27.15,-3.15,10.0,0.0,0.0,0.0,10.0,0.0,0.0,0.0,10.0
1446041347310286538,43,1446041347305155038,robocape_mag,13.8,-22.95,-2.55,10.0,0.0,0.0,0.0,10.0,0.0,0.0,0.0,10.0
1446041347343084163,44,1446041347338219881,robocape_mag,13.8,-22.95,-2.55,10.0,0.0,0.0,0.0,10.0,0.0,0.0,0.0,10.0
1446041347376606247,45,1446041347371613979,robocape_mag,13.8,-22.95,-2.55,10.0,0.0,0.0,0.0,10.0,0.0,0.0,0.0,10.0
1446041347410699538,46,1446041347405440092,robocape_mag,13.8,-22.95,-2.55,10.0,0.0,0.0,0.0,10.0,0.0,0.0,0.0,10.0
1446041347443478789,47,1446041347438431024,robocape_mag,13.8,-22.95,-2.55,10.0,0.0,0.0,0.0,10.0,0.0,0.0,0.0,10.0
1446041347476465122,48,1446041347471544027,robocape_mag,14.4,-24.75,-3.75,10.0,0.0,0.0,0.0,10.0,0.0,0.0,0.0,10.0
1446041347509975830,49,1446041347504959106,robocape_mag,14.4,-24.75,-3.75,10.0,0.0,0.0,0.0,10.0,0.0,0.0,0.0,10.0
1446041347543283664,50,1446041347538239002,robocape_mag,14.4,-24.75,-3.75,10.0,0.0,0.0,0.0,10.0,0.0,0.0,0.0,10.0
1446041347582075330,51,1446041347577187061,robocape_mag,14.4,-24.75,-3.75,10.0,0.0,0.0,0.0,10.0,0.0,0.0,0.0,10.0
1446041347610284497,52,1446041347605150938,robocape_mag,8.1,-22.05,0.15,10.0,0.0,0.0,0.0,10.0,0.0,0.0,0.0,10.0
1446041347643254705,53,1446041347638258934,robocape_mag,8.1,-22.05,0.15,10.0,0.0,0.0,0.0,10.0,0.0,0.0,0.0,10.0
1446041347676468497,54,1446041347671617031,robocape_mag,8.1,-22.05,0.15,10.0,0.0,0.0,0.0,10.0,0.0,0.0,0.0,10.0
1446041347710175664,55,1446041347705061912,robocape_mag,8.1,-22.05,0.15,10.0,0.0,0.0,0.0,10.0,0.0,0.0,0.0,10.0
1446041347743390997,56,1446041347738346099,robocape_mag,8.1,-22.05,0.15,10.0,0.0,0.0,0.0,10.0,0.0,0.0,0.0,10.0
1446041347776609455,57,1446041347771739959,robocape_mag,7.2,-22.35,-2.55,10.0,0.0,0.0,0.0,10.0,0.0,0.0,0.0,10.0
1446041347810144747,58,1446041347805145978,robocape_mag,7.2,-22.35,-2.55,10.0,0.0,0.0,0.0,10.0,0.0,0.0,0.0,10.0
1446041347843337455,59,1446041347838275909,robocape_mag,7.2,-22.35,-2.55,10.0,0.0,0.0,0.0,10.0,0.0,0.0,0.0,10.0
1446041347876283372,60,1446041347871539115,robocape_mag,7.2,-22.35,-2.55,10.0,0.0,0.0,0.0,10.0,0.0,0.0,0.0,10.0
1446041347910862247,61,1446041347905230998,robocape_mag,7.2,-22.35,-2.55,10.0,0.0,0.0,0.0,10.0,0.0,0.0,0.0,10.0
1446041347943276122,62,1446041347938249111,robocape_mag,3.9,-22.05,-1.65,10.0,0.0,0.0,0.0,10.0,0.0,0.0,0.0,10.0
1446041347976463830,63,1446041347971669912,robocape_mag,3.9,-22.05,-1.65,10.0,0.0,0.0,0.0,10.0,0.0,0.0,0.0,10.0
1446041348010612414,64,1446041348005681037,robocape_mag,3.9,-22.05,-1.65,10.0,0.0,0.0,0.0,10.0,0.0,0.0,0.0,10.0
1446041348043358372,65,1446041348038242101,robocape_mag,3.9,-22.05,-1.65,10.0,0.0,0.0,0.0,10.0,0.0,0.0,0.0,10.0
1446041348076637914,66,1446041348071789026,robocape_mag,3.9,-22.05,-1.65,10.0,0.0,0.0,0.0,10.0,0.0,0.0,0.0,10.0
1446041348112207705,67,1446041348106617927,robocape_mag,3.6,-22.35,-1.35,10.0,0.0,0.0,0.0,10.0,0.0,0.0,0.0,10.0
1446041348143189789,68,1446041348138181924,robocape_mag,3.6,-22.35,-1.35,10.0,0.0,0.0,0.0,10.0,0.0,0.0,0.0,10.0
1446041348176688331,69,1446041348171742916,robocape_mag,3.6,-22.35,-1.35,10.0,0.0,0.0,0.0,10.0,0.0,0.0,0.0,10.0
1446041348210670247,70,1446041348205754995,robocape_mag,3.6,-22.35,-1.35,10.0,0.0,0.0,0.0,10.0,0.0,0.0,0.0,10.0
1446041348243203497,71,1446041348238271951,robocape_mag,3.6,-22.35,-1.35,10.0,0.0,0.0,0.0,10.0,0.0,0.0,0.0,10.0
1446041348276594039,72,1446041348271720886,robocape_mag,0.3,-19.65,-2.85,10.0,0.0,0.0,0.0,10.0,0.0,0.0,0.0,10.0
1446041348310290747,73,1446041348305439949,robocape_mag,0.3,-19.65,-2.85,10.0,0.0,0.0,0.0,10.0,0.0,0.0,0.0,10.0
1446041348343958247,74,1446041348338238954,robocape_mag,0.3,-19.65,-2.85,10.0,0.0,0.0,0.0,10.0,0.0,0.0,0.0,10.0
1446041348376516872,75,1446041348371531963,robocape_mag,0.3,-19.65,-2.85,10.0,0.0,0.0,0.0,10.0,0.0,0.0,0.0,10.0
1446041348411004414,76,1446041348405435085,robocape_mag,-1.5,-22.05,-3.45,10.0,0.0,0.0,0.0,10.0,0.0,0.0,0.0,10.0
1446041348443540331,77,1446041348438399076,robocape_mag,-1.5,-22.05,-3.45,10.0,0.0,0.0,0.0,10.0,0.0,0.0,0.0,10.0
1446041348476409872,78,1446041348471545934,robocape_mag,-1.5,-22.05,-3.45,10.0,0.0,0.0,0.0,10.0,0.0,0.0,0.0,10.0
1446041348510390456,79,1446041348505399942,robocape_mag,-1.5,-22.05,-3.45,10.0,0.0,0.0,0.0,10.0,0.0,0.0,0.0,10.0
1446041348543346747,80,1446041348538291931,robocape_mag,-1.5,-22.05,-3.45,10.0,0.0,0.0,0.0,10.0,0.0,0.0,0.0,10.0
1446041348582127997,81,1446041348577231884,robocape_mag,-1.2,-21.75,-2.55,10.0,0.0,0.0,0.0,10.0,0.0,0.0,0.0,10.0
1446041348610668831,82,1446041348605904102,robocape_mag,-1.2,-21.75,-2.55,10.0,0.0,0.0,0.0,10.0,0.0,0.0,0.0,10.0
1446041348643254872,83,1446041348638293027,robocape_mag,-1.2,-21.75,-2.55,10.0,0.0,0.0,0.0,10.0,0.0,0.0,0.0,10.0
1446041348677150206,84,1446041348671533107,robocape_mag,-1.2,-21.75,-2.55,10.0,0.0,0.0,0.0,10.0,0.0,0.0,0.0,10.0
1446041348710939206,85,1446041348705828905,robocape_mag,-1.2,-21.75,-2.55,10.0,0.0,0.0,0.0,10.0,0.0,0.0,0.0,10.0
1446041348743071914,86,1446041348738284111,robocape_mag,0.3,-20.85,-3.45,10.0,0.0,0.0,0.0,10.0,0.0,0.0,0.0,10.0
1446041348776608331,87,1446041348771599054,robocape_mag,0.3,-20.85,-3.45,10.0,0.0,0.0,0.0,10.0,0.0,0.0,0.0,10.0
1446041348810479539,88,1446041348805649995,robocape_mag,0.3,-20.85,-3.45,10.0,0.0,0.0,0.0,10.0,0.0,0.0,0.0,10.0
1446041348842950748,89,1446041348838215112,robocape_mag,0.3,-20.85,-3.45,10.0,0.0,0.0,0.0,10.0,0.0,0.0,0.0,10.0
1446041348876309081,90,1446041348871589899,robocape_mag,0.3,-20.85,-3.45,10.0,0.0,0.0,0.0,10.0,0.0,0.0,0.0,10.0
1446041348910987123,91,1446041348905359029,robocape_mag,0.0,-21.15,-3.75,10.0,0.0,0.0,0.0,10.0,0.0,0.0,0.0,10.0
1446041348943544748,92,1446041348938316106,robocape_mag,0.0,-21.15,-3.75,10.0,0.0,0.0,0.0,10.0,0.0,0.0,0.0,10.0
1446041348976477498,93,1446041348971513032,robocape_mag,0.0,-21.15,-3.75,10.0,0.0,0.0,0.0,10.0,0.0,0.0,0.0,10.0
1446041349010306748,94,1446041349005367994,robocape_mag,0.0,-21.15,-3.75,10.0,0.0,0.0,0.0,10.0,0.0,0.0,0.0,10.0
1446041349043219206,95,1446041349038228034,robocape_mag,0.0,-21.15,-3.75,10.0,0.0,0.0,0.0,10.0,0.0,0.0,0.0,10.0
1446041349076550539,96,1446041349071595907,robocape_mag,0.6,-22.35,-3.75,10.0,0.0,0.0,0.0,10.0,0.0,0.0,0.0,10.0
1446041349110758706,97,1446041349105788946,robocape_mag,0.6,-22.35,-3.75,10.0,0.0,0.0,0.0,10.0,0.0,0.0,0.0,10.0
1446041349142933623,98,1446041349138186931,robocape_mag,0.6,-22.35,-3.75,10.0,0.0,0.0,0.0,10.0,0.0,0.0,0.0,10.0
1446041349176462956,99,1446041349171577930,robocape_mag,0.6,-22.35,-3.75,10.0,0.0,0.0,0.0,10.0,0.0,0.0,0.0,10.0
1446041349210572498,100,1446041349205534934,robocape_mag,-0.6,-15.75,2.25,10.0,0.0,0.0,0.0,10.0,0.0,0.0,0.0,10.0
1446041349243100873,101,1446041349238245964,robocape_mag,-0.6,-15.75,2.25,10.0,0.0,0.0,0.0,10.0,0.0,0.0,0.0,10.0
1446041349276690873,102,1446041349271575927,robocape_mag,-0.6,-15.75,2.25,10.0,0.0,0.0,0.0,10.0,0.0,0.0,0.0,10.0
1446041349310688331,103,1446041349305650949,robocape_mag,-0.6,-15.75,2.25,10.0,0.0,0.0,0.0,10.0,0.0,0.0,0.0,10.0
1446041349342930373,104,1446041349338224887,robocape_mag,-0.6,-15.75,2.25,10.0,0.0,0.0,0.0,10.0,0.0,0.0,0.0,10.0
1446041349376588581,105,1446041349371578931,robocape_mag,2.1,-4.05,-22.65,10.0,0.0,0.0,0.0,10.0,0.0,0.0,0.0,10.0
1446041349411331164,106,1446041349405752897,robocape_mag,2.1,-4.05,-22.65,10.0,0.0,0.0,0.0,10.0,0.0,0.0,0.0,10.0
1446041349443128998,107,1446041349438218116,robocape_mag,2.1,-4.05,-22.65,10.0,0.0,0.0,0.0,10.0,0.0,0.0,0.0,10.0
1446041349476392164,108,1446041349471519947,robocape_mag,2.1,-4.05,-22.65,10.0,0.0,0.0,0.0,10.0,0.0,0.0,0.0,10.0
1446041349510626331,109,1446041349505620002,robocape_mag,2.1,-4.05,-22.65,10.0,0.0,0.0,0.0,10.0,0.0,0.0,0.0,10.0
1446041349543863123,110,1446041349539071083,robocape_mag,1.2,-14.55,-30.75,10.0,0.0,0.0,0.0,10.0,0.0,0.0,0.0,10.0
1446041349581753081,111,1446041349576894998,robocape_mag,1.2,-14.55,-30.75,10.0,0.0,0.0,0.0,10.0,0.0,0.0,0.0,10.0
1446041349611191665,112,1446041349606363058,robocape_mag,1.2,-14.55,-30.75,10.0,0.0,0.0,0.0,10.0,0.0,0.0,0.0,10.0
1446041349642955748,113,1446041349638231039,robocape_mag,1.2,-14.55,-30.75,10.0,0.0,0.0,0.0,10.0,0.0,0.0,0.0,10.0
1446041349676553998,114,1446041349671715021,robocape_mag,1.2,-14.55,-30.75,10.0,0.0,0.0,0.0,10.0,0.0,0.0,0.0,10.0
1446041349710303706,115,1446041349705550909,robocape_mag,3.3,-19.65,-2.85,10.0,0.0,0.0,0.0,10.0,0.0,0.0,0.0,10.0
1446041349742916956,116,1446041349738213062,robocape_mag,3.3,-19.65,-2.85,10.0,0.0,0.0,0.0,10.0,0.0,0.0,0.0,10.0
1446041349776485665,117,1446041349771486997,robocape_mag,3.3,-19.65,-2.85,10.0,0.0,0.0,0.0,10.0,0.0,0.0,0.0,10.0
1446041349810782206,118,1446041349805762052,robocape_mag,3.3,-19.65,-2.85,10.0,0.0,0.0,0.0,10.0,0.0,0.0,0.0,10.0
1446041349843369040,119,1446041349838345050,robocape_mag,3.3,-19.65,-2.85,10.0,0.0,0.0,0.0,10.0,0.0,0.0,0.0,10.0
1446041349876230581,120,1446041349871535062,robocape_mag,0.6,-12.15,1.05,10.0,0.0,0.0,0.0,10.0,0.0,0.0,0.0,10.0
1446041349911204956,121,1446041349905767917,robocape_mag,0.6,-12.15,1.05,10.0,0.0,0.0,0.0,10.0,0.0,0.0,0.0,10.0
1446041349943198206,122,1446041349938329935,robocape_mag,0.6,-12.15,1.05,10.0,0.0,0.0,0.0,10.0,0.0,0.0,0.0,10.0
1446041349976637956,123,1446041349971654891,robocape_mag,0.6,-12.15,1.05,10.0,0.0,0.0,0.0,10.0,0.0,0.0,0.0,10.0
1446041350010641331,124,1446041350005693912,robocape_mag,0.0,-9.75,1.05,10.0,0.0,0.0,0.0,10.0,0.0,0.0,0.0,10.0
1446041350042975165,125,1446041350038187980,robocape_mag,0.0,-9.75,1.05,10.0,0.0,0.0,0.0,10.0,0.0,0.0,0.0,10.0
1446041350076630123,126,1446041350071753978,robocape_mag,0.0,-9.75,1.05,10.0,0.0,0.0,0.0,10.0,0.0,0.0,0.0,10.0
1446041350110669456,127,1446041350105635881,robocape_mag,0.0,-9.75,1.05,10.0,0.0,0.0,0.0,10.0,0.0,0.0,0.0,10.0
1446041350142932248,128,1446041350138242959,robocape_mag,0.0,-9.75,1.05,10.0,0.0,0.0,0.0,10.0,0.0,0.0,0.0,10.0
1446041350176485373,129,1446041350171672105,robocape_mag,-1.2,-11.55,0.45,10.0,0.0,0.0,0.0,10.0,0.0,0.0,0.0,10.0
1446041350210627248,130,1446041350205157995,robocape_mag,-1.2,-11.55,0.45,10.0,0.0,0.0,0.0,10.0,0.0,0.0,0.0,10.0
1446041350243502165,131,1446041350238755941,robocape_mag,-1.2,-11.55,0.45,10.0,0.0,0.0,0.0,10.0,0.0,0.0,0.0,10.0
1446041350276755832,132,1446041350271743059,robocape_mag,-1.2,-11.55,0.45,10.0,0.0,0.0,0.0,10.0,0.0,0.0,0.0,10.0
1446041350310596998,133,1446041350305197000,robocape_mag,-1.2,-11.55,0.45,10.0,0.0,0.0,0.0,10.0,0.0,0.0,0.0,10.0
1446041350343035457,134,1446041350338350057,robocape_mag,0.9,-11.25,1.95,10.0,0.0,0.0,0.0,10.0,0.0,0.0,0.0,10.0
1446041350376509040,135,1446041350371535062,robocape_mag,0.9,-11.25,1.95,10.0,0.0,0.0,0.0,10.0,0.0,0.0,0.0,10.0
1446041350411004123,136,1446041350405095100,robocape_mag,0.9,-11.25,1.95,10.0,0.0,0.0,0.0,10.0,0.0,0.0,0.0,10.0
1446041350443115290,137,1446041350438236951,robocape_mag,0.9,-11.25,1.95,10.0,0.0,0.0,0.0,10.0,0.0,0.0,0.0,10.0
1446041350476695040,138,1446041350471626996,robocape_mag,0.9,-11.25,1.95,10.0,0.0,0.0,0.0,10.0,0.0,0.0,0.0,10.0
1446041350510727707,139,1446041350505353927,robocape_mag,0.6,-10.95,1.65,10.0,0.0,0.0,0.0,10.0,0.0,0.0,0.0,10.0
1446041350543158748,140,1446041350538307905,robocape_mag,0.6,-10.95,1.65,10.0,0.0,0.0,0.0,10.0,0.0,0.0,0.0,10.0
1446041350582492998,141,1446041350577596902,robocape_mag,0.6,-10.95,1.65,10.0,0.0,0.0,0.0,10.0,0.0,0.0,0.0,10.0
1446041350611867165,142,1446041350606239080,robocape_mag,0.6,-10.95,1.65,10.0,0.0,0.0,0.0,10.0,0.0,0.0,0.0,10.0
1446041350642912123,143,1446041350638206005,robocape_mag,0.6,-10.95,1.65,10.0,0.0,0.0,0.0,10.0,0.0,0.0,0.0,10.0
1446041350676567582,144,1446041350671806097,robocape_mag,0.3,-12.45,-0.45,10.0,0.0,0.0,0.0,10.0,0.0,0.0,0.0,10.0
1446041350710824207,145,1446041350705517053,robocape_mag,0.3,-12.45,-0.45,10.0,0.0,0.0,0.0,10.0,0.0,0.0,0.0,10.0
1446041350743039790,146,1446041350738323926,robocape_mag,0.3,-12.45,-0.45,10.0,0.0,0.0,0.0,10.0,0.0,0.0,0.0,10.0
1446041350776665457,147,1446041350771704912,robocape_mag,0.3,-12.45,-0.45,10.0,0.0,0.0,0.0,10.0,0.0,0.0,0.0,10.0
1446041350811221998,148,1446041350805804014,robocape_mag,0.6,-11.55,2.85,10.0,0.0,0.0,0.0,10.0,0.0,0.0,0.0,10.0
1446041350843155748,149,1446041350838397979,robocape_mag,0.6,-11.55,2.85,10.0,0.0,0.0,0.0,10.0,0.0,0.0,0.0,10.0
1446041350876571332,150,1446041350871757984,robocape_mag,0.6,-11.55,2.85,10.0,0.0,0.0,0.0,10.0,0.0,0.0,0.0,10.0
1446041350911275957,151,1446041350905596971,robocape_mag,0.6,-11.55,2.85,10.0,0.0,0.0,0.0,10.0,0.0,0.0,0.0,10.0
1446041350943085207,152,1446041350938292980,robocape_mag,0.6,-11.55,2.85,10.0,0.0,0.0,0.0,10.0,0.0,0.0,0.0,10.0
1446041350976693790,153,1446041350971755027,robocape_mag,0.9,-13.05,1.35,10.0,0.0,0.0,0.0,10.0,0.0,0.0,0.0,10.0
1446041351010718665,154,1446041351005269050,robocape_mag,0.9,-13.05,1.35,10.0,0.0,0.0,0.0,10.0,0.0,0.0,0.0,10.0
1446041351043290915,155,1446041351038552999,robocape_mag,0.9,-13.05,1.35,10.0,0.0,0.0,0.0,10.0,0.0,0.0,0.0,10.0
1446041351076935540,156,1446041351072016954,robocape_mag,0.9,-13.05,1.35,10.0,0.0,0.0,0.0,10.0,0.0,0.0,0.0,10.0
1446041351110964957,157,1446041351105508089,robocape_mag,0.9,-13.05,1.35,10.0,0.0,0.0,0.0,10.0,0.0,0.0,0.0,10.0
1446041351143124207,158,1446041351138376951,robocape_mag,-0.3,-10.65,1.35,10.0,0.0,0.0,0.0,10.0,0.0,0.0,0.0,10.0
1446041351176690707,159,1446041351171844959,robocape_mag,-0.3,-10.65,1.35,10.0,0.0,0.0,0.0,10.0,0.0,0.0,0.0,10.0
1446041351210241999,160,1446041351205281019,robocape_mag,-0.3,-10.65,1.35,10.0,0.0,0.0,0.0,10.0,0.0,0.0,0.0,10.0
1446041351243052832,161,1446041351238322973,robocape_mag,-0.3,-10.65,1.35,10.0,0.0,0.0,0.0,10.0,0.0,0.0,0.0,10.0
1446041351276524249,162,1446041351271702051,robocape_mag,-0.3,-10.65,1.35,10.0,0.0,0.0,0.0,10.0,0.0,0.0,0.0,10.0
1446041351310198374,163,1446041351305105924,robocape_mag,1.5,-11.25,2.55,10.0,0.0,0.0,0.0,10.0,0.0,0.0,0.0,10.0
1446041351343130207,164,1446041351338423013,robocape_mag,1.5,-11.25,2.55,10.0,0.0,0.0,0.0,10.0,0.0,0.0,0.0,10.0
1446041351376534624,165,1446041351371737003,robocape_mag,1.5,-11.25,2.55,10.0,0.0,0.0,0.0,10.0,0.0,0.0,0.0,10.0
1446041351411077332,166,1446041351405781030,robocape_mag,1.5,-11.25,2.55,10.0,0.0,0.0,0.0,10.0,0.0,0.0,0.0,10.0
1446041351443867540,167,1446041351438688993,robocape_mag,1.5,-11.25,2.55,10.0,0.0,0.0,0.0,10.0,0.0,0.0,0.0,10.0
1446041351476671165,168,1446041351471767902,robocape_mag,0.0,-11.55,1.05,10.0,0.0,0.0,0.0,10.0,0.0,0.0,0.0,10.0
1446041351510476207,169,1446041351505408048,robocape_mag,0.0,-11.55,1.05,10.0,0.0,0.0,0.0,10.0,0.0,0.0,0.0,10.0
1446041351543141457,170,1446041351538305997,robocape_mag,0.0,-11.55,1.05,10.0,0.0,0.0,0.0,10.0,0.0,0.0,0.0,10.0
1446041351582475832,171,1446041351577661991,robocape_mag,0.0,-11.55,1.05,10.0,0.0,0.0,0.0,10.0,0.0,0.0,0.0,10.0
1446041351610751624,172,1446041351605496883,robocape_mag,0.9,-11.85,0.15,10.0,0.0,0.0,0.0,10.0,0.0,0.0,0.0,10.0
1446041351652813832,173,1446041351647907018,robocape_mag,0.9,-11.85,0.15,10.0,0.0,0.0,0.0,10.0,0.0,0.0,0.0,10.0
1446041351677224999,174,1446041351672405004,robocape_mag,0.9,-11.85,0.15,10.0,0.0,0.0,0.0,10.0,0.0,0.0,0.0,10.0
1446041351710642916,175,1446041351705437898,robocape_mag,0.9,-11.85,0.15,10.0,0.0,0.0,0.0,10.0,0.0,0.0,0.0,10.0
1446041351743167666,176,1446041351738332986,robocape_mag,0.9,-11.85,0.15,10.0,0.0,0.0,0.0,10.0,0.0,0.0,0.0,10.0
1446041351776476249,177,1446041351771714925,robocape_mag,-0.3,-11.85,0.75,10.0,0.0,0.0,0.0,10.0,0.0,0.0,0.0,10.0
1446041351810452541,178,1446041351805156946,robocape_mag,-0.3,-11.85,0.75,10.0,0.0,0.0,0.0,10.0,0.0,0.0,0.0,10.0
1446041351843106916,179,1446041351838366985,robocape_mag,-0.3,-11.85,0.75,10.0,0.0,0.0,0.0,10.0,0.0,0.0,0.0,10.0
1446041351876586291,180,1446041351871742963,robocape_mag,-0.3,-11.85,0.75,10.0,0.0,0.0,0.0,10.0,0.0,0.0,0.0,10.0
1446041351910651832,181,1446041351904958009,robocape_mag,-0.3,-11.85,0.75,10.0,0.0,0.0,0.0,10.0,0.0,0.0,0.0,10.0
1446041351943283957,182,1446041351938477039,robocape_mag,0.3,-11.85,0.75,10.0,0.0,0.0,0.0,10.0,0.0,0.0,0.0,10.0
1446041351976521582,183,1446041351971707105,robocape_mag,0.3,-11.85,0.75,10.0,0.0,0.0,0.0,10.0,0.0,0.0,0.0,10.0
1446041352010697124,184,1446041352004951000,robocape_mag,0.3,-11.85,0.75,10.0,0.0,0.0,0.0,10.0,0.0,0.0,0.0,10.0
1446041352043418249,185,1446041352038583040,robocape_mag,0.3,-11.85,0.75,10.0,0.0,0.0,0.0,10.0,0.0,0.0,0.0,10.0
1446041352078627082,186,1446041352073868036,robocape_mag,0.3,-11.85,0.75,10.0,0.0,0.0,0.0,10.0,0.0,0.0,0.0,10.0
1446041352110861041,187,1446041352105160951,robocape_mag,-0.9,-11.25,1.35,10.0,0.0,0.0,0.0,10.0,0.0,0.0,0.0,10.0
1446041352143238541,188,1446041352138504028,robocape_mag,-0.9,-11.25,1.35,10.0,0.0,0.0,0.0,10.0,0.0,0.0,0.0,10.0
1446041352176825666,189,1446041352172010898,robocape_mag,-0.9,-11.25,1.35,10.0,0.0,0.0,0.0,10.0,0.0,0.0,0.0,10.0
1446041352210335166,190,1446041352204787015,robocape_mag,-0.9,-11.25,1.35,10.0,0.0,0.0,0.0,10.0,0.0,0.0,0.0,10.0
1446041352243222041,191,1446041352238473892,robocape_mag,-0.9,-11.25,1.35,10.0,0.0,0.0,0.0,10.0,0.0,0.0,0.0,10.0
1446041352276517749,192,1446041352271770954,robocape_mag,0.6,-10.95,-0.75,10.0,0.0,0.0,0.0,10.0,0.0,0.0,0.0,10.0
1446041352310729707,193,1446041352305048942,robocape_mag,0.6,-10.95,-0.75,10.0,0.0,0.0,0.0,10.0,0.0,0.0,0.0,10.0
1446041352343519124,194,1446041352338608026,robocape_mag,0.6,-10.95,-0.75,10.0,0.0,0.0,0.0,10.0,0.0,0.0,0.0,10.0
1446041352376603374,195,1446041352371812105,robocape_mag,0.6,-10.95,-0.75,10.0,0.0,0.0,0.0,10.0,0.0,0.0,0.0,10.0
1446041352410428874,196,1446041352404776096,robocape_mag,1.2,-13.35,1.65,10.0,0.0,0.0,0.0,10.0,0.0,0.0,0.0,10.0
1446041352443473416,197,1446041352438662052,robocape_mag,1.2,-13.35,1.65,10.0,0.0,0.0,0.0,10.0,0.0,0.0,0.0,10.0
1446041352476634916,198,1446041352471748113,robocape_mag,1.2,-13.35,1.65,10.0,0.0,0.0,0.0,10.0,0.0,0.0,0.0,10.0
1446041352510456291,199,1446041352504826068,robocape_mag,1.2,-13.35,1.65,10.0,0.0,0.0,0.0,10.0,0.0,0.0,0.0,10.0
1446041352543189874,200,1446041352538348913,robocape_mag,1.2,-13.35,1.65,10.0,0.0,0.0,0.0,10.0,0.0,0.0,0.0,10.0
1446041352582124666,201,1446041352577048063,robocape_mag,0.3,-12.45,0.75,10.0,0.0,0.0,0.0,10.0,0.0,0.0,0.0,10.0
1446041352610447166,202,1446041352605130910,robocape_mag,0.3,-12.45,0.75,10.0,0.0,0.0,0.0,10.0,0.0,0.0,0.0,10.0
1446041352643174999,203,1446041352638430118,robocape_mag,0.3,-12.45,0.75,10.0,0.0,0.0,0.0,10.0,0.0,0.0,0.0,10.0
1446041352676342499,204,1446041352671624898,robocape_mag,0.3,-12.45,0.75,10.0,0.0,0.0,0.0,10.0,0.0,0.0,0.0,10.0
1446041352710247041,205,1446041352704929113,robocape_mag,0.3,-12.45,0.75,10.0,0.0,0.0,0.0,10.0,0.0,0.0,0.0,10.0
1446041352744213708,206,1446041352738569974,robocape_mag,-0.6,-12.15,1.65,10.0,0.0,0.0,0.0,10.0,0.0,0.0,0.0,10.0
1446041352776493083,207,1446041352771661996,robocape_mag,-0.6,-12.15,1.65,10.0,0.0,0.0,0.0,10.0,0.0,0.0,0.0,10.0
1446041352810458458,208,1446041352804899930,robocape_mag,-0.6,-12.15,1.65,10.0,0.0,0.0,0.0,10.0,0.0,0.0,0.0,10.0
1446041352843561583,209,1446041352838690996,robocape_mag,-0.6,-12.15,1.65,10.0,0.0,0.0,0.0,10.0,0.0,0.0,0.0,10.0
1446041352876483374,210,1446041352871686935,robocape_mag,-0.6,-12.15,1.65,10.0,0.0,0.0,0.0,10.0,0.0,0.0,0.0,10.0
1446041352910423124,211,1446041352905061006,robocape_mag,-1.2,-12.75,1.05,10.0,0.0,0.0,0.0,10.0,0.0,0.0,0.0,10.0
1446041352943487791,212,1446041352938684940,robocape_mag,-1.2,-12.75,1.05,10.0,0.0,0.0,0.0,10.0,0.0,0.0,0.0,10.0
1446041352976829416,213,1446041352971672058,robocape_mag,-1.2,-12.75,1.05,10.0,0.0,0.0,0.0,10.0,0.0,0.0,0.0,10.0
1446041353010297583,214,1446041353004906892,robocape_mag,-1.2,-12.75,1.05,10.0,0.0,0.0,0.0,10.0,0.0,0.0,0.0,10.0
1446041353043060375,215,1446041353038311004,robocape_mag,-1.2,-12.75,1.05,10.0,0.0,0.0,0.0,10.0,0.0,0.0,0.0,10.0
1446041353087208166,216,1446041353081957101,robocape_mag,0.6,-12.75,-0.15,10.0,0.0,0.0,0.0,10.0,0.0,0.0,0.0,10.0
1446041353110654333,217,1446041353105321884,robocape_mag,0.6,-12.75,-0.15,10.0,0.0,0.0,0.0,10.0,0.0,0.0,0.0,10.0
1446041353143276166,218,1446041353138441085,robocape_mag,0.6,-12.75,-0.15,10.0,0.0,0.0,0.0,10.0,0.0,0.0,0.0,10.0
1446041353176465791,219,1446041353171681880,robocape_mag,0.6,-12.75,-0.15,10.0,0.0,0.0,0.0,10.0,0.0,0.0,0.0,10.0
1446041353210202875,220,1446041353204828023,robocape_mag,0.9,-14.25,1.95,10.0,0.0,0.0,0.0,10.0,0.0,0.0,0.0,10.0
1446041353243349291,221,1446041353238260984,robocape_mag,0.9,-14.25,1.95,10.0,0.0,0.0,0.0,10.0,0.0,0.0,0.0,10.0
1446041353276652166,222,1446041353271940946,robocape_mag,0.9,-14.25,1.95,10.0,0.0,0.0,0.0,10.0,0.0,0.0,0.0,10.0
1446041353310320833,223,1446041353304763078,robocape_mag,0.9,-14.25,1.95,10.0,0.0,0.0,0.0,10.0,0.0,0.0,0.0,10.0
1446041353343323875,224,1446041353338346958,robocape_mag,0.9,-14.25,1.95,10.0,0.0,0.0,0.0,10.0,0.0,0.0,0.0,10.0
1446041353376647750,225,1446041353371706962,robocape_mag,-0.9,-11.85,1.35,10.0,0.0,0.0,0.0,10.0,0.0,0.0,0.0,10.0
1446041353410684375,226,1446041353404761075,robocape_mag,-0.9,-11.85,1.35,10.0,0.0,0.0,0.0,10.0,0.0,0.0,0.0,10.0
1446041353443258208,227,1446041353438461065,robocape_mag,-0.9,-11.85,1.35,10.0,0.0,0.0,0.0,10.0,0.0,0.0,0.0,10.0
1446041353476509166,228,1446041353471693992,robocape_mag,-0.9,-11.85,1.35,10.0,0.0,0.0,0.0,10.0,0.0,0.0,0.0,10.0
1446041353510387250,229,1446041353504837036,robocape_mag,-0.9,-11.85,1.35,10.0,0.0,0.0,0.0,10.0,0.0,0.0,0.0,10.0
1446041353543256541,230,1446041353538455963,robocape_mag,0.9,-11.25,-0.45,10.0,0.0,0.0,0.0,10.0,0.0,0.0,0.0,10.0
1446041353581978125,231,1446041353577114105,robocape_mag,0.9,-11.25,-0.45,10.0,0.0,0.0,0.0,10.0,0.0,0.0,0.0,10.0
1446041353610386791,232,1446041353605115890,robocape_mag,0.9,-11.25,-0.45,10.0,0.0,0.0,0.0,10.0,0.0,0.0,0.0,10.0
1446041353643180291,233,1446041353638400077,robocape_mag,0.9,-11.25,-0.45,10.0,0.0,0.0,0.0,10.0,0.0,0.0,0.0,10.0
1446041353676431583,234,1446041353671720981,robocape_mag,0.9,-11.25,-0.45,10.0,0.0,0.0,0.0,10.0,0.0,0.0,0.0,10.0
1446041353709973333,235,1446041353704766035,robocape_mag,0.3,-12.45,1.35,10.0,0.0,0.0,0.0,10.0,0.0,0.0,0.0,10.0
1446041353746970208,236,1446041353742171049,robocape_mag,0.3,-12.45,1.35,10.0,0.0,0.0,0.0,10.0,0.0,0.0,0.0,10.0
1446041353776284625,237,1446041353771528005,robocape_mag,0.3,-12.45,1.35,10.0,0.0,0.0,0.0,10.0,0.0,0.0,0.0,10.0
1446041353809922042,238,1446041353804789066,robocape_mag,0.3,-12.45,1.35,10.0,0.0,0.0,0.0,10.0,0.0,0.0,0.0,10.0
1446041353843398667,239,1446041353838438987,robocape_mag,0.3,-12.45,1.35,10.0,0.0,0.0,0.0,10.0,0.0,0.0,0.0,10.0
1446041353876482958,240,1446041353871684074,robocape_mag,0.9,-13.05,1.35,10.0,0.0,0.0,0.0,10.0,0.0,0.0,0.0,10.0
1446041353909946958,241,1446041353904885053,robocape_mag,0.9,-13.05,1.35,10.0,0.0,0.0,0.0,10.0,0.0,0.0,0.0,10.0
1446041353943433875,242,1446041353938627004,robocape_mag,0.9,-13.05,1.35,10.0,0.0,0.0,0.0,10.0,0.0,0.0,0.0,10.0
1446041353976513917,243,1446041353971688985,robocape_mag,0.9,-13.05,1.35,10.0,0.0,0.0,0.0,10.0,0.0,0.0,0.0,10.0
1446041354010019583,244,1446041354004847049,robocape_mag,0.0,-11.55,1.05,10.0,0.0,0.0,0.0,10.0,0.0,0.0,0.0,10.0
1446041354043592625,245,1446041354038836002,robocape_mag,0.0,-11.55,1.05,10.0,0.0,0.0,0.0,10.0,0.0,0.0,0.0,10.0
1446041354076659917,246,1446041354071899890,robocape_mag,0.0,-11.55,1.05,10.0,0.0,0.0,0.0,10.0,0.0,0.0,0.0,10.0
1446041354110476750,247,1446041354105212926,robocape_mag,0.0,-11.55,1.05,10.0,0.0,0.0,0.0,10.0,0.0,0.0,0.0,10.0
1446041354144741333,248,1446041354139962911,robocape_mag,0.0,-11.55,1.05,10.0,0.0,0.0,0.0,10.0,0.0,0.0,0.0,10.0
1446041354176594167,249,1446041354171660900,robocape_mag,1.5,-13.65,0.15,10.0,0.0,0.0,0.0,10.0,0.0,0.0,0.0,10.0
1446041354209826833,250,1446041354204775094,robocape_mag,1.5,-13.65,0.15,10.0,0.0,0.0,0.0,10.0,0.0,0.0,0.0,10.0
1446041354244080042,251,1446041354238993883,robocape_mag,1.5,-13.65,0.15,10.0,0.0,0.0,0.0,10.0,0.0,0.0,0.0,10.0
1446041354276431000,252,1446041354271487951,robocape_mag,1.5,-13.65,0.15,10.0,0.0,0.0,0.0,10.0,0.0,0.0,0.0,10.0
1446041354309755917,253,1446041354304851055,robocape_mag,1.5,-13.65,0.15,10.0,0.0,0.0,0.0,10.0,0.0,0.0,0.0,10.0
1446041354343326458,254,1446041354338385105,robocape_mag,0.6,-10.35,1.05,10.0,0.0,0.0,0.0,10.0,0.0,0.0,0.0,10.0
1446041354376663542,255,1446041354371613979,robocape_mag,0.6,-10.35,1.05,10.0,0.0,0.0,0.0,10.0,0.0,0.0,0.0,10.0
1446041354409960667,256,1446041354404912948,robocape_mag,0.6,-10.35,1.05,10.0,0.0,0.0,0.0,10.0,0.0,0.0,0.0,10.0
1446041354443579792,257,1446041354438574075,robocape_mag,0.6,-10.35,1.05,10.0,0.0,0.0,0.0,10.0,0.0,0.0,0.0,10.0
1446041354476705167,258,1446041354471693038,robocape_mag,0.6,-10.35,1.05,10.0,0.0,0.0,0.0,10.0,0.0,0.0,0.0,10.0
1446041354509735792,259,1446041354504822015,robocape_mag,1.2,-10.35,0.45,10.0,0.0,0.0,0.0,10.0,0.0,0.0,0.0,10.0
1446041354543873250,260,1446041354538880109,robocape_mag,1.2,-10.35,0.45,10.0,0.0,0.0,0.0,10.0,0.0,0.0,0.0,10.0
1446041354582494834,261,1446041354577649116,robocape_mag,1.2,-10.35,0.45,10.0,0.0,0.0,0.0,10.0,0.0,0.0,0.0,10.0
1446041354610188584,262,1446041354604847908,robocape_mag,1.2,-10.35,0.45,10.0,0.0,0.0,0.0,10.0,0.0,0.0,0.0,10.0
1446041354643837500,263,1446041354638708114,robocape_mag,1.2,-10.35,0.45,10.0,0.0,0.0,0.0,10.0,0.0,0.0,0.0,10.0
1446041354676682834,264,1446041354671581983,robocape_mag,-0.3,-12.45,1.95,10.0,0.0,0.0,0.0,10.0,0.0,0.0,0.0,10.0
1446041354709795542,265,1446041354704823017,robocape_mag,-0.3,-12.45,1.95,10.0,0.0,0.0,0.0,10.0,0.0,0.0,0.0,10.0
1446041354743993375,266,1446041354738754034,robocape_mag,-0.3,-12.45,1.95,10.0,0.0,0.0,0.0,10.0,0.0,0.0,0.0,10.0
1446041354776591834,267,1446041354771646022,robocape_mag,-0.3,-12.45,1.95,10.0,0.0,0.0,0.0,10.0,0.0,0.0,0.0,10.0
1446041354810092959,268,1446041354805147886,robocape_mag,-0.9,-9.45,1.35,10.0,0.0,0.0,0.0,10.0,0.0,0.0,0.0,10.0
1446041354843974334,269,1446041354838604927,robocape_mag,-0.9,-9.45,1.35,10.0,0.0,0.0,0.0,10.0,0.0,0.0,0.0,10.0
1446041354876544834,270,1446041354871567964,robocape_mag,-0.9,-9.45,1.35,10.0,0.0,0.0,0.0,10.0,0.0,0.0,0.0,10.0
1446041354909710417,271,1446041354904778957,robocape_mag,-0.9,-9.45,1.35,10.0,0.0,0.0,0.0,10.0,0.0,0.0,0.0,10.0
1446041354943865292,272,1446041354938715934,robocape_mag,-0.9,-9.45,1.35,10.0,0.0,0.0,0.0,10.0,0.0,0.0,0.0,10.0
1446041354976509209,273,1446041354971544027,robocape_mag,0.3,-11.85,1.95,10.0,0.0,0.0,0.0,10.0,0.0,0.0,0.0,10.0
1446041355010970084,274,1446041355004842996,robocape_mag,0.3,-11.85,1.95,10.0,0.0,0.0,0.0,10.0,0.0,0.0,0.0,10.0
1446041355044066875,275,1446041355038878917,robocape_mag,0.3,-11.85,1.95,10.0,0.0,0.0,0.0,10.0,0.0,0.0,0.0,10.0
1446041355076694834,276,1446041355071765899,robocape_mag,0.3,-11.85,1.95,10.0,0.0,0.0,0.0,10.0,0.0,0.0,0.0,10.0
1446041355110284834,277,1446041355105066061,robocape_mag,0.3,-11.85,1.95,10.0,0.0,0.0,0.0,10.0,0.0,0.0,0.0,10.0
1446041355144109001,278,1446041355138658046,robocape_mag,0.9,-11.85,0.75,10.0,0.0,0.0,0.0,10.0,0.0,0.0,0.0,10.0
1446041355176653626,279,1446041355171715974,robocape_mag,0.9,-11.85,0.75,10.0,0.0,0.0,0.0,10.0,0.0,0.0,0.0,10.0
1446041355209851667,280,1446041355205008029,robocape_mag,0.9,-11.85,0.75,10.0,0.0,0.0,0.0,10.0,0.0,0.0,0.0,10.0
1446041355243937876,281,1446041355238440990,robocape_mag,0.9,-11.85,0.75,10.0,0.0,0.0,0.0,10.0,0.0,0.0,0.0,10.0
1446041355284733876,282,1446041355279782056,robocape_mag,0.9,-11.85,0.75,10.0,0.0,0.0,0.0,10.0,0.0,0.0,0.0,10.0
1446041355319263001,283,1446041355314152002,robocape_mag,-0.6,-10.95,2.25,10.0,0.0,0.0,0.0,10.0,0.0,0.0,0.0,10.0
1446041355344058459,284,1446041355338587999,robocape_mag,-0.6,-10.95,2.25,10.0,0.0,0.0,0.0,10.0,0.0,0.0,0.0,10.0
1446041355376632501,285,1446041355371537923,robocape_mag,-0.6,-10.95,2.25,10.0,0.0,0.0,0.0,10.0,0.0,0.0,0.0,10.0
1446041355409775459,286,1446041355404839992,robocape_mag,-0.6,-10.95,2.25,10.0,0.0,0.0,0.0,10.0,0.0,0.0,0.0,10.0
1446041355444282376,287,1446041355438864946,robocape_mag,-0.6,-10.95,2.25,10.0,0.0,0.0,0.0,10.0,0.0,0.0,0.0,10.0
1446041355476647167,288,1446041355471515893,robocape_mag,0.9,-12.45,1.95,10.0,0.0,0.0,0.0,10.0,0.0,0.0,0.0,10.0
1446041355509708834,289,1446041355504827022,robocape_mag,0.9,-12.45,1.95,10.0,0.0,0.0,0.0,10.0,0.0,0.0,0.0,10.0
1446041355544012584,290,1446041355538686990,robocape_mag,0.9,-12.45,1.95,10.0,0.0,0.0,0.0,10.0,0.0,0.0,0.0,10.0
1446041355582037001,291,1446041355577095985,robocape_mag,0.9,-12.45,1.95,10.0,0.0,0.0,0.0,10.0,0.0,0.0,0.0,10.0
1446041355614097292,292,1446041355609359025,robocape_mag,0.3,-11.85,0.75,10.0,0.0,0.0,0.0,10.0,0.0,0.0,0.0,10.0
1446041355644088876,293,1446041355638659954,robocape_mag,0.3,-11.85,0.75,10.0,0.0,0.0,0.0,10.0,0.0,0.0,0.0,10.0
1446041355676569459,294,1446041355671524047,robocape_mag,0.3,-11.85,0.75,10.0,0.0,0.0,0.0,10.0,0.0,0.0,0.0,10.0
1446041355709754376,295,1446041355704912900,robocape_mag,0.3,-11.85,0.75,10.0,0.0,0.0,0.0,10.0,0.0,0.0,0.0,10.0
1446041355744086584,296,1446041355738545894,robocape_mag,0.3,-11.85,0.75,10.0,0.0,0.0,0.0,10.0,0.0,0.0,0.0,10.0
1446041355776473876,297,1446041355771550893,robocape_mag,-0.3,-12.45,1.95,10.0,0.0,0.0,0.0,10.0,0.0,0.0,0.0,10.0
1446041355809640167,298,1446041355804934024,robocape_mag,-0.3,-12.45,1.95,10.0,0.0,0.0,0.0,10.0,0.0,0.0,0.0,10.0
1446041355844047293,299,1446041355838572978,robocape_mag,-0.3,-12.45,1.95,10.0,0.0,0.0,0.0,10.0,0.0,0.0,0.0,10.0
1446041355876665459,300,1446041355871649980,robocape_mag,-0.3,-12.45,1.95,10.0,0.0,0.0,0.0,10.0,0.0,0.0,0.0,10.0
1446041355909710959,301,1446041355904902935,robocape_mag,-0.3,-12.45,1.95,10.0,0.0,0.0,0.0,10.0,0.0,0.0,0.0,10.0
1446041355944157209,302,1446041355938863039,robocape_mag,0.0,-12.15,0.45,10.0,0.0,0.0,0.0,10.0,0.0,0.0,0.0,10.0
1446041355976822418,303,1446041355971858978,robocape_mag,0.0,-12.15,0.45,10.0,0.0,0.0,0.0,10.0,0.0,0.0,0.0,10.0
1446041356011342709,304,1446041356006237030,robocape_mag,0.0,-12.15,0.45,10.0,0.0,0.0,0.0,10.0,0.0,0.0,0.0,10.0
1446041356049787751,305,1446041356039768934,robocape_mag,0.0,-12.15,0.45,10.0,0.0,0.0,0.0,10.0,0.0,0.0,0.0,10.0
1446041356082363668,306,1446041356073127985,robocape_mag,0.0,-12.15,0.45,10.0,0.0,0.0,0.0,10.0,0.0,0.0,0.0,10.0
1446041356112042293,307,1446041356106672048,robocape_mag,-0.3,-10.65,1.35,10.0,0.0,0.0,0.0,10.0,0.0,0.0,0.0,10.0
1446041356149540168,308,1446041356139431953,robocape_mag,-0.3,-10.65,1.35,10.0,0.0,0.0,0.0,10.0,0.0,0.0,0.0,10.0
1446041356178264709,309,1446041356172887086,robocape_mag,-0.3,-10.65,1.35,10.0,0.0,0.0,0.0,10.0,0.0,0.0,0.0,10.0
1446041356215637959,310,1446041356206403017,robocape_mag,-0.3,-10.65,1.35,10.0,0.0,0.0,0.0,10.0,0.0,0.0,0.0,10.0
1446041356244687751,311,1446041356239481925,robocape_mag,-0.3,-10.65,1.35,10.0,0.0,0.0,0.0,10.0,0.0,0.0,0.0,10.0
1446041356279377084,312,1446041356272660017,robocape_mag,1.2,-12.15,-0.15,10.0,0.0,0.0,0.0,10.0,0.0,0.0,0.0,10.0
1446041356314861251,313,1446041356306349039,robocape_mag,1.2,-12.15,-0.15,10.0,0.0,0.0,0.0,10.0,0.0,0.0,0.0,10.0
1446041356345439918,314,1446041356340152025,robocape_mag,1.2,-12.15,-0.15,10.0,0.0,0.0,0.0,10.0,0.0,0.0,0.0,10.0
1446041356379219918,315,1446041356372744083,robocape_mag,1.2,-12.15,-0.15,10.0,0.0,0.0,0.0,10.0,0.0,0.0,0.0,10.0
1446041356411083459,316,1446041356406125068,robocape_mag,1.2,-12.15,1.65,10.0,0.0,0.0,0.0,10.0,0.0,0.0,0.0,10.0
1446041356446137584,317,1446041356441061973,robocape_mag,1.2,-12.15,1.65,10.0,0.0,0.0,0.0,10.0,0.0,0.0,0.0,10.0
1446041356484035584,318,1446041356478952884,robocape_mag,1.2,-12.15,1.65,10.0,0.0,0.0,0.0,10.0,0.0,0.0,0.0,10.0
1446041356514918001,319,1446041356509916067,robocape_mag,1.2,-12.15,1.65,10.0,0.0,0.0,0.0,10.0,0.0,0.0,0.0,10.0
1446041356547672793,320,1446041356542567968,robocape_mag,1.2,-12.15,1.65,10.0,0.0,0.0,0.0,10.0,0.0,0.0,0.0,10.0
1446041356586853001,321,1446041356581913948,robocape_mag,-0.3,-11.25,0.75,10.0,0.0,0.0,0.0,10.0,0.0,0.0,0.0,10.0
1446041356618503543,322,1446041356613662958,robocape_mag,-0.3,-11.25,0.75,10.0,0.0,0.0,0.0,10.0,0.0,0.0,0.0,10.0
1446041356650324918,323,1446041356645266056,robocape_mag,-0.3,-11.25,0.75,10.0,0.0,0.0,0.0,10.0,0.0,0.0,0.0,10.0
1446041356684474335,324,1446041356675426959,robocape_mag,-0.3,-11.25,0.75,10.0,0.0,0.0,0.0,10.0,0.0,0.0,0.0,10.0
1446041356711457543,325,1446041356706538915,robocape_mag,-0.3,-11.25,0.75,10.0,0.0,0.0,0.0,10.0,0.0,0.0,0.0,10.0
1446041356747589293,326,1446041356742273092,robocape_mag,0.6,-12.75,2.25,10.0,0.0,0.0,0.0,10.0,0.0,0.0,0.0,10.0
1446041356777888293,327,1446041356773029088,robocape_mag,0.6,-12.75,2.25,10.0,0.0,0.0,0.0,10.0,0.0,0.0,0.0,10.0
1446041356810490543,328,1446041356805567026,robocape_mag,0.6,-12.75,2.25,10.0,0.0,0.0,0.0,10.0,0.0,0.0,0.0,10.0
1446041356844367876,329,1446041356839024066,robocape_mag,0.6,-12.75,2.25,10.0,0.0,0.0,0.0,10.0,0.0,0.0,0.0,10.0
1446041356877115043,330,1446041356872265100,robocape_mag,0.6,-12.75,2.25,10.0,0.0,0.0,0.0,10.0,0.0,0.0,0.0,10.0
1446041356910420501,331,1446041356905452013,robocape_mag,1.8,-11.55,-0.15,10.0,0.0,0.0,0.0,10.0,0.0,0.0,0.0,10.0
1446041356945098001,332,1446041356939696073,robocape_mag,1.8,-11.55,-0.15,10.0,0.0,0.0,0.0,10.0,0.0,0.0,0.0,10.0
1446041356977797710,333,1446041356972795963,robocape_mag,1.8,-11.55,-0.15,10.0,0.0,0.0,0.0,10.0,0.0,0.0,0.0,10.0
1446041357011547460,334,1446041357006566047,robocape_mag,1.8,-11.55,-0.15,10.0,0.0,0.0,0.0,10.0,0.0,0.0,0.0,10.0
1446041357046448460,335,1446041357039432048,robocape_mag,1.8,-11.55,-0.15,10.0,0.0,0.0,0.0,10.0,0.0,0.0,0.0,10.0
1446041357077547960,336,1446041357072628021,robocape_mag,0.3,-11.85,1.95,10.0,0.0,0.0,0.0,10.0,0.0,0.0,0.0,10.0
1446041357110906126,337,1446041357105698108,robocape_mag,0.3,-11.85,1.95,10.0,0.0,0.0,0.0,10.0,0.0,0.0,0.0,10.0
1446041357146497626,338,1446041357139327049,robocape_mag,0.3,-11.85,1.95,10.0,0.0,0.0,0.0,10.0,0.0,0.0,0.0,10.0
1446041357178192293,339,1446041357173151969,robocape_mag,0.3,-11.85,1.95,10.0,0.0,0.0,0.0,10.0,0.0,0.0,0.0,10.0
1446041357211706210,340,1446041357206756114,robocape_mag,0.9,-11.25,1.95,10.0,0.0,0.0,0.0,10.0,0.0,0.0,0.0,10.0
1446041357246156127,341,1446041357240112066,robocape_mag,0.9,-11.25,1.95,10.0,0.0,0.0,0.0,10.0,0.0,0.0,0.0,10.0
1446041357277573460,342,1446041357272597074,robocape_mag,0.9,-11.25,1.95,10.0,0.0,0.0,0.0,10.0,0.0,0.0,0.0,10.0
1446041357311284668,343,1446041357306384086,robocape_mag,0.9,-11.25,1.95,10.0,0.0,0.0,0.0,10.0,0.0,0.0,0.0,10.0
1446041357344541502,344,1446041357339689970,robocape_mag,0.9,-11.25,1.95,10.0,0.0,0.0,0.0,10.0,0.0,0.0,0.0,10.0
1446041357377491752,345,1446041357372606039,robocape_mag,1.2,-9.75,-0.15,10.0,0.0,0.0,0.0,10.0,0.0,0.0,0.0,10.0
1446041357411234752,346,1446041357406327962,robocape_mag,1.2,-9.75,-0.15,10.0,0.0,0.0,0.0,10.0,0.0,0.0,0.0,10.0
1446041357444600668,347,1446041357439519882,robocape_mag,1.2,-9.75,-0.15,10.0,0.0,0.0,0.0,10.0,0.0,0.0,0.0,10.0
1446041357477410710,348,1446041357472496032,robocape_mag,1.2,-9.75,-0.15,10.0,0.0,0.0,0.0,10.0,0.0,0.0,0.0,10.0
1446041357511385418,349,1446041357506300926,robocape_mag,1.2,-9.75,-0.15,10.0,0.0,0.0,0.0,10.0,0.0,0.0,0.0,10.0
1446041357543906710,350,1446041357538743972,robocape_mag,0.3,-11.25,0.75,10.0,0.0,0.0,0.0,10.0,0.0,0.0,0.0,10.0
1446041357586062085,351,1446041357577342033,robocape_mag,0.3,-11.25,0.75,10.0,0.0,0.0,0.0,10.0,0.0,0.0,0.0,10.0
1446041357618016502,352,1446041357608755111,robocape_mag,0.3,-11.25,0.75,10.0,0.0,0.0,0.0,10.0,0.0,0.0,0.0,10.0
1446041357643752793,353,1446041357638840913,robocape_mag,0.3,-11.25,0.75,10.0,0.0,0.0,0.0,10.0,0.0,0.0,0.0,10.0
1446041357676953002,354,1446041357671925067,robocape_mag,0.3,-11.25,0.75,10.0,0.0,0.0,0.0,10.0,0.0,0.0,0.0,10.0
1446041357710173252,355,1446041357705348968,robocape_mag,-0.6,-12.75,1.65,10.0,0.0,0.0,0.0,10.0,0.0,0.0,0.0,10.0
1446041357743277668,356,1446041357738446950,robocape_mag,-0.6,-12.75,1.65,10.0,0.0,0.0,0.0,10.0,0.0,0.0,0.0,10.0
1446041357777030543,357,1446041357772047996,robocape_mag,-0.6,-12.75,1.65,10.0,0.0,0.0,0.0,10.0,0.0,0.0,0.0,10.0
1446041357810904835,358,1446041357805877923,robocape_mag,-0.6,-12.75,1.65,10.0,0.0,0.0,0.0,10.0,0.0,0.0,0.0,10.0
1446041357844114793,359,1446041357839133024,robocape_mag,-0.6,-12.75,1.65,10.0,0.0,0.0,0.0,10.0,0.0,0.0,0.0,10.0
1446041357878020335,360,1446041357872951030,robocape_mag,1.2,-11.55,1.05,10.0,0.0,0.0,0.0,10.0,0.0,0.0,0.0,10.0
1446041357911285627,361,1446041357906419038,robocape_mag,1.2,-11.55,1.05,10.0,0.0,0.0,0.0,10.0,0.0,0.0,0.0,10.0
1446041357945188627,362,1446041357940084934,robocape_mag,1.2,-11.55,1.05,10.0,0.0,0.0,0.0,10.0,0.0,0.0,0.0,10.0
1446041357977888835,363,1446041357972956895,robocape_mag,1.2,-11.55,1.05,10.0,0.0,0.0,0.0,10.0,0.0,0.0,0.0,10.0
1446041358011109919,364,1446041358006247997,robocape_mag,0.6,-10.35,1.05,10.0,0.0,0.0,0.0,10.0,0.0,0.0,0.0,10.0
1446041358050348210,365,1446041358039628028,robocape_mag,0.6,-10.35,1.05,10.0,0.0,0.0,0.0,10.0,0.0,0.0,0.0,10.0
1446041358078080585,366,1446041358072999000,robocape_mag,0.6,-10.35,1.05,10.0,0.0,0.0,0.0,10.0,0.0,0.0,0.0,10.0
1446041358111152877,367,1446041358106060028,robocape_mag,0.6,-10.35,1.05,10.0,0.0,0.0,0.0,10.0,0.0,0.0,0.0,10.0
1446041358150793502,368,1446041358139637947,robocape_mag,0.6,-10.35,1.05,10.0,0.0,0.0,0.0,10.0,0.0,0.0,0.0,10.0
1446041358179041335,369,1446041358173974037,robocape_mag,0.9,-13.05,0.75,10.0,0.0,0.0,0.0,10.0,0.0,0.0,0.0,10.0
1446041358210247460,370,1446041358205365896,robocape_mag,0.9,-13.05,0.75,10.0,0.0,0.0,0.0,10.0,0.0,0.0,0.0,10.0
1446041358243312669,371,1446041358238301992,robocape_mag,0.9,-13.05,0.75,10.0,0.0,0.0,0.0,10.0,0.0,0.0,0.0,10.0
1446041358281782002,372,1446041358272416114,robocape_mag,0.9,-13.05,0.75,10.0,0.0,0.0,0.0,10.0,0.0,0.0,0.0,10.0
1446041358309569669,373,1446041358304755926,robocape_mag,0.9,-13.05,0.75,10.0,0.0,0.0,0.0,10.0,0.0,0.0,0.0,10.0
1446041358343312085,374,1446041358338360071,robocape_mag,-0.6,-11.55,1.05,10.0,0.0,0.0,0.0,10.0,0.0,0.0,0.0,10.0
1446041358381450710,375,1446041358372903108,robocape_mag,-0.6,-11.55,1.05,10.0,0.0,0.0,0.0,10.0,0.0,0.0,0.0,10.0
1446041358410430044,376,1446041358405474901,robocape_mag,-0.6,-11.55,1.05,10.0,0.0,0.0,0.0,10.0,0.0,0.0,0.0,10.0
1446041358444431794,377,1446041358439466953,robocape_mag,-0.6,-11.55,1.05,10.0,0.0,0.0,0.0,10.0,0.0,0.0,0.0,10.0
1446041358477026835,378,1446041358472258090,robocape_mag,-0.6,-11.55,1.05,10.0,0.0,0.0,0.0,10.0,0.0,0.0,0.0,10.0
1446041358510154960,379,1446041358505354881,robocape_mag,0.6,-11.55,1.05,10.0,0.0,0.0,0.0,10.0,0.0,0.0,0.0,10.0
1446041358544242502,380,1446041358539372920,robocape_mag,0.6,-11.55,1.05,10.0,0.0,0.0,0.0,10.0,0.0,0.0,0.0,10.0
1446041358581000127,381,1446041358575860023,robocape_mag,0.6,-11.55,1.05,10.0,0.0,0.0,0.0,10.0,0.0,0.0,0.0,10.0
1446041358614882211,382,1446041358609543085,robocape_mag,0.6,-11.55,1.05,10.0,0.0,0.0,0.0,10.0,0.0,0.0,0.0,10.0
1446041358646300086,383,1446041358641325950,robocape_mag,0.6,-11.55,1.05,10.0,0.0,0.0,0.0,10.0,0.0,0.0,0.0,10.0
1446041358678942461,384,1446041358673993110,robocape_mag,-1.8,-10.95,-0.75,10.0,0.0,0.0,0.0,10.0,0.0,0.0,0.0,10.0
1446041358711291002,385,1446041358706290006,robocape_mag,-1.8,-10.95,-0.75,10.0,0.0,0.0,0.0,10.0,0.0,0.0,0.0,10.0
1446041358744060877,386,1446041358739191055,robocape_mag,-1.8,-10.95,-0.75,10.0,0.0,0.0,0.0,10.0,0.0,0.0,0.0,10.0
1446041358777737211,387,1446041358772697925,robocape_mag,-1.8,-10.95,-0.75,10.0,0.0,0.0,0.0,10.0,0.0,0.0,0.0,10.0
1446041358811370627,388,1446041358806359052,robocape_mag,1.2,-11.55,1.05,10.0,0.0,0.0,0.0,10.0,0.0,0.0,0.0,10.0
1446041358844136211,389,1446041358839106082,robocape_mag,1.2,-11.55,1.05,10.0,0.0,0.0,0.0,10.0,0.0,0.0,0.0,10.0
1446041358877177752,390,1446041358872293949,robocape_mag,1.2,-11.55,1.05,10.0,0.0,0.0,0.0,10.0,0.0,0.0,0.0,10.0
1446041358910208127,391,1446041358905323982,robocape_mag,1.2,-11.55,1.05,10.0,0.0,0.0,0.0,10.0,0.0,0.0,0.0,10.0
1446041358945086336,392,1446041358940108060,robocape_mag,1.2,-11.55,1.05,10.0,0.0,0.0,0.0,10.0,0.0,0.0,0.0,10.0
1446041358978415419,393,1446041358973357915,robocape_mag,-0.3,-11.85,0.75,10.0,0.0,0.0,0.0,10.0,0.0,0.0,0.0,10.0
1446041359011077752,394,1446041359006241083,robocape_mag,-0.3,-11.85,0.75,10.0,0.0,0.0,0.0,10.0,0.0,0.0,0.0,10.0
1446041359044875211,395,1446041359039678096,robocape_mag,-0.3,-11.85,0.75,10.0,0.0,0.0,0.0,10.0,0.0,0.0,0.0,10.0
1446041359078065252,396,1446041359072875976,robocape_mag,-0.3,-11.85,0.75,10.0,0.0,0.0,0.0,10.0,0.0,0.0,0.0,10.0
1446041359111308461,397,1446041359106323003,robocape_mag,-0.3,-11.85,0.75,10.0,0.0,0.0,0.0,10.0,0.0,0.0,0.0,10.0
1446041359144508336,398,1446041359139472961,robocape_mag,0.6,-12.15,-0.15,10.0,0.0,0.0,0.0,10.0,0.0,0.0,0.0,10.0
1446041359178967794,399,1446041359173907041,robocape_mag,0.6,-12.15,-0.15,10.0,0.0,0.0,0.0,10.0,0.0,0.0,0.0,10.0
1446041359212853919,400,1446041359207906007,robocape_mag,0.6,-12.15,-0.15,10.0,0.0,0.0,0.0,10.0,0.0,0.0,0.0,10.0
1446041359244972044,401,1446041359240061044,robocape_mag,0.6,-12.15,-0.15,10.0,0.0,0.0,0.0,10.0,0.0,0.0,0.0,10.0
1446041359277726544,402,1446041359272651910,robocape_mag,0.6,-12.15,-0.15,10.0,0.0,0.0,0.0,10.0,0.0,0.0,0.0,10.0
1446041359311381961,403,1446041359306308984,robocape_mag,0.0,-11.55,1.05,10.0,0.0,0.0,0.0,10.0,0.0,0.0,0.0,10.0
1446041359344457961,404,1446041359339582920,robocape_mag,0.0,-11.55,1.05,10.0,0.0,0.0,0.0,10.0,0.0,0.0,0.0,10.0
1446041359378197336,405,1446041359373250961,robocape_mag,0.0,-11.55,1.05,10.0,0.0,0.0,0.0,10.0,0.0,0.0,0.0,10.0
1446041359411239378,406,1446041359406362056,robocape_mag,0.0,-11.55,1.05,10.0,0.0,0.0,0.0,10.0,0.0,0.0,0.0,10.0
1446041359445318878,407,1446041359440184116,robocape_mag,0.0,-11.55,1.05,10.0,0.0,0.0,0.0,10.0,0.0,0.0,0.0,10.0
1446041359480960711,408,1446041359475944042,robocape_mag,1.2,-12.75,0.45,10.0,0.0,0.0,0.0,10.0,0.0,0.0,0.0,10.0
1446041359517500419,409,1446041359509027957,robocape_mag,1.2,-12.75,0.45,10.0,0.0,0.0,0.0,10.0,0.0,0.0,0.0,10.0
1446041359546458878,410,1446041359541366100,robocape_mag,1.2,-12.75,0.45,10.0,0.0,0.0,0.0,10.0,0.0,0.0,0.0,10.0
1446041359585142628,411,1446041359580030918,robocape_mag,1.2,-12.75,0.45,10.0,0.0,0.0,0.0,10.0,0.0,0.0,0.0,10.0
1446041359619495378,412,1446041359614238977,robocape_mag,0.0,-13.35,1.65,10.0,0.0,0.0,0.0,10.0,0.0,0.0,0.0,10.0
1446041359653070086,413,1446041359648066043,robocape_mag,0.0,-13.35,1.65,10.0,0.0,0.0,0.0,10.0,0.0,0.0,0.0,10.0
1446041359685238169,414,1446041359680200099,robocape_mag,0.0,-13.35,1.65,10.0,0.0,0.0,0.0,10.0,0.0,0.0,0.0,10.0
1446041359719888461,415,1446041359714773893,robocape_mag,0.0,-13.35,1.65,10.0,0.0,0.0,0.0,10.0,0.0,0.0,0.0,10.0
1446041359756866419,416,1446041359748663902,robocape_mag,0.0,-13.35,1.65,10.0,0.0,0.0,0.0,10.0,0.0,0.0,0.0,10.0
1446041359786623086,417,1446041359781464099,robocape_mag,0.9,-10.65,0.75,10.0,0.0,0.0,0.0,10.0,0.0,0.0,0.0,10.0
1446041359820100544,418,1446041359814872980,robocape_mag,0.9,-10.65,0.75,10.0,0.0,0.0,0.0,10.0,0.0,0.0,0.0,10.0
1446041359851549961,419,1446041359846497058,robocape_mag,0.9,-10.65,0.75,10.0,0.0,0.0,0.0,10.0,0.0,0.0,0.0,10.0
1446041359883854336,420,1446041359878887891,robocape_mag,0.9,-10.65,0.75,10.0,0.0,0.0,0.0,10.0,0.0,0.0,0.0,10.0
1446041359915067711,421,1446041359910233974,robocape_mag,0.9,-10.65,0.75,10.0,0.0,0.0,0.0,10.0,0.0,0.0,0.0,10.0
1446041359949385628,422,1446041359944426059,robocape_mag,0.9,-12.45,1.95,10.0,0.0,0.0,0.0,10.0,0.0,0.0,0.0,10.0
1446041359984048711,423,1446041359979062080,robocape_mag,0.9,-12.45,1.95,10.0,0.0,0.0,0.0,10.0,0.0,0.0,0.0,10.0
1446041360014710128,424,1446041360009840011,robocape_mag,0.9,-12.45,1.95,10.0,0.0,0.0,0.0,10.0,0.0,0.0,0.0,10.0
1446041360045608670,425,1446041360040630102,robocape_mag,0.9,-12.45,1.95,10.0,0.0,0.0,0.0,10.0,0.0,0.0,0.0,10.0
1446041360080425211,426,1446041360075457096,robocape_mag,0.9,-12.45,1.95,10.0,0.0,0.0,0.0,10.0,0.0,0.0,0.0,10.0
1446041360116829003,427,1446041360109257936,robocape_mag,0.0,-10.95,1.05,10.0,0.0,0.0,0.0,10.0,0.0,0.0,0.0,10.0
1446041360145995170,428,1446041360140969038,robocape_mag,0.0,-10.95,1.05,10.0,0.0,0.0,0.0,10.0,0.0,0.0,0.0,10.0
1446041360177665545,429,1446041360172408103,robocape_mag,0.0,-10.95,1.05,10.0,0.0,0.0,0.0,10.0,0.0,0.0,0.0,10.0
1446041360209808836,430,1446041360204972028,robocape_mag,0.0,-10.95,1.05,10.0,0.0,0.0,0.0,10.0,0.0,0.0,0.0,10.0
1446041360252850003,431,1446041360243742942,robocape_mag,0.0,-10.95,1.65,10.0,0.0,0.0,0.0,10.0,0.0,0.0,0.0,10.0
1446041360290750086,432,1446041360285654067,robocape_mag,0.6,-11.55,1.65,10.0,0.0,0.0,0.0,10.0,0.0,0.0,0.0,10.0
1446041360334718128,433,1446041360329792022,robocape_mag,0.6,-11.55,1.65,10.0,0.0,0.0,0.0,10.0,0.0,0.0,0.0,10.0
1446041360373572670,434,1446041360368288040,robocape_mag,0.6,-11.55,1.65,10.0,0.0,0.0,0.0,10.0,0.0,0.0,0.0,10.0
1446041360414507253,435,1446041360409508943,robocape_mag,0.3,-13.05,1.35,10.0,0.0,0.0,0.0,10.0,0.0,0.0,0.0,10.0
1446041360463764753,436,1446041360450865030,robocape_mag,0.3,-13.05,1.35,10.0,0.0,0.0,0.0,10.0,0.0,0.0,0.0,10.0
1446041360504278586,437,1446041360494311094,robocape_mag,0.3,-13.05,1.35,10.0,0.0,0.0,0.0,10.0,0.0,0.0,0.0,10.0
1446041360543976378,438,1446041360538821935,robocape_mag,0.3,-13.05,1.35,10.0,0.0,0.0,0.0,10.0,0.0,0.0,0.0,10.0
1446041360594550628,439,1446041360585612058,robocape_mag,0.0,-11.55,0.45,10.0,0.0,0.0,0.0,10.0,0.0,0.0,0.0,10.0
1446041360642997336,440,1446041360637725114,robocape_mag,0.0,-11.55,0.45,10.0,0.0,0.0,0.0,10.0,0.0,0.0,0.0,10.0
1446041360684534836,441,1446041360679563999,robocape_mag,0.0,-11.55,0.45,10.0,0.0,0.0,0.0,10.0,0.0,0.0,0.0,10.0
1446041360743257295,442,1446041360723398923,robocape_mag,0.0,-11.55,0.45,10.0,0.0,0.0,0.0,10.0,0.0,0.0,0.0,10.0
1446041360783042337,443,1446041360778055906,robocape_mag,0.6,-12.75,0.45,10.0,0.0,0.0,0.0,10.0,0.0,0.0,0.0,10.0
1446041360826467712,444,1446041360821535110,robocape_mag,0.6,-12.75,0.45,10.0,0.0,0.0,0.0,10.0,0.0,0.0,0.0,10.0
1446041360875512670,445,1446041360861104011,robocape_mag,0.6,-12.75,0.45,10.0,0.0,0.0,0.0,10.0,0.0,0.0,0.0,10.0
1446041360917290128,446,1446041360911791086,robocape_mag,-0.3,-11.85,1.35,10.0,0.0,0.0,0.0,10.0,0.0,0.0,0.0,10.0
1446041360958609670,447,1446041360952831029,robocape_mag,-0.3,-11.85,1.35,10.0,0.0,0.0,0.0,10.0,0.0,0.0,0.0,10.0
1446041361002447545,448,1446041360994873046,robocape_mag,-0.3,-11.85,1.35,10.0,0.0,0.0,0.0,10.0,0.0,0.0,0.0,10.0
1446041361040766795,449,1446041361035310029,robocape_mag,-0.3,-11.85,1.35,10.0,0.0,0.0,0.0,10.0,0.0,0.0,0.0,10.0
1446041361080904712,450,1446041361075337886,robocape_mag,0.3,-12.45,1.95,10.0,0.0,0.0,0.0,10.0,0.0,0.0,0.0,10.0
1446041361121240670,451,1446041361115791082,robocape_mag,0.3,-12.45,1.95,10.0,0.0,0.0,0.0,10.0,0.0,0.0,0.0,10.0
1446041361158621295,452,1446041361152698040,robocape_mag,0.3,-12.45,1.95,10.0,0.0,0.0,0.0,10.0,0.0,0.0,0.0,10.0
1446041361202071503,453,1446041361195034027,robocape_mag,0.3,-12.45,1.95,10.0,0.0,0.0,0.0,10.0,0.0,0.0,0.0,10.0
1446041361243962503,454,1446041361235363960,robocape_mag,0.3,-13.05,0.15,10.0,0.0,0.0,0.0,10.0,0.0,0.0,0.0,10.0
1446041361281872337,455,1446041361276684999,robocape_mag,0.3,-13.05,0.15,10.0,0.0,0.0,0.0,10.0,0.0,0.0,0.0,10.0
1446041361325151878,456,1446041361316664934,robocape_mag,0.3,-13.05,0.15,10.0,0.0,0.0,0.0,10.0,0.0,0.0,0.0,10.0
1446041361367199837,457,1446041361359266996,robocape_mag,0.3,-13.05,0.15,10.0,0.0,0.0,0.0,10.0,0.0,0.0,0.0,10.0
1446041361405315420,458,1446041361399914979,robocape_mag,-0.3,-11.85,0.75,10.0,0.0,0.0,0.0,10.0,0.0,0.0,0.0,10.0
1446041361450794254,459,1446041361442713022,robocape_mag,-0.3,-11.85,0.75,10.0,0.0,0.0,0.0,10.0,0.0,0.0,0.0,10.0
1446041361493245795,460,1446041361488112926,robocape_mag,-0.3,-11.85,0.75,10.0,0.0,0.0,0.0,10.0,0.0,0.0,0.0,10.0
1446041361536249295,461,1446041361528552055,robocape_mag,1.2,-11.55,-0.15,10.0,0.0,0.0,0.0,10.0,0.0,0.0,0.0,10.0
1446041361588916504,462,1446041361571093082,robocape_mag,1.2,-11.55,-0.15,10.0,0.0,0.0,0.0,10.0,0.0,0.0,0.0,10.0
1446041361632184045,463,1446041361621190071,robocape_mag,1.2,-11.55,-0.15,10.0,0.0,0.0,0.0,10.0,0.0,0.0,0.0,10.0
1446041361687806212,464,1446041361674837112,robocape_mag,1.2,-11.55,-0.15,10.0,0.0,0.0,0.0,10.0,0.0,0.0,0.0,10.0
1446041361742857087,465,1446041361728862047,robocape_mag,1.5,-12.45,0.75,10.0,0.0,0.0,0.0,10.0,0.0,0.0,0.0,10.0
1446041361784970254,466,1446041361779481887,robocape_mag,1.5,-12.45,0.75,10.0,0.0,0.0,0.0,10.0,0.0,0.0,0.0,10.0
1446041361826402254,467,1446041361815377950,robocape_mag,1.5,-12.45,0.75,10.0,0.0,0.0,0.0,10.0,0.0,0.0,0.0,10.0
1446041361861852795,468,1446041361856451988,robocape_mag,1.2,-11.55,0.45,10.0,0.0,0.0,0.0,10.0,0.0,0.0,0.0,10.0
1446041361901407795,469,1446041361896190881,robocape_mag,1.2,-11.55,0.45,10.0,0.0,0.0,0.0,10.0,0.0,0.0,0.0,10.0
1446041361944549462,470,1446041361935622930,robocape_mag,1.2,-11.55,0.45,10.0,0.0,0.0,0.0,10.0,0.0,0.0,0.0,10.0
1446041361986620962,471,1446041361981188058,robocape_mag,1.2,-11.55,0.45,10.0,0.0,0.0,0.0,10.0,0.0,0.0,0.0,10.0
1446041362029708962,472,1446041362024205923,robocape_mag,-0.3,-12.45,1.35,10.0,0.0,0.0,0.0,10.0,0.0,0.0,0.0,10.0
1446041362071357337,473,1446041362062910079,robocape_mag,-0.3,-12.45,1.35,10.0,0.0,0.0,0.0,10.0,0.0,0.0,0.0,10.0
1446041362112021629,474,1446041362106460094,robocape_mag,-0.3,-12.45,1.35,10.0,0.0,0.0,0.0,10.0,0.0,0.0,0.0,10.0
1446041362155269004,475,1446041362148745059,robocape_mag,-0.3,-12.45,1.35,10.0,0.0,0.0,0.0,10.0,0.0,0.0,0.0,10.0
1446041362196575546,476,1446041362191047906,robocape_mag,0.0,-13.35,-0.75,10.0,0.0,0.0,0.0,10.0,0.0,0.0,0.0,10.0
1446041362237532087,477,1446041362232378959,robocape_mag,0.0,-13.35,-0.75,10.0,0.0,0.0,0.0,10.0,0.0,0.0,0.0,10.0
1446041362280814504,478,1446041362273367881,robocape_mag,0.0,-13.35,-0.75,10.0,0.0,0.0,0.0,10.0,0.0,0.0,0.0,10.0
1446041362320327379,479,1446041362312931060,robocape_mag,0.0,-13.35,-0.75,10.0,0.0,0.0,0.0,10.0,0.0,0.0,0.0,10.0
1446041362363263504,480,1446041362357109069,robocape_mag,0.9,-13.05,1.35,10.0,0.0,0.0,0.0,10.0,0.0,0.0,0.0,10.0
1446041362402977879,481,1446041362397686004,robocape_mag,0.9,-13.05,1.35,10.0,0.0,0.0,0.0,10.0,0.0,0.0,0.0,10.0
1446041362445524462,482,1446041362435956001,robocape_mag,0.9,-13.05,1.35,10.0,0.0,0.0,0.0,10.0,0.0,0.0,0.0,10.0
1446041362486144587,483,1446041362480849981,robocape_mag,0.9,-13.05,1.35,10.0,0.0,0.0,0.0,10.0,0.0,0.0,0.0,10.0
1446041362525135171,484,1446041362517293930,robocape_mag,1.2,-12.15,1.05,10.0,0.0,0.0,0.0,10.0,0.0,0.0,0.0,10.0
1446041362572956879,485,1446041362558904886,robocape_mag,1.2,-12.15,1.05,10.0,0.0,0.0,0.0,10.0,0.0,0.0,0.0,10.0
1446041362620219671,486,1446041362606585979,robocape_mag,1.2,-12.15,1.05,10.0,0.0,0.0,0.0,10.0,0.0,0.0,0.0,10.0
1446041362660515337,487,1446041362653594017,robocape_mag,0.9,-13.05,1.95,10.0,0.0,0.0,0.0,10.0,0.0,0.0,0.0,10.0
1446041362705323546,488,1446041362694890022,robocape_mag,0.9,-13.05,1.95,10.0,0.0,0.0,0.0,10.0,0.0,0.0,0.0,10.0
1446041362741768004,489,1446041362733856916,robocape_mag,0.9,-13.05,1.95,10.0,0.0,0.0,0.0,10.0,0.0,0.0,0.0,10.0
1446041362766981337,490,1446041362761209011,robocape_mag,0.9,-13.05,1.95,10.0,0.0,0.0,0.0,10.0,0.0,0.0,0.0,10.0
1446041362791886129,491,1446041362786164999,robocape_mag,0.9,-13.05,1.95,10.0,0.0,0.0,0.0,10.0,0.0,0.0,0.0,10.0
1446041362815469338,492,1446041362810470104,robocape_mag,0.6,-12.75,2.85,10.0,0.0,0.0,0.0,10.0,0.0,0.0,0.0,10.0
1446041362838898754,493,1446041362833981990,robocape_mag,0.6,-12.75,2.85,10.0,0.0,0.0,0.0,10.0,0.0,0.0,0.0,10.0
1446041362862418546,494,1446041362857414007,robocape_mag,0.6,-12.75,2.85,10.0,0.0,0.0,0.0,10.0,0.0,0.0,0.0,10.0
1446041362887125171,495,1446041362881956100,robocape_mag,0.6,-12.75,2.85,10.0,0.0,0.0,0.0,10.0,0.0,0.0,0.0,10.0
1446041362918573463,496,1446041362912926912,robocape_mag,0.6,-12.75,2.85,10.0,0.0,0.0,0.0,10.0,0.0,0.0,0.0,10.0
1446041362952259379,497,1446041362946892023,robocape_mag,0.6,-12.75,2.85,10.0,0.0,0.0,0.0,10.0,0.0,0.0,0.0,10.0
1446041362985207879,498,1446041362980016946,robocape_mag,3.3,-10.05,2.55,10.0,0.0,0.0,0.0,10.0,0.0,0.0,0.0,10.0
1446041363018391546,499,1446041363013223886,robocape_mag,3.3,-10.05,2.55,10.0,0.0,0.0,0.0,10.0,0.0,0.0,0.0,10.0
1446041363051570671,500,1446041363046569108,robocape_mag,3.3,-10.05,2.55,10.0,0.0,0.0,0.0,10.0,0.0,0.0,0.0,10.0
1446041363084988213,501,1446041363079930067,robocape_mag,3.3,-10.05,2.55,10.0,0.0,0.0,0.0,10.0,0.0,0.0,0.0,10.0
1446041363118500754,502,1446041363113027095,robocape_mag,3.3,-10.05,2.55,10.0,0.0,0.0,0.0,10.0,0.0,0.0,0.0,10.0
1446041363156154213,503,1446041363151057958,robocape_mag,1.8,-12.75,-0.75,10.0,0.0,0.0,0.0,10.0,0.0,0.0,0.0,10.0
1446041363189394379,504,1446041363184411048,robocape_mag,1.8,-12.75,-0.75,10.0,0.0,0.0,0.0,10.0,0.0,0.0,0.0,10.0
1446041363225839296,505,1446041363216928958,robocape_mag,1.8,-12.75,-0.75,10.0,0.0,0.0,0.0,10.0,0.0,0.0,0.0,10.0
1446041363257673213,506,1446041363252597093,robocape_mag,1.8,-12.75,-0.75,10.0,0.0,0.0,0.0,10.0,0.0,0.0,0.0,10.0
1446041363301001463,507,1446041363295864105,robocape_mag,0.9,-11.85,1.35,10.0,0.0,0.0,0.0,10.0,0.0,0.0,0.0,10.0
1446041363334252171,508,1446041363329083919,robocape_mag,0.9,-11.85,1.35,10.0,0.0,0.0,0.0,10.0,0.0,0.0,0.0,10.0
1446041363369309004,509,1446041363364065885,robocape_mag,0.9,-11.85,1.35,10.0,0.0,0.0,0.0,10.0,0.0,0.0,0.0,10.0
1446041363395489921,510,1446041363390316963,robocape_mag,0.9,-11.85,1.35,10.0,0.0,0.0,0.0,10.0,0.0,0.0,0.0,10.0
1446041363418419588,511,1446041363413551092,robocape_mag,0.9,-11.85,1.35,10.0,0.0,0.0,0.0,10.0,0.0,0.0,0.0,10.0
1446041363452982004,512,1446041363447817087,robocape_mag,-0.9,-13.65,2.55,10.0,0.0,0.0,0.0,10.0,0.0,0.0,0.0,10.0
1446041363485440713,513,1446041363480015039,robocape_mag,-0.9,-13.65,2.55,10.0,0.0,0.0,0.0,10.0,0.0,0.0,0.0,10.0
1446041363518161421,514,1446041363513200998,robocape_mag,-0.9,-13.65,2.55,10.0,0.0,0.0,0.0,10.0,0.0,0.0,0.0,10.0
1446041363551250505,515,1446041363546210050,robocape_mag,-0.9,-13.65,2.55,10.0,0.0,0.0,0.0,10.0,0.0,0.0,0.0,10.0
1446041363585848005,516,1446041363580142974,robocape_mag,-0.9,-13.65,2.55,10.0,0.0,0.0,0.0,10.0,0.0,0.0,0.0,10.0
1446041363617566213,517,1446041363612793922,robocape_mag,1.8,-11.55,1.05,10.0,0.0,0.0,0.0,10.0,0.0,0.0,0.0,10.0
1446041363651406838,518,1446041363646248102,robocape_mag,1.8,-11.55,1.05,10.0,0.0,0.0,0.0,10.0,0.0,0.0,0.0,10.0
1446041363685171088,519,1446041363679791927,robocape_mag,1.8,-11.55,1.05,10.0,0.0,0.0,0.0,10.0,0.0,0.0,0.0,10.0
1446041363717627338,520,1446041363712904930,robocape_mag,1.8,-11.55,1.05,10.0,0.0,0.0,0.0,10.0,0.0,0.0,0.0,10.0
1446041363751498838,521,1446041363746292114,robocape_mag,1.8,-11.55,1.05,10.0,0.0,0.0,0.0,10.0,0.0,0.0,0.0,10.0
1446041363784963796,522,1446041363779545068,robocape_mag,-0.3,-13.05,1.95,10.0,0.0,0.0,0.0,10.0,0.0,0.0,0.0,10.0
1446041363817541755,523,1446041363812864065,robocape_mag,-0.3,-13.05,1.95,10.0,0.0,0.0,0.0,10.0,0.0,0.0,0.0,10.0
1446041363851338671,524,1446041363846084117,robocape_mag,-0.3,-13.05,1.95,10.0,0.0,0.0,0.0,10.0,0.0,0.0,0.0,10.0
1446041363885126588,525,1446041363879730939,robocape_mag,-0.3,-13.05,1.95,10.0,0.0,0.0,0.0,10.0,0.0,0.0,0.0,10.0
1446041363917628963,526,1446041363912826061,robocape_mag,-0.3,-13.05,1.95,10.0,0.0,0.0,0.0,10.0,0.0,0.0,0.0,10.0
1446041363952175796,527,1446041363946511983,robocape_mag,1.2,-11.55,2.25,10.0,0.0,0.0,0.0,10.0,0.0,0.0,0.0,10.0
1446041363985151713,528,1446041363979685068,robocape_mag,1.2,-11.55,2.25,10.0,0.0,0.0,0.0,10.0,0.0,0.0,0.0,10.0
1446041364017773255,529,1446041364012912988,robocape_mag,1.2,-11.55,2.25,10.0,0.0,0.0,0.0,10.0,0.0,0.0,0.0,10.0
1446041364051467130,530,1446041364046216011,robocape_mag,1.2,-11.55,2.25,10.0,0.0,0.0,0.0,10.0,0.0,0.0,0.0,10.0
