%time,field.header.seq,field.header.stamp,field.header.frame_id,field.orientation.x,field.orientation.y,field.orientation.z,field.orientation.w,field.orientation_covariance0,field.orientation_covariance1,field.orientation_covariance2,field.orientation_covariance3,field.orientation_covariance4,field.orientation_covariance5,field.orientation_covariance6,field.orientation_covariance7,field.orientation_covariance8,field.angular_velocity.x,field.angular_velocity.y,field.angular_velocity.z,field.angular_velocity_covariance0,field.angular_velocity_covariance1,field.angular_velocity_covariance2,field.angular_velocity_covariance3,field.angular_velocity_covariance4,field.angular_velocity_covariance5,field.angular_velocity_covariance6,field.angular_velocity_covariance7,field.angular_velocity_covariance8,field.linear_acceleration.x,field.linear_acceleration.y,field.linear_acceleration.z,field.linear_acceleration_covariance0,field.linear_acceleration_covariance1,field.linear_acceleration_covariance2,field.linear_acceleration_covariance3,field.linear_acceleration_covariance4,field.linear_acceleration_covariance5,field.linear_acceleration_covariance6,field.linear_acceleration_covariance7,field.linear_acceleration_covariance8
1446035887448204144,1,1446035887444742918,robocape,5.5666202453,7.85723593161,5.5666202453,0.0,10.0,0.0,0.0,0.0,10.0,0.0,0.0,0.0,10.0,0.00599211245268,0.0256995045193,0.00812264132474,1.0,0.0,0.0,0.0,1.0,0.0,0.0,0.0,1.0,0.0,0.00359252929688,10.0411193848,0.1,0.0,0.0,0.0,0.1,0.0,0.0,0.0,0.1
1446035887481246519,2,1446035887477936029,robocape,5.57248479947,7.88398161064,5.57248479947,0.0,10.0,0.0,0.0,0.0,10.0,0.0,0.0,0.0,10.0,0.00612527050718,0.0255663464648,0.00798948327024,1.0,0.0,0.0,0.0,1.0,0.0,0.0,0.0,1.0,0.009580078125,0.0143701171875,10.0315393066,0.1,0.0,0.0,0.0,0.1,0.0,0.0,0.0,0.1
1446035887514632644,3,1446035887511495113,robocape,5.57777988377,7.91074648519,5.57777988377,0.0,10.0,0.0,0.0,0.0,10.0,0.0,0.0,0.0,10.0,0.00585895439817,0.0255663464648,0.00772316716123,1.0,0.0,0.0,0.0,1.0,0.0,0.0,0.0,1.0,0.0179626464844,0.009580078125,10.0423168945,0.1,0.0,0.0,0.0,0.1,0.0,0.0,0.0,0.1
1446035887547782269,4,1446035887544590950,robocape,5.58359930411,7.93798729151,5.58359930411,0.0,10.0,0.0,0.0,0.0,10.0,0.0,0.0,0.0,10.0,0.00612527050718,0.0258326625738,0.00772316716123,1.0,0.0,0.0,0.0,1.0,0.0,0.0,0.0,1.0,0.0131726074219,0.0155676269531,10.0459094238,0.1,0.0,0.0,0.0,0.1,0.0,0.0,0.0,0.1
1446035887581369519,5,1446035887577967882,robocape,5.58984605521,7.9639831606,5.58984605521,0.0,10.0,0.0,0.0,0.0,10.0,0.0,0.0,0.0,10.0,0.00639158661619,0.0251668723012,0.00745685105222,1.0,0.0,0.0,0.0,1.0,0.0,0.0,0.0,1.0,0.0119750976563,-0.00119750976563,10.039921875,0.1,0.0,0.0,0.0,0.1,0.0,0.0,0.0,0.1
1446035887614436519,6,1446035887611449956,robocape,5.5967224816,7.99014271463,5.5967224816,0.0,10.0,0.0,0.0,0.0,10.0,0.0,0.0,0.0,10.0,0.0066579027252,0.0253000303558,0.00785632521573,1.0,0.0,0.0,0.0,1.0,0.0,0.0,0.0,1.0,0.009580078125,0.009580078125,10.0315393066,0.1,0.0,0.0,0.0,0.1,0.0,0.0,0.0,0.1
1446035887648064310,7,1446035887644802093,robocape,5.6016408906,8.01588727162,5.6016408906,0.0,10.0,0.0,0.0,0.0,10.0,0.0,0.0,0.0,10.0,0.00572579634367,0.0250337142467,0.00719053494321,1.0,0.0,0.0,0.0,1.0,0.0,0.0,0.0,1.0,0.0155676269531,0.0167651367188,10.0363293457,0.1,0.0,0.0,0.0,0.1,0.0,0.0,0.0,0.1
1446035887681756352,8,1446035887678098917,robocape,5.60408145628,8.04210606615,5.60408145628,0.0,10.0,0.0,0.0,0.0,10.0,0.0,0.0,0.0,10.0,0.00439421579863,0.0253000303558,0.00732369299772,1.0,0.0,0.0,0.0,1.0,0.0,0.0,0.0,1.0,0.0215551757813,0.0155676269531,10.0303417969,0.1,0.0,0.0,0.0,0.1,0.0,0.0,0.0,0.1
1446035887714653352,9,1446035887711369991,robocape,5.60467553584,8.06923886336,5.60467553584,0.0,10.0,0.0,0.0,0.0,10.0,0.0,0.0,0.0,10.0,0.0033289513626,0.0258326625738,0.00785632521573,1.0,0.0,0.0,0.0,1.0,0.0,0.0,0.0,1.0,0.0,0.009580078125,10.0506994629,0.1,0.0,0.0,0.0,0.1,0.0,0.0,0.0,0.1
1446035887748282269,10,1446035887744770050,robocape,5.60361160521,8.09568715742,5.60361160521,0.0,10.0,0.0,0.0,0.0,10.0,0.0,0.0,0.0,10.0,0.00253000303558,0.0254331884103,0.00732369299772,1.0,0.0,0.0,0.0,1.0,0.0,0.0,0.0,1.0,0.0167651367188,-0.00119750976563,10.019564209,0.1,0.0,0.0,0.0,0.1,0.0,0.0,0.0,0.1
1446035887782049019,11,1446035887778244018,robocape,5.60560418527,8.12159734291,5.60560418527,0.0,10.0,0.0,0.0,0.0,10.0,0.0,0.0,0.0,10.0,0.00412789968962,0.0251668723012,0.00732369299772,1.0,0.0,0.0,0.0,1.0,0.0,0.0,0.0,1.0,0.0107775878906,-0.00838256835938,10.039921875,0.1,0.0,0.0,0.0,0.1,0.0,0.0,0.0,0.1
1446035887814987977,12,1446035887811778068,robocape,5.60993391163,8.14770549062,5.60993391163,0.0,10.0,0.0,0.0,0.0,10.0,0.0,0.0,0.0,10.0,0.00532632218016,0.0253000303558,0.00745685105222,1.0,0.0,0.0,0.0,1.0,0.0,0.0,0.0,1.0,0.00718505859375,-0.0155676269531,10.0734521484,0.1,0.0,0.0,0.0,0.1,0.0,0.0,0.0,0.1
1446035887848040269,13,1446035887844724893,robocape,5.61687434487,8.17298153235,5.61687434487,0.0,10.0,0.0,0.0,0.0,10.0,0.0,0.0,0.0,10.0,0.0066579027252,0.0249005561922,0.00772316716123,1.0,0.0,0.0,0.0,1.0,0.0,0.0,0.0,1.0,0.00838256835938,0.0,10.0255517578,0.1,0.0,0.0,0.0,0.1,0.0,0.0,0.0,0.1
1446035887881692602,14,1446035887878166913,robocape,5.6258627542,8.19947963188,5.6258627542,0.0,10.0,0.0,0.0,0.0,10.0,0.0,0.0,0.0,10.0,0.00772316716123,0.0255663464648,0.00772316716123,1.0,0.0,0.0,0.0,1.0,0.0,0.0,0.0,1.0,0.00239501953125,-0.00239501953125,10.0363293457,0.1,0.0,0.0,0.0,0.1,0.0,0.0,0.0,0.1
1446035887914963602,15,1446035887911825895,robocape,5.63251091108,8.22700902238,5.63251091108,0.0,10.0,0.0,0.0,0.0,10.0,0.0,0.0,0.0,10.0,0.00652474467069,0.0260989786828,0.00745685105222,1.0,0.0,0.0,0.0,1.0,0.0,0.0,0.0,1.0,0.0,0.009580078125,10.0363293457,0.1,0.0,0.0,0.0,0.1,0.0,0.0,0.0,0.1
1446035887947754936,16,1446035887944674968,robocape,5.63571704167,8.25296025513,5.63571704167,0.0,10.0,0.0,0.0,0.0,10.0,0.0,0.0,0.0,10.0,0.00466053190764,0.0253000303558,0.00785632521573,1.0,0.0,0.0,0.0,1.0,0.0,0.0,0.0,1.0,0.00718505859375,0.0167651367188,10.0518969727,0.1,0.0,0.0,0.0,0.1,0.0,0.0,0.0,0.1
1446035887981394811,17,1446035887978063106,robocape,5.63720657813,8.27913102083,5.63720657813,0.0,10.0,0.0,0.0,0.0,10.0,0.0,0.0,0.0,10.0,0.00372842552611,0.0254331884103,0.00798948327024,1.0,0.0,0.0,0.0,1.0,0.0,0.0,0.0,1.0,0.0239501953125,0.0143701171875,10.0459094238,0.1,0.0,0.0,0.0,0.1,0.0,0.0,0.0,0.1
1446035888015948019,18,1446035888012748956,robocape,5.63663670613,8.30430875129,5.63663670613,0.0,10.0,0.0,0.0,0.0,10.0,0.0,0.0,0.0,10.0,0.00266316109008,0.0249005561922,0.00785632521573,1.0,0.0,0.0,0.0,1.0,0.0,0.0,0.0,1.0,0.0167651367188,0.0047900390625,10.0459094238,0.1,0.0,0.0,0.0,0.1,0.0,0.0,0.0,0.1
1446035888048955227,19,1446035888044779062,robocape,5.6375338159,8.32975429509,5.6375338159,0.0,10.0,0.0,0.0,0.0,10.0,0.0,0.0,0.0,10.0,0.0034621094171,0.0250337142467,0.00759000910673,1.0,0.0,0.0,0.0,1.0,0.0,0.0,0.0,1.0,0.009580078125,-0.0107775878906,10.0495019531,0.1,0.0,0.0,0.0,0.1,0.0,0.0,0.0,0.1
1446035888082536602,20,1446035888079256057,robocape,5.64252993541,8.35438360744,5.64252993541,0.0,10.0,0.0,0.0,0.0,10.0,0.0,0.0,0.0,10.0,0.00559263828917,0.0246342400832,0.00772316716123,1.0,0.0,0.0,0.0,1.0,0.0,0.0,0.0,1.0,0.00119750976563,-0.01916015625,10.0255517578,0.1,0.0,0.0,0.0,0.1,0.0,0.0,0.0,0.1
1446035888115775477,21,1446035888112715005,robocape,5.64985636534,8.37920997136,5.64985636534,0.0,10.0,0.0,0.0,0.0,10.0,0.0,0.0,0.0,10.0,0.0067910607797,0.0247673981377,0.00785632521573,1.0,0.0,0.0,0.0,1.0,0.0,0.0,0.0,1.0,-0.00119750976563,-0.009580078125,10.0291442871,0.1,0.0,0.0,0.0,0.1,0.0,0.0,0.0,0.1
1446035888150227852,22,1446035888146559000,robocape,5.65646969837,8.40589924532,5.65646969837,0.0,10.0,0.0,0.0,0.0,10.0,0.0,0.0,0.0,10.0,0.00652474467069,0.0256995045193,0.00705737688871,1.0,0.0,0.0,0.0,1.0,0.0,0.0,0.0,1.0,0.0167651367188,0.00119750976563,10.0542919922,0.1,0.0,0.0,0.0,0.1,0.0,0.0,0.0,0.1
1446035888183576811,23,1446035888179972887,robocape,5.66152228522,8.43322116768,5.66152228522,0.0,10.0,0.0,0.0,0.0,10.0,0.0,0.0,0.0,10.0,0.00559263828917,0.0260989786828,0.00772316716123,1.0,0.0,0.0,0.0,1.0,0.0,0.0,0.0,1.0,0.0239501953125,0.0047900390625,10.0435144043,0.1,0.0,0.0,0.0,0.1,0.0,0.0,0.0,0.1
1446035888216299769,24,1446035888212920904,robocape,5.66242173044,8.45806864355,5.66242173044,0.0,10.0,0.0,0.0,0.0,10.0,0.0,0.0,0.0,10.0,0.0034621094171,0.0247673981377,0.00745685105222,1.0,0.0,0.0,0.0,1.0,0.0,0.0,0.0,1.0,0.00239501953125,-0.00598754882813,10.0411193848,0.1,0.0,0.0,0.0,0.1,0.0,0.0,0.0,0.1
1446035888252746519,25,1446035888248409986,robocape,5.6612439224,8.48370538036,5.6612439224,0.0,10.0,0.0,0.0,0.0,10.0,0.0,0.0,0.0,10.0,0.00239684498107,0.0251668723012,0.00719053494321,1.0,0.0,0.0,0.0,1.0,0.0,0.0,0.0,1.0,0.0047900390625,0.00598754882813,10.0483044434,0.1,0.0,0.0,0.0,0.1,0.0,0.0,0.0,0.1
1446035888288961227,26,1446035888280034065,robocape,5.66180137132,8.5089601969,5.66180137132,0.0,10.0,0.0,0.0,0.0,10.0,0.0,0.0,0.0,10.0,0.0031957933081,0.0250337142467,0.00785632521573,1.0,0.0,0.0,0.0,1.0,0.0,0.0,0.0,1.0,0.0143701171875,-0.0155676269531,10.0435144043,0.1,0.0,0.0,0.0,0.1,0.0,0.0,0.0,0.1
1446035888323195436,27,1446035888319407939,robocape,5.66563986747,8.53495201868,5.66563986747,0.0,10.0,0.0,0.0,0.0,10.0,0.0,0.0,0.0,10.0,0.00492684801665,0.0254331884103,0.00772316716123,1.0,0.0,0.0,0.0,1.0,0.0,0.0,0.0,1.0,0.0155676269531,-0.0119750976563,10.055489502,0.1,0.0,0.0,0.0,0.1,0.0,0.0,0.0,0.1
1446035888351587394,28,1446035888347866058,robocape,5.67426193843,8.56091319386,5.67426193843,0.0,10.0,0.0,0.0,0.0,10.0,0.0,0.0,0.0,10.0,0.00745685105222,0.0254331884103,0.00759000910673,1.0,0.0,0.0,0.0,1.0,0.0,0.0,0.0,1.0,0.00718505859375,-0.01916015625,10.0255517578,0.1,0.0,0.0,0.0,0.1,0.0,0.0,0.0,0.1
1446035888385197811,29,1446035888380969047,robocape,5.68596744778,8.58705893239,5.68596744778,0.0,10.0,0.0,0.0,0.0,10.0,0.0,0.0,0.0,10.0,0.00905474770627,0.0255663464648,0.00772316716123,1.0,0.0,0.0,0.0,1.0,0.0,0.0,0.0,1.0,0.0167651367188,-0.0047900390625,10.0255517578,0.1,0.0,0.0,0.0,0.1,0.0,0.0,0.0,0.1
1446035888417892686,30,1446035888413448095,robocape,5.69892737455,8.61266357076,5.69892737455,0.0,10.0,0.0,0.0,0.0,10.0,0.0,0.0,0.0,10.0,0.00972053797879,0.0253000303558,0.00772316716123,1.0,0.0,0.0,0.0,1.0,0.0,0.0,0.0,1.0,0.0311352539063,-0.00119750976563,10.0303417969,0.1,0.0,0.0,0.0,0.1,0.0,0.0,0.0,0.1
1446035888453017061,31,1446035888449620962,robocape,5.70973333871,8.63831179134,5.70973333871,0.0,10.0,0.0,0.0,0.0,10.0,0.0,0.0,0.0,10.0,0.00865527354276,0.0253000303558,0.00732369299772,1.0,0.0,0.0,0.0,1.0,0.0,0.0,0.0,1.0,0.0215551757813,0.01916015625,10.0471069336,0.1,0.0,0.0,0.0,0.1,0.0,0.0,0.0,0.1
1446035888485766811,32,1446035888481504917,robocape,5.7150447735,8.66392140526,5.7150447735,0.0,10.0,0.0,0.0,0.0,10.0,0.0,0.0,0.0,10.0,0.00572579634367,0.0253000303558,0.00759000910673,1.0,0.0,0.0,0.0,1.0,0.0,0.0,0.0,1.0,0.0167651367188,0.0131726074219,10.0435144043,0.1,0.0,0.0,0.0,0.1,0.0,0.0,0.0,0.1
1446035888517080561,33,1446035888512701988,robocape,5.71677521876,8.6892976899,5.71677521876,0.0,10.0,0.0,0.0,0.0,10.0,0.0,0.0,0.0,10.0,0.00386158358061,0.0251668723012,0.00745685105222,1.0,0.0,0.0,0.0,1.0,0.0,0.0,0.0,1.0,0.0155676269531,0.0047900390625,10.0375268555,0.1,0.0,0.0,0.0,0.1,0.0,0.0,0.0,0.1
1446035888552735019,34,1446035888549273014,robocape,5.71872667251,8.71417056857,5.71872667251,0.0,10.0,0.0,0.0,0.0,10.0,0.0,0.0,0.0,10.0,0.00399474163512,0.0249005561922,0.00732369299772,1.0,0.0,0.0,0.0,1.0,0.0,0.0,0.0,1.0,-0.00119750976563,-0.00598754882813,10.0411193848,0.1,0.0,0.0,0.0,0.1,0.0,0.0,0.0,0.1
1446035888585386603,35,1446035888581348896,robocape,5.72237696543,8.73918146485,5.72237696543,0.0,10.0,0.0,0.0,0.0,10.0,0.0,0.0,0.0,10.0,0.00479368996214,0.0250337142467,0.00785632521573,1.0,0.0,0.0,0.0,1.0,0.0,0.0,0.0,1.0,0.0119750976563,-0.0215551757813,10.0279467773,0.1,0.0,0.0,0.0,0.1,0.0,0.0,0.0,0.1
1446035888618638228,36,1446035888613953113,robocape,5.72946163582,8.76421289329,5.72946163582,0.0,10.0,0.0,0.0,0.0,10.0,0.0,0.0,0.0,10.0,0.0066579027252,0.0250337142467,0.00745685105222,1.0,0.0,0.0,0.0,1.0,0.0,0.0,0.0,1.0,0.0107775878906,-0.0107775878906,10.039921875,0.1,0.0,0.0,0.0,0.1,0.0,0.0,0.0,0.1
1446035888652035269,37,1446035888648303985,robocape,5.73782627957,8.78996491073,5.73782627957,0.0,10.0,0.0,0.0,0.0,10.0,0.0,0.0,0.0,10.0,0.00732369299772,0.0254331884103,0.00745685105222,1.0,0.0,0.0,0.0,1.0,0.0,0.0,0.0,1.0,-0.00239501953125,0.009580078125,10.0219592285,0.1,0.0,0.0,0.0,0.1,0.0,0.0,0.0,0.1
1446035888685526061,38,1446035888681770086,robocape,5.74459804887,8.81624242066,5.74459804887,0.0,10.0,0.0,0.0,0.0,10.0,0.0,0.0,0.0,10.0,0.00652474467069,0.0256995045193,0.00719053494321,1.0,0.0,0.0,0.0,1.0,0.0,0.0,0.0,1.0,0.00838256835938,0.0215551757813,10.0423168945,0.1,0.0,0.0,0.0,0.1,0.0,0.0,0.0,0.1
1446035888718292103,39,1446035888714993000,robocape,5.74862272948,8.84198526471,5.74862272948,0.0,10.0,0.0,0.0,0.0,10.0,0.0,0.0,0.0,10.0,0.00506000607115,0.0254331884103,0.00732369299772,1.0,0.0,0.0,0.0,1.0,0.0,0.0,0.0,1.0,0.009580078125,0.0131726074219,10.0219592285,0.1,0.0,0.0,0.0,0.1,0.0,0.0,0.0,0.1
1446035888751504353,40,1446035888748220920,robocape,5.75138765513,8.86746035225,5.75138765513,0.0,10.0,0.0,0.0,0.0,10.0,0.0,0.0,0.0,10.0,0.00439421579863,0.0253000303558,0.00732369299772,1.0,0.0,0.0,0.0,1.0,0.0,0.0,0.0,1.0,0.009580078125,0.00119750976563,10.0423168945,0.1,0.0,0.0,0.0,0.1,0.0,0.0,0.0,0.1
1446035888784275228,41,1446035888780565023,robocape,5.75518482386,8.89340874827,5.75518482386,0.0,10.0,0.0,0.0,0.0,10.0,0.0,0.0,0.0,10.0,0.00492684801665,0.0255663464648,0.00732369299772,1.0,0.0,0.0,0.0,1.0,0.0,0.0,0.0,1.0,0.0131726074219,-0.00359252929688,10.0423168945,0.1,0.0,0.0,0.0,0.1,0.0,0.0,0.0,0.1
1446035888818147061,42,1446035888815112113,robocape,5.76164485653,8.91900223415,5.76164485653,0.0,10.0,0.0,0.0,0.0,10.0,0.0,0.0,0.0,10.0,0.00625842856169,0.0254331884103,0.00772316716123,1.0,0.0,0.0,0.0,1.0,0.0,0.0,0.0,1.0,0.0047900390625,-0.0047900390625,10.0279467773,0.1,0.0,0.0,0.0,0.1,0.0,0.0,0.0,0.1
1446035888851155144,43,1446035888847995996,robocape,5.77034248579,8.94445095294,5.77034248579,0.0,10.0,0.0,0.0,0.0,10.0,0.0,0.0,0.0,10.0,0.00732369299772,0.0254331884103,0.00838895743375,1.0,0.0,0.0,0.0,1.0,0.0,0.0,0.0,1.0,0.0119750976563,-0.00119750976563,10.039921875,0.1,0.0,0.0,0.0,0.1,0.0,0.0,0.0,0.1
1446035888884589894,44,1446035888881478071,robocape,5.77858000028,8.96998018154,5.77858000028,0.0,10.0,0.0,0.0,0.0,10.0,0.0,0.0,0.0,10.0,0.00719053494321,0.0254331884103,0.00772316716123,1.0,0.0,0.0,0.0,1.0,0.0,0.0,0.0,1.0,0.0047900390625,0.00718505859375,10.0387243652,0.1,0.0,0.0,0.0,0.1,0.0,0.0,0.0,0.1
1446035888917935353,45,1446035888914901971,robocape,5.78593407595,8.99567482571,5.78593407595,0.0,10.0,0.0,0.0,0.0,10.0,0.0,0.0,0.0,10.0,0.0066579027252,0.0255663464648,0.00812264132474,1.0,0.0,0.0,0.0,1.0,0.0,0.0,0.0,1.0,0.009580078125,0.0107775878906,10.0171691895,0.1,0.0,0.0,0.0,0.1,0.0,0.0,0.0,0.1
1446035888950605353,46,1446035888947534084,robocape,5.79173314598,9.021499566,5.79173314598,0.0,10.0,0.0,0.0,0.0,10.0,0.0,0.0,0.0,10.0,0.00599211245268,0.0255663464648,0.00719053494321,1.0,0.0,0.0,0.0,1.0,0.0,0.0,0.0,1.0,0.0155676269531,0.0167651367188,10.0590820312,0.1,0.0,0.0,0.0,0.1,0.0,0.0,0.0,0.1
1446035888981165353,47,1446035888977936983,robocape,5.79613682663,9.04674060734,5.79613682663,0.0,10.0,0.0,0.0,0.0,10.0,0.0,0.0,0.0,10.0,0.00519316412565,0.0253000303558,0.00759000910673,1.0,0.0,0.0,0.0,1.0,0.0,0.0,0.0,1.0,0.009580078125,0.009580078125,10.0387243652,0.1,0.0,0.0,0.0,0.1,0.0,0.0,0.0,0.1
1446035889014940936,48,1446035889011756896,robocape,5.79848119779,9.07199155056,5.79848119779,0.0,10.0,0.0,0.0,0.0,10.0,0.0,0.0,0.0,10.0,0.00412789968962,0.0253000303558,0.00745685105222,1.0,0.0,0.0,0.0,1.0,0.0,0.0,0.0,1.0,0.00838256835938,-0.00239501953125,10.0099841309,0.1,0.0,0.0,0.0,0.1,0.0,0.0,0.0,0.1
1446035889048213603,49,1446035889045098066,robocape,5.8010564484,9.09774187602,5.8010564484,0.0,10.0,0.0,0.0,0.0,10.0,0.0,0.0,0.0,10.0,0.00426105774413,0.0255663464648,0.00732369299772,1.0,0.0,0.0,0.0,1.0,0.0,0.0,0.0,1.0,0.0167651367188,0.0,10.0267492676,0.1,0.0,0.0,0.0,0.1,0.0,0.0,0.0,0.1
1446035889081566061,50,1446035889078144073,robocape,5.80422741766,9.12304721337,5.80422741766,0.0,10.0,0.0,0.0,0.0,10.0,0.0,0.0,0.0,10.0,0.00466053190764,0.0253000303558,0.0067910607797,1.0,0.0,0.0,0.0,1.0,0.0,0.0,0.0,1.0,0.00718505859375,-0.00239501953125,10.0363293457,0.1,0.0,0.0,0.0,0.1,0.0,0.0,0.0,0.1
1446035889114713769,51,1446035889111310958,robocape,5.81018701766,9.14768208801,5.81018701766,0.0,10.0,0.0,0.0,0.0,10.0,0.0,0.0,0.0,10.0,0.00599211245268,0.0250337142467,0.00759000910673,1.0,0.0,0.0,0.0,1.0,0.0,0.0,0.0,1.0,0.009580078125,0.00838256835938,10.0650695801,0.1,0.0,0.0,0.0,0.1,0.0,0.0,0.0,0.1
1446035889148547603,52,1446035889145514011,robocape,5.81839619062,9.17267437872,5.81839619062,0.0,10.0,0.0,0.0,0.0,10.0,0.0,0.0,0.0,10.0,0.00705737688871,0.0253000303558,0.00825579937925,1.0,0.0,0.0,0.0,1.0,0.0,0.0,0.0,1.0,0.0167651367188,-0.0251477050781,10.039921875,0.1,0.0,0.0,0.0,0.1,0.0,0.0,0.0,0.1
1446035889181170019,53,1446035889178083896,robocape,6.01334351444,9.21157880932,6.01334351444,0.0,10.0,0.0,0.0,0.0,10.0,0.0,0.0,0.0,10.0,0.121972777926,0.0247673981377,-0.0909469512262,1.0,0.0,0.0,0.0,1.0,0.0,0.0,0.0,1.0,0.0562829589844,-0.51732421875,9.96328125,0.1,0.0,0.0,0.0,0.1,0.0,0.0,0.0,0.1
1446035889215905311,54,1446035889211816072,robocape,6.4936539766,9.26604291184,6.4936539766,0.0,10.0,0.0,0.0,0.0,10.0,0.0,0.0,0.0,10.0,0.321044069409,0.00759000910673,-0.375106239538,1.0,0.0,0.0,0.0,1.0,0.0,0.0,0.0,1.0,-0.0131726074219,0.471818847656,10.0207617188,0.1,0.0,0.0,0.0,0.1,0.0,0.0,0.0,0.1
1446035889249347895,55,1446035889246197938,robocape,6.66768133366,9.3024979699,6.66768133366,0.0,10.0,0.0,0.0,0.0,10.0,0.0,0.0,0.0,10.0,0.135022267267,0.0102531701968,-0.223971847676,1.0,0.0,0.0,0.0,1.0,0.0,0.0,0.0,1.0,-0.298179931641,3.2536340332,10.0542919922,0.1,0.0,0.0,0.0,0.1,0.0,0.0,0.0,0.1
1446035889288697478,56,1446035889279613018,robocape,5.64203484501,9.25744052521,5.64203484501,0.0,10.0,0.0,0.0,0.0,10.0,0.0,0.0,0.0,10.0,-0.568984366895,0.00292947719909,0.206261826427,1.0,0.0,0.0,0.0,1.0,0.0,0.0,0.0,1.0,0.0239501953125,1.09691894531,10.0483044434,0.1,0.0,0.0,0.0,0.1,0.0,0.0,0.0,0.1
1446035889321287645,57,1446035889317850112,robocape,4.85994523708,9.24960603545,4.85994523708,0.0,10.0,0.0,0.0,0.0,10.0,0.0,0.0,0.0,10.0,-0.403735221256,0.00359526747161,-0.0185089695761,1.0,0.0,0.0,0.0,1.0,0.0,0.0,0.0,1.0,-0.300574951172,0.270637207031,9.85311035156,0.1,0.0,0.0,0.0,0.1,0.0,0.0,0.0,0.1
1446035889348497270,58,1446035889345299959,robocape,3.98050775696,9.21066561686,3.98050775696,0.0,10.0,0.0,0.0,0.0,10.0,0.0,0.0,0.0,10.0,-0.476972151233,-0.00506000607115,0.111320133565,1.0,0.0,0.0,0.0,1.0,0.0,0.0,0.0,1.0,0.0778381347656,-0.865799560547,9.97525634766,0.1,0.0,0.0,0.0,0.1,0.0,0.0,0.0,0.1
1446035889383001311,59,1446035889379909992,robocape,3.34802862266,9.19723347934,3.34802862266,0.0,10.0,0.0,0.0,0.0,10.0,0.0,0.0,0.0,10.0,-0.342083042021,0.00585895439817,0.0751011427402,1.0,0.0,0.0,0.0,1.0,0.0,0.0,0.0,1.0,0.250279541016,-1.51245483398,10.0351318359,0.1,0.0,0.0,0.0,0.1,0.0,0.0,0.0,0.1
1446035889420256311,60,1446035889416949987,robocape,3.08947584308,9.21912988499,3.08947584308,0.0,10.0,0.0,0.0,0.0,10.0,0.0,0.0,0.0,10.0,-0.13422331894,0.0217047628841,0.000133158054504,1.0,0.0,0.0,0.0,1.0,0.0,0.0,0.0,1.0,0.239501953125,-1.84536254883,9.98842895508,0.1,0.0,0.0,0.0,0.1,0.0,0.0,0.0,0.1
1446035889450074936,61,1446035889446609020,robocape,3.18204265127,9.25520234167,3.18204265127,0.0,10.0,0.0,0.0,0.0,10.0,0.0,0.0,0.0,10.0,0.048869006003,0.0300937203179,0.00545948023466,1.0,0.0,0.0,0.0,1.0,0.0,0.0,0.0,1.0,0.154478759766,-1.40108642578,9.97765136719,0.1,0.0,0.0,0.0,0.1,0.0,0.0,0.0,0.1
1446035889484866895,62,1446035889480828046,robocape,3.48211199431,9.31219047034,3.48211199431,0.0,10.0,0.0,0.0,0.0,10.0,0.0,0.0,0.0,10.0,0.157792294587,0.0416784710597,0.00545948023466,1.0,0.0,0.0,0.0,1.0,0.0,0.0,0.0,1.0,0.132923583984,-1.0765612793,9.96328125,0.1,0.0,0.0,0.0,0.1,0.0,0.0,0.0,0.1
1446035889518949770,63,1446035889515470027,robocape,3.87587319859,9.37124407123,3.87587319859,0.0,10.0,0.0,0.0,0.0,10.0,0.0,0.0,0.0,10.0,0.201867610628,0.0447411063133,0.0376837294246,1.0,0.0,0.0,0.0,1.0,0.0,0.0,0.0,1.0,0.047900390625,-0.379610595703,10.0279467773,0.1,0.0,0.0,0.0,0.1,0.0,0.0,0.0,0.1
1446035889551513936,64,1446035889547740936,robocape,4.20526339521,9.42900888757,4.20526339521,0.0,10.0,0.0,0.0,0.0,10.0,0.0,0.0,0.0,10.0,0.161787036222,0.0464721610219,0.0768321974488,1.0,0.0,0.0,0.0,1.0,0.0,0.0,0.0,1.0,0.120948486328,0.530496826172,10.0746496582,0.1,0.0,0.0,0.0,0.1,0.0,0.0,0.0,0.1
1446035889585912395,65,1446035889581912994,robocape,4.27537633561,9.45641753095,4.27537633561,0.0,10.0,0.0,0.0,0.0,10.0,0.0,0.0,0.0,10.0,0.00878843159726,0.0359526747161,0.178032318872,1.0,0.0,0.0,0.0,1.0,0.0,0.0,0.0,1.0,-0.180823974609,0.130528564453,10.003996582,0.1,0.0,0.0,0.0,0.1,0.0,0.0,0.0,0.1
1446035889616972853,66,1446035889613500118,robocape,4.26040439384,9.46912251589,4.26040439384,0.0,10.0,0.0,0.0,0.0,10.0,0.0,0.0,0.0,10.0,-0.0395479421877,0.0292947719909,0.200003397865,1.0,0.0,0.0,0.0,1.0,0.0,0.0,0.0,1.0,0.130528564453,-0.162861328125,9.9596887207,0.1,0.0,0.0,0.0,0.1,0.0,0.0,0.0,0.1
1446035889653162811,67,1446035889649503946,robocape,4.22692373454,9.48179384264,4.22692373454,0.0,10.0,0.0,0.0,0.0,10.0,0.0,0.0,0.0,10.0,-0.0471379512944,0.0283626656093,0.187353382687,1.0,0.0,0.0,0.0,1.0,0.0,0.0,0.0,1.0,-0.0299377441406,-0.730480957031,9.99202148437,0.1,0.0,0.0,0.0,0.1,0.0,0.0,0.0,0.1
1446035889684983520,68,1446035889680984020,robocape,4.37713044996,9.51428940225,4.37713044996,0.0,10.0,0.0,0.0,0.0,10.0,0.0,0.0,0.0,10.0,0.0635163919984,0.0344879361165,0.103330650295,1.0,0.0,0.0,0.0,1.0,0.0,0.0,0.0,1.0,0.108973388672,-0.8047265625,9.96926879883,0.1,0.0,0.0,0.0,0.1,0.0,0.0,0.0,0.1
1446035889718350561,69,1446035889714546918,robocape,4.72667935556,9.55441009219,4.72667935556,0.0,10.0,0.0,0.0,0.0,10.0,0.0,0.0,0.0,10.0,0.180162847744,0.035153726389,0.034354778062,1.0,0.0,0.0,0.0,1.0,0.0,0.0,0.0,1.0,-0.0383203125,-0.547261962891,10.0004040527,0.1,0.0,0.0,0.0,0.1,0.0,0.0,0.0,0.1
1446035889752791020,70,1446035889749069929,robocape,5.07549232368,9.589627491,5.07549232368,0.0,10.0,0.0,0.0,0.0,10.0,0.0,0.0,0.0,10.0,0.186953908524,0.0302268783724,-0.00466053190764,1.0,0.0,0.0,0.0,1.0,0.0,0.0,0.0,1.0,-0.0802331542969,-0.0047900390625,10.0183666992,0.1,0.0,0.0,0.0,0.1,0.0,0.0,0.0,0.1
1446035889786473145,71,1446035889782685041,robocape,5.45596756791,9.63853345691,5.45596756791,0.0,10.0,0.0,0.0,0.0,10.0,0.0,0.0,0.0,10.0,0.226901324875,0.0278300333913,-0.135554899485,1.0,0.0,0.0,0.0,1.0,0.0,0.0,0.0,1.0,-0.0131726074219,0.481398925781,10.0159716797,0.1,0.0,0.0,0.0,0.1,0.0,0.0,0.0,0.1
1446035889819269770,72,1446035889815937042,robocape,5.62084054142,9.67279092396,5.62084054142,0.0,10.0,0.0,0.0,0.0,10.0,0.0,0.0,0.0,10.0,0.107591708039,0.0221042370477,-0.0980043281149,1.0,0.0,0.0,0.0,1.0,0.0,0.0,0.0,1.0,-0.0335302734375,0.872984619141,10.0483044434,0.1,0.0,0.0,0.0,0.1,0.0,0.0,0.0,0.1
1446035889851505603,73,1446035889848026990,robocape,5.4923765359,9.69051484889,5.4923765359,0.0,10.0,0.0,0.0,0.0,10.0,0.0,0.0,0.0,10.0,-0.0568584892732,0.0173105470855,-0.0383495196971,1.0,0.0,0.0,0.0,1.0,0.0,0.0,0.0,1.0,-0.131726074219,0.76640625,10.0423168945,0.1,0.0,0.0,0.0,0.1,0.0,0.0,0.0,0.1
1446035889885910770,74,1446035889882723093,robocape,5.12040450336,9.70056148654,5.12040450336,0.0,10.0,0.0,0.0,0.0,10.0,0.0,0.0,0.0,10.0,-0.188684963232,0.0142479118319,-0.0170442309765,1.0,0.0,0.0,0.0,1.0,0.0,0.0,0.0,1.0,-0.107775878906,0.395178222656,10.0722546387,0.1,0.0,0.0,0.0,0.1,0.0,0.0,0.0,0.1
1446035889919209353,75,1446035889916121959,robocape,4.63321033007,9.70662251585,4.63321033007,0.0,10.0,0.0,0.0,0.0,10.0,0.0,0.0,0.0,10.0,-0.249138719977,0.0117179087963,-0.0193079179031,1.0,0.0,0.0,0.0,1.0,0.0,0.0,0.0,1.0,0.217946777344,0.0119750976563,10.0351318359,0.1,0.0,0.0,0.0,0.1,0.0,0.0,0.0,0.1
1446035889951441103,76,1446035889948293924,robocape,4.06923005276,9.70254771372,4.06923005276,0.0,10.0,0.0,0.0,0.0,10.0,0.0,0.0,0.0,10.0,-0.30186930956,0.0103863282513,0.049401638221,1.0,0.0,0.0,0.0,1.0,0.0,0.0,0.0,1.0,-0.123343505859,-0.425115966797,10.0435144043,0.1,0.0,0.0,0.0,0.1,0.0,0.0,0.0,0.1
1446035889984111020,77,1446035889980650901,robocape,3.56302851436,9.69293326524,3.56302851436,0.0,10.0,0.0,0.0,0.0,10.0,0.0,0.0,0.0,10.0,-0.284159288311,0.0106526443603,0.119575932945,1.0,0.0,0.0,0.0,1.0,0.0,0.0,0.0,1.0,0.243094482422,-1.30887817383,10.0087866211,0.1,0.0,0.0,0.0,0.1,0.0,0.0,0.0,0.1
1446035890017481020,78,1446035890014175891,robocape,3.34237084819,9.70274924575,3.34237084819,0.0,10.0,0.0,0.0,0.0,10.0,0.0,0.0,0.0,10.0,-0.137951744466,0.0215716048296,0.137818586412,1.0,0.0,0.0,0.0,1.0,0.0,0.0,0.0,1.0,0.0826281738281,-1.7974621582,9.95489868164,0.1,0.0,0.0,0.0,0.1,0.0,0.0,0.0,0.1
1446035890050746728,79,1446035890047724962,robocape,3.47124785223,9.73677317235,3.47124785223,0.0,10.0,0.0,0.0,0.0,10.0,0.0,0.0,0.0,10.0,0.0454068965859,0.03488741028,0.136220689758,1.0,0.0,0.0,0.0,1.0,0.0,0.0,0.0,1.0,0.223934326172,-1.94954589844,9.96807128906,0.1,0.0,0.0,0.0,0.1,0.0,0.0,0.0,0.1
1446035890084540437,80,1446035890081316947,robocape,4.05804822814,9.79280573741,4.05804822814,0.0,10.0,0.0,0.0,0.0,10.0,0.0,0.0,0.0,10.0,0.290684032982,0.0470047932399,0.107591708039,1.0,0.0,0.0,0.0,1.0,0.0,0.0,0.0,1.0,0.131726074219,-1.1879296875,9.97645385742,0.1,0.0,0.0,0.0,0.1,0.0,0.0,0.0,0.1
1446035890117051145,81,1446035890114002943,robocape,4.81327614598,9.84370402041,4.81327614598,0.0,10.0,0.0,0.0,0.0,10.0,0.0,0.0,0.0,10.0,0.383362038917,0.0450074224223,0.0866858934821,1.0,0.0,0.0,0.0,1.0,0.0,0.0,0.0,1.0,0.117355957031,-0.930465087891,9.94052856445,0.1,0.0,0.0,0.0,0.1,0.0,0.0,0.0,0.1
1446035890150493270,82,1446035890147407054,robocape,5.72349314072,9.89724032477,5.72349314072,0.0,10.0,0.0,0.0,0.0,10.0,0.0,0.0,0.0,10.0,0.487624795594,0.0392816260787,-0.0355532005526,1.0,0.0,0.0,0.0,1.0,0.0,0.0,0.0,1.0,-0.107775878906,0.0131726074219,10.0818347168,0.1,0.0,0.0,0.0,0.1,0.0,0.0,0.0,0.1
1446035890183589103,83,1446035890180424928,robocape,6.63206509591,9.95832876833,6.63206509591,0.0,10.0,0.0,0.0,0.0,10.0,0.0,0.0,0.0,10.0,0.512392193731,0.0312921428084,-0.168578097002,1.0,0.0,0.0,0.0,1.0,0.0,0.0,0.0,1.0,-0.323327636719,0.506546630859,10.1177600098,0.1,0.0,0.0,0.0,0.1,0.0,0.0,0.0,0.1
1446035890216929270,84,1446035890213650941,robocape,7.38198562855,10.0025674303,7.38198562855,0.0,10.0,0.0,0.0,0.0,10.0,0.0,0.0,0.0,10.0,0.425173668031,0.0234358175927,-0.138750692793,1.0,0.0,0.0,0.0,1.0,0.0,0.0,0.0,1.0,-0.0251477050781,0.789158935547,10.0818347168,0.1,0.0,0.0,0.0,0.1,0.0,0.0,0.0,0.1
1446035890249602353,85,1446035890246530055,robocape,7.91789228813,10.0387172125,7.91789228813,0.0,10.0,0.0,0.0,0.0,10.0,0.0,0.0,0.0,10.0,0.303733522324,0.0237021337017,-0.0849548387735,1.0,0.0,0.0,0.0,1.0,0.0,0.0,0.0,1.0,-0.00359252929688,1.44419677734,10.0111816406,0.1,0.0,0.0,0.0,0.1,0.0,0.0,0.0,0.1
1446035890289839687,86,1446035890279597997,robocape,7.95228628653,10.0617314992,7.95228628653,0.0,10.0,0.0,0.0,0.0,10.0,0.0,0.0,0.0,10.0,0.0239684498107,0.0250337142467,0.00199737081756,1.0,0.0,0.0,0.0,1.0,0.0,0.0,0.0,1.0,0.00718505859375,1.25978027344,9.9980090332,0.1,0.0,0.0,0.0,0.1,0.0,0.0,0.0,0.1
1446035890317300937,87,1446035890314189910,robocape,7.75942749577,10.0882818784,7.75942749577,0.0,10.0,0.0,0.0,0.0,10.0,0.0,0.0,0.0,10.0,-0.0962732734064,0.0262321367373,0.00466053190764,1.0,0.0,0.0,0.0,1.0,0.0,0.0,0.0,1.0,-0.00239501953125,1.06698120117,9.98603393555,0.1,0.0,0.0,0.0,0.1,0.0,0.0,0.0,0.1
1446035890349451603,88,1446035890346358060,robocape,7.37251582554,10.1130478733,7.37251582554,0.0,10.0,0.0,0.0,0.0,10.0,0.0,0.0,0.0,10.0,-0.199737081756,0.0250337142467,0.0105194863058,1.0,0.0,0.0,0.0,1.0,0.0,0.0,0.0,1.0,-0.0934057617188,0.989143066406,10.0471069336,0.1,0.0,0.0,0.0,0.1,0.0,0.0,0.0,0.1
1446035890381895937,89,1446035890378436088,robocape,6.7744541632,10.1250079413,6.7744541632,0.0,10.0,0.0,0.0,0.0,10.0,0.0,0.0,0.0,10.0,-0.315717747229,0.0198405501211,0.0354200424981,1.0,0.0,0.0,0.0,1.0,0.0,0.0,0.0,1.0,-0.0371228027344,1.04183349609,10.0171691895,0.1,0.0,0.0,0.0,0.1,0.0,0.0,0.0,0.1
1446035890414761187,90,1446035890411652088,robocape,6.01013302152,10.1305434427,6.01013302152,0.0,10.0,0.0,0.0,0.0,10.0,0.0,0.0,0.0,10.0,-0.398275741021,0.0126500151779,0.00732369299772,1.0,0.0,0.0,0.0,1.0,0.0,0.0,0.0,1.0,-0.0502954101563,-0.244291992188,10.0830322266,0.1,0.0,0.0,0.0,0.1,0.0,0.0,0.0,0.1
1446035890448753728,91,1446035890445688009,robocape,5.32243420893,10.1283308875,5.32243420893,0.0,10.0,0.0,0.0,0.0,10.0,0.0,0.0,0.0,10.0,-0.352336212217,0.00599211245268,-0.0259658206283,1.0,0.0,0.0,0.0,1.0,0.0,0.0,0.0,1.0,-0.0658630371094,-0.366437988281,10.0351318359,0.1,0.0,0.0,0.0,0.1,0.0,0.0,0.0,0.1
1446035890481638937,92,1446035890478303909,robocape,4.7674688443,10.1363661063,4.7674688443,0.0,10.0,0.0,0.0,0.0,10.0,0.0,0.0,0.0,10.0,-0.288952978274,0.0143810698864,0.00506000607115,1.0,0.0,0.0,0.0,1.0,0.0,0.0,0.0,1.0,0.0946032714844,-0.787961425781,9.92256591797,0.1,0.0,0.0,0.0,0.1,0.0,0.0,0.0,0.1
1446035890514758228,93,1446035890511677026,robocape,4.31751659322,10.1389785061,4.31751659322,0.0,10.0,0.0,0.0,0.0,10.0,0.0,0.0,0.0,10.0,-0.242613975306,0.0146473859954,0.0508663768205,1.0,0.0,0.0,0.0,1.0,0.0,0.0,0.0,1.0,-0.0263452148438,-0.896934814453,9.98124389648,0.1,0.0,0.0,0.0,0.1,0.0,0.0,0.0,0.1
1446035890548145228,94,1446035890545066118,robocape,4.09981600809,10.1554995741,4.09981600809,0.0,10.0,0.0,0.0,0.0,10.0,0.0,0.0,0.0,10.0,-0.117578562127,0.0211721306661,0.0314253008629,1.0,0.0,0.0,0.0,1.0,0.0,0.0,0.0,1.0,0.152083740234,-1.19870727539,10.0315393066,0.1,0.0,0.0,0.0,0.1,0.0,0.0,0.0,0.1
1446035890581426770,95,1446035890578150987,robocape,4.13186884879,10.185340563,4.13186884879,0.0,10.0,0.0,0.0,0.0,10.0,0.0,0.0,0.0,10.0,0.017710021249,0.0274305592278,0.00719053494321,1.0,0.0,0.0,0.0,1.0,0.0,0.0,0.0,1.0,0.0311352539063,-1.16876953125,10.0063916016,0.1,0.0,0.0,0.0,0.1,0.0,0.0,0.0,0.1
1446035890614604353,96,1446035890611500024,robocape,4.34053503574,10.2227553694,4.34053503574,0.0,10.0,0.0,0.0,0.0,10.0,0.0,0.0,0.0,10.0,0.109189604693,0.0323574072445,0.0139815957229,1.0,0.0,0.0,0.0,1.0,0.0,0.0,0.0,1.0,0.0874182128906,-0.920885009766,9.96807128906,0.1,0.0,0.0,0.0,0.1,0.0,0.0,0.0,0.1
1446035890648001354,97,1446035890644951105,robocape,4.65277231629,10.2685445176,4.65277231629,0.0,10.0,0.0,0.0,0.0,10.0,0.0,0.0,0.0,10.0,0.164849671476,0.0368847810976,0.00798948327024,1.0,0.0,0.0,0.0,1.0,0.0,0.0,0.0,1.0,0.00239501953125,-0.305364990234,10.0339343262,0.1,0.0,0.0,0.0,0.1,0.0,0.0,0.0,0.1
1446035890681425645,98,1446035890678200006,robocape,4.92685474703,10.3085413907,4.92685474703,0.0,10.0,0.0,0.0,0.0,10.0,0.0,0.0,0.0,10.0,0.145808069682,0.0336889877895,0.00452737385313,1.0,0.0,0.0,0.0,1.0,0.0,0.0,0.0,1.0,-0.028740234375,-0.0215551757813,10.0363293457,0.1,0.0,0.0,0.0,0.1,0.0,0.0,0.0,0.1
1446035890714599687,99,1446035890711584091,robocape,5.08712412542,10.3424043267,5.08712412542,0.0,10.0,0.0,0.0,0.0,10.0,0.0,0.0,0.0,10.0,0.085354312937,0.0306263525359,0.00972053797879,1.0,0.0,0.0,0.0,1.0,0.0,0.0,0.0,1.0,-0.0335302734375,0.299377441406,10.0435144043,0.1,0.0,0.0,0.0,0.1,0.0,0.0,0.0,0.1
1446035890747900979,100,1446035890744810104,robocape,5.07126833704,10.36181757,5.07126833704,0.0,10.0,0.0,0.0,0.0,10.0,0.0,0.0,0.0,10.0,-0.0121173829599,0.0245010820287,0.0372842552611,1.0,0.0,0.0,0.0,1.0,0.0,0.0,0.0,1.0,-0.0910107421875,0.0658630371094,10.0135766602,0.1,0.0,0.0,0.0,0.1,0.0,0.0,0.0,0.1
1446035890781611979,101,1446035890778250932,robocape,4.99537982116,10.3843999608,4.99537982116,0.0,10.0,0.0,0.0,0.0,10.0,0.0,0.0,0.0,10.0,-0.0378168874791,0.0237021337017,0.00599211245268,1.0,0.0,0.0,0.0,1.0,0.0,0.0,0.0,1.0,0.00718505859375,0.251477050781,10.0710571289,0.1,0.0,0.0,0.0,0.1,0.0,0.0,0.0,0.1
1446035890814714145,102,1446035890811662912,robocape,4.83047379974,10.4025449696,4.83047379974,0.0,10.0,0.0,0.0,0.0,10.0,0.0,0.0,0.0,10.0,-0.0849548387735,0.0211721306661,0.00772316716123,1.0,0.0,0.0,0.0,1.0,0.0,0.0,0.0,1.0,-0.0179626464844,-0.0359252929688,10.0147741699,0.1,0.0,0.0,0.0,0.1,0.0,0.0,0.0,0.1
1446035890848100687,103,1446035890845029115,robocape,4.6366508023,10.4142090778,4.6366508023,0.0,10.0,0.0,0.0,0.0,10.0,0.0,0.0,0.0,10.0,-0.101333279478,0.017976337358,0.0134489635049,1.0,0.0,0.0,0.0,1.0,0.0,0.0,0.0,1.0,0.0550854492188,-0.208366699219,9.98483642578,0.1,0.0,0.0,0.0,0.1,0.0,0.0,0.0,0.1
1446035890882061604,104,1446035890878777980,robocape,4.49163459888,10.4343030016,4.49163459888,0.0,10.0,0.0,0.0,0.0,10.0,0.0,0.0,0.0,10.0,-0.0696416625056,0.0203731823391,-0.0199737081756,1.0,0.0,0.0,0.0,1.0,0.0,0.0,0.0,1.0,-0.972377929688,-0.1149609375,10.0099841309,0.1,0.0,0.0,0.0,0.1,0.0,0.0,0.0,0.1
1446035890914478270,105,1446035890911433935,robocape,4.34883827049,10.4400978319,4.34883827049,0.0,10.0,0.0,0.0,0.0,10.0,0.0,0.0,0.0,10.0,-0.066312711143,0.0121173829599,-0.0316916169719,1.0,0.0,0.0,0.0,1.0,0.0,0.0,0.0,1.0,-2.20341796875,0.00598754882813,10.1704504395,0.1,0.0,0.0,0.0,0.1,0.0,0.0,0.0,0.1
1446035890948057979,106,1446035890944963932,robocape,4.17324865787,10.5020880197,4.17324865787,0.0,10.0,0.0,0.0,0.0,10.0,0.0,0.0,0.0,10.0,-0.0858869451551,0.0424774193868,-0.0218379209386,1.0,0.0,0.0,0.0,1.0,0.0,0.0,0.0,1.0,-2.37825439453,-0.320932617188,9.98962646484,0.1,0.0,0.0,0.0,0.1,0.0,0.0,0.0,0.1
1446035890981460979,107,1446035890978188037,robocape,3.97796722653,10.5032431876,3.97796722653,0.0,10.0,0.0,0.0,0.0,10.0,0.0,0.0,0.0,10.0,-0.0932106381528,0.00945422186978,-0.0366184649886,1.0,0.0,0.0,0.0,1.0,0.0,0.0,0.0,1.0,-2.79259277344,0.228724365234,10.673404541,0.1,0.0,0.0,0.0,0.1,0.0,0.0,0.0,0.1
1446035891014505062,108,1446035891011394977,robocape,3.72802848775,10.4541338799,3.72802848775,0.0,10.0,0.0,0.0,0.0,10.0,0.0,0.0,0.0,10.0,-0.119043300727,-0.017976337358,-0.0513990090385,1.0,0.0,0.0,0.0,1.0,0.0,0.0,0.0,1.0,-1.04901855469,0.228724365234,10.3333117676,0.1,0.0,0.0,0.0,0.1,0.0,0.0,0.0,0.1
1446035891047682812,109,1446035891044594049,robocape,3.2234521076,10.4395194712,3.2234521076,0.0,10.0,0.0,0.0,0.0,10.0,0.0,0.0,0.0,10.0,-0.267780847607,0.0034621094171,0.0266316109008,1.0,0.0,0.0,0.0,1.0,0.0,0.0,0.0,1.0,-2.19144287109,0.90052734375,10.2830163574,0.1,0.0,0.0,0.0,0.1,0.0,0.0,0.0,0.1
1446035891085711604,110,1446035891082446098,robocape,2.23050536017,10.6169746439,2.23050536017,0.0,10.0,0.0,0.0,0.0,10.0,0.0,0.0,0.0,10.0,-0.518783780347,0.102531701968,-0.00838895743375,1.0,0.0,0.0,0.0,1.0,0.0,0.0,0.0,1.0,-1.65735351563,0.74724609375,10.7620202637,0.1,0.0,0.0,0.0,0.1,0.0,0.0,0.0,0.1
1446035891118118145,111,1446035891114891052,robocape,0.805368778798,10.5828078343,0.805368778798,0.0,10.0,0.0,0.0,0.0,10.0,0.0,0.0,0.0,10.0,-0.736097725298,-0.0102531701968,-0.0580569117637,1.0,0.0,0.0,0.0,1.0,0.0,0.0,0.0,1.0,-3.95297973633,1.07895629883,8.57656494141,0.1,0.0,0.0,0.0,0.1,0.0,0.0,0.0,0.1
1446035891151381312,112,1446035891148185968,robocape,-0.962256963596,10.8315922195,-0.962256963596,0.0,10.0,0.0,0.0,0.0,10.0,0.0,0.0,0.0,10.0,-0.919190050241,0.14101437972,-0.0482032157304,1.0,0.0,0.0,0.0,1.0,0.0,0.0,0.0,1.0,-3.98651000977,0.659827880859,12.2876477051,0.1,0.0,0.0,0.0,0.1,0.0,0.0,0.0,0.1
1446035891184046604,113,1446035891180754899,robocape,-3.18012496076,10.88165458,-3.18012496076,0.0,10.0,0.0,0.0,0.0,10.0,0.0,0.0,0.0,10.0,-1.13810189185,0.0438089999318,-0.150601759644,1.0,0.0,0.0,0.0,1.0,0.0,0.0,0.0,1.0,-2.03576660156,1.11368408203,8.81247436523,0.1,0.0,0.0,0.0,0.1,0.0,0.0,0.0,0.1
1446035891217841729,114,1446035891214734077,robocape,-5.88914060592,10.7971423824,-5.88914060592,0.0,10.0,0.0,0.0,0.0,10.0,0.0,0.0,0.0,10.0,-1.39389851455,-0.015845808486,-0.187619698796,1.0,0.0,0.0,0.0,1.0,0.0,0.0,0.0,1.0,-4.70142333984,1.04662353516,10.9057214355,0.1,0.0,0.0,0.0,0.1,0.0,0.0,0.0,0.1
1446035891250951354,115,1446035891247824907,robocape,-9.47348552539,10.9265992,-9.47348552539,0.0,10.0,0.0,0.0,0.0,10.0,0.0,0.0,0.0,10.0,-1.86368013084,0.109589078857,-0.172040206419,1.0,0.0,0.0,0.0,1.0,0.0,0.0,0.0,1.0,-3.00335449219,0.758023681641,8.13468383789,0.1,0.0,0.0,0.0,0.1,0.0,0.0,0.0,0.1
1446035891291044479,116,1446035891283590078,robocape,-13.9094073656,11.1583951299,-13.9094073656,0.0,10.0,0.0,0.0,0.0,10.0,0.0,0.0,0.0,10.0,-2.33173069242,0.179363899417,-0.149669653262,1.0,0.0,0.0,0.0,1.0,0.0,0.0,0.0,1.0,-1.72561157227,0.884959716797,9.41601928711,0.1,0.0,0.0,0.0,0.1,0.0,0.0,0.0,0.1
1446035891317410187,117,1446035891314294099,robocape,-19.3827815931,11.2664033686,-19.3827815931,0.0,10.0,0.0,0.0,0.0,10.0,0.0,0.0,0.0,10.0,-2.91456349698,0.143544382755,-0.17177389031,1.0,0.0,0.0,0.0,1.0,0.0,0.0,0.0,1.0,1.33282836914,1.79506713867,7.82812133789,0.1,0.0,0.0,0.0,0.1,0.0,0.0,0.0,0.1
1446035891350561312,118,1446035891347423076,robocape,-25.9626155094,11.4035920369,-25.9626155094,0.0,10.0,0.0,0.0,0.0,10.0,0.0,0.0,0.0,10.0,-3.5906069397,0.161787036222,-0.0949416928613,1.0,0.0,0.0,0.0,1.0,0.0,0.0,0.0,1.0,-1.55556518555,2.13635742188,6.31566650391,0.1,0.0,0.0,0.0,0.1,0.0,0.0,0.0,0.1
1446035891383461271,119,1446035891380075931,robocape,-31.9190080701,11.0546170863,-31.9190080701,0.0,10.0,0.0,0.0,0.0,10.0,0.0,0.0,0.0,10.0,-3.2490565299,0.250869774685,-0.743021944132,1.0,0.0,0.0,0.0,1.0,0.0,0.0,0.0,1.0,-0.0239501953125,-18.3338745117,8.98731079102,0.1,0.0,0.0,0.0,0.1,0.0,0.0,0.0,0.1
1446035891416209146,120,1446035891413176059,robocape,-32.9322728098,10.9077101264,-32.9322728098,0.0,10.0,0.0,0.0,0.0,10.0,0.0,0.0,0.0,10.0,-0.335425139295,1.05700863665,-1.75835210972,1.0,0.0,0.0,0.0,1.0,0.0,0.0,0.0,1.0,4.4870690918,-17.9997692871,12.1056262207,0.1,0.0,0.0,0.0,0.1,0.0,0.0,0.0,0.1
1446035891450092354,121,1446035891446964979,robocape,-31.2971313759,11.2008850635,-31.2971313759,0.0,10.0,0.0,0.0,0.0,10.0,0.0,0.0,0.0,10.0,1.14915401037,1.23690516829,-1.65675251414,1.0,0.0,0.0,0.0,1.0,0.0,0.0,0.0,1.0,-2.64170654297,-7.0090246582,7.56347167969,0.1,0.0,0.0,0.0,0.1,0.0,0.0,0.0,0.1
1446035891481995646,122,1446035891478704929,robocape,-31.3204802467,11.8377140861,-31.3204802467,0.0,10.0,0.0,0.0,0.0,10.0,0.0,0.0,0.0,10.0,0.112784872165,1.02678175828,-1.01386542699,1.0,0.0,0.0,0.0,1.0,0.0,0.0,0.0,1.0,-2.20940551758,1.81063476563,8.33826049805,0.1,0.0,0.0,0.0,0.1,0.0,0.0,0.0,0.1
1446035891515516604,123,1446035891512176036,robocape,-32.6122288151,12.2641076758,-32.6122288151,0.0,10.0,0.0,0.0,0.0,10.0,0.0,0.0,0.0,10.0,-0.63476444582,0.835566792012,-0.884036323852,1.0,0.0,0.0,0.0,1.0,0.0,0.0,0.0,1.0,1.85374511719,0.0730480957031,9.19088745117,0.1,0.0,0.0,0.0,0.1,0.0,0.0,0.0,0.1
1446035891549309646,124,1446035891546106100,robocape,-33.4582214831,11.8549623855,-33.4582214831,0.0,10.0,0.0,0.0,0.0,10.0,0.0,0.0,0.0,10.0,-0.38788941277,0.513990090385,-1.16499981886,1.0,0.0,0.0,0.0,1.0,0.0,0.0,0.0,1.0,-1.93278076172,-3.71467529297,8.73104370117,0.1,0.0,0.0,0.0,0.1,0.0,0.0,0.0,0.1
1446035891582012396,125,1446035891578896999,robocape,-33.6195613375,12.0366141374,-33.6195613375,0.0,10.0,0.0,0.0,0.0,10.0,0.0,0.0,0.0,10.0,0.0266316109008,0.972186955933,-1.28098048433,1.0,0.0,0.0,0.0,1.0,0.0,0.0,0.0,1.0,-3.87514160156,-5.66541870117,9.16933227539,0.1,0.0,0.0,0.0,0.1,0.0,0.0,0.0,0.1
1446035891614860771,126,1446035891611787080,robocape,-33.7744223386,12.5212851569,-33.7744223386,0.0,10.0,0.0,0.0,0.0,10.0,0.0,0.0,0.0,10.0,0.0300937203179,1.1382350499,-1.2401009616,1.0,0.0,0.0,0.0,1.0,0.0,0.0,0.0,1.0,1.77111694336,-2.38783447266,10.3680395508,0.1,0.0,0.0,0.0,0.1,0.0,0.0,0.0,0.1
1446035891648394937,127,1446035891645340919,robocape,-34.0255267284,12.5612322105,-34.0255267284,0.0,10.0,0.0,0.0,0.0,10.0,0.0,0.0,0.0,10.0,-0.0533963798561,0.855673658242,-1.23757095856,1.0,0.0,0.0,0.0,1.0,0.0,0.0,0.0,1.0,4.90739501953,-2.73271728516,8.59692260742,0.1,0.0,0.0,0.0,0.1,0.0,0.0,0.0,0.1
1446035891681523354,128,1446035891678107023,robocape,-34.3620246843,12.6840432719,-34.3620246843,0.0,10.0,0.0,0.0,0.0,10.0,0.0,0.0,0.0,10.0,-0.0741690363587,1.09682289495,-1.51334128944,1.0,0.0,0.0,0.0,1.0,0.0,0.0,0.0,1.0,2.47764770508,-2.23455322266,10.9141040039,0.1,0.0,0.0,0.0,0.1,0.0,0.0,0.0,0.1
1446035891714569604,129,1446035891711471080,robocape,-34.8224002784,12.8864987258,-34.8224002784,0.0,10.0,0.0,0.0,0.0,10.0,0.0,0.0,0.0,10.0,-0.160322297623,1.14369453013,-1.50095759037,1.0,0.0,0.0,0.0,1.0,0.0,0.0,0.0,1.0,2.32197143555,-3.04287231445,11.1571984863,0.1,0.0,0.0,0.0,0.1,0.0,0.0,0.0,0.1
1446035891747927396,130,1446035891744906902,robocape,-35.329036879,12.7098445039,-35.329036879,0.0,10.0,0.0,0.0,0.0,10.0,0.0,0.0,0.0,10.0,-0.221175528531,0.923184791876,-1.52652393683,1.0,0.0,0.0,0.0,1.0,0.0,0.0,0.0,1.0,2.00702636719,-0.0754431152344,6.6294140625,0.1,0.0,0.0,0.0,0.1,0.0,0.0,0.0,0.1
1446035891781704229,131,1446035891778584957,robocape,-35.91646221,12.6672662908,-35.91646221,0.0,10.0,0.0,0.0,0.0,10.0,0.0,0.0,0.0,10.0,-0.276169805041,1.08617025059,-1.63105300962,1.0,0.0,0.0,0.0,1.0,0.0,0.0,0.0,1.0,3.56618408203,-1.62382324219,8.79451171875,0.1,0.0,0.0,0.0,0.1,0.0,0.0,0.0,0.1
1446035891815126604,132,1446035891812000989,robocape,-36.6386514258,13.0051415951,-36.6386514258,0.0,10.0,0.0,0.0,0.0,10.0,0.0,0.0,0.0,10.0,-0.360592011597,1.33544212862,-1.62266405219,1.0,0.0,0.0,0.0,1.0,0.0,0.0,0.0,1.0,-1.87889282227,-3.77694580078,10.7739953613,0.1,0.0,0.0,0.0,0.1,0.0,0.0,0.0,0.1
1446035891848178271,133,1446035891845128059,robocape,-37.1521350717,13.207097549,-37.1521350717,0.0,10.0,0.0,0.0,0.0,10.0,0.0,0.0,0.0,10.0,-0.254331884103,1.33184686115,-1.72572838637,1.0,0.0,0.0,0.0,1.0,0.0,0.0,0.0,1.0,0.797541503906,-2.7590625,11.5140563965,0.1,0.0,0.0,0.0,0.1,0.0,0.0,0.0,0.1
1446035891881232146,134,1446035891878179073,robocape,-37.3422065767,13.5987809683,-37.3422065767,0.0,10.0,0.0,0.0,0.0,10.0,0.0,0.0,0.0,10.0,-0.0825579937925,1.41134221969,-1.66061409772,1.0,0.0,0.0,0.0,1.0,0.0,0.0,0.0,1.0,-0.8813671875,-1.93158325195,8.75020385742,0.1,0.0,0.0,0.0,0.1,0.0,0.0,0.0,0.1
1446035891914924604,135,1446035891911787986,robocape,-37.426006436,13.4001467846,-37.426006436,0.0,10.0,0.0,0.0,0.0,10.0,0.0,0.0,0.0,10.0,-0.0656469208705,0.989497503019,-1.62519405522,1.0,0.0,0.0,0.0,1.0,0.0,0.0,0.0,1.0,-4.89901245117,-1.5364050293,8.38496337891,0.1,0.0,0.0,0.0,0.1,0.0,0.0,0.0,0.1
1446035891948414312,136,1446035891945224046,robocape,-37.953298389,13.5945846609,-37.953298389,0.0,10.0,0.0,0.0,0.0,10.0,0.0,0.0,0.0,10.0,-0.330764607388,1.15727665169,-1.51840129551,1.0,0.0,0.0,0.0,1.0,0.0,0.0,0.0,1.0,3.9853125,-2.48603027344,10.5656286621,0.1,0.0,0.0,0.0,0.1,0.0,0.0,0.0,0.1
1446035891981506146,137,1446035891978414058,robocape,-38.60506551,13.4290506586,-38.60506551,0.0,10.0,0.0,0.0,0.0,10.0,0.0,0.0,0.0,10.0,-0.429434725775,0.977246962005,-1.59563296712,1.0,0.0,0.0,0.0,1.0,0.0,0.0,0.0,1.0,4.65951049805,-2.24173828125,9.79443237305,0.1,0.0,0.0,0.0,0.1,0.0,0.0,0.0,0.1
1446035892014773937,138,1446035892011662960,robocape,-38.9183426625,13.3021947648,-38.9183426625,0.0,10.0,0.0,0.0,0.0,10.0,0.0,0.0,0.0,10.0,-0.251535564958,1.07871339954,-1.69709940465,1.0,0.0,0.0,0.0,1.0,0.0,0.0,0.0,1.0,-0.542471923828,-1.89326293945,9.67587890625,0.1,0.0,0.0,0.0,0.1,0.0,0.0,0.0,0.1
1446035892048333271,139,1446035892045062065,robocape,-39.1607305642,13.2767445041,-39.1607305642,0.0,10.0,0.0,0.0,0.0,10.0,0.0,0.0,0.0,10.0,-0.229830802074,1.09562447246,-1.64010775733,1.0,0.0,0.0,0.0,1.0,0.0,0.0,0.0,1.0,-0.244291992188,-1.73159912109,9.73814941406,0.1,0.0,0.0,0.0,0.1,0.0,0.0,0.0,0.1
1446035892081578188,140,1446035892078496932,robocape,-39.2921377892,13.2505647931,-39.2921377892,0.0,10.0,0.0,0.0,0.0,10.0,0.0,0.0,0.0,10.0,-0.180162847744,1.11120396484,-1.67592727399,1.0,0.0,0.0,0.0,1.0,0.0,0.0,0.0,1.0,-2.97461425781,-2.95784912109,10.4782104492,0.1,0.0,0.0,0.0,0.1,0.0,0.0,0.0,0.1
1446035892114625396,141,1446035892111529111,robocape,-39.682683173,13.5455880017,-39.682683173,0.0,10.0,0.0,0.0,0.0,10.0,0.0,0.0,0.0,10.0,-0.335691455404,1.17791615014,-1.49176968461,1.0,0.0,0.0,0.0,1.0,0.0,0.0,0.0,1.0,2.39861206055,-1.98786621094,11.6158447266,0.1,0.0,0.0,0.0,0.1,0.0,0.0,0.0,0.1
1446035892148139188,142,1446035892144892930,robocape,-39.9774427804,13.5453031652,-39.9774427804,0.0,10.0,0.0,0.0,0.0,10.0,0.0,0.0,0.0,10.0,-0.298274042089,1.02558333579,-1.55302238968,1.0,0.0,0.0,0.0,1.0,0.0,0.0,0.0,1.0,-1.54598510742,-2.28963867188,7.25930419922,0.1,0.0,0.0,0.0,0.1,0.0,0.0,0.0,0.1
1446035892181181354,143,1446035892178096055,robocape,-40.3671816177,13.8260436189,-40.3671816177,0.0,10.0,0.0,0.0,0.0,10.0,0.0,0.0,0.0,10.0,-0.352069896108,1.20840934462,-1.55621818299,1.0,0.0,0.0,0.0,1.0,0.0,0.0,0.0,1.0,2.13036987305,-4.38767578125,12.855267334,0.1,0.0,0.0,0.0,0.1,0.0,0.0,0.0,0.1
1446035892214714104,144,1446035892211327075,robocape,-40.6113317245,14.0471809878,-40.6113317245,0.0,10.0,0.0,0.0,0.0,10.0,0.0,0.0,0.0,10.0,-0.281362969167,1.0879013053,-1.44330015277,1.0,0.0,0.0,0.0,1.0,0.0,0.0,0.0,1.0,-0.540076904297,-3.94100463867,5.56722290039,0.1,0.0,0.0,0.0,0.1,0.0,0.0,0.0,0.1
1446035892248108813,145,1446035892244904041,robocape,-40.7023425755,14.126378799,-40.7023425755,0.0,10.0,0.0,0.0,0.0,10.0,0.0,0.0,0.0,10.0,-0.2039981395,1.00787331454,-1.46700228647,1.0,0.0,0.0,0.0,1.0,0.0,0.0,0.0,1.0,1.75075927734,-4.10985351563,10.556048584,0.1,0.0,0.0,0.0,0.1,0.0,0.0,0.0,0.1
1446035892286689146,146,1446035892278325080,robocape,-40.8168372807,14.5778644002,-40.8168372807,0.0,10.0,0.0,0.0,0.0,10.0,0.0,0.0,0.0,10.0,-0.204930245882,1.2579441409,-1.48098388219,1.0,0.0,0.0,0.0,1.0,0.0,0.0,0.0,1.0,2.08606201172,-3.57456665039,6.65096923828,0.1,0.0,0.0,0.0,0.1,0.0,0.0,0.0,0.1
1446035892316167438,147,1446035892312521934,robocape,-40.951614264,14.9154520509,-40.951614264,0.0,10.0,0.0,0.0,0.0,10.0,0.0,0.0,0.0,10.0,-0.221308686586,1.13983294655,-1.42971803121,1.0,0.0,0.0,0.0,1.0,0.0,0.0,0.0,1.0,0.626297607422,-4.08590332031,10.4039648437,0.1,0.0,0.0,0.0,0.1,0.0,0.0,0.0,0.1
1446035892348535688,148,1446035892345144987,robocape,-41.0694152075,15.0947650659,-41.0694152075,0.0,10.0,0.0,0.0,0.0,10.0,0.0,0.0,0.0,10.0,-0.221042370477,0.997353828235,-1.38417797657,1.0,0.0,0.0,0.0,1.0,0.0,0.0,0.0,1.0,-1.79386962891,-4.14937133789,10.4758154297,0.1,0.0,0.0,0.0,0.1,0.0,0.0,0.0,0.1
1446035892381691729,149,1446035892378259897,robocape,-41.100275412,15.234562848,-41.100275412,0.0,10.0,0.0,0.0,0.0,10.0,0.0,0.0,0.0,10.0,-0.176168106109,0.960735363246,-1.37538954497,1.0,0.0,0.0,0.0,1.0,0.0,0.0,0.0,1.0,-1.05620361328,-2.81414794922,10.5752087402,0.1,0.0,0.0,0.0,0.1,0.0,0.0,0.0,0.1
1446035892414933813,150,1446035892411493062,robocape,-41.3876425255,15.3832801352,-41.3876425255,0.0,10.0,0.0,0.0,0.0,10.0,0.0,0.0,0.0,10.0,-0.327169339916,0.892025807122,-1.28470890985,1.0,0.0,0.0,0.0,1.0,0.0,0.0,0.0,1.0,2.72193969727,-3.78892089844,9.17531982422,0.1,0.0,0.0,0.0,0.1,0.0,0.0,0.0,0.1
1446035892448136771,151,1446035892444895982,robocape,-41.633348613,15.4907266382,-41.633348613,0.0,10.0,0.0,0.0,0.0,10.0,0.0,0.0,0.0,10.0,-0.305464577032,0.932372697637,-1.37858533828,1.0,0.0,0.0,0.0,1.0,0.0,0.0,0.0,1.0,1.48730712891,-4.0966809082,11.7954711914,0.1,0.0,0.0,0.0,0.1,0.0,0.0,0.0,0.1
1446035892481167896,152,1446035892477937936,robocape,-41.6799068246,15.5002042834,-41.6799068246,0.0,10.0,0.0,0.0,0.0,10.0,0.0,0.0,0.0,10.0,-0.20279971701,0.847151542754,-1.34995635656,1.0,0.0,0.0,0.0,1.0,0.0,0.0,0.0,1.0,0.130528564453,-3.40452026367,8.49633178711,0.1,0.0,0.0,0.0,0.1,0.0,0.0,0.0,0.1
1446035892514692229,153,1446035892511416912,robocape,-41.7441798329,15.7435613429,-41.7441798329,0.0,10.0,0.0,0.0,0.0,10.0,0.0,0.0,0.0,10.0,-0.205196561991,0.984038022784,-1.33144738699,1.0,0.0,0.0,0.0,1.0,0.0,0.0,0.0,1.0,3.7937109375,-2.58542358398,10.7811804199,0.1,0.0,0.0,0.0,0.1,0.0,0.0,0.0,0.1
1446035892548007229,154,1446035892544658899,robocape,-41.7892918002,16.0870856306,-41.7892918002,0.0,10.0,0.0,0.0,0.0,10.0,0.0,0.0,0.0,10.0,-0.190149701832,1.01599595587,-1.28657312262,1.0,0.0,0.0,0.0,1.0,0.0,0.0,0.0,1.0,4.54335205078,-4.27391235352,8.21371948242,0.1,0.0,0.0,0.0,0.1,0.0,0.0,0.0,0.1
1446035892581877354,155,1446035892578862905,robocape,-41.7653988077,16.4302033646,-41.7653988077,0.0,10.0,0.0,0.0,0.0,10.0,0.0,0.0,0.0,10.0,-0.147405966336,1.02198806832,-1.29709260892,1.0,0.0,0.0,0.0,1.0,0.0,0.0,0.0,1.0,0.234711914063,-2.88839355469,10.055489502,0.1,0.0,0.0,0.0,0.1,0.0,0.0,0.0,0.1
1446035892614726771,156,1446035892611555099,robocape,-41.7673598426,16.7024839794,-41.7673598426,0.0,10.0,0.0,0.0,0.0,10.0,0.0,0.0,0.0,10.0,-0.165914935912,0.919190050241,-1.22452146922,1.0,0.0,0.0,0.0,1.0,0.0,0.0,0.0,1.0,-1.81183227539,-2.99856445313,8.29874267578,0.1,0.0,0.0,0.0,0.1,0.0,0.0,0.0,0.1
1446035892648310563,157,1446035892645029067,robocape,-42.0554204958,17.2004344252,-42.0554204958,0.0,10.0,0.0,0.0,0.0,10.0,0.0,0.0,0.0,10.0,-0.31664985361,1.00441120512,-1.14049873683,1.0,0.0,0.0,0.0,1.0,0.0,0.0,0.0,1.0,6.67731445313,-4.29786254883,12.9953759766,0.1,0.0,0.0,0.0,0.1,0.0,0.0,0.0,0.1
1446035892681358979,158,1446035892678267955,robocape,-42.2294230013,17.4921200627,-42.2294230013,0.0,10.0,0.0,0.0,0.0,10.0,0.0,0.0,0.0,10.0,-0.25366609383,0.956341147447,-1.25541413786,1.0,0.0,0.0,0.0,1.0,0.0,0.0,0.0,1.0,2.97221923828,-2.81893798828,5.71092407227,0.1,0.0,0.0,0.0,0.1,0.0,0.0,0.0,0.1
1446035892716104188,159,1446035892712899923,robocape,-42.2642825313,17.7405602184,-42.2642825313,0.0,10.0,0.0,0.0,0.0,10.0,0.0,0.0,0.0,10.0,-0.180828638016,0.884968430233,-1.19203090392,1.0,0.0,0.0,0.0,1.0,0.0,0.0,0.0,1.0,4.45234130859,-6.06059692383,9.4687097168,0.1,0.0,0.0,0.0,0.1,0.0,0.0,0.0,0.1
1446035892749815563,160,1446035892746613979,robocape,-42.187964273,18.0044234646,-42.187964273,0.0,10.0,0.0,0.0,0.0,10.0,0.0,0.0,0.0,10.0,-0.110254869129,0.946753767523,-1.26300414697,1.0,0.0,0.0,0.0,1.0,0.0,0.0,0.0,1.0,0.389190673828,-2.82013549805,10.1752404785,0.1,0.0,0.0,0.0,0.1,0.0,0.0,0.0,0.1
1446035892782934980,161,1446035892779776096,robocape,-42.263895617,18.4303328234,-42.263895617,0.0,10.0,0.0,0.0,0.0,10.0,0.0,0.0,0.0,10.0,-0.193212337085,0.942759025888,-1.11346765176,1.0,0.0,0.0,0.0,1.0,0.0,0.0,0.0,1.0,0.207169189453,-3.19735107422,9.89981323242,0.1,0.0,0.0,0.0,0.1,0.0,0.0,0.0,0.1
1446035892815159813,162,1446035892812045097,robocape,-42.3360873165,18.6138102523,-42.3360873165,0.0,10.0,0.0,0.0,0.0,10.0,0.0,0.0,0.0,10.0,-0.190948650159,0.886300010778,-1.25781098284,1.0,0.0,0.0,0.0,1.0,0.0,0.0,0.0,1.0,2.90036865234,-4.74692871094,11.153605957,0.1,0.0,0.0,0.0,0.1,0.0,0.0,0.0,0.1
1446035892850601521,163,1446035892847232103,robocape,-42.402090305,18.7050144911,-42.402090305,0.0,10.0,0.0,0.0,0.0,10.0,0.0,0.0,0.0,10.0,-0.197872868993,0.780838831611,-1.19828933248,1.0,0.0,0.0,0.0,1.0,0.0,0.0,0.0,1.0,1.52203491211,-3.41769287109,8.41370361328,0.1,0.0,0.0,0.0,0.1,0.0,0.0,0.0,0.1
1446035892886570605,164,1446035892883492946,robocape,-42.6249461568,18.8292040413,-42.6249461568,0.0,10.0,0.0,0.0,0.0,10.0,0.0,0.0,0.0,10.0,-0.28176244333,0.821851512398,-1.22878252696,1.0,0.0,0.0,0.0,1.0,0.0,0.0,0.0,1.0,1.06099365234,-3.62725708008,10.4362976074,0.1,0.0,0.0,0.0,0.1,0.0,0.0,0.0,0.1
1446035892916356521,165,1446035892913217067,robocape,-42.7073213022,18.9985659929,-42.7073213022,0.0,10.0,0.0,0.0,0.0,10.0,0.0,0.0,0.0,10.0,-0.203731823391,0.836498898394,-1.20188459995,1.0,0.0,0.0,0.0,1.0,0.0,0.0,0.0,1.0,1.66094604492,-2.96263916016,9.17891235352,0.1,0.0,0.0,0.0,0.1,0.0,0.0,0.0,0.1
1446035892950109396,166,1446035892946991920,robocape,-42.6278754614,19.2456872709,-42.6278754614,0.0,10.0,0.0,0.0,0.0,10.0,0.0,0.0,0.0,10.0,-0.110388027184,0.862198402913,-1.16207034166,1.0,0.0,0.0,0.0,1.0,0.0,0.0,0.0,1.0,3.15184570313,-2.52435058594,9.00048339844,0.1,0.0,0.0,0.0,0.1,0.0,0.0,0.0,0.1
1446035892985531271,167,1446035892982382059,robocape,-42.7361173962,19.4062362337,-42.7361173962,0.0,10.0,0.0,0.0,0.0,10.0,0.0,0.0,0.0,10.0,-0.220909212422,0.777776196358,-1.13104451496,1.0,0.0,0.0,0.0,1.0,0.0,0.0,0.0,1.0,1.59867553711,-4.74573120117,8.73822875977,0.1,0.0,0.0,0.0,0.1,0.0,0.0,0.0,0.1
1446035893018830146,168,1446035893015541076,robocape,-42.7731971951,19.5831967182,-42.7731971951,0.0,10.0,0.0,0.0,0.0,10.0,0.0,0.0,0.0,10.0,-0.17590179,0.819188351308,-1.16992666687,1.0,0.0,0.0,0.0,1.0,0.0,0.0,0.0,1.0,1.82380737305,-2.69200195313,10.6638244629,0.1,0.0,0.0,0.0,0.1,0.0,0.0,0.0,0.1
1446035893051777146,169,1446035893048418998,robocape,-42.88184883,19.8235763807,-42.88184883,0.0,10.0,0.0,0.0,0.0,10.0,0.0,0.0,0.0,10.0,-0.215982364405,0.81479413551,-1.10601080071,1.0,0.0,0.0,0.0,1.0,0.0,0.0,0.0,1.0,2.62134887695,-4.39486083984,9.29626831055,0.1,0.0,0.0,0.0,0.1,0.0,0.0,0.0,0.1
1446035893084826646,170,1446035893080852031,robocape,-42.9077779376,19.9328985309,-42.9077779376,0.0,10.0,0.0,0.0,0.0,10.0,0.0,0.0,0.0,10.0,-0.176034948054,0.741956679696,-1.12238924141,1.0,0.0,0.0,0.0,1.0,0.0,0.0,0.0,1.0,0.936452636719,-4.73615112305,8.49154174805,0.1,0.0,0.0,0.0,0.1,0.0,0.0,0.0,0.1
1446035893117646438,171,1446035893114571094,robocape,-42.9710781264,20.0220369826,-42.9710781264,0.0,10.0,0.0,0.0,0.0,10.0,0.0,0.0,0.0,10.0,-0.202000768683,0.696416625056,-1.07897971565,1.0,0.0,0.0,0.0,1.0,0.0,0.0,0.0,1.0,-0.360450439453,-3.33506469727,9.31063842773,0.1,0.0,0.0,0.0,0.1,0.0,0.0,0.0,0.1
1446035893151815605,172,1446035893148370981,robocape,-43.184776834,20.2683836144,-43.184776834,0.0,10.0,0.0,0.0,0.0,10.0,0.0,0.0,0.0,10.0,-0.27377296006,0.804008333095,-1.08270814117,1.0,0.0,0.0,0.0,1.0,0.0,0.0,0.0,1.0,2.72553222656,-4.59723999023,9.71419921875,0.1,0.0,0.0,0.0,0.1,0.0,0.0,0.0,0.1
1446035893184238688,173,1446035893181097030,robocape,-43.4854372164,20.5844464339,-43.4854372164,0.0,10.0,0.0,0.0,0.0,10.0,0.0,0.0,0.0,10.0,-0.31811459221,0.839961007811,-1.062734433,1.0,0.0,0.0,0.0,1.0,0.0,0.0,0.0,1.0,3.16980834961,-5.42950927734,8.25323730469,0.1,0.0,0.0,0.0,0.1,0.0,0.0,0.0,0.1
1446035893218203855,174,1446035893215040922,robocape,-43.5062234542,20.8805820126,-43.5062234542,0.0,10.0,0.0,0.0,0.0,10.0,0.0,0.0,0.0,10.0,-0.157392820424,0.868989463693,-1.10654343293,1.0,0.0,0.0,0.0,1.0,0.0,0.0,0.0,1.0,0.067060546875,-4.40444091797,9.60642333984,0.1,0.0,0.0,0.0,0.1,0.0,0.0,0.0,0.1
1446035893252890396,175,1446035893249294042,robocape,-43.4342694881,21.2320751798,-43.4342694881,0.0,10.0,0.0,0.0,0.0,10.0,0.0,0.0,0.0,10.0,-0.106792759712,0.849015755517,-1.02518386163,1.0,0.0,0.0,0.0,1.0,0.0,0.0,0.0,1.0,-1.09811645508,-4.24157958984,8.86636230469,0.1,0.0,0.0,0.0,0.1,0.0,0.0,0.0,0.1
1446035893289538521,176,1446035893283543109,robocape,-43.5250713185,21.3797920414,-43.5250713185,0.0,10.0,0.0,0.0,0.0,10.0,0.0,0.0,0.0,10.0,-0.219044999659,0.648746041543,-0.941560603398,1.0,0.0,0.0,0.0,1.0,0.0,0.0,0.0,1.0,-0.324525146484,-3.41769287109,9.35015625,0.1,0.0,0.0,0.0,0.1,0.0,0.0,0.0,0.1
1446035893319315063,177,1446035893315949916,robocape,-43.4395966197,21.5516848928,-43.4395966197,0.0,10.0,0.0,0.0,0.0,10.0,0.0,0.0,0.0,10.0,-0.112252239947,0.704406108326,-0.987500132201,1.0,0.0,0.0,0.0,1.0,0.0,0.0,0.0,1.0,-2.67763183594,-3.23686889648,9.48307983398,0.1,0.0,0.0,0.0,0.1,0.0,0.0,0.0,0.1
1446035893352249605,178,1446035893348947048,robocape,-43.2678136212,21.7466506778,-43.2678136212,0.0,10.0,0.0,0.0,0.0,10.0,0.0,0.0,0.0,10.0,-0.0511326929295,0.771118293632,-1.05461179167,1.0,0.0,0.0,0.0,1.0,0.0,0.0,0.0,1.0,-0.439486083984,-3.86436401367,9.13819702148,0.1,0.0,0.0,0.0,0.1,0.0,0.0,0.0,0.1
1446035893384777063,179,1446035893381536960,robocape,-43.1066110136,21.8515175138,-43.1066110136,0.0,10.0,0.0,0.0,0.0,10.0,0.0,0.0,0.0,10.0,-0.0712395591596,0.649145515707,-0.973918010642,1.0,0.0,0.0,0.0,1.0,0.0,0.0,0.0,1.0,1.12206665039,-4.60801757813,8.16821411133,0.1,0.0,0.0,0.0,0.1,0.0,0.0,0.0,0.1
1446035893418141438,180,1446035893414932012,robocape,-43.0969678639,22.1621225649,-43.0969678639,0.0,10.0,0.0,0.0,0.0,10.0,0.0,0.0,0.0,10.0,-0.140215431393,0.757536172073,-0.936101123163,1.0,0.0,0.0,0.0,1.0,0.0,0.0,0.0,1.0,-0.765208740234,-3.77095825195,8.71667358398,0.1,0.0,0.0,0.0,0.1,0.0,0.0,0.0,0.1
1446035893451255105,181,1446035893448062896,robocape,-43.2658429056,22.2882558986,-43.2658429056,0.0,10.0,0.0,0.0,0.0,10.0,0.0,0.0,0.0,10.0,-0.247807139432,0.654072363723,-0.963132208227,1.0,0.0,0.0,0.0,1.0,0.0,0.0,0.0,1.0,-0.0718505859375,-5.134921875,11.2410241699,0.1,0.0,0.0,0.0,0.1,0.0,0.0,0.0,0.1
1446035893484593688,182,1446035893481518030,robocape,-43.1867093846,22.5552852257,-43.1867093846,0.0,10.0,0.0,0.0,0.0,10.0,0.0,0.0,0.0,10.0,-0.0986701183874,0.749679846857,-0.955009566902,1.0,0.0,0.0,0.0,1.0,0.0,0.0,0.0,1.0,0.972377929688,-4.50982177734,5.80672485352,0.1,0.0,0.0,0.0,0.1,0.0,0.0,0.0,0.1
1446035893517942938,183,1446035893514903068,robocape,-43.1124670765,22.7114501446,-43.1124670765,0.0,10.0,0.0,0.0,0.0,10.0,0.0,0.0,0.0,10.0,-0.120108565163,0.609730731574,-0.865261038167,1.0,0.0,0.0,0.0,1.0,0.0,0.0,0.0,1.0,0.634680175781,-3.99010253906,7.80656616211,0.1,0.0,0.0,0.0,0.1,0.0,0.0,0.0,0.1
1446035893552155147,184,1446035893549021005,robocape,-43.2725783815,22.9713874131,-43.2725783815,0.0,10.0,0.0,0.0,0.0,10.0,0.0,0.0,0.0,10.0,-0.239285023944,0.6725813333,-0.856605764624,1.0,0.0,0.0,0.0,1.0,0.0,0.0,0.0,1.0,1.88488037109,-4.46311889648,8.67835327148,0.1,0.0,0.0,0.0,0.1,0.0,0.0,0.0,0.1
1446035893584110813,185,1446035893581058025,robocape,-43.2430156597,23.1627297955,-43.2430156597,0.0,10.0,0.0,0.0,0.0,10.0,0.0,0.0,0.0,10.0,-0.126500151779,0.693353989802,-0.93690007149,1.0,0.0,0.0,0.0,1.0,0.0,0.0,0.0,1.0,-0.28740234375,-6.34320922852,8.87594238281,0.1,0.0,0.0,0.0,0.1,0.0,0.0,0.0,0.1
1446035893617038355,186,1446035893613996028,robocape,-43.1091686828,23.5382348697,-43.1091686828,0.0,10.0,0.0,0.0,0.0,10.0,0.0,0.0,0.0,10.0,-0.068709556124,0.72491244872,-0.808802023057,1.0,0.0,0.0,0.0,1.0,0.0,0.0,0.0,1.0,-0.683778076172,-4.18409912109,9.5453503418,0.1,0.0,0.0,0.0,0.1,0.0,0.0,0.0,0.1
1446035893652194855,187,1446035893648837089,robocape,-43.0402552028,23.6655469447,-43.0402552028,0.0,10.0,0.0,0.0,0.0,10.0,0.0,0.0,0.0,10.0,-0.110388027184,0.616788108462,-0.885634220506,1.0,0.0,0.0,0.0,1.0,0.0,0.0,0.0,1.0,2.96024414063,-4.39007080078,7.54790405273,0.1,0.0,0.0,0.0,0.1,0.0,0.0,0.0,0.1
1446035893684254355,188,1446035893681138992,robocape,-43.0162883893,23.8159209124,-43.0162883893,0.0,10.0,0.0,0.0,0.0,10.0,0.0,0.0,0.0,10.0,-0.147006492172,0.558598038644,-0.785765679628,1.0,0.0,0.0,0.0,1.0,0.0,0.0,0.0,1.0,0.878972167969,-5.61632080078,7.7023828125,0.1,0.0,0.0,0.0,0.1,0.0,0.0,0.0,0.1
1446035893716923480,189,1446035893713826894,robocape,-43.1289351985,24.0419431399,-43.1289351985,0.0,10.0,0.0,0.0,0.0,10.0,0.0,0.0,0.0,10.0,-0.21611552246,0.596814400287,-0.766724077834,1.0,0.0,0.0,0.0,1.0,0.0,0.0,0.0,1.0,1.28971801758,-5.85462524414,8.93581787109,0.1,0.0,0.0,0.0,0.1,0.0,0.0,0.0,0.1
1446035893749973355,190,1446035893746887922,robocape,-43.0255872617,24.2762743829,-43.0255872617,0.0,10.0,0.0,0.0,0.0,10.0,0.0,0.0,0.0,10.0,-0.0933437962073,0.611728102391,-0.770053029196,1.0,0.0,0.0,0.0,1.0,0.0,0.0,0.0,1.0,1.34719848633,-4.52778442383,9.15376464844,0.1,0.0,0.0,0.0,0.1,0.0,0.0,0.0,0.1
1446035893782860938,191,1446035893779697895,robocape,-42.9989335766,24.3780248172,-42.9989335766,0.0,10.0,0.0,0.0,0.0,10.0,0.0,0.0,0.0,10.0,-0.151267549917,0.497079017463,-0.734499828644,1.0,0.0,0.0,0.0,1.0,0.0,0.0,0.0,1.0,1.61184814453,-4.4032434082,7.30480957031,0.1,0.0,0.0,0.0,0.1,0.0,0.0,0.0,0.1
1446035893816232397,192,1446035893813193082,robocape,-43.1133131716,24.6870782496,-43.1133131716,0.0,10.0,0.0,0.0,0.0,10.0,0.0,0.0,0.0,10.0,-0.21465078386,0.604537567448,-0.689492406222,1.0,0.0,0.0,0.0,1.0,0.0,0.0,0.0,1.0,1.63100830078,-4.42120605469,8.75140136719,0.1,0.0,0.0,0.0,0.1,0.0,0.0,0.0,0.1
1446035893849132355,193,1446035893846026897,robocape,-43.1892540969,24.8512786966,-43.1892540969,0.0,10.0,0.0,0.0,0.0,10.0,0.0,0.0,0.0,10.0,-0.184157589379,0.600010193595,-0.804940439476,1.0,0.0,0.0,0.0,1.0,0.0,0.0,0.0,1.0,-0.05748046875,-6.52044067383,8.55141723633,0.1,0.0,0.0,0.0,0.1,0.0,0.0,0.0,0.1
1446035893881814022,194,1446035893878407001,robocape,-43.2822484262,25.0229248044,-43.2822484262,0.0,10.0,0.0,0.0,0.0,10.0,0.0,0.0,0.0,10.0,-0.19600865623,0.588691758962,-0.779240934957,1.0,0.0,0.0,0.0,1.0,0.0,0.0,0.0,1.0,-0.566422119141,-4.95769042969,8.82564697266,0.1,0.0,0.0,0.0,0.1,0.0,0.0,0.0,0.1
