%time,field.header.seq,field.header.stamp,field.header.frame_id,field.magnetic_field.x,field.magnetic_field.y,field.magnetic_field.z,field.magnetic_field_covariance0,field.magnetic_field_covariance1,field.magnetic_field_covariance2,field.magnetic_field_covariance3,field.magnetic_field_covariance4,field.magnetic_field_covariance5,field.magnetic_field_covariance6,field.magnetic_field_covariance7,field.magnetic_field_covariance8
1446035580318780789,1,1446035580020281076,robocape_mag,0.304847445614,-0.859115528548,0.411082161509,10.0,0.0,0.0,0.0,10.0,0.0,0.0,0.0,10.0
1446035580324300081,2,1446035580060163021,robocape_mag,0.304847445614,-0.859115528548,0.411082161509,10.0,0.0,0.0,0.0,10.0,0.0,0.0,0.0,10.0
1446035580344407747,3,1446035580085872888,robocape_mag,0.304847445614,-0.859115528548,0.411082161509,10.0,0.0,0.0,0.0,10.0,0.0,0.0,0.0,10.0
1446035580345176539,4,1446035580128875017,robocape_mag,0.274085331957,-0.841833519582,0.464966188141,10.0,0.0,0.0,0.0,10.0,0.0,0.0,0.0,10.0
1446035580345652622,5,1446035580152326107,robocape_mag,0.274085331957,-0.841833519582,0.464966188141,10.0,0.0,0.0,0.0,10.0,0.0,0.0,0.0,10.0
1446035580346826872,6,1446035580192433118,robocape_mag,0.274085331957,-0.841833519582,0.464966188141,10.0,0.0,0.0,0.0,10.0,0.0,0.0,0.0,10.0
1446035580348419622,7,1446035580219006061,robocape_mag,0.274085331957,-0.841833519582,0.464966188141,10.0,0.0,0.0,0.0,10.0,0.0,0.0,0.0,10.0
1446035580351130706,8,1446035580252945899,robocape_mag,0.274085331957,-0.841833519582,0.464966188141,10.0,0.0,0.0,0.0,10.0,0.0,0.0,0.0,10.0
1446035580351225831,9,1446035580301064014,robocape_mag,0.362039593611,-0.826192918752,0.431662592382,10.0,0.0,0.0,0.0,10.0,0.0,0.0,0.0,10.0
1446035580354810206,10,1446035580334371089,robocape_mag,0.362039593611,-0.826192918752,0.431662592382,10.0,0.0,0.0,0.0,10.0,0.0,0.0,0.0,10.0
1446035580363087331,11,1446035580351927995,robocape_mag,0.362039593611,-0.826192918752,0.431662592382,10.0,0.0,0.0,0.0,10.0,0.0,0.0,0.0,10.0
1446035580399486622,12,1446035580388784885,robocape_mag,0.362039593611,-0.826192918752,0.431662592382,10.0,0.0,0.0,0.0,10.0,0.0,0.0,0.0,10.0
1446035580425832872,13,1446035580422040939,robocape_mag,0.362039593611,-0.826192918752,0.431662592382,10.0,0.0,0.0,0.0,10.0,0.0,0.0,0.0,10.0
1446035580457444872,14,1446035580453912973,robocape_mag,0.316882905132,-0.857447860947,0.405423716861,10.0,0.0,0.0,0.0,10.0,0.0,0.0,0.0,10.0
1446035580491255997,15,1446035580487533092,robocape_mag,0.316882905132,-0.857447860947,0.405423716861,10.0,0.0,0.0,0.0,10.0,0.0,0.0,0.0,10.0
1446035580524791997,16,1446035580521034955,robocape_mag,0.316882905132,-0.857447860947,0.405423716861,10.0,0.0,0.0,0.0,10.0,0.0,0.0,0.0,10.0
1446035580557755289,17,1446035580554280042,robocape_mag,0.316882905132,-0.857447860947,0.405423716861,10.0,0.0,0.0,0.0,10.0,0.0,0.0,0.0,10.0
1446035580591631331,18,1446035580588016986,robocape_mag,0.316882905132,-0.857447860947,0.405423716861,10.0,0.0,0.0,0.0,10.0,0.0,0.0,0.0,10.0
1446035580624719372,19,1446035580621120929,robocape_mag,0.312433115265,-0.85919106698,0.40518669636,10.0,0.0,0.0,0.0,10.0,0.0,0.0,0.0,10.0
1446035580657633414,20,1446035580654109001,robocape_mag,0.312433115265,-0.85919106698,0.40518669636,10.0,0.0,0.0,0.0,10.0,0.0,0.0,0.0,10.0
1446035580691741206,21,1446035580687664031,robocape_mag,0.312433115265,-0.85919106698,0.40518669636,10.0,0.0,0.0,0.0,10.0,0.0,0.0,0.0,10.0
1446035580722614956,22,1446035580718935966,robocape_mag,0.312433115265,-0.85919106698,0.40518669636,10.0,0.0,0.0,0.0,10.0,0.0,0.0,0.0,10.0
1446035580756062872,23,1446035580752387046,robocape_mag,0.312433115265,-0.85919106698,0.40518669636,10.0,0.0,0.0,0.0,10.0,0.0,0.0,0.0,10.0
1446035580789548664,24,1446035580786072969,robocape_mag,0.325186288016,-0.857309304771,0.399092262566,10.0,0.0,0.0,0.0,10.0,0.0,0.0,0.0,10.0
1446035580822320122,25,1446035580818742990,robocape_mag,0.325186288016,-0.857309304771,0.399092262566,10.0,0.0,0.0,0.0,10.0,0.0,0.0,0.0,10.0
1446035580855014164,26,1446035580851301908,robocape_mag,0.325186288016,-0.857309304771,0.399092262566,10.0,0.0,0.0,0.0,10.0,0.0,0.0,0.0,10.0
1446035580888655289,27,1446035580885083913,robocape_mag,0.325186288016,-0.857309304771,0.399092262566,10.0,0.0,0.0,0.0,10.0,0.0,0.0,0.0,10.0
1446035580921988789,28,1446035580918339014,robocape_mag,0.300071306407,-0.863841639656,0.404641610154,10.0,0.0,0.0,0.0,10.0,0.0,0.0,0.0,10.0
1446035580954689498,29,1446035580951173067,robocape_mag,0.266444985414,-0.872837021183,0.408855236239,10.0,0.0,0.0,0.0,10.0,0.0,0.0,0.0,10.0
1446035580988499873,30,1446035580984935045,robocape_mag,0.266444985414,-0.872837021183,0.408855236239,10.0,0.0,0.0,0.0,10.0,0.0,0.0,0.0,10.0
1446035581021039914,31,1446035581017524003,robocape_mag,0.266444985414,-0.872837021183,0.408855236239,10.0,0.0,0.0,0.0,10.0,0.0,0.0,0.0,10.0
1446035581054465748,32,1446035581050978899,robocape_mag,0.266444985414,-0.872837021183,0.408855236239,10.0,0.0,0.0,0.0,10.0,0.0,0.0,0.0,10.0
1446035581088237706,33,1446035581084743022,robocape_mag,0.271982493772,-0.854802123283,0.441971552379,10.0,0.0,0.0,0.0,10.0,0.0,0.0,0.0,10.0
1446035581121272164,34,1446035581117692947,robocape_mag,0.271982493772,-0.854802123283,0.441971552379,10.0,0.0,0.0,0.0,10.0,0.0,0.0,0.0,10.0
1446035581154328623,35,1446035581150847911,robocape_mag,0.271982493772,-0.854802123283,0.441971552379,10.0,0.0,0.0,0.0,10.0,0.0,0.0,0.0,10.0
1446035581187822331,36,1446035581184338092,robocape_mag,0.271982493772,-0.854802123283,0.441971552379,10.0,0.0,0.0,0.0,10.0,0.0,0.0,0.0,10.0
1446035581221042706,37,1446035581217592954,robocape_mag,0.271982493772,-0.854802123283,0.441971552379,10.0,0.0,0.0,0.0,10.0,0.0,0.0,0.0,10.0
1446035581254348956,38,1446035581250907897,robocape_mag,0.312151830427,-0.860782320268,0.402013721004,10.0,0.0,0.0,0.0,10.0,0.0,0.0,0.0,10.0
1446035581288232998,39,1446035581284425020,robocape_mag,0.312151830427,-0.860782320268,0.402013721004,10.0,0.0,0.0,0.0,10.0,0.0,0.0,0.0,10.0
1446035581321020623,40,1446035581317523956,robocape_mag,0.312151830427,-0.860782320268,0.402013721004,10.0,0.0,0.0,0.0,10.0,0.0,0.0,0.0,10.0
1446035581357184914,41,1446035581353415966,robocape_mag,0.312151830427,-0.860782320268,0.402013721004,10.0,0.0,0.0,0.0,10.0,0.0,0.0,0.0,10.0
1446035581388563914,42,1446035581384670019,robocape_mag,0.312151830427,-0.860782320268,0.402013721004,10.0,0.0,0.0,0.0,10.0,0.0,0.0,0.0,10.0
1446035581421266206,43,1446035581417651891,robocape_mag,0.287450093564,-0.862350280692,0.416802635668,10.0,0.0,0.0,0.0,10.0,0.0,0.0,0.0,10.0
1446035581454341623,44,1446035581450841903,robocape_mag,0.287450093564,-0.862350280692,0.416802635668,10.0,0.0,0.0,0.0,10.0,0.0,0.0,0.0,10.0
1446035581488178998,45,1446035581484280109,robocape_mag,0.287450093564,-0.862350280692,0.416802635668,10.0,0.0,0.0,0.0,10.0,0.0,0.0,0.0,10.0
1446035581521604289,46,1446035581517947912,robocape_mag,0.287450093564,-0.862350280692,0.416802635668,10.0,0.0,0.0,0.0,10.0,0.0,0.0,0.0,10.0
1446035581555038914,47,1446035581551261901,robocape_mag,0.287450093564,-0.862350280692,0.416802635668,10.0,0.0,0.0,0.0,10.0,0.0,0.0,0.0,10.0
1446035581588391248,48,1446035581584233045,robocape_mag,0.307376312439,-0.845284859208,0.43705069425,10.0,0.0,0.0,0.0,10.0,0.0,0.0,0.0,10.0
1446035581621425664,49,1446035581617546081,robocape_mag,0.307376312439,-0.845284859208,0.43705069425,10.0,0.0,0.0,0.0,10.0,0.0,0.0,0.0,10.0
1446035581654774581,50,1446035581650993108,robocape_mag,0.307376312439,-0.845284859208,0.43705069425,10.0,0.0,0.0,0.0,10.0,0.0,0.0,0.0,10.0
1446035581688713248,51,1446035581684571981,robocape_mag,0.307376312439,-0.845284859208,0.43705069425,10.0,0.0,0.0,0.0,10.0,0.0,0.0,0.0,10.0
1446035581721461706,52,1446035581717645883,robocape_mag,0.310793151427,-0.825544308477,0.471045870131,10.0,0.0,0.0,0.0,10.0,0.0,0.0,0.0,10.0
1446035581754883748,53,1446035581751126050,robocape_mag,0.33675258046,-0.817827695404,0.466642861495,10.0,0.0,0.0,0.0,10.0,0.0,0.0,0.0,10.0
1446035581788632915,54,1446035581784583091,robocape_mag,0.33675258046,-0.817827695404,0.466642861495,10.0,0.0,0.0,0.0,10.0,0.0,0.0,0.0,10.0
1446035581821679206,55,1446035581817542076,robocape_mag,0.33675258046,-0.817827695404,0.466642861495,10.0,0.0,0.0,0.0,10.0,0.0,0.0,0.0,10.0
1446035581854439498,56,1446035581850785017,robocape_mag,0.33675258046,-0.817827695404,0.466642861495,10.0,0.0,0.0,0.0,10.0,0.0,0.0,0.0,10.0
1446035581887837873,57,1446035581884316921,robocape_mag,0.363802974428,-0.842491098675,0.397311143125,10.0,0.0,0.0,0.0,10.0,0.0,0.0,0.0,10.0
1446035581921288873,58,1446035581917655944,robocape_mag,0.363802974428,-0.842491098675,0.397311143125,10.0,0.0,0.0,0.0,10.0,0.0,0.0,0.0,10.0
1446035581954460040,59,1446035581950912952,robocape_mag,0.363802974428,-0.842491098675,0.397311143125,10.0,0.0,0.0,0.0,10.0,0.0,0.0,0.0,10.0
1446035581988108665,60,1446035581984546899,robocape_mag,0.363802974428,-0.842491098675,0.397311143125,10.0,0.0,0.0,0.0,10.0,0.0,0.0,0.0,10.0
1446035582022929831,61,1446035582018955945,robocape_mag,0.363802974428,-0.842491098675,0.397311143125,10.0,0.0,0.0,0.0,10.0,0.0,0.0,0.0,10.0
1446035582055514873,62,1446035582051136016,robocape_mag,0.304915984178,-0.855731955596,0.418029978308,10.0,0.0,0.0,0.0,10.0,0.0,0.0,0.0,10.0
1446035582089985498,63,1446035582085879087,robocape_mag,0.304915984178,-0.855731955596,0.418029978308,10.0,0.0,0.0,0.0,10.0,0.0,0.0,0.0,10.0
1446035582123347498,64,1446035582119385004,robocape_mag,0.304915984178,-0.855731955596,0.418029978308,10.0,0.0,0.0,0.0,10.0,0.0,0.0,0.0,10.0
1446035582156226623,65,1446035582152427911,robocape_mag,0.304915984178,-0.855731955596,0.418029978308,10.0,0.0,0.0,0.0,10.0,0.0,0.0,0.0,10.0
1446035582191119790,66,1446035582186760902,robocape_mag,0.304915984178,-0.855731955596,0.418029978308,10.0,0.0,0.0,0.0,10.0,0.0,0.0,0.0,10.0
1446035582222526040,67,1446035582218825101,robocape_mag,0.309574196491,-0.855881602065,0.414283115893,10.0,0.0,0.0,0.0,10.0,0.0,0.0,0.0,10.0
1446035582258613498,68,1446035582254196882,robocape_mag,0.309574196491,-0.855881602065,0.414283115893,10.0,0.0,0.0,0.0,10.0,0.0,0.0,0.0,10.0
1446035582290172706,69,1446035582286410093,robocape_mag,0.309574196491,-0.855881602065,0.414283115893,10.0,0.0,0.0,0.0,10.0,0.0,0.0,0.0,10.0
1446035582327693581,70,1446035582318500995,robocape_mag,0.309574196491,-0.855881602065,0.414283115893,10.0,0.0,0.0,0.0,10.0,0.0,0.0,0.0,10.0
1446035582363202623,71,1446035582359463930,robocape_mag,0.358136143281,-0.829367910756,0.428820908402,10.0,0.0,0.0,0.0,10.0,0.0,0.0,0.0,10.0
1446035582393497665,72,1446035582388603925,robocape_mag,0.358136143281,-0.829367910756,0.428820908402,10.0,0.0,0.0,0.0,10.0,0.0,0.0,0.0,10.0
1446035582426869665,73,1446035582421964883,robocape_mag,0.358136143281,-0.829367910756,0.428820908402,10.0,0.0,0.0,0.0,10.0,0.0,0.0,0.0,10.0
1446035582458787373,74,1446035582454406023,robocape_mag,0.358136143281,-0.829367910756,0.428820908402,10.0,0.0,0.0,0.0,10.0,0.0,0.0,0.0,10.0
1446035582491113165,75,1446035582487108945,robocape_mag,0.358136143281,-0.829367910756,0.428820908402,10.0,0.0,0.0,0.0,10.0,0.0,0.0,0.0,10.0
1446035582526100873,76,1446035582522181987,robocape_mag,0.325249460118,-0.837763760911,0.438593968947,10.0,0.0,0.0,0.0,10.0,0.0,0.0,0.0,10.0
1446035582558978748,77,1446035582555160045,robocape_mag,0.325249460118,-0.837763760911,0.438593968947,10.0,0.0,0.0,0.0,10.0,0.0,0.0,0.0,10.0
1446035582593201123,78,1446035582588937997,robocape_mag,0.325249460118,-0.837763760911,0.438593968947,10.0,0.0,0.0,0.0,10.0,0.0,0.0,0.0,10.0
1446035582625003915,79,1446035582621232032,robocape_mag,0.325249460118,-0.837763760911,0.438593968947,10.0,0.0,0.0,0.0,10.0,0.0,0.0,0.0,10.0
1446035582658966290,80,1446035582655267000,robocape_mag,0.325249460118,-0.837763760911,0.438593968947,10.0,0.0,0.0,0.0,10.0,0.0,0.0,0.0,10.0
1446035582693115123,81,1446035582689095020,robocape_mag,0.294927281271,-0.865754277279,0.404335788839,10.0,0.0,0.0,0.0,10.0,0.0,0.0,0.0,10.0
1446035582725280707,82,1446035582721395015,robocape_mag,0.294927281271,-0.865754277279,0.404335788839,10.0,0.0,0.0,0.0,10.0,0.0,0.0,0.0,10.0
1446035582757228915,83,1446035582753448963,robocape_mag,0.294927281271,-0.865754277279,0.404335788839,10.0,0.0,0.0,0.0,10.0,0.0,0.0,0.0,10.0
1446035582791276248,84,1446035582787604093,robocape_mag,0.294927281271,-0.865754277279,0.404335788839,10.0,0.0,0.0,0.0,10.0,0.0,0.0,0.0,10.0
1446035582824537040,85,1446035582820704936,robocape_mag,0.294927281271,-0.865754277279,0.404335788839,10.0,0.0,0.0,0.0,10.0,0.0,0.0,0.0,10.0
1446035582857737332,86,1446035582854032993,robocape_mag,0.284501787434,-0.853505362303,0.436563087615,10.0,0.0,0.0,0.0,10.0,0.0,0.0,0.0,10.0
1446035582890918915,87,1446035582887432098,robocape_mag,0.284501787434,-0.853505362303,0.436563087615,10.0,0.0,0.0,0.0,10.0,0.0,0.0,0.0,10.0
1446035582924200665,88,1446035582920619964,robocape_mag,0.284501787434,-0.853505362303,0.436563087615,10.0,0.0,0.0,0.0,10.0,0.0,0.0,0.0,10.0
1446035582957806623,89,1446035582954058885,robocape_mag,0.284501787434,-0.853505362303,0.436563087615,10.0,0.0,0.0,0.0,10.0,0.0,0.0,0.0,10.0
1446035582990961415,90,1446035582987349033,robocape_mag,0.284501787434,-0.853505362303,0.436563087615,10.0,0.0,0.0,0.0,10.0,0.0,0.0,0.0,10.0
1446035583023553498,91,1446035583020035982,robocape_mag,0.34574532306,-0.831657668983,0.434517770873,10.0,0.0,0.0,0.0,10.0,0.0,0.0,0.0,10.0
1446035583056157415,92,1446035583052423000,robocape_mag,0.34574532306,-0.831657668983,0.434517770873,10.0,0.0,0.0,0.0,10.0,0.0,0.0,0.0,10.0
1446035583089100290,93,1446035583085400104,robocape_mag,0.34574532306,-0.831657668983,0.434517770873,10.0,0.0,0.0,0.0,10.0,0.0,0.0,0.0,10.0
1446035583122876457,94,1446035583119334936,robocape_mag,0.34574532306,-0.831657668983,0.434517770873,10.0,0.0,0.0,0.0,10.0,0.0,0.0,0.0,10.0
1446035583155657624,95,1446035583152121067,robocape_mag,0.34574532306,-0.831657668983,0.434517770873,10.0,0.0,0.0,0.0,10.0,0.0,0.0,0.0,10.0
1446035583189042332,96,1446035583185298919,robocape_mag,0.311705908966,-0.821770123639,0.477004497055,10.0,0.0,0.0,0.0,10.0,0.0,0.0,0.0,10.0
1446035583221576040,97,1446035583218036890,robocape_mag,0.311705908966,-0.821770123639,0.477004497055,10.0,0.0,0.0,0.0,10.0,0.0,0.0,0.0,10.0
1446035583255478165,98,1446035583251965045,robocape_mag,0.311705908966,-0.821770123639,0.477004497055,10.0,0.0,0.0,0.0,10.0,0.0,0.0,0.0,10.0
1446035583288484582,99,1446035583284540891,robocape_mag,0.311705908966,-0.821770123639,0.477004497055,10.0,0.0,0.0,0.0,10.0,0.0,0.0,0.0,10.0
1446035583327889290,100,1446035583318044900,robocape_mag,0.312151830427,-0.860782320268,0.402013721004,10.0,0.0,0.0,0.0,10.0,0.0,0.0,0.0,10.0
1446035583355690499,101,1446035583352221965,robocape_mag,0.294927281271,-0.865754277279,0.404335788839,10.0,0.0,0.0,0.0,10.0,0.0,0.0,0.0,10.0
1446035583388327082,102,1446035583384252071,robocape_mag,0.294927281271,-0.865754277279,0.404335788839,10.0,0.0,0.0,0.0,10.0,0.0,0.0,0.0,10.0
1446035583421423207,103,1446035583417862892,robocape_mag,0.294927281271,-0.865754277279,0.404335788839,10.0,0.0,0.0,0.0,10.0,0.0,0.0,0.0,10.0
1446035583454416915,104,1446035583450921058,robocape_mag,0.294927281271,-0.865754277279,0.404335788839,10.0,0.0,0.0,0.0,10.0,0.0,0.0,0.0,10.0
1446035583488253624,105,1446035583484277009,robocape_mag,0.30223331131,-0.868920770016,0.391958825605,10.0,0.0,0.0,0.0,10.0,0.0,0.0,0.0,10.0
1446035583521093249,106,1446035583517534971,robocape_mag,0.30223331131,-0.868920770016,0.391958825605,10.0,0.0,0.0,0.0,10.0,0.0,0.0,0.0,10.0
1446035583554632207,107,1446035583550976991,robocape_mag,0.30223331131,-0.868920770016,0.391958825605,10.0,0.0,0.0,0.0,10.0,0.0,0.0,0.0,10.0
1446035583588156290,108,1446035583584217071,robocape_mag,0.30223331131,-0.868920770016,0.391958825605,10.0,0.0,0.0,0.0,10.0,0.0,0.0,0.0,10.0
1446035583621309249,109,1446035583617835044,robocape_mag,0.30223331131,-0.868920770016,0.391958825605,10.0,0.0,0.0,0.0,10.0,0.0,0.0,0.0,10.0
1446035583654368374,110,1446035583650902986,robocape_mag,0.349814649157,-0.828508379583,0.437268311447,10.0,0.0,0.0,0.0,10.0,0.0,0.0,0.0,10.0
1446035583688065582,111,1446035583684253931,robocape_mag,0.349814649157,-0.828508379583,0.437268311447,10.0,0.0,0.0,0.0,10.0,0.0,0.0,0.0,10.0
1446035583721189665,112,1446035583717596054,robocape_mag,0.349814649157,-0.828508379583,0.437268311447,10.0,0.0,0.0,0.0,10.0,0.0,0.0,0.0,10.0
1446035583754617999,113,1446035583751019001,robocape_mag,0.349814649157,-0.828508379583,0.437268311447,10.0,0.0,0.0,0.0,10.0,0.0,0.0,0.0,10.0
1446035583787608541,114,1446035583784199953,robocape_mag,0.349814649157,-0.828508379583,0.437268311447,10.0,0.0,0.0,0.0,10.0,0.0,0.0,0.0,10.0
1446035583821041291,115,1446035583817519903,robocape_mag,0.348362193196,-0.826116058152,0.442917645636,10.0,0.0,0.0,0.0,10.0,0.0,0.0,0.0,10.0
1446035583854684624,116,1446035583851206064,robocape_mag,0.348362193196,-0.826116058152,0.442917645636,10.0,0.0,0.0,0.0,10.0,0.0,0.0,0.0,10.0
1446035583888403041,117,1446035583884423017,robocape_mag,0.348362193196,-0.826116058152,0.442917645636,10.0,0.0,0.0,0.0,10.0,0.0,0.0,0.0,10.0
1446035583921348457,118,1446035583917700052,robocape_mag,0.348362193196,-0.826116058152,0.442917645636,10.0,0.0,0.0,0.0,10.0,0.0,0.0,0.0,10.0
1446035583954547249,119,1446035583950848102,robocape_mag,0.348362193196,-0.826116058152,0.442917645636,10.0,0.0,0.0,0.0,10.0,0.0,0.0,0.0,10.0
1446035583987983457,120,1446035583984178066,robocape_mag,0.273767187451,-0.876054999843,0.396962421804,10.0,0.0,0.0,0.0,10.0,0.0,0.0,0.0,10.0
1446035584021426624,121,1446035584017498970,robocape_mag,0.273767187451,-0.876054999843,0.396962421804,10.0,0.0,0.0,0.0,10.0,0.0,0.0,0.0,10.0
1446035584055091416,122,1446035584051045894,robocape_mag,0.273767187451,-0.876054999843,0.396962421804,10.0,0.0,0.0,0.0,10.0,0.0,0.0,0.0,10.0
1446035584087948374,123,1446035584084232091,robocape_mag,0.273767187451,-0.876054999843,0.396962421804,10.0,0.0,0.0,0.0,10.0,0.0,0.0,0.0,10.0
1446035584121347041,124,1446035584117643117,robocape_mag,0.288658430308,-0.856353343247,0.428176671623,10.0,0.0,0.0,0.0,10.0,0.0,0.0,0.0,10.0
1446035584154369707,125,1446035584150765895,robocape_mag,0.29744166041,-0.853945412144,0.426972706072,10.0,0.0,0.0,0.0,10.0,0.0,0.0,0.0,10.0
1446035584187795832,126,1446035584184278011,robocape_mag,0.29744166041,-0.853945412144,0.426972706072,10.0,0.0,0.0,0.0,10.0,0.0,0.0,0.0,10.0
1446035584222180957,127,1446035584218530893,robocape_mag,0.29744166041,-0.853945412144,0.426972706072,10.0,0.0,0.0,0.0,10.0,0.0,0.0,0.0,10.0
1446035584254287124,128,1446035584250859022,robocape_mag,0.29744166041,-0.853945412144,0.426972706072,10.0,0.0,0.0,0.0,10.0,0.0,0.0,0.0,10.0
1446035584287965624,129,1446035584284409046,robocape_mag,0.319947590472,-0.843498193064,0.431444478061,10.0,0.0,0.0,0.0,10.0,0.0,0.0,0.0,10.0
1446035584326736624,130,1446035584318821907,robocape_mag,0.319947590472,-0.843498193064,0.431444478061,10.0,0.0,0.0,0.0,10.0,0.0,0.0,0.0,10.0
1446035584356444374,131,1446035584352447986,robocape_mag,0.319947590472,-0.843498193064,0.431444478061,10.0,0.0,0.0,0.0,10.0,0.0,0.0,0.0,10.0
1446035584390141416,132,1446035584385863065,robocape_mag,0.319947590472,-0.843498193064,0.431444478061,10.0,0.0,0.0,0.0,10.0,0.0,0.0,0.0,10.0
1446035584424560374,133,1446035584420936107,robocape_mag,0.319947590472,-0.843498193064,0.431444478061,10.0,0.0,0.0,0.0,10.0,0.0,0.0,0.0,10.0
1446035584455133999,134,1446035584451180934,robocape_mag,0.361001342476,-0.836003108892,0.413251536782,10.0,0.0,0.0,0.0,10.0,0.0,0.0,0.0,10.0
1446035584488390458,135,1446035584484827041,robocape_mag,0.361001342476,-0.836003108892,0.413251536782,10.0,0.0,0.0,0.0,10.0,0.0,0.0,0.0,10.0
1446035584523380749,136,1446035584519432067,robocape_mag,0.361001342476,-0.836003108892,0.413251536782,10.0,0.0,0.0,0.0,10.0,0.0,0.0,0.0,10.0
1446035584556520374,137,1446035584552599906,robocape_mag,0.361001342476,-0.836003108892,0.413251536782,10.0,0.0,0.0,0.0,10.0,0.0,0.0,0.0,10.0
1446035584589758583,138,1446035584586227893,robocape_mag,0.361001342476,-0.836003108892,0.413251536782,10.0,0.0,0.0,0.0,10.0,0.0,0.0,0.0,10.0
1446035584625425874,139,1446035584619497060,robocape_mag,0.376151060626,-0.789917227314,0.484294490556,10.0,0.0,0.0,0.0,10.0,0.0,0.0,0.0,10.0
1446035584658672541,140,1446035584654652118,robocape_mag,0.376151060626,-0.789917227314,0.484294490556,10.0,0.0,0.0,0.0,10.0,0.0,0.0,0.0,10.0
1446035584693443791,141,1446035584688606023,robocape_mag,0.376151060626,-0.789917227314,0.484294490556,10.0,0.0,0.0,0.0,10.0,0.0,0.0,0.0,10.0
1446035584726644041,142,1446035584722548007,robocape_mag,0.376151060626,-0.789917227314,0.484294490556,10.0,0.0,0.0,0.0,10.0,0.0,0.0,0.0,10.0
1446035584759514833,143,1446035584755213975,robocape_mag,0.376151060626,-0.789917227314,0.484294490556,10.0,0.0,0.0,0.0,10.0,0.0,0.0,0.0,10.0
1446035584792844708,144,1446035584788201093,robocape_mag,0.325249460118,-0.837763760911,0.438593968947,10.0,0.0,0.0,0.0,10.0,0.0,0.0,0.0,10.0
1446035584826251624,145,1446035584822076082,robocape_mag,0.325249460118,-0.837763760911,0.438593968947,10.0,0.0,0.0,0.0,10.0,0.0,0.0,0.0,10.0
1446035584859346624,146,1446035584855284929,robocape_mag,0.325249460118,-0.837763760911,0.438593968947,10.0,0.0,0.0,0.0,10.0,0.0,0.0,0.0,10.0
1446035584892902374,147,1446035584888839006,robocape_mag,0.325249460118,-0.837763760911,0.438593968947,10.0,0.0,0.0,0.0,10.0,0.0,0.0,0.0,10.0
1446035584926540833,148,1446035584922728061,robocape_mag,0.341048427545,-0.814726799136,0.468941587875,10.0,0.0,0.0,0.0,10.0,0.0,0.0,0.0,10.0
1446035584958105749,149,1446035584954355955,robocape_mag,0.341048427545,-0.814726799136,0.468941587875,10.0,0.0,0.0,0.0,10.0,0.0,0.0,0.0,10.0
1446035584992981041,150,1446035584988364934,robocape_mag,0.341048427545,-0.814726799136,0.468941587875,10.0,0.0,0.0,0.0,10.0,0.0,0.0,0.0,10.0
1446035585025180458,151,1446035585021414995,robocape_mag,0.341048427545,-0.814726799136,0.468941587875,10.0,0.0,0.0,0.0,10.0,0.0,0.0,0.0,10.0
1446035585057937583,152,1446035585054229974,robocape_mag,0.341048427545,-0.814726799136,0.468941587875,10.0,0.0,0.0,0.0,10.0,0.0,0.0,0.0,10.0
1446035585091603916,153,1446035585087958097,robocape_mag,0.439013086639,-0.878026173277,-0.190624103409,10.0,0.0,0.0,0.0,10.0,0.0,0.0,0.0,10.0
1446035585125164874,154,1446035585121396064,robocape_mag,0.439013086639,-0.878026173277,-0.190624103409,10.0,0.0,0.0,0.0,10.0,0.0,0.0,0.0,10.0
1446035585157617000,155,1446035585154033899,robocape_mag,0.439013086639,-0.878026173277,-0.190624103409,10.0,0.0,0.0,0.0,10.0,0.0,0.0,0.0,10.0
1446035585190636708,156,1446035585187047958,robocape_mag,0.439013086639,-0.878026173277,-0.190624103409,10.0,0.0,0.0,0.0,10.0,0.0,0.0,0.0,10.0
1446035585223668083,157,1446035585220001935,robocape_mag,0.439013086639,-0.878026173277,-0.190624103409,10.0,0.0,0.0,0.0,10.0,0.0,0.0,0.0,10.0
1446035585257229291,158,1446035585253631114,robocape_mag,0.388616663728,-0.912059516912,0.130860713296,10.0,0.0,0.0,0.0,10.0,0.0,0.0,0.0,10.0
1446035585290350125,159,1446035585286808013,robocape_mag,0.388616663728,-0.912059516912,0.130860713296,10.0,0.0,0.0,0.0,10.0,0.0,0.0,0.0,10.0
1446035585327271666,160,1446035585323080062,robocape_mag,0.388616663728,-0.912059516912,0.130860713296,10.0,0.0,0.0,0.0,10.0,0.0,0.0,0.0,10.0
1446035585356512375,161,1446035585352997064,robocape_mag,0.388616663728,-0.912059516912,0.130860713296,10.0,0.0,0.0,0.0,10.0,0.0,0.0,0.0,10.0
1446035585390980708,162,1446035585386501073,robocape_mag,0.388616663728,-0.912059516912,0.130860713296,10.0,0.0,0.0,0.0,10.0,0.0,0.0,0.0,10.0
1446035585424282875,163,1446035585420840024,robocape_mag,0.589957576507,-0.272288112234,0.760137646653,10.0,0.0,0.0,0.0,10.0,0.0,0.0,0.0,10.0
1446035585455966041,164,1446035585452085971,robocape_mag,0.589957576507,-0.272288112234,0.760137646653,10.0,0.0,0.0,0.0,10.0,0.0,0.0,0.0,10.0
1446035585488797708,165,1446035585485294103,robocape_mag,0.589957576507,-0.272288112234,0.760137646653,10.0,0.0,0.0,0.0,10.0,0.0,0.0,0.0,10.0
1446035585521890750,166,1446035585518409013,robocape_mag,0.589957576507,-0.272288112234,0.760137646653,10.0,0.0,0.0,0.0,10.0,0.0,0.0,0.0,10.0
1446035585554898500,167,1446035585551475048,robocape_mag,0.589957576507,-0.272288112234,0.760137646653,10.0,0.0,0.0,0.0,10.0,0.0,0.0,0.0,10.0
1446035585588441833,168,1446035585584958076,robocape_mag,-0.0168321487979,-0.908936035088,0.416595682749,10.0,0.0,0.0,0.0,10.0,0.0,0.0,0.0,10.0
1446035585621752833,169,1446035585618215084,robocape_mag,-0.0168321487979,-0.908936035088,0.416595682749,10.0,0.0,0.0,0.0,10.0,0.0,0.0,0.0,10.0
1446035585654750541,170,1446035585651288986,robocape_mag,-0.0168321487979,-0.908936035088,0.416595682749,10.0,0.0,0.0,0.0,10.0,0.0,0.0,0.0,10.0
1446035585688364166,171,1446035585684768915,robocape_mag,-0.0168321487979,-0.908936035088,0.416595682749,10.0,0.0,0.0,0.0,10.0,0.0,0.0,0.0,10.0
1446035585721765333,172,1446035585718261003,robocape_mag,-0.0496100778226,-0.421685661492,0.905383920263,10.0,0.0,0.0,0.0,10.0,0.0,0.0,0.0,10.0
1446035585754642750,173,1446035585751118898,robocape_mag,-0.656041816635,-0.318648882365,0.684157894491,10.0,0.0,0.0,0.0,10.0,0.0,0.0,0.0,10.0
1446035585788123375,174,1446035585784481048,robocape_mag,-0.656041816635,-0.318648882365,0.684157894491,10.0,0.0,0.0,0.0,10.0,0.0,0.0,0.0,10.0
1446035585821970708,175,1446035585818084001,robocape_mag,-0.656041816635,-0.318648882365,0.684157894491,10.0,0.0,0.0,0.0,10.0,0.0,0.0,0.0,10.0
1446035585854498833,176,1446035585851008892,robocape_mag,-0.656041816635,-0.318648882365,0.684157894491,10.0,0.0,0.0,0.0,10.0,0.0,0.0,0.0,10.0
1446035585888163667,177,1446035585884531021,robocape_mag,-0.277089219216,-0.944945286045,0.174068868482,10.0,0.0,0.0,0.0,10.0,0.0,0.0,0.0,10.0
1446035585921576167,178,1446035585917973041,robocape_mag,-0.277089219216,-0.944945286045,0.174068868482,10.0,0.0,0.0,0.0,10.0,0.0,0.0,0.0,10.0
1446035585954879625,179,1446035585951077938,robocape_mag,-0.277089219216,-0.944945286045,0.174068868482,10.0,0.0,0.0,0.0,10.0,0.0,0.0,0.0,10.0
1446035585988005583,180,1446035585984522104,robocape_mag,-0.277089219216,-0.944945286045,0.174068868482,10.0,0.0,0.0,0.0,10.0,0.0,0.0,0.0,10.0
1446035586021723792,181,1446035586018258094,robocape_mag,-0.277089219216,-0.944945286045,0.174068868482,10.0,0.0,0.0,0.0,10.0,0.0,0.0,0.0,10.0
1446035586054405583,182,1446035586050905942,robocape_mag,-0.0690719585734,-0.967007420028,0.245205452936,10.0,0.0,0.0,0.0,10.0,0.0,0.0,0.0,10.0
1446035586088036208,183,1446035586084484100,robocape_mag,-0.0690719585734,-0.967007420028,0.245205452936,10.0,0.0,0.0,0.0,10.0,0.0,0.0,0.0,10.0
1446035586121388125,184,1446035586117909908,robocape_mag,-0.0690719585734,-0.967007420028,0.245205452936,10.0,0.0,0.0,0.0,10.0,0.0,0.0,0.0,10.0
1446035586154223667,185,1446035586150758981,robocape_mag,-0.0690719585734,-0.967007420028,0.245205452936,10.0,0.0,0.0,0.0,10.0,0.0,0.0,0.0,10.0
1446035586187850708,186,1446035586184411048,robocape_mag,-0.0690719585734,-0.967007420028,0.245205452936,10.0,0.0,0.0,0.0,10.0,0.0,0.0,0.0,10.0
1446035586222282875,187,1446035586218470096,robocape_mag,0.472110847592,-0.865536553918,0.167205925189,10.0,0.0,0.0,0.0,10.0,0.0,0.0,0.0,10.0
1446035586254298625,188,1446035586250866889,robocape_mag,0.472110847592,-0.865536553918,0.167205925189,10.0,0.0,0.0,0.0,10.0,0.0,0.0,0.0,10.0
1446035586288153667,189,1446035586284439086,robocape_mag,0.472110847592,-0.865536553918,0.167205925189,10.0,0.0,0.0,0.0,10.0,0.0,0.0,0.0,10.0
1446035586327341917,190,1446035586318079948,robocape_mag,0.472110847592,-0.865536553918,0.167205925189,10.0,0.0,0.0,0.0,10.0,0.0,0.0,0.0,10.0
1446035586354948167,191,1446035586351212024,robocape_mag,0.472110847592,-0.865536553918,0.167205925189,10.0,0.0,0.0,0.0,10.0,0.0,0.0,0.0,10.0
1446035586388013458,192,1446035586384210109,robocape_mag,0.646589093599,-0.762829829527,0.00363252299775,10.0,0.0,0.0,0.0,10.0,0.0,0.0,0.0,10.0
1446035586421734292,193,1446035586418037891,robocape_mag,0.646589093599,-0.762829829527,0.00363252299775,10.0,0.0,0.0,0.0,10.0,0.0,0.0,0.0,10.0
1446035586454671292,194,1446035586451011896,robocape_mag,0.646589093599,-0.762829829527,0.00363252299775,10.0,0.0,0.0,0.0,10.0,0.0,0.0,0.0,10.0
1446035586488071500,195,1446035586484375000,robocape_mag,0.646589093599,-0.762829829527,0.00363252299775,10.0,0.0,0.0,0.0,10.0,0.0,0.0,0.0,10.0
1446035586523923875,196,1446035586520441055,robocape_mag,0.530814298174,-0.846775189944,0.0347556980947,10.0,0.0,0.0,0.0,10.0,0.0,0.0,0.0,10.0
1446035586555743167,197,1446035586552241086,robocape_mag,0.530814298174,-0.846775189944,0.0347556980947,10.0,0.0,0.0,0.0,10.0,0.0,0.0,0.0,10.0
1446035586588922667,198,1446035586585397958,robocape_mag,0.530814298174,-0.846775189944,0.0347556980947,10.0,0.0,0.0,0.0,10.0,0.0,0.0,0.0,10.0
1446035586622619959,199,1446035586619055032,robocape_mag,0.530814298174,-0.846775189944,0.0347556980947,10.0,0.0,0.0,0.0,10.0,0.0,0.0,0.0,10.0
1446035586656123875,200,1446035586652533054,robocape_mag,0.530814298174,-0.846775189944,0.0347556980947,10.0,0.0,0.0,0.0,10.0,0.0,0.0,0.0,10.0
1446035586689603875,201,1446035586685836076,robocape_mag,0.466475554499,-0.391839465779,0.793008442649,10.0,0.0,0.0,0.0,10.0,0.0,0.0,0.0,10.0
1446035586722155459,202,1446035586718555927,robocape_mag,0.466475554499,-0.391839465779,0.793008442649,10.0,0.0,0.0,0.0,10.0,0.0,0.0,0.0,10.0
1446035586755074625,203,1446035586751590967,robocape_mag,0.466475554499,-0.391839465779,0.793008442649,10.0,0.0,0.0,0.0,10.0,0.0,0.0,0.0,10.0
1446035586788187584,204,1446035586784423112,robocape_mag,0.466475554499,-0.391839465779,0.793008442649,10.0,0.0,0.0,0.0,10.0,0.0,0.0,0.0,10.0
1446035586821621709,205,1446035586818094015,robocape_mag,0.466475554499,-0.391839465779,0.793008442649,10.0,0.0,0.0,0.0,10.0,0.0,0.0,0.0,10.0
1446035586854988750,206,1446035586851459980,robocape_mag,-0.660056871484,-0.374626873005,0.651137184032,10.0,0.0,0.0,0.0,10.0,0.0,0.0,0.0,10.0
1446035586888060625,207,1446035586884452104,robocape_mag,-0.660056871484,-0.374626873005,0.651137184032,10.0,0.0,0.0,0.0,10.0,0.0,0.0,0.0,10.0
1446035586921970042,208,1446035586918226957,robocape_mag,-0.660056871484,-0.374626873005,0.651137184032,10.0,0.0,0.0,0.0,10.0,0.0,0.0,0.0,10.0
1446035586954823375,209,1446035586951340913,robocape_mag,-0.660056871484,-0.374626873005,0.651137184032,10.0,0.0,0.0,0.0,10.0,0.0,0.0,0.0,10.0
1446035586988013875,210,1446035586984519958,robocape_mag,-0.660056871484,-0.374626873005,0.651137184032,10.0,0.0,0.0,0.0,10.0,0.0,0.0,0.0,10.0
1446035587021453459,211,1446035587017915010,robocape_mag,-0.178090749846,-0.920135540873,0.348761051783,10.0,0.0,0.0,0.0,10.0,0.0,0.0,0.0,10.0
1446035587054434792,212,1446035587050951957,robocape_mag,-0.178090749846,-0.920135540873,0.348761051783,10.0,0.0,0.0,0.0,10.0,0.0,0.0,0.0,10.0
1446035587088011292,213,1446035587084527015,robocape_mag,-0.178090749846,-0.920135540873,0.348761051783,10.0,0.0,0.0,0.0,10.0,0.0,0.0,0.0,10.0
1446035587122789334,214,1446035587119219064,robocape_mag,-0.178090749846,-0.920135540873,0.348761051783,10.0,0.0,0.0,0.0,10.0,0.0,0.0,0.0,10.0
1446035587154512292,215,1446035587151063919,robocape_mag,-0.178090749846,-0.920135540873,0.348761051783,10.0,0.0,0.0,0.0,10.0,0.0,0.0,0.0,10.0
1446035587187879084,216,1446035587184339046,robocape_mag,-0.137477136594,-0.687385682969,0.71316264608,10.0,0.0,0.0,0.0,10.0,0.0,0.0,0.0,10.0
1446035587221672167,217,1446035587217753887,robocape_mag,-0.137477136594,-0.687385682969,0.71316264608,10.0,0.0,0.0,0.0,10.0,0.0,0.0,0.0,10.0
1446035587254308917,218,1446035587250897884,robocape_mag,-0.137477136594,-0.687385682969,0.71316264608,10.0,0.0,0.0,0.0,10.0,0.0,0.0,0.0,10.0
1446035587287891542,219,1446035587284260034,robocape_mag,-0.137477136594,-0.687385682969,0.71316264608,10.0,0.0,0.0,0.0,10.0,0.0,0.0,0.0,10.0
1446035587327350709,220,1446035587317711114,robocape_mag,-0.157066683748,-0.785333418738,0.598816731788,10.0,0.0,0.0,0.0,10.0,0.0,0.0,0.0,10.0
1446035587355066001,221,1446035587351561069,robocape_mag,0.617850788465,-0.70771999406,0.342626346331,10.0,0.0,0.0,0.0,10.0,0.0,0.0,0.0,10.0
1446035587388480084,222,1446035587384712934,robocape_mag,0.617850788465,-0.70771999406,0.342626346331,10.0,0.0,0.0,0.0,10.0,0.0,0.0,0.0,10.0
1446035587421676584,223,1446035587417949914,robocape_mag,0.617850788465,-0.70771999406,0.342626346331,10.0,0.0,0.0,0.0,10.0,0.0,0.0,0.0,10.0
1446035587454849209,224,1446035587451118946,robocape_mag,0.617850788465,-0.70771999406,0.342626346331,10.0,0.0,0.0,0.0,10.0,0.0,0.0,0.0,10.0
1446035587488191209,225,1446035587484361886,robocape_mag,0.693775816001,-0.717494647318,0.0622619322053,10.0,0.0,0.0,0.0,10.0,0.0,0.0,0.0,10.0
1446035587521475709,226,1446035587517714023,robocape_mag,0.693775816001,-0.717494647318,0.0622619322053,10.0,0.0,0.0,0.0,10.0,0.0,0.0,0.0,10.0
1446035587554896292,227,1446035587551300048,robocape_mag,0.693775816001,-0.717494647318,0.0622619322053,10.0,0.0,0.0,0.0,10.0,0.0,0.0,0.0,10.0
1446035587587989876,228,1446035587584285974,robocape_mag,0.693775816001,-0.717494647318,0.0622619322053,10.0,0.0,0.0,0.0,10.0,0.0,0.0,0.0,10.0
1446035587621808209,229,1446035587617625951,robocape_mag,0.693775816001,-0.717494647318,0.0622619322053,10.0,0.0,0.0,0.0,10.0,0.0,0.0,0.0,10.0
1446035587654816709,230,1446035587651303052,robocape_mag,0.434420303205,-0.894394741893,0.106475564511,10.0,0.0,0.0,0.0,10.0,0.0,0.0,0.0,10.0
1446035587687910834,231,1446035587684406042,robocape_mag,0.434420303205,-0.894394741893,0.106475564511,10.0,0.0,0.0,0.0,10.0,0.0,0.0,0.0,10.0
1446035587721190167,232,1446035587717571973,robocape_mag,0.434420303205,-0.894394741893,0.106475564511,10.0,0.0,0.0,0.0,10.0,0.0,0.0,0.0,10.0
1446035587754774584,233,1446035587751188993,robocape_mag,0.434420303205,-0.894394741893,0.106475564511,10.0,0.0,0.0,0.0,10.0,0.0,0.0,0.0,10.0
1446035587787876542,234,1446035587784244060,robocape_mag,0.434420303205,-0.894394741893,0.106475564511,10.0,0.0,0.0,0.0,10.0,0.0,0.0,0.0,10.0
1446035587821640126,235,1446035587817675113,robocape_mag,0.742871973934,-0.659559229194,0.114555024018,10.0,0.0,0.0,0.0,10.0,0.0,0.0,0.0,10.0
1446035587856374626,236,1446035587852387905,robocape_mag,0.742871973934,-0.659559229194,0.114555024018,10.0,0.0,0.0,0.0,10.0,0.0,0.0,0.0,10.0
1446035587889631334,237,1446035587885459899,robocape_mag,0.742871973934,-0.659559229194,0.114555024018,10.0,0.0,0.0,0.0,10.0,0.0,0.0,0.0,10.0
1446035587923023126,238,1446035587919306993,robocape_mag,0.742871973934,-0.659559229194,0.114555024018,10.0,0.0,0.0,0.0,10.0,0.0,0.0,0.0,10.0
1446035587956336126,239,1446035587952331066,robocape_mag,0.742871973934,-0.659559229194,0.114555024018,10.0,0.0,0.0,0.0,10.0,0.0,0.0,0.0,10.0
1446035587989702418,240,1446035587986013889,robocape_mag,0.567751952476,-0.534354778801,0.626197006407,10.0,0.0,0.0,0.0,10.0,0.0,0.0,0.0,10.0
1446035588023029501,241,1446035588019155979,robocape_mag,0.567751952476,-0.534354778801,0.626197006407,10.0,0.0,0.0,0.0,10.0,0.0,0.0,0.0,10.0
1446035588056118709,242,1446035588052578926,robocape_mag,0.567751952476,-0.534354778801,0.626197006407,10.0,0.0,0.0,0.0,10.0,0.0,0.0,0.0,10.0
1446035588089545168,243,1446035588086015939,robocape_mag,0.567751952476,-0.534354778801,0.626197006407,10.0,0.0,0.0,0.0,10.0,0.0,0.0,0.0,10.0
1446035588125684501,244,1446035588120497941,robocape_mag,0.427251367096,-0.799726917897,0.421773785466,10.0,0.0,0.0,0.0,10.0,0.0,0.0,0.0,10.0
1446035588158358668,245,1446035588153588056,robocape_mag,0.427251367096,-0.799726917897,0.421773785466,10.0,0.0,0.0,0.0,10.0,0.0,0.0,0.0,10.0
1446035588191653751,246,1446035588188045024,robocape_mag,0.427251367096,-0.799726917897,0.421773785466,10.0,0.0,0.0,0.0,10.0,0.0,0.0,0.0,10.0
1446035588224836501,247,1446035588219124078,robocape_mag,0.427251367096,-0.799726917897,0.421773785466,10.0,0.0,0.0,0.0,10.0,0.0,0.0,0.0,10.0
1446035588257251918,248,1446035588253781080,robocape_mag,0.427251367096,-0.799726917897,0.421773785466,10.0,0.0,0.0,0.0,10.0,0.0,0.0,0.0,10.0
1446035588292226918,249,1446035588288108110,robocape_mag,-0.700768840627,-0.507453298385,0.50141218769,10.0,0.0,0.0,0.0,10.0,0.0,0.0,0.0,10.0
1446035588328114334,250,1446035588323625087,robocape_mag,-0.700768840627,-0.507453298385,0.50141218769,10.0,0.0,0.0,0.0,10.0,0.0,0.0,0.0,10.0
1446035588356854251,251,1446035588354279041,robocape_mag,-0.700768840627,-0.507453298385,0.50141218769,10.0,0.0,0.0,0.0,10.0,0.0,0.0,0.0,10.0
1446035588392187834,252,1446035588388258934,robocape_mag,-0.700768840627,-0.507453298385,0.50141218769,10.0,0.0,0.0,0.0,10.0,0.0,0.0,0.0,10.0
1446035588425614668,253,1446035588421427011,robocape_mag,-0.700768840627,-0.507453298385,0.50141218769,10.0,0.0,0.0,0.0,10.0,0.0,0.0,0.0,10.0
1446035588460487168,254,1446035588456947088,robocape_mag,-0.631174757775,-0.536498544109,0.560167597525,10.0,0.0,0.0,0.0,10.0,0.0,0.0,0.0,10.0
1446035588491463876,255,1446035588487775087,robocape_mag,-0.631174757775,-0.536498544109,0.560167597525,10.0,0.0,0.0,0.0,10.0,0.0,0.0,0.0,10.0
1446035588525553418,256,1446035588521514892,robocape_mag,-0.631174757775,-0.536498544109,0.560167597525,10.0,0.0,0.0,0.0,10.0,0.0,0.0,0.0,10.0
1446035588557559293,257,1446035588553827047,robocape_mag,-0.631174757775,-0.536498544109,0.560167597525,10.0,0.0,0.0,0.0,10.0,0.0,0.0,0.0,10.0
1446035588590729209,258,1446035588586895942,robocape_mag,-0.631174757775,-0.536498544109,0.560167597525,10.0,0.0,0.0,0.0,10.0,0.0,0.0,0.0,10.0
1446035588623916959,259,1446035588619781017,robocape_mag,-0.319347777247,-0.745144813577,0.585470924954,10.0,0.0,0.0,0.0,10.0,0.0,0.0,0.0,10.0
1446035588657038876,260,1446035588653358936,robocape_mag,-0.319347777247,-0.745144813577,0.585470924954,10.0,0.0,0.0,0.0,10.0,0.0,0.0,0.0,10.0
1446035588690238793,261,1446035588686429977,robocape_mag,-0.319347777247,-0.745144813577,0.585470924954,10.0,0.0,0.0,0.0,10.0,0.0,0.0,0.0,10.0
1446035588723710126,262,1446035588720011949,robocape_mag,-0.319347777247,-0.745144813577,0.585470924954,10.0,0.0,0.0,0.0,10.0,0.0,0.0,0.0,10.0
1446035588757201710,263,1446035588753705978,robocape_mag,-0.319347777247,-0.745144813577,0.585470924954,10.0,0.0,0.0,0.0,10.0,0.0,0.0,0.0,10.0
1446035588790209543,264,1446035588786573886,robocape_mag,-0.0306657496893,-0.965971115212,0.256825653648,10.0,0.0,0.0,0.0,10.0,0.0,0.0,0.0,10.0
1446035588823659835,265,1446035588819792032,robocape_mag,-0.0306657496893,-0.965971115212,0.256825653648,10.0,0.0,0.0,0.0,10.0,0.0,0.0,0.0,10.0
1446035588856568293,266,1446035588852957963,robocape_mag,-0.0306657496893,-0.965971115212,0.256825653648,10.0,0.0,0.0,0.0,10.0,0.0,0.0,0.0,10.0
1446035588888787043,267,1446035588885116100,robocape_mag,-0.0306657496893,-0.965971115212,0.256825653648,10.0,0.0,0.0,0.0,10.0,0.0,0.0,0.0,10.0
1446035588923456501,268,1446035588919780969,robocape_mag,-0.212728639964,-0.888454908087,0.406687105814,10.0,0.0,0.0,0.0,10.0,0.0,0.0,0.0,10.0
1446035588955494876,269,1446035588952083110,robocape_mag,-0.212728639964,-0.888454908087,0.406687105814,10.0,0.0,0.0,0.0,10.0,0.0,0.0,0.0,10.0
1446035588988701335,270,1446035588985063076,robocape_mag,-0.212728639964,-0.888454908087,0.406687105814,10.0,0.0,0.0,0.0,10.0,0.0,0.0,0.0,10.0
1446035589021721710,271,1446035589018270015,robocape_mag,-0.212728639964,-0.888454908087,0.406687105814,10.0,0.0,0.0,0.0,10.0,0.0,0.0,0.0,10.0
1446035589054752835,272,1446035589051278114,robocape_mag,-0.212728639964,-0.888454908087,0.406687105814,10.0,0.0,0.0,0.0,10.0,0.0,0.0,0.0,10.0
1446035589088099918,273,1446035589084445953,robocape_mag,0.479690965368,-0.852783938432,0.206533610089,10.0,0.0,0.0,0.0,10.0,0.0,0.0,0.0,10.0
1446035589121235585,274,1446035589117583036,robocape_mag,0.479690965368,-0.852783938432,0.206533610089,10.0,0.0,0.0,0.0,10.0,0.0,0.0,0.0,10.0
1446035589154526960,275,1446035589151062965,robocape_mag,0.479690965368,-0.852783938432,0.206533610089,10.0,0.0,0.0,0.0,10.0,0.0,0.0,0.0,10.0
1446035589187994585,276,1446035589184386968,robocape_mag,0.479690965368,-0.852783938432,0.206533610089,10.0,0.0,0.0,0.0,10.0,0.0,0.0,0.0,10.0
1446035589221604376,277,1446035589217915058,robocape_mag,0.479690965368,-0.852783938432,0.206533610089,10.0,0.0,0.0,0.0,10.0,0.0,0.0,0.0,10.0
1446035589254384710,278,1446035589250974893,robocape_mag,0.923198635097,-0.374269716931,0.0873296006173,10.0,0.0,0.0,0.0,10.0,0.0,0.0,0.0,10.0
1446035589287777668,279,1446035589284183979,robocape_mag,0.923198635097,-0.374269716931,0.0873296006173,10.0,0.0,0.0,0.0,10.0,0.0,0.0,0.0,10.0
1446035589324765835,280,1446035589317552089,robocape_mag,0.923198635097,-0.374269716931,0.0873296006173,10.0,0.0,0.0,0.0,10.0,0.0,0.0,0.0,10.0
1446035589354748918,281,1446035589351249933,robocape_mag,0.923198635097,-0.374269716931,0.0873296006173,10.0,0.0,0.0,0.0,10.0,0.0,0.0,0.0,10.0
1446035589387817418,282,1446035589384176969,robocape_mag,0.923198635097,-0.374269716931,0.0873296006173,10.0,0.0,0.0,0.0,10.0,0.0,0.0,0.0,10.0
1446035589421910460,283,1446035589418143987,robocape_mag,0.62954906349,-0.774829616604,0.0575068856073,10.0,0.0,0.0,0.0,10.0,0.0,0.0,0.0,10.0
1446035589454568002,284,1446035589451086044,robocape_mag,0.62954906349,-0.774829616604,0.0575068856073,10.0,0.0,0.0,0.0,10.0,0.0,0.0,0.0,10.0
1446035589487824918,285,1446035589484359025,robocape_mag,0.62954906349,-0.774829616604,0.0575068856073,10.0,0.0,0.0,0.0,10.0,0.0,0.0,0.0,10.0
1446035589521490668,286,1446035589517801046,robocape_mag,0.62954906349,-0.774829616604,0.0575068856073,10.0,0.0,0.0,0.0,10.0,0.0,0.0,0.0,10.0
1446035589554496960,287,1446035589550964117,robocape_mag,0.62954906349,-0.774829616604,0.0575068856073,10.0,0.0,0.0,0.0,10.0,0.0,0.0,0.0,10.0
1446035589587911168,288,1446035589584424018,robocape_mag,0.888495000458,-0.365850882542,0.277001382496,10.0,0.0,0.0,0.0,10.0,0.0,0.0,0.0,10.0
1446035589621490002,289,1446035589617844104,robocape_mag,0.888495000458,-0.365850882542,0.277001382496,10.0,0.0,0.0,0.0,10.0,0.0,0.0,0.0,10.0
1446035589654327377,290,1446035589650835990,robocape_mag,0.888495000458,-0.365850882542,0.277001382496,10.0,0.0,0.0,0.0,10.0,0.0,0.0,0.0,10.0
1446035589687837835,291,1446035589684252977,robocape_mag,0.888495000458,-0.365850882542,0.277001382496,10.0,0.0,0.0,0.0,10.0,0.0,0.0,0.0,10.0
1446035589721982127,292,1446035589718265056,robocape_mag,0.648491347834,-0.724784447579,0.232693954223,10.0,0.0,0.0,0.0,10.0,0.0,0.0,0.0,10.0
1446035589754359293,293,1446035589750950098,robocape_mag,0.0500494482573,-0.950939516889,0.30530163437,10.0,0.0,0.0,0.0,10.0,0.0,0.0,0.0,10.0
1446035589787927668,294,1446035589784116983,robocape_mag,0.0500494482573,-0.950939516889,0.30530163437,10.0,0.0,0.0,0.0,10.0,0.0,0.0,0.0,10.0
1446035589822022877,295,1446035589817739963,robocape_mag,0.0500494482573,-0.950939516889,0.30530163437,10.0,0.0,0.0,0.0,10.0,0.0,0.0,0.0,10.0
1446035589854742127,296,1446035589850996017,robocape_mag,0.0500494482573,-0.950939516889,0.30530163437,10.0,0.0,0.0,0.0,10.0,0.0,0.0,0.0,10.0
1446035589887937835,297,1446035589884109973,robocape_mag,-0.527270504008,-0.647789476353,0.549867811323,10.0,0.0,0.0,0.0,10.0,0.0,0.0,0.0,10.0
1446035589922296502,298,1446035589918359994,robocape_mag,-0.527270504008,-0.647789476353,0.549867811323,10.0,0.0,0.0,0.0,10.0,0.0,0.0,0.0,10.0
1446035589954664252,299,1446035589950917959,robocape_mag,-0.527270504008,-0.647789476353,0.549867811323,10.0,0.0,0.0,0.0,10.0,0.0,0.0,0.0,10.0
1446035589987952752,300,1446035589984347105,robocape_mag,-0.527270504008,-0.647789476353,0.549867811323,10.0,0.0,0.0,0.0,10.0,0.0,0.0,0.0,10.0
1446035590021393085,301,1446035590017767906,robocape_mag,-0.527270504008,-0.647789476353,0.549867811323,10.0,0.0,0.0,0.0,10.0,0.0,0.0,0.0,10.0
1446035590054735002,302,1446035590051232099,robocape_mag,-0.0892242631655,-0.951725473765,0.29369653292,10.0,0.0,0.0,0.0,10.0,0.0,0.0,0.0,10.0
1446035590087867169,303,1446035590084342956,robocape_mag,-0.0892242631655,-0.951725473765,0.29369653292,10.0,0.0,0.0,0.0,10.0,0.0,0.0,0.0,10.0
1446035590121150002,304,1446035590117638111,robocape_mag,-0.0892242631655,-0.951725473765,0.29369653292,10.0,0.0,0.0,0.0,10.0,0.0,0.0,0.0,10.0
1446035590154472127,305,1446035590150916099,robocape_mag,-0.0892242631655,-0.951725473765,0.29369653292,10.0,0.0,0.0,0.0,10.0,0.0,0.0,0.0,10.0
1446035590187931669,306,1446035590184418916,robocape_mag,-0.0892242631655,-0.951725473765,0.29369653292,10.0,0.0,0.0,0.0,10.0,0.0,0.0,0.0,10.0
1446035590222977794,307,1446035590219039916,robocape_mag,0.228848587068,-0.767315850757,0.599044830854,10.0,0.0,0.0,0.0,10.0,0.0,0.0,0.0,10.0
1446035590255706377,308,1446035590252219915,robocape_mag,0.228848587068,-0.767315850757,0.599044830854,10.0,0.0,0.0,0.0,10.0,0.0,0.0,0.0,10.0
1446035590289476085,309,1446035590285727024,robocape_mag,0.228848587068,-0.767315850757,0.599044830854,10.0,0.0,0.0,0.0,10.0,0.0,0.0,0.0,10.0
1446035590328344335,310,1446035590321217060,robocape_mag,0.228848587068,-0.767315850757,0.599044830854,10.0,0.0,0.0,0.0,10.0,0.0,0.0,0.0,10.0
1446035590356198544,311,1446035590352557897,robocape_mag,0.228848587068,-0.767315850757,0.599044830854,10.0,0.0,0.0,0.0,10.0,0.0,0.0,0.0,10.0
1446035590389481085,312,1446035590385767936,robocape_mag,0.395597396978,-0.636395812529,0.662195642767,10.0,0.0,0.0,0.0,10.0,0.0,0.0,0.0,10.0
1446035590423610835,313,1446035590419951915,robocape_mag,0.395597396978,-0.636395812529,0.662195642767,10.0,0.0,0.0,0.0,10.0,0.0,0.0,0.0,10.0
1446035590459182502,314,1446035590454219102,robocape_mag,0.395597396978,-0.636395812529,0.662195642767,10.0,0.0,0.0,0.0,10.0,0.0,0.0,0.0,10.0
1446035590488688335,315,1446035590485126018,robocape_mag,0.395597396978,-0.636395812529,0.662195642767,10.0,0.0,0.0,0.0,10.0,0.0,0.0,0.0,10.0
1446035590525439710,316,1446035590521361112,robocape_mag,0.385310534096,-0.912577580754,0.136886637113,10.0,0.0,0.0,0.0,10.0,0.0,0.0,0.0,10.0
1446035590558083335,317,1446035590553179979,robocape_mag,0.385310534096,-0.912577580754,0.136886637113,10.0,0.0,0.0,0.0,10.0,0.0,0.0,0.0,10.0
1446035590591839919,318,1446035590587286949,robocape_mag,0.385310534096,-0.912577580754,0.136886637113,10.0,0.0,0.0,0.0,10.0,0.0,0.0,0.0,10.0
1446035590623925377,319,1446035590620464086,robocape_mag,0.385310534096,-0.912577580754,0.136886637113,10.0,0.0,0.0,0.0,10.0,0.0,0.0,0.0,10.0
1446035590658744044,320,1446035590655047893,robocape_mag,0.385310534096,-0.912577580754,0.136886637113,10.0,0.0,0.0,0.0,10.0,0.0,0.0,0.0,10.0
1446035590691301877,321,1446035590686964988,robocape_mag,0.935677473403,-0.342321026855,0.0855802567137,10.0,0.0,0.0,0.0,10.0,0.0,0.0,0.0,10.0
1446035590724483169,322,1446035590720617055,robocape_mag,0.935677473403,-0.342321026855,0.0855802567137,10.0,0.0,0.0,0.0,10.0,0.0,0.0,0.0,10.0
1446035590758746252,323,1446035590754934072,robocape_mag,0.935677473403,-0.342321026855,0.0855802567137,10.0,0.0,0.0,0.0,10.0,0.0,0.0,0.0,10.0
1446035590791301336,324,1446035590787328958,robocape_mag,0.935677473403,-0.342321026855,0.0855802567137,10.0,0.0,0.0,0.0,10.0,0.0,0.0,0.0,10.0
1446035590824579627,325,1446035590820719003,robocape_mag,0.935677473403,-0.342321026855,0.0855802567137,10.0,0.0,0.0,0.0,10.0,0.0,0.0,0.0,10.0
1446035590858457669,326,1446035590854682922,robocape_mag,0.759766382655,-0.63430037451,0.142891842609,10.0,0.0,0.0,0.0,10.0,0.0,0.0,0.0,10.0
1446035590890510377,327,1446035590886687040,robocape_mag,0.759766382655,-0.63430037451,0.142891842609,10.0,0.0,0.0,0.0,10.0,0.0,0.0,0.0,10.0
1446035590926067044,328,1446035590922282934,robocape_mag,0.759766382655,-0.63430037451,0.142891842609,10.0,0.0,0.0,0.0,10.0,0.0,0.0,0.0,10.0
1446035590957963377,329,1446035590954349994,robocape_mag,0.759766382655,-0.63430037451,0.142891842609,10.0,0.0,0.0,0.0,10.0,0.0,0.0,0.0,10.0
1446035590990111794,330,1446035590986366033,robocape_mag,0.759766382655,-0.63430037451,0.142891842609,10.0,0.0,0.0,0.0,10.0,0.0,0.0,0.0,10.0
1446035591024313002,331,1446035591020768880,robocape_mag,0.813769746474,-0.325507898589,0.48148043333,10.0,0.0,0.0,0.0,10.0,0.0,0.0,0.0,10.0
1446035591057396377,332,1446035591053780078,robocape_mag,0.813769746474,-0.325507898589,0.48148043333,10.0,0.0,0.0,0.0,10.0,0.0,0.0,0.0,10.0
1446035591090316961,333,1446035591086822986,robocape_mag,0.813769746474,-0.325507898589,0.48148043333,10.0,0.0,0.0,0.0,10.0,0.0,0.0,0.0,10.0
1446035591123398211,334,1446035591119930028,robocape_mag,0.813769746474,-0.325507898589,0.48148043333,10.0,0.0,0.0,0.0,10.0,0.0,0.0,0.0,10.0
1446035591157038961,335,1446035591153497934,robocape_mag,0.813769746474,-0.325507898589,0.48148043333,10.0,0.0,0.0,0.0,10.0,0.0,0.0,0.0,10.0
1446035591189749919,336,1446035591186074018,robocape_mag,-0.121449055196,-0.954242576543,0.273260374192,10.0,0.0,0.0,0.0,10.0,0.0,0.0,0.0,10.0
1446035591222326919,337,1446035591218605041,robocape_mag,-0.121449055196,-0.954242576543,0.273260374192,10.0,0.0,0.0,0.0,10.0,0.0,0.0,0.0,10.0
1446035591255544169,338,1446035591252018928,robocape_mag,-0.121449055196,-0.954242576543,0.273260374192,10.0,0.0,0.0,0.0,10.0,0.0,0.0,0.0,10.0
1446035591288824544,339,1446035591285331964,robocape_mag,-0.121449055196,-0.954242576543,0.273260374192,10.0,0.0,0.0,0.0,10.0,0.0,0.0,0.0,10.0
1446035591328200919,340,1446035591318147897,robocape_mag,-0.110119363009,-0.936014585575,0.33429092342,10.0,0.0,0.0,0.0,10.0,0.0,0.0,0.0,10.0
1446035591355663752,341,1446035591352221012,robocape_mag,0.148690691216,-0.931273276561,0.332597598772,10.0,0.0,0.0,0.0,10.0,0.0,0.0,0.0,10.0
1446035591388181419,342,1446035591384622097,robocape_mag,0.148690691216,-0.931273276561,0.332597598772,10.0,0.0,0.0,0.0,10.0,0.0,0.0,0.0,10.0
1446035591421931044,343,1446035591418351888,robocape_mag,0.148690691216,-0.931273276561,0.332597598772,10.0,0.0,0.0,0.0,10.0,0.0,0.0,0.0,10.0
1446035591455467294,344,1446035591451514959,robocape_mag,0.148690691216,-0.931273276561,0.332597598772,10.0,0.0,0.0,0.0,10.0,0.0,0.0,0.0,10.0
1446035591488114878,345,1446035591484648942,robocape_mag,0.490076316916,-0.724460642398,0.484749400428,10.0,0.0,0.0,0.0,10.0,0.0,0.0,0.0,10.0
1446035591522785961,346,1446035591519275903,robocape_mag,0.490076316916,-0.724460642398,0.484749400428,10.0,0.0,0.0,0.0,10.0,0.0,0.0,0.0,10.0
1446035591554805628,347,1446035591551019906,robocape_mag,0.490076316916,-0.724460642398,0.484749400428,10.0,0.0,0.0,0.0,10.0,0.0,0.0,0.0,10.0
1446035591587788836,348,1446035591584199905,robocape_mag,0.490076316916,-0.724460642398,0.484749400428,10.0,0.0,0.0,0.0,10.0,0.0,0.0,0.0,10.0
1446035591621809128,349,1446035591617681980,robocape_mag,0.490076316916,-0.724460642398,0.484749400428,10.0,0.0,0.0,0.0,10.0,0.0,0.0,0.0,10.0
1446035591654512711,350,1446035591651072978,robocape_mag,0.24265178448,-0.690624309675,0.681291548733,10.0,0.0,0.0,0.0,10.0,0.0,0.0,0.0,10.0
1446035591687837169,351,1446035591684257984,robocape_mag,0.24265178448,-0.690624309675,0.681291548733,10.0,0.0,0.0,0.0,10.0,0.0,0.0,0.0,10.0
1446035591721376086,352,1446035591717855930,robocape_mag,0.24265178448,-0.690624309675,0.681291548733,10.0,0.0,0.0,0.0,10.0,0.0,0.0,0.0,10.0
1446035591754761586,353,1446035591751166105,robocape_mag,0.24265178448,-0.690624309675,0.681291548733,10.0,0.0,0.0,0.0,10.0,0.0,0.0,0.0,10.0
1446035591787981961,354,1446035591784261941,robocape_mag,0.24265178448,-0.690624309675,0.681291548733,10.0,0.0,0.0,0.0,10.0,0.0,0.0,0.0,10.0
1446035591821842836,355,1446035591818310022,robocape_mag,0.773331414112,-0.592190722518,0.226425864492,10.0,0.0,0.0,0.0,10.0,0.0,0.0,0.0,10.0
1446035591854616878,356,1446035591851073980,robocape_mag,0.773331414112,-0.592190722518,0.226425864492,10.0,0.0,0.0,0.0,10.0,0.0,0.0,0.0,10.0
1446035591888144169,357,1446035591884388923,robocape_mag,0.773331414112,-0.592190722518,0.226425864492,10.0,0.0,0.0,0.0,10.0,0.0,0.0,0.0,10.0
1446035591921582419,358,1446035591917695045,robocape_mag,0.773331414112,-0.592190722518,0.226425864492,10.0,0.0,0.0,0.0,10.0,0.0,0.0,0.0,10.0
1446035591954893211,359,1446035591951267957,robocape_mag,0.773331414112,-0.592190722518,0.226425864492,10.0,0.0,0.0,0.0,10.0,0.0,0.0,0.0,10.0
1446035591987793878,360,1446035591984184980,robocape_mag,0.716571492332,-0.693456282902,-0.0751244306477,10.0,0.0,0.0,0.0,10.0,0.0,0.0,0.0,10.0
1446035592021252919,361,1446035592017685890,robocape_mag,0.716571492332,-0.693456282902,-0.0751244306477,10.0,0.0,0.0,0.0,10.0,0.0,0.0,0.0,10.0
1446035592055145669,362,1446035592051273107,robocape_mag,0.716571492332,-0.693456282902,-0.0751244306477,10.0,0.0,0.0,0.0,10.0,0.0,0.0,0.0,10.0
1446035592087741086,363,1446035592084114074,robocape_mag,0.716571492332,-0.693456282902,-0.0751244306477,10.0,0.0,0.0,0.0,10.0,0.0,0.0,0.0,10.0
1446035592121616669,364,1446035592117696046,robocape_mag,0.702631340812,-0.679965813689,-0.209656125888,10.0,0.0,0.0,0.0,10.0,0.0,0.0,0.0,10.0
1446035592155067295,365,1446035592151165962,robocape_mag,0.901426923938,-0.389252535337,-0.189504523782,10.0,0.0,0.0,0.0,10.0,0.0,0.0,0.0,10.0
1446035592188171295,366,1446035592184237957,robocape_mag,0.901426923938,-0.389252535337,-0.189504523782,10.0,0.0,0.0,0.0,10.0,0.0,0.0,0.0,10.0
1446035592221585045,367,1446035592217724084,robocape_mag,0.901426923938,-0.389252535337,-0.189504523782,10.0,0.0,0.0,0.0,10.0,0.0,0.0,0.0,10.0
1446035592254637545,368,1446035592250873088,robocape_mag,0.901426923938,-0.389252535337,-0.189504523782,10.0,0.0,0.0,0.0,10.0,0.0,0.0,0.0,10.0
1446035592287920878,369,1446035592284101963,robocape_mag,0.720074034558,-0.680797269037,-0.134195615531,10.0,0.0,0.0,0.0,10.0,0.0,0.0,0.0,10.0
1446035592323505503,370,1446035592317593097,robocape_mag,0.720074034558,-0.680797269037,-0.134195615531,10.0,0.0,0.0,0.0,10.0,0.0,0.0,0.0,10.0
1446035592354930878,371,1446035592351213932,robocape_mag,0.720074034558,-0.680797269037,-0.134195615531,10.0,0.0,0.0,0.0,10.0,0.0,0.0,0.0,10.0
1446035592387792503,372,1446035592384172916,robocape_mag,0.720074034558,-0.680797269037,-0.134195615531,10.0,0.0,0.0,0.0,10.0,0.0,0.0,0.0,10.0
1446035592421987336,373,1446035592417781114,robocape_mag,0.720074034558,-0.680797269037,-0.134195615531,10.0,0.0,0.0,0.0,10.0,0.0,0.0,0.0,10.0
1446035592454917170,374,1446035592450985908,robocape_mag,0.885207839234,-0.452439562275,0.10819206924,10.0,0.0,0.0,0.0,10.0,0.0,0.0,0.0,10.0
1446035592488048545,375,1446035592484417915,robocape_mag,0.885207839234,-0.452439562275,0.10819206924,10.0,0.0,0.0,0.0,10.0,0.0,0.0,0.0,10.0
1446035592523407128,376,1446035592519174098,robocape_mag,0.885207839234,-0.452439562275,0.10819206924,10.0,0.0,0.0,0.0,10.0,0.0,0.0,0.0,10.0
1446035592556323253,377,1446035592552491903,robocape_mag,0.885207839234,-0.452439562275,0.10819206924,10.0,0.0,0.0,0.0,10.0,0.0,0.0,0.0,10.0
1446035592589285128,378,1446035592585707902,robocape_mag,0.885207839234,-0.452439562275,0.10819206924,10.0,0.0,0.0,0.0,10.0,0.0,0.0,0.0,10.0
1446035592622662586,379,1446035592618911027,robocape_mag,0.987786793465,-0.0266969403639,0.153507407092,10.0,0.0,0.0,0.0,10.0,0.0,0.0,0.0,10.0
1446035592656513586,380,1446035592652858018,robocape_mag,0.987786793465,-0.0266969403639,0.153507407092,10.0,0.0,0.0,0.0,10.0,0.0,0.0,0.0,10.0
1446035592689388628,381,1446035592685740947,robocape_mag,0.987786793465,-0.0266969403639,0.153507407092,10.0,0.0,0.0,0.0,10.0,0.0,0.0,0.0,10.0
1446035592723364295,382,1446035592719521045,robocape_mag,0.987786793465,-0.0266969403639,0.153507407092,10.0,0.0,0.0,0.0,10.0,0.0,0.0,0.0,10.0
1446035592756684253,383,1446035592753040075,robocape_mag,0.987786793465,-0.0266969403639,0.153507407092,10.0,0.0,0.0,0.0,10.0,0.0,0.0,0.0,10.0
1446035592788651295,384,1446035592784970998,robocape_mag,0.500494482573,-0.82081095142,0.275271965415,10.0,0.0,0.0,0.0,10.0,0.0,0.0,0.0,10.0
1446035592827133836,385,1446035592821592092,robocape_mag,0.500494482573,-0.82081095142,0.275271965415,10.0,0.0,0.0,0.0,10.0,0.0,0.0,0.0,10.0
1446035592858485003,386,1446035592854348897,robocape_mag,0.500494482573,-0.82081095142,0.275271965415,10.0,0.0,0.0,0.0,10.0,0.0,0.0,0.0,10.0
1446035592891106212,387,1446035592887517929,robocape_mag,0.500494482573,-0.82081095142,0.275271965415,10.0,0.0,0.0,0.0,10.0,0.0,0.0,0.0,10.0
1446035592924331295,388,1446035592920464038,robocape_mag,0.732822001968,-0.512975401378,0.447021421201,10.0,0.0,0.0,0.0,10.0,0.0,0.0,0.0,10.0
1446035592957741712,389,1446035592953758001,robocape_mag,-0.30745387577,-0.717392376798,0.625156214067,10.0,0.0,0.0,0.0,10.0,0.0,0.0,0.0,10.0
1446035592993439837,390,1446035592989631891,robocape_mag,-0.30745387577,-0.717392376798,0.625156214067,10.0,0.0,0.0,0.0,10.0,0.0,0.0,0.0,10.0
1446035593023129003,391,1446035593019510030,robocape_mag,-0.30745387577,-0.717392376798,0.625156214067,10.0,0.0,0.0,0.0,10.0,0.0,0.0,0.0,10.0
1446035593057193753,392,1446035593054588079,robocape_mag,-0.30745387577,-0.717392376798,0.625156214067,10.0,0.0,0.0,0.0,10.0,0.0,0.0,0.0,10.0
1446035593090577753,393,1446035593086122989,robocape_mag,0.182676930997,-0.891893251336,0.413709520198,10.0,0.0,0.0,0.0,10.0,0.0,0.0,0.0,10.0
1446035593127098753,394,1446035593123028993,robocape_mag,0.182676930997,-0.891893251336,0.413709520198,10.0,0.0,0.0,0.0,10.0,0.0,0.0,0.0,10.0
1446035593158157295,395,1446035593154319047,robocape_mag,0.182676930997,-0.891893251336,0.413709520198,10.0,0.0,0.0,0.0,10.0,0.0,0.0,0.0,10.0
1446035593191133378,396,1446035593187357902,robocape_mag,0.182676930997,-0.891893251336,0.413709520198,10.0,0.0,0.0,0.0,10.0,0.0,0.0,0.0,10.0
1446035593224652253,397,1446035593220506906,robocape_mag,0.182676930997,-0.891893251336,0.413709520198,10.0,0.0,0.0,0.0,10.0,0.0,0.0,0.0,10.0
1446035593257600920,398,1446035593253766059,robocape_mag,0.538479359977,-0.0173703019347,0.842459643835,10.0,0.0,0.0,0.0,10.0,0.0,0.0,0.0,10.0
1446035593290330670,399,1446035593286619901,robocape_mag,0.538479359977,-0.0173703019347,0.842459643835,10.0,0.0,0.0,0.0,10.0,0.0,0.0,0.0,10.0
1446035593330911712,400,1446035593322559118,robocape_mag,0.538479359977,-0.0173703019347,0.842459643835,10.0,0.0,0.0,0.0,10.0,0.0,0.0,0.0,10.0
1446035593357258212,401,1446035593353255033,robocape_mag,0.538479359977,-0.0173703019347,0.842459643835,10.0,0.0,0.0,0.0,10.0,0.0,0.0,0.0,10.0
1446035593390437420,402,1446035593386616945,robocape_mag,0.538479359977,-0.0173703019347,0.842459643835,10.0,0.0,0.0,0.0,10.0,0.0,0.0,0.0,10.0
1446035593424600253,403,1446035593419869899,robocape_mag,0.345685979424,-0.848501949496,0.400681476151,10.0,0.0,0.0,0.0,10.0,0.0,0.0,0.0,10.0
1446035593458112878,404,1446035593453771114,robocape_mag,0.345685979424,-0.848501949496,0.400681476151,10.0,0.0,0.0,0.0,10.0,0.0,0.0,0.0,10.0
1446035593490424087,405,1446035593486854076,robocape_mag,0.345685979424,-0.848501949496,0.400681476151,10.0,0.0,0.0,0.0,10.0,0.0,0.0,0.0,10.0
1446035593522526378,406,1446035593518995046,robocape_mag,0.345685979424,-0.848501949496,0.400681476151,10.0,0.0,0.0,0.0,10.0,0.0,0.0,0.0,10.0
1446035593556726379,407,1446035593552690982,robocape_mag,0.345685979424,-0.848501949496,0.400681476151,10.0,0.0,0.0,0.0,10.0,0.0,0.0,0.0,10.0
1446035593588862962,408,1446035593585202932,robocape_mag,0.773200877609,-0.587059925592,0.239835457406,10.0,0.0,0.0,0.0,10.0,0.0,0.0,0.0,10.0
1446035593622370712,409,1446035593618861913,robocape_mag,0.773200877609,-0.587059925592,0.239835457406,10.0,0.0,0.0,0.0,10.0,0.0,0.0,0.0,10.0
1446035593655392420,410,1446035593651859998,robocape_mag,0.773200877609,-0.587059925592,0.239835457406,10.0,0.0,0.0,0.0,10.0,0.0,0.0,0.0,10.0
1446035593688408670,411,1446035593684746026,robocape_mag,0.773200877609,-0.587059925592,0.239835457406,10.0,0.0,0.0,0.0,10.0,0.0,0.0,0.0,10.0
1446035593721488545,412,1446035593717771053,robocape_mag,0.829341196185,-0.55289413079,-0.0806303940735,10.0,0.0,0.0,0.0,10.0,0.0,0.0,0.0,10.0
1446035593754655379,413,1446035593751125097,robocape_mag,0.755860084352,-0.647880072301,-0.094482510544,10.0,0.0,0.0,0.0,10.0,0.0,0.0,0.0,10.0
1446035593787812670,414,1446035593784307003,robocape_mag,0.755860084352,-0.647880072301,-0.094482510544,10.0,0.0,0.0,0.0,10.0,0.0,0.0,0.0,10.0
1446035593821293295,415,1446035593817563056,robocape_mag,0.755860084352,-0.647880072301,-0.094482510544,10.0,0.0,0.0,0.0,10.0,0.0,0.0,0.0,10.0
1446035593854309920,416,1446035593850826978,robocape_mag,0.755860084352,-0.647880072301,-0.094482510544,10.0,0.0,0.0,0.0,10.0,0.0,0.0,0.0,10.0
1446035593887631837,417,1446035593884138107,robocape_mag,0.992825025257,-0.014388768482,-0.118707339976,10.0,0.0,0.0,0.0,10.0,0.0,0.0,0.0,10.0
1446035593921364837,418,1446035593917618036,robocape_mag,0.992825025257,-0.014388768482,-0.118707339976,10.0,0.0,0.0,0.0,10.0,0.0,0.0,0.0,10.0
1446035593955195629,419,1446035593951579093,robocape_mag,0.992825025257,-0.014388768482,-0.118707339976,10.0,0.0,0.0,0.0,10.0,0.0,0.0,0.0,10.0
