%time,field.header.seq,field.header.stamp,field.header.frame_id,field.magnetic_field.x,field.magnetic_field.y,field.magnetic_field.z,field.magnetic_field_covariance0,field.magnetic_field_covariance1,field.magnetic_field_covariance2,field.magnetic_field_covariance3,field.magnetic_field_covariance4,field.magnetic_field_covariance5,field.magnetic_field_covariance6,field.magnetic_field_covariance7,field.magnetic_field_covariance8
1446036510841540633,1,1446036510422910928,robocape_mag,15.15,3.3,-1.5,10.0,0.0,0.0,0.0,10.0,0.0,0.0,0.0,10.0
1446036510841638383,2,1446036510450670003,robocape_mag,16.95,2.1,-1.5,10.0,0.0,0.0,0.0,10.0,0.0,0.0,0.0,10.0
1446036510842315549,3,1446036510483226060,robocape_mag,16.95,2.1,-1.5,10.0,0.0,0.0,0.0,10.0,0.0,0.0,0.0,10.0
1446036510842360258,4,1446036510515434026,robocape_mag,16.95,2.1,-1.5,10.0,0.0,0.0,0.0,10.0,0.0,0.0,0.0,10.0
1446036510842393674,5,1446036510570066928,robocape_mag,16.95,2.1,-1.5,10.0,0.0,0.0,0.0,10.0,0.0,0.0,0.0,10.0
1446036510844575966,6,1446036510594969987,robocape_mag,11.55,1.5,-1.5,10.0,0.0,0.0,0.0,10.0,0.0,0.0,0.0,10.0
1446036510844627841,7,1446036510619970083,robocape_mag,11.55,1.5,-1.5,10.0,0.0,0.0,0.0,10.0,0.0,0.0,0.0,10.0
1446036510882406091,8,1446036510649676084,robocape_mag,11.55,1.5,-1.5,10.0,0.0,0.0,0.0,10.0,0.0,0.0,0.0,10.0
1446036510882859674,9,1446036510682842016,robocape_mag,11.55,1.5,-1.5,10.0,0.0,0.0,0.0,10.0,0.0,0.0,0.0,10.0
1446036510882968383,10,1446036510718735933,robocape_mag,11.55,1.5,-1.5,10.0,0.0,0.0,0.0,10.0,0.0,0.0,0.0,10.0
1446036510883430258,11,1446036510787516117,robocape_mag,11.55,4.5,0.3,10.0,0.0,0.0,0.0,10.0,0.0,0.0,0.0,10.0
1446036510885108133,12,1446036510809329986,robocape_mag,11.55,4.5,0.3,10.0,0.0,0.0,0.0,10.0,0.0,0.0,0.0,10.0
1446036510890379424,13,1446036510833697080,robocape_mag,11.55,4.5,0.3,10.0,0.0,0.0,0.0,10.0,0.0,0.0,0.0,10.0
1446036510890548633,14,1446036510851537942,robocape_mag,11.55,4.5,0.3,10.0,0.0,0.0,0.0,10.0,0.0,0.0,0.0,10.0
1446036510901849258,15,1446036510885384082,robocape_mag,11.55,4.5,0.3,10.0,0.0,0.0,0.0,10.0,0.0,0.0,0.0,10.0
1446036510920428383,16,1446036510915179967,robocape_mag,13.35,4.5,-0.3,10.0,0.0,0.0,0.0,10.0,0.0,0.0,0.0,10.0
1446036510956713508,17,1446036510947953939,robocape_mag,13.35,4.5,-0.3,10.0,0.0,0.0,0.0,10.0,0.0,0.0,0.0,10.0
1446036510987090758,18,1446036510982192039,robocape_mag,13.35,4.5,-0.3,10.0,0.0,0.0,0.0,10.0,0.0,0.0,0.0,10.0
1446036511019316466,19,1446036511014540910,robocape_mag,13.35,4.5,-0.3,10.0,0.0,0.0,0.0,10.0,0.0,0.0,0.0,10.0
1446036511052666758,20,1446036511047909021,robocape_mag,13.35,4.5,-0.3,10.0,0.0,0.0,0.0,10.0,0.0,0.0,0.0,10.0
1446036511088263716,21,1446036511081384897,robocape_mag,18.45,-1.8,0.0,10.0,0.0,0.0,0.0,10.0,0.0,0.0,0.0,10.0
1446036511120019549,22,1446036511114655017,robocape_mag,18.45,-1.8,0.0,10.0,0.0,0.0,0.0,10.0,0.0,0.0,0.0,10.0
1446036511154486299,23,1446036511147905111,robocape_mag,18.45,-1.8,0.0,10.0,0.0,0.0,0.0,10.0,0.0,0.0,0.0,10.0
1446036511186731133,24,1446036511181534051,robocape_mag,18.45,-1.8,0.0,10.0,0.0,0.0,0.0,10.0,0.0,0.0,0.0,10.0
1446036511219715591,25,1446036511214572906,robocape_mag,18.45,-1.8,0.0,10.0,0.0,0.0,0.0,10.0,0.0,0.0,0.0,10.0
1446036511253498091,26,1446036511248248100,robocape_mag,17.85,3.0,-1.2,10.0,0.0,0.0,0.0,10.0,0.0,0.0,0.0,10.0
1446036511286742299,27,1446036511281461954,robocape_mag,17.85,3.0,-1.2,10.0,0.0,0.0,0.0,10.0,0.0,0.0,0.0,10.0
1446036511319787883,28,1446036511314613103,robocape_mag,17.85,3.0,-1.2,10.0,0.0,0.0,0.0,10.0,0.0,0.0,0.0,10.0
1446036511356291466,29,1446036511351533889,robocape_mag,17.85,3.0,-1.2,10.0,0.0,0.0,0.0,10.0,0.0,0.0,0.0,10.0
1446036511388676050,30,1446036511383696079,robocape_mag,17.85,3.0,-1.2,10.0,0.0,0.0,0.0,10.0,0.0,0.0,0.0,10.0
1446036511421096133,31,1446036511416346073,robocape_mag,14.25,1.2,-0.6,10.0,0.0,0.0,0.0,10.0,0.0,0.0,0.0,10.0
1446036511454900550,32,1446036511449819087,robocape_mag,14.25,1.2,-0.6,10.0,0.0,0.0,0.0,10.0,0.0,0.0,0.0,10.0
1446036511486878466,33,1446036511481982946,robocape_mag,14.25,1.2,-0.6,10.0,0.0,0.0,0.0,10.0,0.0,0.0,0.0,10.0
1446036511520574716,34,1446036511515821933,robocape_mag,14.25,1.2,-0.6,10.0,0.0,0.0,0.0,10.0,0.0,0.0,0.0,10.0
1446036511553370925,35,1446036511548572063,robocape_mag,11.85,4.2,1.2,10.0,0.0,0.0,0.0,10.0,0.0,0.0,0.0,10.0
1446036511587169758,36,1446036511582350969,robocape_mag,11.85,4.2,1.2,10.0,0.0,0.0,0.0,10.0,0.0,0.0,0.0,10.0
1446036511619857633,37,1446036511614877939,robocape_mag,11.85,4.2,1.2,10.0,0.0,0.0,0.0,10.0,0.0,0.0,0.0,10.0
1446036511652847008,38,1446036511648081064,robocape_mag,11.85,4.2,1.2,10.0,0.0,0.0,0.0,10.0,0.0,0.0,0.0,10.0
1446036511689994341,39,1446036511681787014,robocape_mag,11.85,4.2,1.2,10.0,0.0,0.0,0.0,10.0,0.0,0.0,0.0,10.0
1446036511719577591,40,1446036511714679002,robocape_mag,13.95,3.3,0.3,10.0,0.0,0.0,0.0,10.0,0.0,0.0,0.0,10.0
1446036511753751800,41,1446036511748591899,robocape_mag,13.95,3.3,0.3,10.0,0.0,0.0,0.0,10.0,0.0,0.0,0.0,10.0
1446036511786717466,42,1446036511781864881,robocape_mag,13.95,3.3,0.3,10.0,0.0,0.0,0.0,10.0,0.0,0.0,0.0,10.0
1446036511827090300,43,1446036511814690113,robocape_mag,13.95,3.3,0.3,10.0,0.0,0.0,0.0,10.0,0.0,0.0,0.0,10.0
1446036511853872050,44,1446036511849024057,robocape_mag,13.95,3.3,0.3,10.0,0.0,0.0,0.0,10.0,0.0,0.0,0.0,10.0
1446036511886422591,45,1446036511881588935,robocape_mag,18.15,-0.9,2.1,10.0,0.0,0.0,0.0,10.0,0.0,0.0,0.0,10.0
1446036511919521758,46,1446036511914571046,robocape_mag,18.15,-0.9,2.1,10.0,0.0,0.0,0.0,10.0,0.0,0.0,0.0,10.0
1446036511952887966,47,1446036511948079109,robocape_mag,18.15,-0.9,2.1,10.0,0.0,0.0,0.0,10.0,0.0,0.0,0.0,10.0
1446036511990890216,48,1446036511981527090,robocape_mag,18.15,-0.9,2.1,10.0,0.0,0.0,0.0,10.0,0.0,0.0,0.0,10.0
1446036512019724883,49,1446036512014657020,robocape_mag,18.15,-0.9,2.1,10.0,0.0,0.0,0.0,10.0,0.0,0.0,0.0,10.0
1446036512052980383,50,1446036512048233985,robocape_mag,13.35,2.7,-0.9,10.0,0.0,0.0,0.0,10.0,0.0,0.0,0.0,10.0
1446036512086445008,51,1446036512081666946,robocape_mag,13.35,2.7,-0.9,10.0,0.0,0.0,0.0,10.0,0.0,0.0,0.0,10.0
1446036512121287258,52,1446036512116369009,robocape_mag,13.35,2.7,-0.9,10.0,0.0,0.0,0.0,10.0,0.0,0.0,0.0,10.0
1446036512152815342,53,1446036512148005008,robocape_mag,13.35,2.7,-0.9,10.0,0.0,0.0,0.0,10.0,0.0,0.0,0.0,10.0
1446036512186165967,54,1446036512181263923,robocape_mag,13.35,2.7,-0.9,10.0,0.0,0.0,0.0,10.0,0.0,0.0,0.0,10.0
1446036512219674550,55,1446036512214684963,robocape_mag,13.35,1.5,0.3,10.0,0.0,0.0,0.0,10.0,0.0,0.0,0.0,10.0
1446036512253902758,56,1446036512248198032,robocape_mag,13.35,1.5,0.3,10.0,0.0,0.0,0.0,10.0,0.0,0.0,0.0,10.0
1446036512288714633,57,1446036512281836032,robocape_mag,13.35,1.5,0.3,10.0,0.0,0.0,0.0,10.0,0.0,0.0,0.0,10.0
1446036512320008633,58,1446036512314551115,robocape_mag,13.35,1.5,0.3,10.0,0.0,0.0,0.0,10.0,0.0,0.0,0.0,10.0
1446036512352936925,59,1446036512347996950,robocape_mag,13.65,1.8,-0.6,10.0,0.0,0.0,0.0,10.0,0.0,0.0,0.0,10.0
1446036512386657133,60,1446036512381442070,robocape_mag,13.65,1.8,-0.6,10.0,0.0,0.0,0.0,10.0,0.0,0.0,0.0,10.0
1446036512419871800,61,1446036512414525985,robocape_mag,13.65,1.8,-0.6,10.0,0.0,0.0,0.0,10.0,0.0,0.0,0.0,10.0
1446036512452966133,62,1446036512447858095,robocape_mag,13.65,1.8,-0.6,10.0,0.0,0.0,0.0,10.0,0.0,0.0,0.0,10.0
1446036512486844300,63,1446036512481404066,robocape_mag,13.65,1.8,-0.6,10.0,0.0,0.0,0.0,10.0,0.0,0.0,0.0,10.0
1446036512521516967,64,1446036512514476060,robocape_mag,14.25,3.0,-0.6,10.0,0.0,0.0,0.0,10.0,0.0,0.0,0.0,10.0
1446036512552935675,65,1446036512547939062,robocape_mag,14.25,3.0,-0.6,10.0,0.0,0.0,0.0,10.0,0.0,0.0,0.0,10.0
1446036512586471967,66,1446036512581470012,robocape_mag,14.25,3.0,-0.6,10.0,0.0,0.0,0.0,10.0,0.0,0.0,0.0,10.0
1446036512619561175,67,1446036512614646911,robocape_mag,14.25,3.0,-0.6,10.0,0.0,0.0,0.0,10.0,0.0,0.0,0.0,10.0
1446036512652861342,68,1446036512648102998,robocape_mag,14.25,3.0,-0.6,10.0,0.0,0.0,0.0,10.0,0.0,0.0,0.0,10.0
1446036512686370508,69,1446036512681401014,robocape_mag,18.45,-1.2,1.2,10.0,0.0,0.0,0.0,10.0,0.0,0.0,0.0,10.0
1446036512719701258,70,1446036512714761018,robocape_mag,18.45,-1.2,1.2,10.0,0.0,0.0,0.0,10.0,0.0,0.0,0.0,10.0
1446036512754362425,71,1446036512748506069,robocape_mag,18.45,-1.2,1.2,10.0,0.0,0.0,0.0,10.0,0.0,0.0,0.0,10.0
1446036512787748467,72,1446036512782708883,robocape_mag,18.45,-1.2,1.2,10.0,0.0,0.0,0.0,10.0,0.0,0.0,0.0,10.0
1446036512826318634,73,1446036512815835952,robocape_mag,18.45,-1.2,1.2,10.0,0.0,0.0,0.0,10.0,0.0,0.0,0.0,10.0
1446036512858591550,74,1446036512850325107,robocape_mag,13.65,3.0,0.6,10.0,0.0,0.0,0.0,10.0,0.0,0.0,0.0,10.0
1446036512890528009,75,1446036512881385087,robocape_mag,13.65,3.0,0.6,10.0,0.0,0.0,0.0,10.0,0.0,0.0,0.0,10.0
1446036512919585134,76,1446036512914577007,robocape_mag,13.65,3.0,0.6,10.0,0.0,0.0,0.0,10.0,0.0,0.0,0.0,10.0
1446036512952762384,77,1446036512947897911,robocape_mag,13.65,3.0,0.6,10.0,0.0,0.0,0.0,10.0,0.0,0.0,0.0,10.0
1446036512986437592,78,1446036512981440067,robocape_mag,13.65,3.0,0.6,10.0,0.0,0.0,0.0,10.0,0.0,0.0,0.0,10.0
1446036513019397634,79,1446036513014494895,robocape_mag,16.35,2.1,1.5,10.0,0.0,0.0,0.0,10.0,0.0,0.0,0.0,10.0
1446036513052960259,80,1446036513048219919,robocape_mag,16.35,2.1,1.5,10.0,0.0,0.0,0.0,10.0,0.0,0.0,0.0,10.0
1446036513091188050,81,1446036513081908941,robocape_mag,16.35,2.1,1.5,10.0,0.0,0.0,0.0,10.0,0.0,0.0,0.0,10.0
1446036513119515300,82,1446036513114599943,robocape_mag,16.35,2.1,1.5,10.0,0.0,0.0,0.0,10.0,0.0,0.0,0.0,10.0
1446036513153554050,83,1446036513148794889,robocape_mag,12.15,4.5,-0.9,10.0,0.0,0.0,0.0,10.0,0.0,0.0,0.0,10.0
1446036513186577675,84,1446036513181648969,robocape_mag,12.15,4.5,-0.9,10.0,0.0,0.0,0.0,10.0,0.0,0.0,0.0,10.0
1446036513220192092,85,1446036513215183973,robocape_mag,12.15,4.5,-0.9,10.0,0.0,0.0,0.0,10.0,0.0,0.0,0.0,10.0
1446036513257553509,86,1446036513249886035,robocape_mag,12.15,4.5,-0.9,10.0,0.0,0.0,0.0,10.0,0.0,0.0,0.0,10.0
1446036513286224759,87,1446036513281337022,robocape_mag,12.15,4.5,-0.9,10.0,0.0,0.0,0.0,10.0,0.0,0.0,0.0,10.0
1446036513319682259,88,1446036513314796924,robocape_mag,15.45,3.0,0.6,10.0,0.0,0.0,0.0,10.0,0.0,0.0,0.0,10.0
1446036513352892967,89,1446036513348056077,robocape_mag,15.45,3.0,0.6,10.0,0.0,0.0,0.0,10.0,0.0,0.0,0.0,10.0
1446036513386354259,90,1446036513381350040,robocape_mag,15.45,3.0,0.6,10.0,0.0,0.0,0.0,10.0,0.0,0.0,0.0,10.0
1446036513420185175,91,1446036513414520978,robocape_mag,15.45,3.0,0.6,10.0,0.0,0.0,0.0,10.0,0.0,0.0,0.0,10.0
1446036513453269592,92,1446036513447854042,robocape_mag,15.45,3.0,0.6,10.0,0.0,0.0,0.0,10.0,0.0,0.0,0.0,10.0
1446036513486888426,93,1446036513481934070,robocape_mag,18.15,-0.9,-0.9,10.0,0.0,0.0,0.0,10.0,0.0,0.0,0.0,10.0
1446036513520217426,94,1446036513514976024,robocape_mag,18.15,-0.9,-0.9,10.0,0.0,0.0,0.0,10.0,0.0,0.0,0.0,10.0
1446036513552985926,95,1446036513547944068,robocape_mag,18.15,-0.9,-0.9,10.0,0.0,0.0,0.0,10.0,0.0,0.0,0.0,10.0
1446036513586782801,96,1446036513581665039,robocape_mag,18.15,-0.9,-0.9,10.0,0.0,0.0,0.0,10.0,0.0,0.0,0.0,10.0
1446036513619832801,97,1446036513614602088,robocape_mag,18.15,-0.9,-0.9,10.0,0.0,0.0,0.0,10.0,0.0,0.0,0.0,10.0
1446036513652951092,98,1446036513648005962,robocape_mag,16.65,1.2,0.0,10.0,0.0,0.0,0.0,10.0,0.0,0.0,0.0,10.0
1446036513686680509,99,1446036513681787967,robocape_mag,16.65,1.2,0.0,10.0,0.0,0.0,0.0,10.0,0.0,0.0,0.0,10.0
1446036513720352217,100,1446036513715297937,robocape_mag,16.65,1.2,0.0,10.0,0.0,0.0,0.0,10.0,0.0,0.0,0.0,10.0
1446036513754756967,101,1446036513747922897,robocape_mag,16.65,1.2,0.0,10.0,0.0,0.0,0.0,10.0,0.0,0.0,0.0,10.0
1446036513787030801,102,1446036513782023906,robocape_mag,16.65,1.2,0.0,10.0,0.0,0.0,0.0,10.0,0.0,0.0,0.0,10.0
1446036513826704967,103,1446036513814951896,robocape_mag,14.25,3.0,1.2,10.0,0.0,0.0,0.0,10.0,0.0,0.0,0.0,10.0
1446036513855180217,104,1446036513849546909,robocape_mag,14.25,3.0,1.2,10.0,0.0,0.0,0.0,10.0,0.0,0.0,0.0,10.0
1446036513887624342,105,1446036513882879018,robocape_mag,14.25,3.0,1.2,10.0,0.0,0.0,0.0,10.0,0.0,0.0,0.0,10.0
1446036513920638259,106,1446036513915771961,robocape_mag,14.25,3.0,1.2,10.0,0.0,0.0,0.0,10.0,0.0,0.0,0.0,10.0
1446036513954159926,107,1446036513949351072,robocape_mag,16.65,1.2,1.8,10.0,0.0,0.0,0.0,10.0,0.0,0.0,0.0,10.0
1446036513987471092,108,1446036513982726097,robocape_mag,16.65,1.2,1.8,10.0,0.0,0.0,0.0,10.0,0.0,0.0,0.0,10.0
1446036514021373551,109,1446036514015866041,robocape_mag,16.65,1.2,1.8,10.0,0.0,0.0,0.0,10.0,0.0,0.0,0.0,10.0
1446036514053041301,110,1446036514048320055,robocape_mag,16.65,1.2,1.8,10.0,0.0,0.0,0.0,10.0,0.0,0.0,0.0,10.0
1446036514088405842,111,1446036514083367109,robocape_mag,16.65,1.2,1.8,10.0,0.0,0.0,0.0,10.0,0.0,0.0,0.0,10.0
1446036514121078301,112,1446036514116056919,robocape_mag,16.35,2.1,0.9,10.0,0.0,0.0,0.0,10.0,0.0,0.0,0.0,10.0
1446036514156960467,113,1446036514151215076,robocape_mag,16.35,2.1,0.9,10.0,0.0,0.0,0.0,10.0,0.0,0.0,0.0,10.0
1446036514187612843,114,1446036514182591915,robocape_mag,16.35,2.1,0.9,10.0,0.0,0.0,0.0,10.0,0.0,0.0,0.0,10.0
1446036514228988301,115,1446036514219436883,robocape_mag,16.35,2.1,0.9,10.0,0.0,0.0,0.0,10.0,0.0,0.0,0.0,10.0
1446036514258812634,116,1446036514253427028,robocape_mag,16.35,2.1,0.9,10.0,0.0,0.0,0.0,10.0,0.0,0.0,0.0,10.0
1446036514292974051,117,1446036514284574031,robocape_mag,14.25,1.2,0.0,10.0,0.0,0.0,0.0,10.0,0.0,0.0,0.0,10.0
1446036514324618051,118,1446036514318504095,robocape_mag,14.25,1.2,0.0,10.0,0.0,0.0,0.0,10.0,0.0,0.0,0.0,10.0
1446036514361596343,119,1446036514351304054,robocape_mag,14.25,1.2,0.0,10.0,0.0,0.0,0.0,10.0,0.0,0.0,0.0,10.0
1446036514390278551,120,1446036514385003089,robocape_mag,14.25,1.2,0.0,10.0,0.0,0.0,0.0,10.0,0.0,0.0,0.0,10.0
1446036514428680718,121,1446036514417706966,robocape_mag,14.25,1.2,0.0,10.0,0.0,0.0,0.0,10.0,0.0,0.0,0.0,10.0
1446036514456400468,122,1446036514451282978,robocape_mag,15.75,0.9,-2.1,10.0,0.0,0.0,0.0,10.0,0.0,0.0,0.0,10.0
1446036514494824843,123,1446036514485446929,robocape_mag,15.75,0.9,-2.1,10.0,0.0,0.0,0.0,10.0,0.0,0.0,0.0,10.0
1446036514522272051,124,1446036514516992092,robocape_mag,15.75,0.9,-2.1,10.0,0.0,0.0,0.0,10.0,0.0,0.0,0.0,10.0
1446036514556462926,125,1446036514551249027,robocape_mag,15.75,0.9,-2.1,10.0,0.0,0.0,0.0,10.0,0.0,0.0,0.0,10.0
1446036514591913759,126,1446036514586934089,robocape_mag,15.75,2.7,0.3,10.0,0.0,0.0,0.0,10.0,0.0,0.0,0.0,10.0
1446036514623080176,127,1446036514617995023,robocape_mag,13.35,2.7,0.3,10.0,0.0,0.0,0.0,10.0,0.0,0.0,0.0,10.0
1446036514655496009,128,1446036514650548934,robocape_mag,13.35,2.7,0.3,10.0,0.0,0.0,0.0,10.0,0.0,0.0,0.0,10.0
1446036514689764134,129,1446036514684667110,robocape_mag,13.35,2.7,0.3,10.0,0.0,0.0,0.0,10.0,0.0,0.0,0.0,10.0
1446036514722167384,130,1446036514716979980,robocape_mag,13.35,2.7,0.3,10.0,0.0,0.0,0.0,10.0,0.0,0.0,0.0,10.0
1446036514760392926,131,1446036514750916004,robocape_mag,19.65,0.0,0.0,10.0,0.0,0.0,0.0,10.0,0.0,0.0,0.0,10.0
1446036514789274676,132,1446036514784260988,robocape_mag,19.65,0.0,0.0,10.0,0.0,0.0,0.0,10.0,0.0,0.0,0.0,10.0
1446036514832480176,133,1446036514817013978,robocape_mag,19.65,0.0,0.0,10.0,0.0,0.0,0.0,10.0,0.0,0.0,0.0,10.0
1446036514856814009,134,1446036514851794004,robocape_mag,19.65,0.0,0.0,10.0,0.0,0.0,0.0,10.0,0.0,0.0,0.0,10.0
1446036514889374551,135,1446036514884567022,robocape_mag,19.65,0.0,0.0,10.0,0.0,0.0,0.0,10.0,0.0,0.0,0.0,10.0
1446036514921510551,136,1446036514916688919,robocape_mag,14.25,3.0,0.0,10.0,0.0,0.0,0.0,10.0,0.0,0.0,0.0,10.0
1446036514954331343,137,1446036514949372053,robocape_mag,14.25,3.0,0.0,10.0,0.0,0.0,0.0,10.0,0.0,0.0,0.0,10.0
1446036514991345635,138,1446036514984682083,robocape_mag,14.25,3.0,0.0,10.0,0.0,0.0,0.0,10.0,0.0,0.0,0.0,10.0
1446036515020531760,139,1446036515015749931,robocape_mag,14.25,3.0,0.0,10.0,0.0,0.0,0.0,10.0,0.0,0.0,0.0,10.0
1446036515054341676,140,1446036515049509048,robocape_mag,14.25,3.0,0.0,10.0,0.0,0.0,0.0,10.0,0.0,0.0,0.0,10.0
1446036515087158468,141,1446036515081743001,robocape_mag,13.65,3.0,-1.2,10.0,0.0,0.0,0.0,10.0,0.0,0.0,0.0,10.0
1446036515120193843,142,1446036515115225076,robocape_mag,13.65,3.0,-1.2,10.0,0.0,0.0,0.0,10.0,0.0,0.0,0.0,10.0
1446036515153094301,143,1446036515148298978,robocape_mag,13.65,3.0,-1.2,10.0,0.0,0.0,0.0,10.0,0.0,0.0,0.0,10.0
1446036515187557760,144,1446036515181925058,robocape_mag,13.65,3.0,-1.2,10.0,0.0,0.0,0.0,10.0,0.0,0.0,0.0,10.0
1446036515219496010,145,1446036515214745044,robocape_mag,13.65,3.0,-1.2,10.0,0.0,0.0,0.0,10.0,0.0,0.0,0.0,10.0
1446036515253163010,146,1446036515247942924,robocape_mag,14.85,0.6,0.6,10.0,0.0,0.0,0.0,10.0,0.0,0.0,0.0,10.0
1446036515287775051,147,1446036515282416105,robocape_mag,14.85,0.6,0.6,10.0,0.0,0.0,0.0,10.0,0.0,0.0,0.0,10.0
1446036515319555676,148,1446036515314709901,robocape_mag,14.85,0.6,0.6,10.0,0.0,0.0,0.0,10.0,0.0,0.0,0.0,10.0
1446036515353035135,149,1446036515348234891,robocape_mag,14.85,0.6,0.6,10.0,0.0,0.0,0.0,10.0,0.0,0.0,0.0,10.0
1446036515387348093,150,1446036515382015943,robocape_mag,14.85,0.6,0.6,10.0,0.0,0.0,0.0,10.0,0.0,0.0,0.0,10.0
1446036515419761385,151,1446036515414949893,robocape_mag,10.95,4.5,-0.3,10.0,0.0,0.0,0.0,10.0,0.0,0.0,0.0,10.0
1446036515453260801,152,1446036515448168039,robocape_mag,10.95,4.5,-0.3,10.0,0.0,0.0,0.0,10.0,0.0,0.0,0.0,10.0
1446036515487387551,153,1446036515481822013,robocape_mag,10.95,4.5,-0.3,10.0,0.0,0.0,0.0,10.0,0.0,0.0,0.0,10.0
1446036515519471051,154,1446036515514698028,robocape_mag,10.95,4.5,-0.3,10.0,0.0,0.0,0.0,10.0,0.0,0.0,0.0,10.0
1446036515552958843,155,1446036515548187017,robocape_mag,14.85,-1.2,0.0,10.0,0.0,0.0,0.0,10.0,0.0,0.0,0.0,10.0
1446036515587422385,156,1446036515581780910,robocape_mag,14.85,-1.2,0.0,10.0,0.0,0.0,0.0,10.0,0.0,0.0,0.0,10.0
1446036515619381510,157,1446036515614622116,robocape_mag,14.85,-1.2,0.0,10.0,0.0,0.0,0.0,10.0,0.0,0.0,0.0,10.0
1446036515652945843,158,1446036515648217916,robocape_mag,14.85,-1.2,0.0,10.0,0.0,0.0,0.0,10.0,0.0,0.0,0.0,10.0
1446036515688154843,159,1446036515681716918,robocape_mag,14.85,-1.2,0.0,10.0,0.0,0.0,0.0,10.0,0.0,0.0,0.0,10.0
1446036515719668677,160,1446036515714787960,robocape_mag,15.15,4.5,-0.9,10.0,0.0,0.0,0.0,10.0,0.0,0.0,0.0,10.0
1446036515753472052,161,1446036515747911930,robocape_mag,15.15,4.5,-0.9,10.0,0.0,0.0,0.0,10.0,0.0,0.0,0.0,10.0
1446036515787337593,162,1446036515781610012,robocape_mag,15.15,4.5,-0.9,10.0,0.0,0.0,0.0,10.0,0.0,0.0,0.0,10.0
1446036515824817093,163,1446036515814491033,robocape_mag,15.15,4.5,-0.9,10.0,0.0,0.0,0.0,10.0,0.0,0.0,0.0,10.0
1446036515853585635,164,1446036515848514080,robocape_mag,15.15,4.5,-0.9,10.0,0.0,0.0,0.0,10.0,0.0,0.0,0.0,10.0
1446036515887487010,165,1446036515881540060,robocape_mag,14.85,1.8,1.2,10.0,0.0,0.0,0.0,10.0,0.0,0.0,0.0,10.0
1446036515919842093,166,1446036515914571046,robocape_mag,14.85,1.8,1.2,10.0,0.0,0.0,0.0,10.0,0.0,0.0,0.0,10.0
1446036515953141177,167,1446036515947954893,robocape_mag,14.85,1.8,1.2,10.0,0.0,0.0,0.0,10.0,0.0,0.0,0.0,10.0
1446036515989156885,168,1446036515981580018,robocape_mag,14.85,1.8,1.2,10.0,0.0,0.0,0.0,10.0,0.0,0.0,0.0,10.0
1446036516019685552,169,1446036516014655113,robocape_mag,14.85,1.8,1.2,10.0,0.0,0.0,0.0,10.0,0.0,0.0,0.0,10.0
1446036516052850635,170,1446036516047903060,robocape_mag,11.55,3.9,-0.3,10.0,0.0,0.0,0.0,10.0,0.0,0.0,0.0,10.0
1446036516088885968,171,1446036516081823110,robocape_mag,11.55,3.9,-0.3,10.0,0.0,0.0,0.0,10.0,0.0,0.0,0.0,10.0
1446036516119441135,172,1446036516114655971,robocape_mag,11.55,3.9,-0.3,10.0,0.0,0.0,0.0,10.0,0.0,0.0,0.0,10.0
1446036516152960510,173,1446036516148010015,robocape_mag,11.55,3.9,-0.3,10.0,0.0,0.0,0.0,10.0,0.0,0.0,0.0,10.0
1446036516189396718,174,1446036516181631088,robocape_mag,11.55,3.9,-0.3,10.0,0.0,0.0,0.0,10.0,0.0,0.0,0.0,10.0
1446036516221154343,175,1446036516214802980,robocape_mag,10.95,4.5,-0.3,10.0,0.0,0.0,0.0,10.0,0.0,0.0,0.0,10.0
1446036516253824968,176,1446036516248050928,robocape_mag,10.95,4.5,-0.3,10.0,0.0,0.0,0.0,10.0,0.0,0.0,0.0,10.0
1446036516288259594,177,1446036516282591104,robocape_mag,10.95,4.5,-0.3,10.0,0.0,0.0,0.0,10.0,0.0,0.0,0.0,10.0
1446036516321126802,178,1446036516315912008,robocape_mag,10.95,4.5,-0.3,10.0,0.0,0.0,0.0,10.0,0.0,0.0,0.0,10.0
1446036516354486177,179,1446036516348695039,robocape_mag,11.25,2.4,-0.6,10.0,0.0,0.0,0.0,10.0,0.0,0.0,0.0,10.0
1446036516388510219,180,1446036516383337020,robocape_mag,11.25,2.4,-0.6,10.0,0.0,0.0,0.0,10.0,0.0,0.0,0.0,10.0
1446036516424604302,181,1446036516416289091,robocape_mag,11.25,2.4,-0.6,10.0,0.0,0.0,0.0,10.0,0.0,0.0,0.0,10.0
1446036516454799052,182,1446036516449732065,robocape_mag,11.25,2.4,-0.6,10.0,0.0,0.0,0.0,10.0,0.0,0.0,0.0,10.0
1446036516488611260,183,1446036516483427047,robocape_mag,11.25,2.4,-0.6,10.0,0.0,0.0,0.0,10.0,0.0,0.0,0.0,10.0
1446036516523232594,184,1446036516517549037,robocape_mag,13.05,3.6,0.0,10.0,0.0,0.0,0.0,10.0,0.0,0.0,0.0,10.0
1446036516558229594,185,1446036516550884008,robocape_mag,13.05,3.6,0.0,10.0,0.0,0.0,0.0,10.0,0.0,0.0,0.0,10.0
1446036516592385635,186,1446036516584429979,robocape_mag,13.05,3.6,0.0,10.0,0.0,0.0,0.0,10.0,0.0,0.0,0.0,10.0
1446036516622819885,187,1446036516617804050,robocape_mag,13.05,3.6,0.0,10.0,0.0,0.0,0.0,10.0,0.0,0.0,0.0,10.0
1446036516655790927,188,1446036516650962114,robocape_mag,13.05,3.6,0.0,10.0,0.0,0.0,0.0,10.0,0.0,0.0,0.0,10.0
1446036516693256969,189,1446036516684916973,robocape_mag,11.25,3.0,1.2,10.0,0.0,0.0,0.0,10.0,0.0,0.0,0.0,10.0
1446036516723788052,190,1446036516718523025,robocape_mag,11.25,3.0,1.2,10.0,0.0,0.0,0.0,10.0,0.0,0.0,0.0,10.0
1446036516760640594,191,1446036516751007080,robocape_mag,11.25,3.0,1.2,10.0,0.0,0.0,0.0,10.0,0.0,0.0,0.0,10.0
1446036516793816802,192,1446036516784652948,robocape_mag,11.25,3.0,1.2,10.0,0.0,0.0,0.0,10.0,0.0,0.0,0.0,10.0
1446036516832236802,193,1446036516820904970,robocape_mag,11.25,3.0,1.2,10.0,0.0,0.0,0.0,10.0,0.0,0.0,0.0,10.0
1446036516861929594,194,1446036516851490020,robocape_mag,10.95,3.3,2.1,10.0,0.0,0.0,0.0,10.0,0.0,0.0,0.0,10.0
1446036516890774385,195,1446036516885324001,robocape_mag,10.95,3.3,2.1,10.0,0.0,0.0,0.0,10.0,0.0,0.0,0.0,10.0
1446036516922750344,196,1446036516917784929,robocape_mag,10.95,3.3,2.1,10.0,0.0,0.0,0.0,10.0,0.0,0.0,0.0,10.0
1446036516955674510,197,1446036516950683116,robocape_mag,10.95,3.3,2.1,10.0,0.0,0.0,0.0,10.0,0.0,0.0,0.0,10.0
1446036516989889427,198,1446036516984545946,robocape_mag,10.95,3.3,2.1,10.0,0.0,0.0,0.0,10.0,0.0,0.0,0.0,10.0
1446036517023299802,199,1446036517018273115,robocape_mag,10.35,3.3,-0.9,10.0,0.0,0.0,0.0,10.0,0.0,0.0,0.0,10.0
1446036517056103552,200,1446036517051245927,robocape_mag,10.35,3.3,-0.9,10.0,0.0,0.0,0.0,10.0,0.0,0.0,0.0,10.0
1446036517089934427,201,1446036517083590984,robocape_mag,10.35,3.3,-0.9,10.0,0.0,0.0,0.0,10.0,0.0,0.0,0.0,10.0
1446036517122274177,202,1446036517117532968,robocape_mag,10.35,3.3,-0.9,10.0,0.0,0.0,0.0,10.0,0.0,0.0,0.0,10.0
1446036517155818052,203,1446036517150986909,robocape_mag,11.25,1.8,1.8,10.0,0.0,0.0,0.0,10.0,0.0,0.0,0.0,10.0
1446036517190252219,204,1446036517184225082,robocape_mag,11.25,1.8,1.8,10.0,0.0,0.0,0.0,10.0,0.0,0.0,0.0,10.0
1446036517221537177,205,1446036517216732978,robocape_mag,11.25,1.8,1.8,10.0,0.0,0.0,0.0,10.0,0.0,0.0,0.0,10.0
1446036517254711302,206,1446036517249943017,robocape_mag,11.25,1.8,1.8,10.0,0.0,0.0,0.0,10.0,0.0,0.0,0.0,10.0
1446036517288056969,207,1446036517282872915,robocape_mag,11.25,1.8,1.8,10.0,0.0,0.0,0.0,10.0,0.0,0.0,0.0,10.0
1446036517324252344,208,1446036517315371990,robocape_mag,15.45,4.2,-3.0,10.0,0.0,0.0,0.0,10.0,0.0,0.0,0.0,10.0
1446036517353941761,209,1446036517349009037,robocape_mag,15.45,4.2,-3.0,10.0,0.0,0.0,0.0,10.0,0.0,0.0,0.0,10.0
1446036517388108094,210,1446036517382791042,robocape_mag,15.45,4.2,-3.0,10.0,0.0,0.0,0.0,10.0,0.0,0.0,0.0,10.0
1446036517424557802,211,1446036517418831110,robocape_mag,15.45,4.2,-3.0,10.0,0.0,0.0,0.0,10.0,0.0,0.0,0.0,10.0
1446036517453464219,212,1446036517448427915,robocape_mag,15.45,4.2,-3.0,10.0,0.0,0.0,0.0,10.0,0.0,0.0,0.0,10.0
1446036517486522927,213,1446036517481689929,robocape_mag,13.95,4.5,0.9,10.0,0.0,0.0,0.0,10.0,0.0,0.0,0.0,10.0
1446036517520407511,214,1446036517515531063,robocape_mag,13.95,4.5,0.9,10.0,0.0,0.0,0.0,10.0,0.0,0.0,0.0,10.0
1446036517553221511,215,1446036517548221111,robocape_mag,13.95,4.5,0.9,10.0,0.0,0.0,0.0,10.0,0.0,0.0,0.0,10.0
1446036517586642219,216,1446036517581491947,robocape_mag,13.95,4.5,0.9,10.0,0.0,0.0,0.0,10.0,0.0,0.0,0.0,10.0
1446036517620930761,217,1446036517616122961,robocape_mag,13.95,4.5,0.9,10.0,0.0,0.0,0.0,10.0,0.0,0.0,0.0,10.0
1446036517653115427,218,1446036517648125886,robocape_mag,12.15,3.9,-1.5,10.0,0.0,0.0,0.0,10.0,0.0,0.0,0.0,10.0
1446036517686766303,219,1446036517681581020,robocape_mag,12.15,3.9,-1.5,10.0,0.0,0.0,0.0,10.0,0.0,0.0,0.0,10.0
1446036517719861136,220,1446036517715073108,robocape_mag,12.15,3.9,-1.5,10.0,0.0,0.0,0.0,10.0,0.0,0.0,0.0,10.0
1446036517754492678,221,1446036517748136997,robocape_mag,12.15,3.9,-1.5,10.0,0.0,0.0,0.0,10.0,0.0,0.0,0.0,10.0
1446036517786559803,222,1446036517781735897,robocape_mag,12.15,3.9,-1.5,10.0,0.0,0.0,0.0,10.0,0.0,0.0,0.0,10.0
1446036517824949886,223,1446036517814830064,robocape_mag,12.75,3.9,-0.9,10.0,0.0,0.0,0.0,10.0,0.0,0.0,0.0,10.0
1446036517854167803,224,1446036517849103927,robocape_mag,12.75,3.9,-0.9,10.0,0.0,0.0,0.0,10.0,0.0,0.0,0.0,10.0
1446036517886411553,225,1446036517881500005,robocape_mag,12.75,3.9,-0.9,10.0,0.0,0.0,0.0,10.0,0.0,0.0,0.0,10.0
1446036517920185386,226,1446036517915406942,robocape_mag,12.75,3.9,-0.9,10.0,0.0,0.0,0.0,10.0,0.0,0.0,0.0,10.0
1446036517952866678,227,1446036517948088884,robocape_mag,16.95,0.3,2.1,10.0,0.0,0.0,0.0,10.0,0.0,0.0,0.0,10.0
1446036517986314636,228,1446036517981290102,robocape_mag,16.95,0.3,2.1,10.0,0.0,0.0,0.0,10.0,0.0,0.0,0.0,10.0
1446036518019734594,229,1446036518014887094,robocape_mag,16.95,0.3,2.1,10.0,0.0,0.0,0.0,10.0,0.0,0.0,0.0,10.0
1446036518052821844,230,1446036518047957897,robocape_mag,16.95,0.3,2.1,10.0,0.0,0.0,0.0,10.0,0.0,0.0,0.0,10.0
1446036518088162844,231,1446036518081175088,robocape_mag,16.95,0.3,2.1,10.0,0.0,0.0,0.0,10.0,0.0,0.0,0.0,10.0
1446036518121552678,232,1446036518114916086,robocape_mag,12.75,2.7,-1.5,10.0,0.0,0.0,0.0,10.0,0.0,0.0,0.0,10.0
1446036518153051219,233,1446036518148065090,robocape_mag,12.75,2.7,-1.5,10.0,0.0,0.0,0.0,10.0,0.0,0.0,0.0,10.0
1446036518186376428,234,1446036518181252956,robocape_mag,12.75,2.7,-1.5,10.0,0.0,0.0,0.0,10.0,0.0,0.0,0.0,10.0
1446036518219812844,235,1446036518214637994,robocape_mag,12.75,2.7,-1.5,10.0,0.0,0.0,0.0,10.0,0.0,0.0,0.0,10.0
1446036518253101261,236,1446036518248068094,robocape_mag,12.75,2.7,-1.5,10.0,0.0,0.0,0.0,10.0,0.0,0.0,0.0,10.0
1446036518286336928,237,1446036518281260013,robocape_mag,12.75,3.3,-1.5,10.0,0.0,0.0,0.0,10.0,0.0,0.0,0.0,10.0
1446036518320275303,238,1446036518314992904,robocape_mag,12.75,3.3,-1.5,10.0,0.0,0.0,0.0,10.0,0.0,0.0,0.0,10.0
1446036518353107011,239,1446036518348028898,robocape_mag,12.75,3.3,-1.5,10.0,0.0,0.0,0.0,10.0,0.0,0.0,0.0,10.0
1446036518386492136,240,1446036518381537914,robocape_mag,12.75,3.3,-1.5,10.0,0.0,0.0,0.0,10.0,0.0,0.0,0.0,10.0
1446036518419739386,241,1446036518414866924,robocape_mag,12.75,3.3,-1.5,10.0,0.0,0.0,0.0,10.0,0.0,0.0,0.0,10.0
1446036518453030136,242,1446036518448184967,robocape_mag,20.55,-0.9,0.3,10.0,0.0,0.0,0.0,10.0,0.0,0.0,0.0,10.0
1446036518486539845,243,1446036518481478929,robocape_mag,20.55,-0.9,0.3,10.0,0.0,0.0,0.0,10.0,0.0,0.0,0.0,10.0
1446036518519570011,244,1446036518514741897,robocape_mag,20.55,-0.9,0.3,10.0,0.0,0.0,0.0,10.0,0.0,0.0,0.0,10.0
1446036518552893845,245,1446036518548042058,robocape_mag,20.55,-0.9,0.3,10.0,0.0,0.0,0.0,10.0,0.0,0.0,0.0,10.0
1446036518587551303,246,1446036518582592964,robocape_mag,20.55,-0.9,0.3,10.0,0.0,0.0,0.0,10.0,0.0,0.0,0.0,10.0
1446036518622473386,247,1446036518617397069,robocape_mag,14.25,3.6,-0.6,10.0,0.0,0.0,0.0,10.0,0.0,0.0,0.0,10.0
1446036518654155095,248,1446036518649308919,robocape_mag,14.25,3.6,-0.6,10.0,0.0,0.0,0.0,10.0,0.0,0.0,0.0,10.0
1446036518688409678,249,1446036518681763887,robocape_mag,14.25,3.6,-0.6,10.0,0.0,0.0,0.0,10.0,0.0,0.0,0.0,10.0
1446036518721373386,250,1446036518716590881,robocape_mag,14.25,3.6,-0.6,10.0,0.0,0.0,0.0,10.0,0.0,0.0,0.0,10.0
1446036518753046303,251,1446036518748264074,robocape_mag,13.05,3.6,-0.6,10.0,0.0,0.0,0.0,10.0,0.0,0.0,0.0,10.0
1446036518787244595,252,1446036518781892061,robocape_mag,13.05,3.6,-0.6,10.0,0.0,0.0,0.0,10.0,0.0,0.0,0.0,10.0
1446036518827949720,253,1446036518816512107,robocape_mag,13.05,3.6,-0.6,10.0,0.0,0.0,0.0,10.0,0.0,0.0,0.0,10.0
1446036518859165928,254,1446036518850970983,robocape_mag,13.05,3.6,-0.6,10.0,0.0,0.0,0.0,10.0,0.0,0.0,0.0,10.0
1446036518887553928,255,1446036518882596969,robocape_mag,13.05,3.6,-0.6,10.0,0.0,0.0,0.0,10.0,0.0,0.0,0.0,10.0
1446036518925177886,256,1446036518919313907,robocape_mag,16.35,2.7,-0.9,10.0,0.0,0.0,0.0,10.0,0.0,0.0,0.0,10.0
1446036518956195678,257,1446036518951165914,robocape_mag,16.35,2.7,-0.9,10.0,0.0,0.0,0.0,10.0,0.0,0.0,0.0,10.0
1446036518988498761,258,1446036518983155012,robocape_mag,16.35,2.7,-0.9,10.0,0.0,0.0,0.0,10.0,0.0,0.0,0.0,10.0
1446036519024427095,259,1446036519019345998,robocape_mag,16.35,2.7,-0.9,10.0,0.0,0.0,0.0,10.0,0.0,0.0,0.0,10.0
1446036519059044720,260,1446036519051088094,robocape_mag,16.35,2.7,-0.9,10.0,0.0,0.0,0.0,10.0,0.0,0.0,0.0,10.0
1446036519093401095,261,1446036519084518909,robocape_mag,13.95,5.7,-0.3,10.0,0.0,0.0,0.0,10.0,0.0,0.0,0.0,10.0
1446036519123782220,262,1446036519118685007,robocape_mag,13.95,5.7,-0.3,10.0,0.0,0.0,0.0,10.0,0.0,0.0,0.0,10.0
1446036519155908220,263,1446036519150100946,robocape_mag,13.95,5.7,-0.3,10.0,0.0,0.0,0.0,10.0,0.0,0.0,0.0,10.0
1446036519190890220,264,1446036519185790061,robocape_mag,13.95,5.7,-0.3,10.0,0.0,0.0,0.0,10.0,0.0,0.0,0.0,10.0
1446036519223693762,265,1446036519218730926,robocape_mag,13.95,5.7,-0.3,10.0,0.0,0.0,0.0,10.0,0.0,0.0,0.0,10.0
1446036519257031762,266,1446036519252100944,robocape_mag,13.95,3.3,-1.5,10.0,0.0,0.0,0.0,10.0,0.0,0.0,0.0,10.0
1446036519289946345,267,1446036519284987926,robocape_mag,13.95,3.3,-1.5,10.0,0.0,0.0,0.0,10.0,0.0,0.0,0.0,10.0
1446036519324017262,268,1446036519318459033,robocape_mag,13.95,3.3,-1.5,10.0,0.0,0.0,0.0,10.0,0.0,0.0,0.0,10.0
1446036519356324012,269,1446036519351499080,robocape_mag,13.95,3.3,-1.5,10.0,0.0,0.0,0.0,10.0,0.0,0.0,0.0,10.0
1446036519390128928,270,1446036519385193109,robocape_mag,13.95,3.3,-1.5,10.0,0.0,0.0,0.0,10.0,0.0,0.0,0.0,10.0
1446036519422688053,271,1446036519417711019,robocape_mag,13.95,3.9,-0.9,10.0,0.0,0.0,0.0,10.0,0.0,0.0,0.0,10.0
1446036519455087220,272,1446036519450148105,robocape_mag,13.95,3.9,-0.9,10.0,0.0,0.0,0.0,10.0,0.0,0.0,0.0,10.0
1446036519488580845,273,1446036519483799934,robocape_mag,13.95,3.9,-0.9,10.0,0.0,0.0,0.0,10.0,0.0,0.0,0.0,10.0
1446036519522295345,274,1446036519517471075,robocape_mag,13.95,3.9,-0.9,10.0,0.0,0.0,0.0,10.0,0.0,0.0,0.0,10.0
1446036519554952095,275,1446036519550175905,robocape_mag,19.35,-0.3,-0.3,10.0,0.0,0.0,0.0,10.0,0.0,0.0,0.0,10.0
1446036519588158053,276,1446036519582938909,robocape_mag,19.35,-0.3,-0.3,10.0,0.0,0.0,0.0,10.0,0.0,0.0,0.0,10.0
1446036519621353595,277,1446036519616342067,robocape_mag,19.35,-0.3,-0.3,10.0,0.0,0.0,0.0,10.0,0.0,0.0,0.0,10.0
1446036519654476928,278,1446036519649302005,robocape_mag,19.35,-0.3,-0.3,10.0,0.0,0.0,0.0,10.0,0.0,0.0,0.0,10.0
1446036519687683220,279,1446036519682468891,robocape_mag,19.35,-0.3,-0.3,10.0,0.0,0.0,0.0,10.0,0.0,0.0,0.0,10.0
1446036519720845803,280,1446036519715766906,robocape_mag,16.35,2.7,-2.1,10.0,0.0,0.0,0.0,10.0,0.0,0.0,0.0,10.0
1446036519753076220,281,1446036519748253107,robocape_mag,16.35,2.7,-2.1,10.0,0.0,0.0,0.0,10.0,0.0,0.0,0.0,10.0
1446036519786910345,282,1446036519781979084,robocape_mag,16.35,2.7,-2.1,10.0,0.0,0.0,0.0,10.0,0.0,0.0,0.0,10.0
1446036519826437720,283,1446036519814950942,robocape_mag,16.35,2.7,-2.1,10.0,0.0,0.0,0.0,10.0,0.0,0.0,0.0,10.0
1446036519854651137,284,1446036519849078893,robocape_mag,16.35,2.7,-2.1,10.0,0.0,0.0,0.0,10.0,0.0,0.0,0.0,10.0
1446036519886285595,285,1446036519881377935,robocape_mag,13.95,3.9,-1.5,10.0,0.0,0.0,0.0,10.0,0.0,0.0,0.0,10.0
1446036519923874720,286,1446036519915136098,robocape_mag,13.95,3.9,-1.5,10.0,0.0,0.0,0.0,10.0,0.0,0.0,0.0,10.0
1446036519952686637,287,1446036519947854042,robocape_mag,13.95,3.9,-1.5,10.0,0.0,0.0,0.0,10.0,0.0,0.0,0.0,10.0
1446036519986415179,288,1446036519981338977,robocape_mag,13.95,3.9,-1.5,10.0,0.0,0.0,0.0,10.0,0.0,0.0,0.0,10.0
1446036520019919095,289,1446036520015010118,robocape_mag,13.95,3.9,-1.5,10.0,0.0,0.0,0.0,10.0,0.0,0.0,0.0,10.0
1446036520057174262,290,1446036520047954082,robocape_mag,15.15,2.1,0.3,10.0,0.0,0.0,0.0,10.0,0.0,0.0,0.0,10.0
1446036520086213512,291,1446036520081269025,robocape_mag,15.15,2.1,0.3,10.0,0.0,0.0,0.0,10.0,0.0,0.0,0.0,10.0
1446036520119743845,292,1446036520114811897,robocape_mag,15.15,2.1,0.3,10.0,0.0,0.0,0.0,10.0,0.0,0.0,0.0,10.0
1446036520152992012,293,1446036520148149967,robocape_mag,15.15,2.1,0.3,10.0,0.0,0.0,0.0,10.0,0.0,0.0,0.0,10.0
1446036520186348054,294,1446036520181416034,robocape_mag,15.15,2.1,0.3,10.0,0.0,0.0,0.0,10.0,0.0,0.0,0.0,10.0
1446036520219878679,295,1446036520214937925,robocape_mag,13.35,3.9,0.3,10.0,0.0,0.0,0.0,10.0,0.0,0.0,0.0,10.0
1446036520252806470,296,1446036520247988939,robocape_mag,13.35,3.9,0.3,10.0,0.0,0.0,0.0,10.0,0.0,0.0,0.0,10.0
1446036520286334387,297,1446036520281609058,robocape_mag,13.35,3.9,0.3,10.0,0.0,0.0,0.0,10.0,0.0,0.0,0.0,10.0
1446036520319494970,298,1446036520314754009,robocape_mag,13.35,3.9,0.3,10.0,0.0,0.0,0.0,10.0,0.0,0.0,0.0,10.0
1446036520352907179,299,1446036520348037958,robocape_mag,14.25,3.6,-1.8,10.0,0.0,0.0,0.0,10.0,0.0,0.0,0.0,10.0
1446036520386387929,300,1446036520381391048,robocape_mag,14.25,3.6,-1.8,10.0,0.0,0.0,0.0,10.0,0.0,0.0,0.0,10.0
1446036520420793137,301,1446036520414725065,robocape_mag,14.25,3.6,-1.8,10.0,0.0,0.0,0.0,10.0,0.0,0.0,0.0,10.0
1446036520454706012,302,1446036520447880029,robocape_mag,14.25,3.6,-1.8,10.0,0.0,0.0,0.0,10.0,0.0,0.0,0.0,10.0
1446036520488341512,303,1446036520481302976,robocape_mag,14.25,3.6,-1.8,10.0,0.0,0.0,0.0,10.0,0.0,0.0,0.0,10.0
1446036520519869637,304,1446036520514868021,robocape_mag,15.75,2.1,-2.1,10.0,0.0,0.0,0.0,10.0,0.0,0.0,0.0,10.0
1446036520553075012,305,1446036520547920942,robocape_mag,15.75,2.1,-2.1,10.0,0.0,0.0,0.0,10.0,0.0,0.0,0.0,10.0
1446036520586474012,306,1446036520581139087,robocape_mag,15.75,2.1,-2.1,10.0,0.0,0.0,0.0,10.0,0.0,0.0,0.0,10.0
1446036520619802387,307,1446036520614684104,robocape_mag,15.75,2.1,-2.1,10.0,0.0,0.0,0.0,10.0,0.0,0.0,0.0,10.0
1446036520653026387,308,1446036520647891998,robocape_mag,15.75,2.1,-2.1,10.0,0.0,0.0,0.0,10.0,0.0,0.0,0.0,10.0
1446036520686622971,309,1446036520681433916,robocape_mag,17.25,-0.6,0.6,10.0,0.0,0.0,0.0,10.0,0.0,0.0,0.0,10.0
1446036520719648679,310,1446036520714760065,robocape_mag,17.25,-0.6,0.6,10.0,0.0,0.0,0.0,10.0,0.0,0.0,0.0,10.0
1446036520754348221,311,1446036520747849941,robocape_mag,17.25,-0.6,0.6,10.0,0.0,0.0,0.0,10.0,0.0,0.0,0.0,10.0
1446036520786735304,312,1446036520781785011,robocape_mag,17.25,-0.6,0.6,10.0,0.0,0.0,0.0,10.0,0.0,0.0,0.0,10.0
1446036520826186762,313,1446036520814640998,robocape_mag,17.25,-0.6,0.6,10.0,0.0,0.0,0.0,10.0,0.0,0.0,0.0,10.0
1446036520858283137,314,1446036520853259086,robocape_mag,19.95,1.5,-0.3,10.0,0.0,0.0,0.0,10.0,0.0,0.0,0.0,10.0
1446036520886602429,315,1446036520881548881,robocape_mag,19.95,1.5,-0.3,10.0,0.0,0.0,0.0,10.0,0.0,0.0,0.0,10.0
1446036520919864179,316,1446036520914995908,robocape_mag,19.95,1.5,-0.3,10.0,0.0,0.0,0.0,10.0,0.0,0.0,0.0,10.0
1446036520954088887,317,1446036520949270963,robocape_mag,19.95,1.5,-0.3,10.0,0.0,0.0,0.0,10.0,0.0,0.0,0.0,10.0
1446036520990402554,318,1446036520981574058,robocape_mag,19.95,1.5,-0.3,10.0,0.0,0.0,0.0,10.0,0.0,0.0,0.0,10.0
1446036521021343929,319,1446036521016196012,robocape_mag,13.95,3.3,-0.3,10.0,0.0,0.0,0.0,10.0,0.0,0.0,0.0,10.0
1446036521054355762,320,1446036521049390077,robocape_mag,13.95,3.3,-0.3,10.0,0.0,0.0,0.0,10.0,0.0,0.0,0.0,10.0
1446036521091741846,321,1446036521083453893,robocape_mag,13.95,3.3,-0.3,10.0,0.0,0.0,0.0,10.0,0.0,0.0,0.0,10.0
1446036521120328679,322,1446036521115164041,robocape_mag,13.95,3.3,-0.3,10.0,0.0,0.0,0.0,10.0,0.0,0.0,0.0,10.0
1446036521157236346,323,1446036521148766040,robocape_mag,25.35,-9.3,0.3,10.0,0.0,0.0,0.0,10.0,0.0,0.0,0.0,10.0
1446036521188295513,324,1446036521183128118,robocape_mag,25.35,-9.3,0.3,10.0,0.0,0.0,0.0,10.0,0.0,0.0,0.0,10.0
1446036521225604846,325,1446036521217713117,robocape_mag,25.35,-9.3,0.3,10.0,0.0,0.0,0.0,10.0,0.0,0.0,0.0,10.0
1446036521256261471,326,1446036521250811100,robocape_mag,25.35,-9.3,0.3,10.0,0.0,0.0,0.0,10.0,0.0,0.0,0.0,10.0
1446036521292133429,327,1446036521284750938,robocape_mag,25.35,-9.3,0.3,10.0,0.0,0.0,0.0,10.0,0.0,0.0,0.0,10.0
1446036521327056429,328,1446036521318083047,robocape_mag,7.65,-4.8,-6.6,10.0,0.0,0.0,0.0,10.0,0.0,0.0,0.0,10.0
1446036521361753929,329,1446036521350804090,robocape_mag,7.65,-4.8,-6.6,10.0,0.0,0.0,0.0,10.0,0.0,0.0,0.0,10.0
1446036521390165179,330,1446036521383702993,robocape_mag,7.65,-4.8,-6.6,10.0,0.0,0.0,0.0,10.0,0.0,0.0,0.0,10.0
1446036521422149304,331,1446036521416794061,robocape_mag,7.65,-4.8,-6.6,10.0,0.0,0.0,0.0,10.0,0.0,0.0,0.0,10.0
1446036521456248179,332,1446036521451138019,robocape_mag,7.65,-4.8,-6.6,10.0,0.0,0.0,0.0,10.0,0.0,0.0,0.0,10.0
1446036521489646471,333,1446036521484617948,robocape_mag,-0.45,11.7,-4.5,10.0,0.0,0.0,0.0,10.0,0.0,0.0,0.0,10.0
1446036521526147929,334,1446036521518115043,robocape_mag,-0.45,11.7,-4.5,10.0,0.0,0.0,0.0,10.0,0.0,0.0,0.0,10.0
1446036521555864054,335,1446036521550494909,robocape_mag,-0.45,11.7,-4.5,10.0,0.0,0.0,0.0,10.0,0.0,0.0,0.0,10.0
1446036521590277346,336,1446036521585314989,robocape_mag,-0.45,11.7,-4.5,10.0,0.0,0.0,0.0,10.0,0.0,0.0,0.0,10.0
1446036521627359554,337,1446036521618225097,robocape_mag,-0.45,11.7,-4.5,10.0,0.0,0.0,0.0,10.0,0.0,0.0,0.0,10.0
1446036521660424013,338,1446036521650599956,robocape_mag,5.55,-0.9,-3.9,10.0,0.0,0.0,0.0,10.0,0.0,0.0,0.0,10.0
1446036521719011763,339,1446036521683753013,robocape_mag,5.55,-0.9,-3.9,10.0,0.0,0.0,0.0,10.0,0.0,0.0,0.0,10.0
1446036521738273304,340,1446036521733198881,robocape_mag,5.55,-0.9,-3.9,10.0,0.0,0.0,0.0,10.0,0.0,0.0,0.0,10.0
1446036521760687846,341,1446036521755897045,robocape_mag,5.55,-0.9,-3.9,10.0,0.0,0.0,0.0,10.0,0.0,0.0,0.0,10.0
1446036521786519013,342,1446036521781280994,robocape_mag,5.55,-0.9,-3.9,10.0,0.0,0.0,0.0,10.0,0.0,0.0,0.0,10.0
1446036521826101346,343,1446036521814819097,robocape_mag,-18.75,0.0,-9.0,10.0,0.0,0.0,0.0,10.0,0.0,0.0,0.0,10.0
1446036521852727804,344,1446036521847944021,robocape_mag,-18.75,0.0,-9.0,10.0,0.0,0.0,0.0,10.0,0.0,0.0,0.0,10.0
1446036521886957388,345,1446036521881931066,robocape_mag,-18.75,0.0,-9.0,10.0,0.0,0.0,0.0,10.0,0.0,0.0,0.0,10.0
1446036521919622430,346,1446036521914674997,robocape_mag,-18.75,0.0,-9.0,10.0,0.0,0.0,0.0,10.0,0.0,0.0,0.0,10.0
1446036521954468513,347,1446036521949596881,robocape_mag,7.05,-14.4,-3.6,10.0,0.0,0.0,0.0,10.0,0.0,0.0,0.0,10.0
1446036521988393055,348,1446036521983500003,robocape_mag,7.05,-14.4,-3.6,10.0,0.0,0.0,0.0,10.0,0.0,0.0,0.0,10.0
1446036522021182513,349,1446036522016343116,robocape_mag,7.05,-14.4,-3.6,10.0,0.0,0.0,0.0,10.0,0.0,0.0,0.0,10.0
1446036522053917346,350,1446036522049161911,robocape_mag,7.05,-14.4,-3.6,10.0,0.0,0.0,0.0,10.0,0.0,0.0,0.0,10.0
1446036522087400138,351,1446036522082375049,robocape_mag,7.05,-14.4,-3.6,10.0,0.0,0.0,0.0,10.0,0.0,0.0,0.0,10.0
1446036522120256638,352,1446036522115499973,robocape_mag,20.25,-30.0,-8.4,10.0,0.0,0.0,0.0,10.0,0.0,0.0,0.0,10.0
1446036522153168638,353,1446036522148400068,robocape_mag,20.25,-30.0,-8.4,10.0,0.0,0.0,0.0,10.0,0.0,0.0,0.0,10.0
1446036522186390971,354,1446036522181469917,robocape_mag,20.25,-30.0,-8.4,10.0,0.0,0.0,0.0,10.0,0.0,0.0,0.0,10.0
1446036522219763596,355,1446036522215002059,robocape_mag,20.25,-30.0,-8.4,10.0,0.0,0.0,0.0,10.0,0.0,0.0,0.0,10.0
1446036522252723263,356,1446036522247970104,robocape_mag,20.25,-30.0,-8.4,10.0,0.0,0.0,0.0,10.0,0.0,0.0,0.0,10.0
1446036522286244555,357,1446036522281349897,robocape_mag,13.95,-9.9,-11.7,10.0,0.0,0.0,0.0,10.0,0.0,0.0,0.0,10.0
1446036522319729263,358,1446036522314599037,robocape_mag,13.95,-9.9,-11.7,10.0,0.0,0.0,0.0,10.0,0.0,0.0,0.0,10.0
1446036522352781138,359,1446036522348046064,robocape_mag,13.95,-9.9,-11.7,10.0,0.0,0.0,0.0,10.0,0.0,0.0,0.0,10.0
1446036522386506930,360,1446036522381376981,robocape_mag,13.95,-9.9,-11.7,10.0,0.0,0.0,0.0,10.0,0.0,0.0,0.0,10.0
1446036522419654305,361,1446036522414688110,robocape_mag,13.95,-9.9,-11.7,10.0,0.0,0.0,0.0,10.0,0.0,0.0,0.0,10.0
1446036522453218846,362,1446036522448390007,robocape_mag,6.75,-14.1,-11.7,10.0,0.0,0.0,0.0,10.0,0.0,0.0,0.0,10.0
1446036522494898430,363,1446036522485766887,robocape_mag,6.75,-14.1,-11.7,10.0,0.0,0.0,0.0,10.0,0.0,0.0,0.0,10.0
1446036522522544096,364,1446036522517544984,robocape_mag,6.75,-14.1,-11.7,10.0,0.0,0.0,0.0,10.0,0.0,0.0,0.0,10.0
1446036522558426805,365,1446036522551595926,robocape_mag,6.75,-14.1,-11.7,10.0,0.0,0.0,0.0,10.0,0.0,0.0,0.0,10.0
1446036522588509138,366,1446036522583470106,robocape_mag,6.75,-14.1,-11.7,10.0,0.0,0.0,0.0,10.0,0.0,0.0,0.0,10.0
1446036522623959138,367,1446036522618864059,robocape_mag,18.75,-15.9,-1.5,10.0,0.0,0.0,0.0,10.0,0.0,0.0,0.0,10.0
1446036522656959888,368,1446036522652061939,robocape_mag,18.75,-15.9,-1.5,10.0,0.0,0.0,0.0,10.0,0.0,0.0,0.0,10.0
1446036522685843930,369,1446036522681103944,robocape_mag,18.75,-15.9,-1.5,10.0,0.0,0.0,0.0,10.0,0.0,0.0,0.0,10.0
1446036522720167263,370,1446036522715173006,robocape_mag,18.75,-15.9,-1.5,10.0,0.0,0.0,0.0,10.0,0.0,0.0,0.0,10.0
1446036522752845472,371,1446036522747899055,robocape_mag,21.15,-16.5,0.3,10.0,0.0,0.0,0.0,10.0,0.0,0.0,0.0,10.0
1446036522787276222,372,1446036522782135009,robocape_mag,21.15,-16.5,0.3,10.0,0.0,0.0,0.0,10.0,0.0,0.0,0.0,10.0
1446036522824564013,373,1446036522814490079,robocape_mag,21.15,-16.5,0.3,10.0,0.0,0.0,0.0,10.0,0.0,0.0,0.0,10.0
1446036522854877847,374,1446036522848983049,robocape_mag,21.15,-16.5,0.3,10.0,0.0,0.0,0.0,10.0,0.0,0.0,0.0,10.0
1446036522886620055,375,1446036522881455898,robocape_mag,21.15,-16.5,0.3,10.0,0.0,0.0,0.0,10.0,0.0,0.0,0.0,10.0
1446036522919908805,376,1446036522914638996,robocape_mag,-5.85,-21.9,-14.7,10.0,0.0,0.0,0.0,10.0,0.0,0.0,0.0,10.0
1446036522953058013,377,1446036522947827100,robocape_mag,-5.85,-21.9,-14.7,10.0,0.0,0.0,0.0,10.0,0.0,0.0,0.0,10.0
1446036522992075472,378,1446036522983187913,robocape_mag,-5.85,-21.9,-14.7,10.0,0.0,0.0,0.0,10.0,0.0,0.0,0.0,10.0
1446036523022703138,379,1446036523017700910,robocape_mag,-5.85,-21.9,-14.7,10.0,0.0,0.0,0.0,10.0,0.0,0.0,0.0,10.0
1446036523055105222,380,1446036523050323009,robocape_mag,-5.85,-21.9,-14.7,10.0,0.0,0.0,0.0,10.0,0.0,0.0,0.0,10.0
1446036523088325097,381,1446036523083256959,robocape_mag,6.45,-7.8,-9.6,10.0,0.0,0.0,0.0,10.0,0.0,0.0,0.0,10.0
1446036523119818805,382,1446036523114744901,robocape_mag,6.45,-7.8,-9.6,10.0,0.0,0.0,0.0,10.0,0.0,0.0,0.0,10.0
1446036523152673513,383,1446036523147878885,robocape_mag,6.45,-7.8,-9.6,10.0,0.0,0.0,0.0,10.0,0.0,0.0,0.0,10.0
1446036523187578097,384,1446036523182591915,robocape_mag,6.45,-7.8,-9.6,10.0,0.0,0.0,0.0,10.0,0.0,0.0,0.0,10.0
1446036523221562680,385,1446036523216550111,robocape_mag,6.45,-7.8,-9.6,10.0,0.0,0.0,0.0,10.0,0.0,0.0,0.0,10.0
1446036523253878097,386,1446036523249089002,robocape_mag,14.25,-13.2,-16.2,10.0,0.0,0.0,0.0,10.0,0.0,0.0,0.0,10.0
1446036523287111222,387,1446036523282191991,robocape_mag,14.25,-13.2,-16.2,10.0,0.0,0.0,0.0,10.0,0.0,0.0,0.0,10.0
1446036523324076764,388,1446036523315155029,robocape_mag,14.25,-13.2,-16.2,10.0,0.0,0.0,0.0,10.0,0.0,0.0,0.0,10.0
1446036523353166764,389,1446036523348310947,robocape_mag,14.25,-13.2,-16.2,10.0,0.0,0.0,0.0,10.0,0.0,0.0,0.0,10.0
1446036523386817514,390,1446036523381702899,robocape_mag,14.25,-13.2,-16.2,10.0,0.0,0.0,0.0,10.0,0.0,0.0,0.0,10.0
1446036523421584889,391,1446036523416579008,robocape_mag,27.45,-8.4,-9.0,10.0,0.0,0.0,0.0,10.0,0.0,0.0,0.0,10.0
1446036523454589805,392,1446036523449557065,robocape_mag,27.45,-8.4,-9.0,10.0,0.0,0.0,0.0,10.0,0.0,0.0,0.0,10.0
1446036523487215680,393,1446036523481978893,robocape_mag,27.45,-8.4,-9.0,10.0,0.0,0.0,0.0,10.0,0.0,0.0,0.0,10.0
1446036523525412889,394,1446036523516980886,robocape_mag,27.45,-8.4,-9.0,10.0,0.0,0.0,0.0,10.0,0.0,0.0,0.0,10.0
1446036523556324722,395,1446036523551462888,robocape_mag,14.25,-9.6,-12.0,10.0,0.0,0.0,0.0,10.0,0.0,0.0,0.0,10.0
1446036523590243347,396,1446036523585138082,robocape_mag,14.25,-9.6,-12.0,10.0,0.0,0.0,0.0,10.0,0.0,0.0,0.0,10.0
1446036523622531805,397,1446036523617532968,robocape_mag,14.25,-9.6,-12.0,10.0,0.0,0.0,0.0,10.0,0.0,0.0,0.0,10.0
1446036523655827347,398,1446036523650990962,robocape_mag,14.25,-9.6,-12.0,10.0,0.0,0.0,0.0,10.0,0.0,0.0,0.0,10.0
1446036523689490805,399,1446036523684357881,robocape_mag,14.25,-9.6,-12.0,10.0,0.0,0.0,0.0,10.0,0.0,0.0,0.0,10.0
1446036523719498347,400,1446036523714474916,robocape_mag,7.05,-11.4,-15.6,10.0,0.0,0.0,0.0,10.0,0.0,0.0,0.0,10.0
1446036523752509597,401,1446036523747807025,robocape_mag,7.05,-11.4,-15.6,10.0,0.0,0.0,0.0,10.0,0.0,0.0,0.0,10.0
1446036523786643930,402,1446036523781333923,robocape_mag,7.05,-11.4,-15.6,10.0,0.0,0.0,0.0,10.0,0.0,0.0,0.0,10.0
1446036523829617722,403,1446036523814835071,robocape_mag,7.05,-11.4,-15.6,10.0,0.0,0.0,0.0,10.0,0.0,0.0,0.0,10.0
1446036523853731055,404,1446036523848715066,robocape_mag,7.05,-11.4,-15.6,10.0,0.0,0.0,0.0,10.0,0.0,0.0,0.0,10.0
1446036523886162639,405,1446036523881198883,robocape_mag,14.85,-24.6,-7.8,10.0,0.0,0.0,0.0,10.0,0.0,0.0,0.0,10.0
1446036523921613139,406,1446036523914875984,robocape_mag,14.85,-24.6,-7.8,10.0,0.0,0.0,0.0,10.0,0.0,0.0,0.0,10.0
1446036523952654139,407,1446036523947838068,robocape_mag,14.85,-24.6,-7.8,10.0,0.0,0.0,0.0,10.0,0.0,0.0,0.0,10.0
1446036523986186431,408,1446036523981256961,robocape_mag,14.85,-24.6,-7.8,10.0,0.0,0.0,0.0,10.0,0.0,0.0,0.0,10.0
1446036524019374847,409,1446036524014585018,robocape_mag,14.85,-24.6,-7.8,10.0,0.0,0.0,0.0,10.0,0.0,0.0,0.0,10.0
1446036524053269389,410,1446036524048185110,robocape_mag,9.75,-8.7,-15.9,10.0,0.0,0.0,0.0,10.0,0.0,0.0,0.0,10.0
1446036524086179431,411,1446036524081185102,robocape_mag,9.75,-8.7,-15.9,10.0,0.0,0.0,0.0,10.0,0.0,0.0,0.0,10.0
1446036524122798847,412,1446036524117810010,robocape_mag,9.75,-8.7,-15.9,10.0,0.0,0.0,0.0,10.0,0.0,0.0,0.0,10.0
1446036524152866722,413,1446036524148089885,robocape_mag,9.75,-8.7,-15.9,10.0,0.0,0.0,0.0,10.0,0.0,0.0,0.0,10.0
1446036524186206472,414,1446036524181196928,robocape_mag,9.75,-8.7,-15.9,10.0,0.0,0.0,0.0,10.0,0.0,0.0,0.0,10.0
1446036524221935431,415,1446036524217150926,robocape_mag,15.45,-11.4,-0.6,10.0,0.0,0.0,0.0,10.0,0.0,0.0,0.0,10.0
1446036524253039764,416,1446036524247884035,robocape_mag,15.45,-11.4,-0.6,10.0,0.0,0.0,0.0,10.0,0.0,0.0,0.0,10.0
1446036524286244972,417,1446036524281394958,robocape_mag,15.45,-11.4,-0.6,10.0,0.0,0.0,0.0,10.0,0.0,0.0,0.0,10.0
1446036524319974556,418,1446036524314896106,robocape_mag,15.45,-11.4,-0.6,10.0,0.0,0.0,0.0,10.0,0.0,0.0,0.0,10.0
1446036524354393556,419,1446036524349643945,robocape_mag,-14.85,-12.9,-11.7,10.0,0.0,0.0,0.0,10.0,0.0,0.0,0.0,10.0
1446036524386341847,420,1446036524381383895,robocape_mag,-14.85,-12.9,-11.7,10.0,0.0,0.0,0.0,10.0,0.0,0.0,0.0,10.0
1446036524420485181,421,1446036524415590047,robocape_mag,-14.85,-12.9,-11.7,10.0,0.0,0.0,0.0,10.0,0.0,0.0,0.0,10.0
1446036524453139222,422,1446036524448314905,robocape_mag,-14.85,-12.9,-11.7,10.0,0.0,0.0,0.0,10.0,0.0,0.0,0.0,10.0
1446036524486127389,423,1446036524481065988,robocape_mag,-14.85,-12.9,-11.7,10.0,0.0,0.0,0.0,10.0,0.0,0.0,0.0,10.0
1446036524519520056,424,1446036524514713048,robocape_mag,5.55,-25.5,-15.9,10.0,0.0,0.0,0.0,10.0,0.0,0.0,0.0,10.0
1446036524552711472,425,1446036524547899961,robocape_mag,5.55,-25.5,-15.9,10.0,0.0,0.0,0.0,10.0,0.0,0.0,0.0,10.0
1446036524585954389,426,1446036524581124067,robocape_mag,5.55,-25.5,-15.9,10.0,0.0,0.0,0.0,10.0,0.0,0.0,0.0,10.0
1446036524619579056,427,1446036524614733934,robocape_mag,5.55,-25.5,-15.9,10.0,0.0,0.0,0.0,10.0,0.0,0.0,0.0,10.0
1446036524652656722,428,1446036524647931098,robocape_mag,5.55,-25.5,-15.9,10.0,0.0,0.0,0.0,10.0,0.0,0.0,0.0,10.0
1446036524686007723,429,1446036524681211948,robocape_mag,20.85,-23.4,-9.0,10.0,0.0,0.0,0.0,10.0,0.0,0.0,0.0,10.0
1446036524724873181,430,1446036524717926979,robocape_mag,20.85,-23.4,-9.0,10.0,0.0,0.0,0.0,10.0,0.0,0.0,0.0,10.0
1446036524752751514,431,1446036524747884988,robocape_mag,20.85,-23.4,-9.0,10.0,0.0,0.0,0.0,10.0,0.0,0.0,0.0,10.0
1446036524786012264,432,1446036524781167030,robocape_mag,20.85,-23.4,-9.0,10.0,0.0,0.0,0.0,10.0,0.0,0.0,0.0,10.0
1446036524825552598,433,1446036524814812898,robocape_mag,20.85,-23.4,-9.0,10.0,0.0,0.0,0.0,10.0,0.0,0.0,0.0,10.0
1446036524853948098,434,1446036524849133014,robocape_mag,10.05,-14.4,0.0,10.0,0.0,0.0,0.0,10.0,0.0,0.0,0.0,10.0
1446036524886533431,435,1446036524881547927,robocape_mag,10.05,-14.4,0.0,10.0,0.0,0.0,0.0,10.0,0.0,0.0,0.0,10.0
1446036524920478806,436,1446036524915700912,robocape_mag,10.05,-14.4,0.0,10.0,0.0,0.0,0.0,10.0,0.0,0.0,0.0,10.0
1446036524953266431,437,1446036524948451042,robocape_mag,10.05,-14.4,0.0,10.0,0.0,0.0,0.0,10.0,0.0,0.0,0.0,10.0
1446036524986625598,438,1446036524981574058,robocape_mag,10.05,-14.4,0.0,10.0,0.0,0.0,0.0,10.0,0.0,0.0,0.0,10.0
1446036525019642473,439,1446036525014810085,robocape_mag,3.15,-14.1,-0.9,10.0,0.0,0.0,0.0,10.0,0.0,0.0,0.0,10.0
1446036525053220764,440,1446036525048320055,robocape_mag,3.15,-14.1,-0.9,10.0,0.0,0.0,0.0,10.0,0.0,0.0,0.0,10.0
1446036525088480764,441,1446036525081489086,robocape_mag,3.15,-14.1,-0.9,10.0,0.0,0.0,0.0,10.0,0.0,0.0,0.0,10.0
1446036525121578348,442,1446036525114681005,robocape_mag,3.15,-14.1,-0.9,10.0,0.0,0.0,0.0,10.0,0.0,0.0,0.0,10.0
1446036525153261181,443,1446036525148276090,robocape_mag,4.05,-25.2,-9.6,10.0,0.0,0.0,0.0,10.0,0.0,0.0,0.0,10.0
1446036525186722056,444,1446036525181565999,robocape_mag,4.05,-25.2,-9.6,10.0,0.0,0.0,0.0,10.0,0.0,0.0,0.0,10.0
1446036525220193389,445,1446036525214838981,robocape_mag,4.05,-25.2,-9.6,10.0,0.0,0.0,0.0,10.0,0.0,0.0,0.0,10.0
1446036525255282639,446,1446036525250241994,robocape_mag,4.05,-25.2,-9.6,10.0,0.0,0.0,0.0,10.0,0.0,0.0,0.0,10.0
1446036525289528973,447,1446036525284651041,robocape_mag,4.05,-25.2,-9.6,10.0,0.0,0.0,0.0,10.0,0.0,0.0,0.0,10.0
1446036525320121389,448,1446036525314563989,robocape_mag,-6.45,-11.1,-12.9,10.0,0.0,0.0,0.0,10.0,0.0,0.0,0.0,10.0
1446036525353011431,449,1446036525347992897,robocape_mag,-6.45,-11.1,-12.9,10.0,0.0,0.0,0.0,10.0,0.0,0.0,0.0,10.0
1446036525388746598,450,1446036525383750915,robocape_mag,-6.45,-11.1,-12.9,10.0,0.0,0.0,0.0,10.0,0.0,0.0,0.0,10.0
1446036525421560431,451,1446036525416410923,robocape_mag,-6.45,-11.1,-12.9,10.0,0.0,0.0,0.0,10.0,0.0,0.0,0.0,10.0
1446036525452620515,452,1446036525447853088,robocape_mag,-6.45,-11.1,-12.9,10.0,0.0,0.0,0.0,10.0,0.0,0.0,0.0,10.0
1446036525485889765,453,1446036525481092929,robocape_mag,-14.85,-15.9,-12.9,10.0,0.0,0.0,0.0,10.0,0.0,0.0,0.0,10.0
1446036525519556431,454,1446036525514661073,robocape_mag,-14.85,-15.9,-12.9,10.0,0.0,0.0,0.0,10.0,0.0,0.0,0.0,10.0
1446036525553472890,455,1446036525548683881,robocape_mag,-14.85,-15.9,-12.9,10.0,0.0,0.0,0.0,10.0,0.0,0.0,0.0,10.0
1446036525585931431,456,1446036525581208944,robocape_mag,-14.85,-15.9,-12.9,10.0,0.0,0.0,0.0,10.0,0.0,0.0,0.0,10.0
1446036525619803765,457,1446036525614865064,robocape_mag,-14.85,-15.9,-12.9,10.0,0.0,0.0,0.0,10.0,0.0,0.0,0.0,10.0
1446036525652731265,458,1446036525648011922,robocape_mag,2.85,-9.6,-6.0,10.0,0.0,0.0,0.0,10.0,0.0,0.0,0.0,10.0
1446036525685823306,459,1446036525681147098,robocape_mag,2.85,-9.6,-6.0,10.0,0.0,0.0,0.0,10.0,0.0,0.0,0.0,10.0
1446036525719360556,460,1446036525714567899,robocape_mag,2.85,-9.6,-6.0,10.0,0.0,0.0,0.0,10.0,0.0,0.0,0.0,10.0
1446036525752732473,461,1446036525747901916,robocape_mag,2.85,-9.6,-6.0,10.0,0.0,0.0,0.0,10.0,0.0,0.0,0.0,10.0
1446036525786114431,462,1446036525781265974,robocape_mag,2.85,-9.6,-6.0,10.0,0.0,0.0,0.0,10.0,0.0,0.0,0.0,10.0
1446036525824348515,463,1446036525814606904,robocape_mag,15.75,-20.7,-2.7,10.0,0.0,0.0,0.0,10.0,0.0,0.0,0.0,10.0
1446036525852977598,464,1446036525848026990,robocape_mag,15.75,-20.7,-2.7,10.0,0.0,0.0,0.0,10.0,0.0,0.0,0.0,10.0
1446036525889899098,465,1446036525884963989,robocape_mag,15.75,-20.7,-2.7,10.0,0.0,0.0,0.0,10.0,0.0,0.0,0.0,10.0
1446036525919660056,466,1446036525914623022,robocape_mag,15.75,-20.7,-2.7,10.0,0.0,0.0,0.0,10.0,0.0,0.0,0.0,10.0
1446036525952661890,467,1446036525947848081,robocape_mag,15.75,-22.5,-15.9,10.0,0.0,0.0,0.0,10.0,0.0,0.0,0.0,10.0
1446036525987068473,468,1446036525981287002,robocape_mag,-11.85,-22.5,-15.9,10.0,0.0,0.0,0.0,10.0,0.0,0.0,0.0,10.0
1446036526019921098,469,1446036526014770030,robocape_mag,-11.85,-22.5,-15.9,10.0,0.0,0.0,0.0,10.0,0.0,0.0,0.0,10.0
1446036526052943181,470,1446036526047795057,robocape_mag,-11.85,-22.5,-15.9,10.0,0.0,0.0,0.0,10.0,0.0,0.0,0.0,10.0
1446036526085907807,471,1446036526081072092,robocape_mag,-11.85,-22.5,-15.9,10.0,0.0,0.0,0.0,10.0,0.0,0.0,0.0,10.0
1446036526119674973,472,1446036526114623069,robocape_mag,-10.65,-17.1,-15.3,10.0,0.0,0.0,0.0,10.0,0.0,0.0,0.0,10.0
1446036526152643890,473,1446036526147922039,robocape_mag,-10.65,-17.1,-15.3,10.0,0.0,0.0,0.0,10.0,0.0,0.0,0.0,10.0
1446036526186053932,474,1446036526181112051,robocape_mag,-10.65,-17.1,-15.3,10.0,0.0,0.0,0.0,10.0,0.0,0.0,0.0,10.0
1446036526219759473,475,1446036526214692115,robocape_mag,-10.65,-17.1,-15.3,10.0,0.0,0.0,0.0,10.0,0.0,0.0,0.0,10.0
1446036526252735557,476,1446036526247992038,robocape_mag,-10.65,-17.1,-15.3,10.0,0.0,0.0,0.0,10.0,0.0,0.0,0.0,10.0
1446036526288349598,477,1446036526281147956,robocape_mag,-3.15,-13.8,-6.6,10.0,0.0,0.0,0.0,10.0,0.0,0.0,0.0,10.0
1446036526320382307,478,1446036526314804077,robocape_mag,-3.15,-13.8,-6.6,10.0,0.0,0.0,0.0,10.0,0.0,0.0,0.0,10.0
1446036526352513557,479,1446036526347793102,robocape_mag,-3.15,-13.8,-6.6,10.0,0.0,0.0,0.0,10.0,0.0,0.0,0.0,10.0
1446036526386310848,480,1446036526381201028,robocape_mag,-3.15,-13.8,-6.6,10.0,0.0,0.0,0.0,10.0,0.0,0.0,0.0,10.0
1446036526422774348,481,1446036526417606115,robocape_mag,-3.15,-13.8,-6.6,10.0,0.0,0.0,0.0,10.0,0.0,0.0,0.0,10.0
1446036526452952765,482,1446036526447828054,robocape_mag,17.55,-24.3,-0.3,10.0,0.0,0.0,0.0,10.0,0.0,0.0,0.0,10.0
1446036526486978473,483,1446036526481251955,robocape_mag,17.55,-24.3,-0.3,10.0,0.0,0.0,0.0,10.0,0.0,0.0,0.0,10.0
1446036526523545015,484,1446036526514770030,robocape_mag,17.55,-24.3,-0.3,10.0,0.0,0.0,0.0,10.0,0.0,0.0,0.0,10.0
1446036526552748057,485,1446036526547780990,robocape_mag,17.55,-24.3,-0.3,10.0,0.0,0.0,0.0,10.0,0.0,0.0,0.0,10.0
1446036526587601765,486,1446036526581254005,robocape_mag,17.55,-24.3,-0.3,10.0,0.0,0.0,0.0,10.0,0.0,0.0,0.0,10.0
1446036526624084640,487,1446036526614694118,robocape_mag,24.75,-22.5,-5.1,10.0,0.0,0.0,0.0,10.0,0.0,0.0,0.0,10.0
1446036526653224848,488,1446036526648437976,robocape_mag,24.75,-22.5,-5.1,10.0,0.0,0.0,0.0,10.0,0.0,0.0,0.0,10.0
1446036526686140598,489,1446036526681267976,robocape_mag,24.75,-22.5,-5.1,10.0,0.0,0.0,0.0,10.0,0.0,0.0,0.0,10.0
1446036526720719098,490,1446036526715048074,robocape_mag,24.75,-22.5,-5.1,10.0,0.0,0.0,0.0,10.0,0.0,0.0,0.0,10.0
1446036526753030182,491,1446036526748150110,robocape_mag,24.75,-24.0,-6.6,10.0,0.0,0.0,0.0,10.0,0.0,0.0,0.0,10.0
1446036526786061557,492,1446036526781196117,robocape_mag,17.25,-24.0,-6.6,10.0,0.0,0.0,0.0,10.0,0.0,0.0,0.0,10.0
1446036526825093265,493,1446036526814490079,robocape_mag,17.25,-24.0,-6.6,10.0,0.0,0.0,0.0,10.0,0.0,0.0,0.0,10.0
1446036526859228432,494,1446036526853548049,robocape_mag,17.25,-24.0,-6.6,10.0,0.0,0.0,0.0,10.0,0.0,0.0,0.0,10.0
1446036526887806807,495,1446036526882565021,robocape_mag,17.25,-24.0,-6.6,10.0,0.0,0.0,0.0,10.0,0.0,0.0,0.0,10.0
1446036526919886057,496,1446036526914714097,robocape_mag,10.95,-25.5,-17.7,10.0,0.0,0.0,0.0,10.0,0.0,0.0,0.0,10.0
1446036526953126432,497,1446036526947902917,robocape_mag,10.95,-25.5,-17.7,10.0,0.0,0.0,0.0,10.0,0.0,0.0,0.0,10.0
1446036526985901140,498,1446036526981060028,robocape_mag,10.95,-25.5,-17.7,10.0,0.0,0.0,0.0,10.0,0.0,0.0,0.0,10.0
1446036527019758224,499,1446036527014671087,robocape_mag,10.95,-25.5,-17.7,10.0,0.0,0.0,0.0,10.0,0.0,0.0,0.0,10.0
1446036527053749057,500,1446036527048554897,robocape_mag,10.95,-25.5,-17.7,10.0,0.0,0.0,0.0,10.0,0.0,0.0,0.0,10.0
1446036527086125390,501,1446036527081237077,robocape_mag,-4.35,-15.0,-15.0,10.0,0.0,0.0,0.0,10.0,0.0,0.0,0.0,10.0
1446036527119390640,502,1446036527114666938,robocape_mag,-4.35,-15.0,-15.0,10.0,0.0,0.0,0.0,10.0,0.0,0.0,0.0,10.0
1446036527154013432,503,1446036527147897005,robocape_mag,-4.35,-15.0,-15.0,10.0,0.0,0.0,0.0,10.0,0.0,0.0,0.0,10.0
1446036527186185974,504,1446036527181210994,robocape_mag,-4.35,-15.0,-15.0,10.0,0.0,0.0,0.0,10.0,0.0,0.0,0.0,10.0
1446036527219489349,505,1446036527214703083,robocape_mag,-4.35,-15.0,-15.0,10.0,0.0,0.0,0.0,10.0,0.0,0.0,0.0,10.0
1446036527254363682,506,1446036527247910022,robocape_mag,19.65,-16.8,-1.8,10.0,0.0,0.0,0.0,10.0,0.0,0.0,0.0,10.0
1446036527286069265,507,1446036527281335115,robocape_mag,19.65,-16.8,-1.8,10.0,0.0,0.0,0.0,10.0,0.0,0.0,0.0,10.0
1446036527323381015,508,1446036527317584037,robocape_mag,19.65,-16.8,-1.8,10.0,0.0,0.0,0.0,10.0,0.0,0.0,0.0,10.0
1446036527354521224,509,1446036527347877979,robocape_mag,19.65,-16.8,-1.8,10.0,0.0,0.0,0.0,10.0,0.0,0.0,0.0,10.0
1446036527385996307,510,1446036527381222963,robocape_mag,19.65,-16.8,-1.8,10.0,0.0,0.0,0.0,10.0,0.0,0.0,0.0,10.0
1446036527424139390,511,1446036527418519020,robocape_mag,25.35,-12.9,-9.3,10.0,0.0,0.0,0.0,10.0,0.0,0.0,0.0,10.0
1446036527455250849,512,1446036527448055982,robocape_mag,25.35,-12.9,-9.3,10.0,0.0,0.0,0.0,10.0,0.0,0.0,0.0,10.0
1446036527488725307,513,1446036527481206893,robocape_mag,25.35,-12.9,-9.3,10.0,0.0,0.0,0.0,10.0,0.0,0.0,0.0,10.0
1446036527519507516,514,1446036527514545917,robocape_mag,25.35,-12.9,-9.3,10.0,0.0,0.0,0.0,10.0,0.0,0.0,0.0,10.0
1446036527552809641,515,1446036527547987937,robocape_mag,25.35,-21.9,-20.1,10.0,0.0,0.0,0.0,10.0,0.0,0.0,0.0,10.0
1446036527585908557,516,1446036527581145048,robocape_mag,12.75,-21.9,-20.1,10.0,0.0,0.0,0.0,10.0,0.0,0.0,0.0,10.0
1446036527619799849,517,1446036527614655017,robocape_mag,12.75,-21.9,-20.1,10.0,0.0,0.0,0.0,10.0,0.0,0.0,0.0,10.0
1446036527653133099,518,1446036527648181915,robocape_mag,12.75,-21.9,-20.1,10.0,0.0,0.0,0.0,10.0,0.0,0.0,0.0,10.0
1446036527686118182,519,1446036527681220054,robocape_mag,12.75,-21.9,-20.1,10.0,0.0,0.0,0.0,10.0,0.0,0.0,0.0,10.0
1446036527719608016,520,1446036527714709043,robocape_mag,5.85,-23.4,-17.4,10.0,0.0,0.0,0.0,10.0,0.0,0.0,0.0,10.0
1446036527752750849,521,1446036527747904062,robocape_mag,5.85,-23.4,-17.4,10.0,0.0,0.0,0.0,10.0,0.0,0.0,0.0,10.0
1446036527787683224,522,1446036527782845973,robocape_mag,5.85,-23.4,-17.4,10.0,0.0,0.0,0.0,10.0,0.0,0.0,0.0,10.0
1446036527824497932,523,1446036527815555095,robocape_mag,5.85,-23.4,-17.4,10.0,0.0,0.0,0.0,10.0,0.0,0.0,0.0,10.0
1446036527857832474,524,1446036527852401971,robocape_mag,5.85,-23.4,-17.4,10.0,0.0,0.0,0.0,10.0,0.0,0.0,0.0,10.0
1446036527886113182,525,1446036527881308078,robocape_mag,28.65,-29.4,-12.6,10.0,0.0,0.0,0.0,10.0,0.0,0.0,0.0,10.0
1446036527919329516,526,1446036527914489984,robocape_mag,28.65,-29.4,-12.6,10.0,0.0,0.0,0.0,10.0,0.0,0.0,0.0,10.0
1446036527953175516,527,1446036527948205947,robocape_mag,28.65,-29.4,-12.6,10.0,0.0,0.0,0.0,10.0,0.0,0.0,0.0,10.0
1446036527986137641,528,1446036527981306076,robocape_mag,28.65,-29.4,-12.6,10.0,0.0,0.0,0.0,10.0,0.0,0.0,0.0,10.0
1446036528022673349,529,1446036528014658927,robocape_mag,28.65,-29.4,-12.6,10.0,0.0,0.0,0.0,10.0,0.0,0.0,0.0,10.0
1446036528052950057,530,1446036528047918081,robocape_mag,28.95,-16.5,-5.7,10.0,0.0,0.0,0.0,10.0,0.0,0.0,0.0,10.0
1446036528086261224,531,1446036528081432104,robocape_mag,28.95,-16.5,-5.7,10.0,0.0,0.0,0.0,10.0,0.0,0.0,0.0,10.0
1446036528119453099,532,1446036528114635944,robocape_mag,28.95,-16.5,-5.7,10.0,0.0,0.0,0.0,10.0,0.0,0.0,0.0,10.0
1446036528152946432,533,1446036528148015975,robocape_mag,28.95,-16.5,-5.7,10.0,0.0,0.0,0.0,10.0,0.0,0.0,0.0,10.0
1446036528186103349,534,1446036528181269884,robocape_mag,28.95,-16.5,-5.7,10.0,0.0,0.0,0.0,10.0,0.0,0.0,0.0,10.0
