%time,field.header.seq,field.header.stamp,field.header.frame_id,field.magnetic_field.x,field.magnetic_field.y,field.magnetic_field.z,field.magnetic_field_covariance0,field.magnetic_field_covariance1,field.magnetic_field_covariance2,field.magnetic_field_covariance3,field.magnetic_field_covariance4,field.magnetic_field_covariance5,field.magnetic_field_covariance6,field.magnetic_field_covariance7,field.magnetic_field_covariance8
1446038353695171998,1,1446038353692092895,robocape_mag,13.5,22.8,-3.15,10.0,0.0,0.0,0.0,10.0,0.0,0.0,0.0,10.0
1446038353726075290,2,1446038353723064899,robocape_mag,5.7,17.4,-3.75,10.0,0.0,0.0,0.0,10.0,0.0,0.0,0.0,10.0
1446038353759584623,3,1446038353756439924,robocape_mag,5.7,17.4,-3.75,10.0,0.0,0.0,0.0,10.0,0.0,0.0,0.0,10.0
1446038353795318290,4,1446038353789957046,robocape_mag,5.7,17.4,-3.75,10.0,0.0,0.0,0.0,10.0,0.0,0.0,0.0,10.0
1446038353827936748,5,1446038353823276996,robocape_mag,5.7,17.4,-3.75,10.0,0.0,0.0,0.0,10.0,0.0,0.0,0.0,10.0
1446038353861306581,6,1446038353856494903,robocape_mag,5.7,17.4,-3.75,10.0,0.0,0.0,0.0,10.0,0.0,0.0,0.0,10.0
1446038353894776248,7,1446038353889669895,robocape_mag,-0.6,12.9,-1.05,10.0,0.0,0.0,0.0,10.0,0.0,0.0,0.0,10.0
1446038353928019248,8,1446038353923163890,robocape_mag,-0.6,12.9,-1.05,10.0,0.0,0.0,0.0,10.0,0.0,0.0,0.0,10.0
1446038353961247165,9,1446038353956398963,robocape_mag,-0.6,12.9,-1.05,10.0,0.0,0.0,0.0,10.0,0.0,0.0,0.0,10.0
1446038353994872956,10,1446038353989604949,robocape_mag,-0.6,12.9,-1.05,10.0,0.0,0.0,0.0,10.0,0.0,0.0,0.0,10.0
1446038354028172123,11,1446038354023171901,robocape_mag,-0.6,12.9,-1.05,10.0,0.0,0.0,0.0,10.0,0.0,0.0,0.0,10.0
1446038354061288831,12,1446038354056387901,robocape_mag,-1.2,2.7,0.15,10.0,0.0,0.0,0.0,10.0,0.0,0.0,0.0,10.0
1446038354095259915,13,1446038354089756011,robocape_mag,-1.2,2.7,0.15,10.0,0.0,0.0,0.0,10.0,0.0,0.0,0.0,10.0
1446038354128229748,14,1446038354122940063,robocape_mag,-1.2,2.7,0.15,10.0,0.0,0.0,0.0,10.0,0.0,0.0,0.0,10.0
1446038354161280873,15,1446038354156352996,robocape_mag,-1.2,2.7,0.15,10.0,0.0,0.0,0.0,10.0,0.0,0.0,0.0,10.0
1446038354194850332,16,1446038354189698934,robocape_mag,2.7,-6.6,2.85,10.0,0.0,0.0,0.0,10.0,0.0,0.0,0.0,10.0
1446038354228312915,17,1446038354223020076,robocape_mag,2.7,-6.6,2.85,10.0,0.0,0.0,0.0,10.0,0.0,0.0,0.0,10.0
1446038354261324415,18,1446038354256376028,robocape_mag,2.7,-6.6,2.85,10.0,0.0,0.0,0.0,10.0,0.0,0.0,0.0,10.0
1446038354294927457,19,1446038354289638996,robocape_mag,2.7,-6.6,2.85,10.0,0.0,0.0,0.0,10.0,0.0,0.0,0.0,10.0
1446038354328170207,20,1446038354323029041,robocape_mag,2.7,-6.6,2.85,10.0,0.0,0.0,0.0,10.0,0.0,0.0,0.0,10.0
1446038354361272332,21,1446038354356417894,robocape_mag,11.4,-12.3,3.15,10.0,0.0,0.0,0.0,10.0,0.0,0.0,0.0,10.0
1446038354394948207,22,1446038354389735937,robocape_mag,11.4,-12.3,3.15,10.0,0.0,0.0,0.0,10.0,0.0,0.0,0.0,10.0
1446038354432799915,23,1446038354427903890,robocape_mag,11.4,-12.3,3.15,10.0,0.0,0.0,0.0,10.0,0.0,0.0,0.0,10.0
1446038354461343790,24,1446038354456410884,robocape_mag,11.4,-12.3,3.15,10.0,0.0,0.0,0.0,10.0,0.0,0.0,0.0,10.0
1446038354494948248,25,1446038354489804983,robocape_mag,11.4,-12.3,3.15,10.0,0.0,0.0,0.0,10.0,0.0,0.0,0.0,10.0
1446038354528302123,26,1446038354523164987,robocape_mag,21.6,-17.1,2.55,10.0,0.0,0.0,0.0,10.0,0.0,0.0,0.0,10.0
1446038354561316623,27,1446038354556417942,robocape_mag,21.6,-17.1,2.55,10.0,0.0,0.0,0.0,10.0,0.0,0.0,0.0,10.0
1446038354594997457,28,1446038354589751958,robocape_mag,21.6,-17.1,2.55,10.0,0.0,0.0,0.0,10.0,0.0,0.0,0.0,10.0
1446038354628285748,29,1446038354622963905,robocape_mag,21.6,-17.1,2.55,10.0,0.0,0.0,0.0,10.0,0.0,0.0,0.0,10.0
1446038354661215748,30,1446038354656409025,robocape_mag,21.6,-17.1,2.55,10.0,0.0,0.0,0.0,10.0,0.0,0.0,0.0,10.0
1446038354695361040,31,1446038354689776897,robocape_mag,23.4,-18.9,2.55,10.0,0.0,0.0,0.0,10.0,0.0,0.0,0.0,10.0
1446038354728562207,32,1446038354722970008,robocape_mag,23.4,-18.9,2.55,10.0,0.0,0.0,0.0,10.0,0.0,0.0,0.0,10.0
1446038354761222623,33,1446038354756371021,robocape_mag,23.4,-18.9,2.55,10.0,0.0,0.0,0.0,10.0,0.0,0.0,0.0,10.0
1446038354795004207,34,1446038354789680957,robocape_mag,23.4,-18.9,2.55,10.0,0.0,0.0,0.0,10.0,0.0,0.0,0.0,10.0
1446038354828101374,35,1446038354823090076,robocape_mag,23.4,-18.9,2.55,10.0,0.0,0.0,0.0,10.0,0.0,0.0,0.0,10.0
1446038354861318290,36,1446038354856561899,robocape_mag,21.6,-21.3,0.75,10.0,0.0,0.0,0.0,10.0,0.0,0.0,0.0,10.0
1446038354894979290,37,1446038354889715909,robocape_mag,21.6,-21.3,0.75,10.0,0.0,0.0,0.0,10.0,0.0,0.0,0.0,10.0
1446038354928313957,38,1446038354923290014,robocape_mag,21.6,-21.3,0.75,10.0,0.0,0.0,0.0,10.0,0.0,0.0,0.0,10.0
1446038354961377040,39,1446038354956612110,robocape_mag,21.6,-21.3,0.75,10.0,0.0,0.0,0.0,10.0,0.0,0.0,0.0,10.0
1446038354994594665,40,1446038354989651918,robocape_mag,24.3,-22.2,-1.95,10.0,0.0,0.0,0.0,10.0,0.0,0.0,0.0,10.0
1446038355028142332,41,1446038355023072004,robocape_mag,24.3,-22.2,-1.95,10.0,0.0,0.0,0.0,10.0,0.0,0.0,0.0,10.0
1446038355061341582,42,1446038355056545972,robocape_mag,24.3,-22.2,-1.95,10.0,0.0,0.0,0.0,10.0,0.0,0.0,0.0,10.0
1446038355094887874,43,1446038355089720964,robocape_mag,24.3,-22.2,-1.95,10.0,0.0,0.0,0.0,10.0,0.0,0.0,0.0,10.0
1446038355128275832,44,1446038355123039007,robocape_mag,24.3,-22.2,-1.95,10.0,0.0,0.0,0.0,10.0,0.0,0.0,0.0,10.0
1446038355161305165,45,1446038355156523942,robocape_mag,23.4,-22.5,-1.05,10.0,0.0,0.0,0.0,10.0,0.0,0.0,0.0,10.0
1446038355195331957,46,1446038355190119028,robocape_mag,23.4,-22.5,-1.05,10.0,0.0,0.0,0.0,10.0,0.0,0.0,0.0,10.0
1446038355228284624,47,1446038355223047018,robocape_mag,23.4,-22.5,-1.05,10.0,0.0,0.0,0.0,10.0,0.0,0.0,0.0,10.0
1446038355261165457,48,1446038355256375074,robocape_mag,23.4,-22.5,-1.05,10.0,0.0,0.0,0.0,10.0,0.0,0.0,0.0,10.0
1446038355294963665,49,1446038355289748907,robocape_mag,23.4,-22.5,-1.05,10.0,0.0,0.0,0.0,10.0,0.0,0.0,0.0,10.0
1446038355328166665,50,1446038355323190927,robocape_mag,21.9,-22.2,-1.95,10.0,0.0,0.0,0.0,10.0,0.0,0.0,0.0,10.0
1446038355361500374,51,1446038355356406927,robocape_mag,21.9,-22.2,-1.95,10.0,0.0,0.0,0.0,10.0,0.0,0.0,0.0,10.0
1446038355394879040,52,1446038355389827013,robocape_mag,21.9,-22.2,-1.95,10.0,0.0,0.0,0.0,10.0,0.0,0.0,0.0,10.0
1446038355433127499,53,1446038355428245067,robocape_mag,21.9,-22.2,-1.95,10.0,0.0,0.0,0.0,10.0,0.0,0.0,0.0,10.0
1446038355461162790,54,1446038355456418991,robocape_mag,21.9,-22.2,-1.95,10.0,0.0,0.0,0.0,10.0,0.0,0.0,0.0,10.0
1446038355494694624,55,1446038355489687919,robocape_mag,21.6,-22.5,-3.45,10.0,0.0,0.0,0.0,10.0,0.0,0.0,0.0,10.0
1446038355528257041,56,1446038355523209095,robocape_mag,21.6,-22.5,-3.45,10.0,0.0,0.0,0.0,10.0,0.0,0.0,0.0,10.0
1446038355561266332,57,1446038355556540966,robocape_mag,21.6,-22.5,-3.45,10.0,0.0,0.0,0.0,10.0,0.0,0.0,0.0,10.0
1446038355594673999,58,1446038355589742898,robocape_mag,21.6,-22.5,-3.45,10.0,0.0,0.0,0.0,10.0,0.0,0.0,0.0,10.0
1446038355628170041,59,1446038355623171091,robocape_mag,21.6,-22.5,-3.45,10.0,0.0,0.0,0.0,10.0,0.0,0.0,0.0,10.0
1446038355661267457,60,1446038355656393051,robocape_mag,23.7,-19.8,-1.95,10.0,0.0,0.0,0.0,10.0,0.0,0.0,0.0,10.0
1446038355694572291,61,1446038355689629077,robocape_mag,23.7,-19.8,-1.95,10.0,0.0,0.0,0.0,10.0,0.0,0.0,0.0,10.0
1446038355727940916,62,1446038355723025083,robocape_mag,23.7,-19.8,-1.95,10.0,0.0,0.0,0.0,10.0,0.0,0.0,0.0,10.0
1446038355761169374,63,1446038355756369113,robocape_mag,23.7,-19.8,-1.95,10.0,0.0,0.0,0.0,10.0,0.0,0.0,0.0,10.0
1446038355794698707,64,1446038355789705038,robocape_mag,23.4,-20.1,-2.85,10.0,0.0,0.0,0.0,10.0,0.0,0.0,0.0,10.0
1446038355827955416,65,1446038355823268890,robocape_mag,23.4,-20.1,-2.85,10.0,0.0,0.0,0.0,10.0,0.0,0.0,0.0,10.0
1446038355861294707,66,1446038355856544971,robocape_mag,23.4,-20.1,-2.85,10.0,0.0,0.0,0.0,10.0,0.0,0.0,0.0,10.0
1446038355894539124,67,1446038355889636039,robocape_mag,23.4,-20.1,-2.85,10.0,0.0,0.0,0.0,10.0,0.0,0.0,0.0,10.0
1446038355928276166,68,1446038355923515081,robocape_mag,23.4,-20.1,-2.85,10.0,0.0,0.0,0.0,10.0,0.0,0.0,0.0,10.0
1446038355961364332,69,1446038355956633090,robocape_mag,24.0,-21.9,-2.25,10.0,0.0,0.0,0.0,10.0,0.0,0.0,0.0,10.0
1446038355995641332,70,1446038355990648031,robocape_mag,24.0,-21.9,-2.25,10.0,0.0,0.0,0.0,10.0,0.0,0.0,0.0,10.0
1446038356028019041,71,1446038356023150920,robocape_mag,24.0,-21.9,-2.25,10.0,0.0,0.0,0.0,10.0,0.0,0.0,0.0,10.0
1446038356061596249,72,1446038356056765079,robocape_mag,24.0,-21.9,-2.25,10.0,0.0,0.0,0.0,10.0,0.0,0.0,0.0,10.0
1446038356094515791,73,1446038356089797019,robocape_mag,24.0,-21.9,-2.25,10.0,0.0,0.0,0.0,10.0,0.0,0.0,0.0,10.0
1446038356128108249,74,1446038356123197078,robocape_mag,24.3,-21.0,-2.55,10.0,0.0,0.0,0.0,10.0,0.0,0.0,0.0,10.0
1446038356161705707,75,1446038356156923055,robocape_mag,24.3,-21.0,-2.55,10.0,0.0,0.0,0.0,10.0,0.0,0.0,0.0,10.0
1446038356194674999,76,1446038356189718961,robocape_mag,24.3,-21.0,-2.55,10.0,0.0,0.0,0.0,10.0,0.0,0.0,0.0,10.0
1446038356228179166,77,1446038356223047018,robocape_mag,24.3,-21.0,-2.55,10.0,0.0,0.0,0.0,10.0,0.0,0.0,0.0,10.0
1446038356261913958,78,1446038356257157087,robocape_mag,24.3,-21.0,-2.55,10.0,0.0,0.0,0.0,10.0,0.0,0.0,0.0,10.0
1446038356294559291,79,1446038356289654970,robocape_mag,25.2,-32.1,13.95,10.0,0.0,0.0,0.0,10.0,0.0,0.0,0.0,10.0
1446038356328043124,80,1446038356323173999,robocape_mag,25.2,-32.1,13.95,10.0,0.0,0.0,0.0,10.0,0.0,0.0,0.0,10.0
1446038356361733541,81,1446038356356950044,robocape_mag,25.2,-32.1,13.95,10.0,0.0,0.0,0.0,10.0,0.0,0.0,0.0,10.0
1446038356394873833,82,1446038356389848947,robocape_mag,25.2,-32.1,13.95,10.0,0.0,0.0,0.0,10.0,0.0,0.0,0.0,10.0
1446038356432643458,83,1446038356427341938,robocape_mag,21.6,-15.9,10.35,10.0,0.0,0.0,0.0,10.0,0.0,0.0,0.0,10.0
1446038356462163249,84,1446038356457360982,robocape_mag,21.6,-15.9,10.35,10.0,0.0,0.0,0.0,10.0,0.0,0.0,0.0,10.0
1446038356494611208,85,1446038356489644050,robocape_mag,21.6,-15.9,10.35,10.0,0.0,0.0,0.0,10.0,0.0,0.0,0.0,10.0
1446038356527908833,86,1446038356523117065,robocape_mag,21.6,-15.9,10.35,10.0,0.0,0.0,0.0,10.0,0.0,0.0,0.0,10.0
1446038356562610999,87,1446038356557008981,robocape_mag,21.6,-15.9,10.35,10.0,0.0,0.0,0.0,10.0,0.0,0.0,0.0,10.0
1446038356594752166,88,1446038356589709997,robocape_mag,24.0,-31.5,13.35,10.0,0.0,0.0,0.0,10.0,0.0,0.0,0.0,10.0
1446038356628121583,89,1446038356623188018,robocape_mag,24.0,-31.5,13.35,10.0,0.0,0.0,0.0,10.0,0.0,0.0,0.0,10.0
1446038356661739041,90,1446038356656950950,robocape_mag,24.0,-31.5,13.35,10.0,0.0,0.0,0.0,10.0,0.0,0.0,0.0,10.0
1446038356694778166,91,1446038356689667940,robocape_mag,24.0,-31.5,13.35,10.0,0.0,0.0,0.0,10.0,0.0,0.0,0.0,10.0
1446038356727901374,92,1446038356722981929,robocape_mag,24.0,-31.5,13.35,10.0,0.0,0.0,0.0,10.0,0.0,0.0,0.0,10.0
1446038356761725083,93,1446038356756973028,robocape_mag,24.0,-28.5,25.35,10.0,0.0,0.0,0.0,10.0,0.0,0.0,0.0,10.0
1446038356794684333,94,1446038356789635896,robocape_mag,24.0,-28.5,25.35,10.0,0.0,0.0,0.0,10.0,0.0,0.0,0.0,10.0
1446038356827994458,95,1446038356823205947,robocape_mag,24.0,-28.5,25.35,10.0,0.0,0.0,0.0,10.0,0.0,0.0,0.0,10.0
1446038356861767791,96,1446038356856946945,robocape_mag,24.0,-28.5,25.35,10.0,0.0,0.0,0.0,10.0,0.0,0.0,0.0,10.0
1446038356895009249,97,1446038356889981985,robocape_mag,24.0,-28.5,25.35,10.0,0.0,0.0,0.0,10.0,0.0,0.0,0.0,10.0
1446038356928265083,98,1446038356923552989,robocape_mag,21.9,-25.2,29.25,10.0,0.0,0.0,0.0,10.0,0.0,0.0,0.0,10.0
1446038356961962291,99,1446038356957134008,robocape_mag,21.9,-25.2,29.25,10.0,0.0,0.0,0.0,10.0,0.0,0.0,0.0,10.0
1446038356994763708,100,1446038356989789009,robocape_mag,21.9,-25.2,29.25,10.0,0.0,0.0,0.0,10.0,0.0,0.0,0.0,10.0
1446038357027885958,101,1446038357023052930,robocape_mag,21.9,-25.2,29.25,10.0,0.0,0.0,0.0,10.0,0.0,0.0,0.0,10.0
1446038357062614916,102,1446038357057826042,robocape_mag,21.9,-25.2,29.25,10.0,0.0,0.0,0.0,10.0,0.0,0.0,0.0,10.0
1446038357094751833,103,1446038357089678049,robocape_mag,21.0,-26.7,29.55,10.0,0.0,0.0,0.0,10.0,0.0,0.0,0.0,10.0
1446038357128324583,104,1446038357123323917,robocape_mag,21.0,-26.7,29.55,10.0,0.0,0.0,0.0,10.0,0.0,0.0,0.0,10.0
1446038357161859041,105,1446038357157129049,robocape_mag,21.0,-26.7,29.55,10.0,0.0,0.0,0.0,10.0,0.0,0.0,0.0,10.0
1446038357194834958,106,1446038357189713954,robocape_mag,21.0,-26.7,29.55,10.0,0.0,0.0,0.0,10.0,0.0,0.0,0.0,10.0
1446038357227923916,107,1446038357223011016,robocape_mag,21.0,-26.7,29.55,10.0,0.0,0.0,0.0,10.0,0.0,0.0,0.0,10.0
1446038357261813750,108,1446038357257016897,robocape_mag,20.7,-25.8,27.45,10.0,0.0,0.0,0.0,10.0,0.0,0.0,0.0,10.0
1446038357295390791,109,1446038357290368080,robocape_mag,20.7,-25.8,27.45,10.0,0.0,0.0,0.0,10.0,0.0,0.0,0.0,10.0
1446038357327867416,110,1446038357323194026,robocape_mag,20.7,-25.8,27.45,10.0,0.0,0.0,0.0,10.0,0.0,0.0,0.0,10.0
1446038357362431166,111,1446038357357134103,robocape_mag,20.7,-25.8,27.45,10.0,0.0,0.0,0.0,10.0,0.0,0.0,0.0,10.0
1446038357394656375,112,1446038357389681100,robocape_mag,21.0,-24.9,28.95,10.0,0.0,0.0,0.0,10.0,0.0,0.0,0.0,10.0
1446038357431449958,113,1446038357426510095,robocape_mag,21.0,-24.9,28.95,10.0,0.0,0.0,0.0,10.0,0.0,0.0,0.0,10.0
1446038357461956166,114,1446038357457123041,robocape_mag,21.0,-24.9,28.95,10.0,0.0,0.0,0.0,10.0,0.0,0.0,0.0,10.0
1446038357494640083,115,1446038357489660978,robocape_mag,21.0,-24.9,28.95,10.0,0.0,0.0,0.0,10.0,0.0,0.0,0.0,10.0
1446038357527912708,116,1446038357523221015,robocape_mag,21.0,-24.9,28.95,10.0,0.0,0.0,0.0,10.0,0.0,0.0,0.0,10.0
1446038357561685666,117,1446038357556829929,robocape_mag,21.6,-24.9,27.75,10.0,0.0,0.0,0.0,10.0,0.0,0.0,0.0,10.0
1446038357594780666,118,1446038357589767932,robocape_mag,21.6,-24.9,27.75,10.0,0.0,0.0,0.0,10.0,0.0,0.0,0.0,10.0
1446038357628020792,119,1446038357623003959,robocape_mag,21.6,-24.9,27.75,10.0,0.0,0.0,0.0,10.0,0.0,0.0,0.0,10.0
1446038357662198958,120,1446038357657392024,robocape_mag,21.6,-24.9,27.75,10.0,0.0,0.0,0.0,10.0,0.0,0.0,0.0,10.0
1446038357694905000,121,1446038357689796924,robocape_mag,21.6,-24.9,27.75,10.0,0.0,0.0,0.0,10.0,0.0,0.0,0.0,10.0
1446038357728016458,122,1446038357723007917,robocape_mag,20.4,-25.5,27.15,10.0,0.0,0.0,0.0,10.0,0.0,0.0,0.0,10.0
1446038357761936292,123,1446038357757036924,robocape_mag,20.4,-25.5,27.15,10.0,0.0,0.0,0.0,10.0,0.0,0.0,0.0,10.0
1446038357794732375,124,1446038357789690971,robocape_mag,20.4,-25.5,27.15,10.0,0.0,0.0,0.0,10.0,0.0,0.0,0.0,10.0
1446038357827860458,125,1446038357823050022,robocape_mag,20.4,-25.5,27.15,10.0,0.0,0.0,0.0,10.0,0.0,0.0,0.0,10.0
1446038357861888042,126,1446038357856997966,robocape_mag,20.4,-25.5,27.15,10.0,0.0,0.0,0.0,10.0,0.0,0.0,0.0,10.0
1446038357894746958,127,1446038357889791011,robocape_mag,20.7,-24.0,28.05,10.0,0.0,0.0,0.0,10.0,0.0,0.0,0.0,10.0
1446038357928177833,128,1446038357923460006,robocape_mag,20.7,-24.0,28.05,10.0,0.0,0.0,0.0,10.0,0.0,0.0,0.0,10.0
1446038357961655375,129,1446038357956902027,robocape_mag,20.7,-24.0,28.05,10.0,0.0,0.0,0.0,10.0,0.0,0.0,0.0,10.0
1446038357994739875,130,1446038357989716053,robocape_mag,20.7,-24.0,28.05,10.0,0.0,0.0,0.0,10.0,0.0,0.0,0.0,10.0
1446038358028315292,131,1446038358023354053,robocape_mag,20.7,-24.0,28.05,10.0,0.0,0.0,0.0,10.0,0.0,0.0,0.0,10.0
1446038358061926750,132,1446038358057090997,robocape_mag,21.6,-24.3,28.35,10.0,0.0,0.0,0.0,10.0,0.0,0.0,0.0,10.0
1446038358095067125,133,1446038358089965105,robocape_mag,21.6,-24.3,28.35,10.0,0.0,0.0,0.0,10.0,0.0,0.0,0.0,10.0
1446038358129249250,134,1446038358124495029,robocape_mag,21.6,-24.3,28.35,10.0,0.0,0.0,0.0,10.0,0.0,0.0,0.0,10.0
1446038358161954542,135,1446038358157035112,robocape_mag,21.6,-24.3,28.35,10.0,0.0,0.0,0.0,10.0,0.0,0.0,0.0,10.0
1446038358194664250,136,1446038358189857959,robocape_mag,20.4,-24.3,29.55,10.0,0.0,0.0,0.0,10.0,0.0,0.0,0.0,10.0
1446038358228220625,137,1446038358223278045,robocape_mag,20.4,-24.3,29.55,10.0,0.0,0.0,0.0,10.0,0.0,0.0,0.0,10.0
1446038358262057000,138,1446038358257262945,robocape_mag,20.4,-24.3,29.55,10.0,0.0,0.0,0.0,10.0,0.0,0.0,0.0,10.0
1446038358294788625,139,1446038358289722919,robocape_mag,20.4,-24.3,29.55,10.0,0.0,0.0,0.0,10.0,0.0,0.0,0.0,10.0
1446038358327837167,140,1446038358323158025,robocape_mag,20.4,-24.3,29.55,10.0,0.0,0.0,0.0,10.0,0.0,0.0,0.0,10.0
1446038358361740792,141,1446038358356928110,robocape_mag,21.6,-24.3,28.35,10.0,0.0,0.0,0.0,10.0,0.0,0.0,0.0,10.0
1446038358394741250,142,1446038358389856100,robocape_mag,21.6,-24.3,28.35,10.0,0.0,0.0,0.0,10.0,0.0,0.0,0.0,10.0
1446038358434711667,143,1446038358429832935,robocape_mag,21.6,-24.3,28.35,10.0,0.0,0.0,0.0,10.0,0.0,0.0,0.0,10.0
1446038358461909584,144,1446038358456645965,robocape_mag,21.6,-24.3,28.35,10.0,0.0,0.0,0.0,10.0,0.0,0.0,0.0,10.0
1446038358494698875,145,1446038358489706993,robocape_mag,21.6,-24.3,28.35,10.0,0.0,0.0,0.0,10.0,0.0,0.0,0.0,10.0
1446038358527914292,146,1446038358523068904,robocape_mag,20.7,-26.4,28.05,10.0,0.0,0.0,0.0,10.0,0.0,0.0,0.0,10.0
1446038358561870584,147,1446038358556653976,robocape_mag,20.7,-26.4,28.05,10.0,0.0,0.0,0.0,10.0,0.0,0.0,0.0,10.0
1446038358594749459,148,1446038358589761018,robocape_mag,20.7,-26.4,28.05,10.0,0.0,0.0,0.0,10.0,0.0,0.0,0.0,10.0
1446038358628066084,149,1446038358622977972,robocape_mag,20.7,-26.4,28.05,10.0,0.0,0.0,0.0,10.0,0.0,0.0,0.0,10.0
1446038358661765959,150,1446038358656543970,robocape_mag,20.7,-26.4,28.05,10.0,0.0,0.0,0.0,10.0,0.0,0.0,0.0,10.0
1446038358694679667,151,1446038358689752101,robocape_mag,21.0,-24.9,28.95,10.0,0.0,0.0,0.0,10.0,0.0,0.0,0.0,10.0
1446038358727919709,152,1446038358722985982,robocape_mag,21.0,-24.9,28.95,10.0,0.0,0.0,0.0,10.0,0.0,0.0,0.0,10.0
1446038358761846459,153,1446038358756541967,robocape_mag,21.0,-24.9,28.95,10.0,0.0,0.0,0.0,10.0,0.0,0.0,0.0,10.0
1446038358794724334,154,1446038358789777994,robocape_mag,21.0,-24.9,28.95,10.0,0.0,0.0,0.0,10.0,0.0,0.0,0.0,10.0
1446038358827998709,155,1446038358823175907,robocape_mag,21.0,-24.9,28.95,10.0,0.0,0.0,0.0,10.0,0.0,0.0,0.0,10.0
1446038358861724334,156,1446038358856544017,robocape_mag,21.3,-24.0,28.05,10.0,0.0,0.0,0.0,10.0,0.0,0.0,0.0,10.0
1446038358894801542,157,1446038358889782905,robocape_mag,21.3,-24.0,28.05,10.0,0.0,0.0,0.0,10.0,0.0,0.0,0.0,10.0
1446038358928204084,158,1446038358923367977,robocape_mag,21.3,-24.0,28.05,10.0,0.0,0.0,0.0,10.0,0.0,0.0,0.0,10.0
1446038358961612959,159,1446038358956466913,robocape_mag,21.3,-24.0,28.05,10.0,0.0,0.0,0.0,10.0,0.0,0.0,0.0,10.0
1446038358994919667,160,1446038358990026950,robocape_mag,21.3,-25.2,29.85,10.0,0.0,0.0,0.0,10.0,0.0,0.0,0.0,10.0
1446038359028078709,161,1446038359023185968,robocape_mag,21.3,-25.2,29.85,10.0,0.0,0.0,0.0,10.0,0.0,0.0,0.0,10.0
1446038359061811417,162,1446038359056622028,robocape_mag,21.3,-25.2,29.85,10.0,0.0,0.0,0.0,10.0,0.0,0.0,0.0,10.0
1446038359095130751,163,1446038359089997053,robocape_mag,21.3,-25.2,29.85,10.0,0.0,0.0,0.0,10.0,0.0,0.0,0.0,10.0
1446038359128125876,164,1446038359122970104,robocape_mag,21.3,-25.2,29.85,10.0,0.0,0.0,0.0,10.0,0.0,0.0,0.0,10.0
1446038359162067959,165,1446038359156883001,robocape_mag,21.3,-24.6,28.05,10.0,0.0,0.0,0.0,10.0,0.0,0.0,0.0,10.0
1446038359195716501,166,1446038359189765930,robocape_mag,21.3,-24.6,28.05,10.0,0.0,0.0,0.0,10.0,0.0,0.0,0.0,10.0
1446038359228034251,167,1446038359223053932,robocape_mag,21.3,-24.6,28.05,10.0,0.0,0.0,0.0,10.0,0.0,0.0,0.0,10.0
1446038359262165501,168,1446038359256659030,robocape_mag,21.3,-24.6,28.05,10.0,0.0,0.0,0.0,10.0,0.0,0.0,0.0,10.0
1446038359301372209,169,1446038359296489953,robocape_mag,21.3,-24.6,28.05,10.0,0.0,0.0,0.0,10.0,0.0,0.0,0.0,10.0
1446038359327991292,170,1446038359323157072,robocape_mag,19.8,-23.1,30.75,10.0,0.0,0.0,0.0,10.0,0.0,0.0,0.0,10.0
1446038359362399376,171,1446038359356874942,robocape_mag,19.8,-23.1,30.75,10.0,0.0,0.0,0.0,10.0,0.0,0.0,0.0,10.0
1446038359394533292,172,1446038359389847993,robocape_mag,19.8,-23.1,30.75,10.0,0.0,0.0,0.0,10.0,0.0,0.0,0.0,10.0
1446038359437539209,173,1446038359432622909,robocape_mag,19.8,-23.1,30.75,10.0,0.0,0.0,0.0,10.0,0.0,0.0,0.0,10.0
1446038359461685792,174,1446038359456959009,robocape_mag,19.8,-23.1,30.75,10.0,0.0,0.0,0.0,10.0,0.0,0.0,0.0,10.0
1446038359494634626,175,1446038359489831924,robocape_mag,21.6,-24.9,28.95,10.0,0.0,0.0,0.0,10.0,0.0,0.0,0.0,10.0
1446038359527785251,176,1446038359523109912,robocape_mag,21.6,-24.9,28.95,10.0,0.0,0.0,0.0,10.0,0.0,0.0,0.0,10.0
1446038359561339667,177,1446038359556582927,robocape_mag,21.6,-24.9,28.95,10.0,0.0,0.0,0.0,10.0,0.0,0.0,0.0,10.0
1446038359594726584,178,1446038359589900016,robocape_mag,21.6,-24.9,28.95,10.0,0.0,0.0,0.0,10.0,0.0,0.0,0.0,10.0
1446038359627743001,179,1446038359622978925,robocape_mag,21.6,-24.9,28.95,10.0,0.0,0.0,0.0,10.0,0.0,0.0,0.0,10.0
1446038359661891459,180,1446038359656907081,robocape_mag,20.7,-25.2,29.25,10.0,0.0,0.0,0.0,10.0,0.0,0.0,0.0,10.0
1446038359694594209,181,1446038359689698934,robocape_mag,20.7,-25.2,29.25,10.0,0.0,0.0,0.0,10.0,0.0,0.0,0.0,10.0
1446038359727864668,182,1446038359723081111,robocape_mag,20.7,-25.2,29.25,10.0,0.0,0.0,0.0,10.0,0.0,0.0,0.0,10.0
1446038359761845209,183,1446038359756875991,robocape_mag,20.7,-25.2,29.25,10.0,0.0,0.0,0.0,10.0,0.0,0.0,0.0,10.0
1446038359794696918,184,1446038359789668083,robocape_mag,21.6,-24.9,28.95,10.0,0.0,0.0,0.0,10.0,0.0,0.0,0.0,10.0
1446038359828045168,185,1446038359823148012,robocape_mag,21.6,-24.9,28.95,10.0,0.0,0.0,0.0,10.0,0.0,0.0,0.0,10.0
1446038359863536959,186,1446038359858336925,robocape_mag,21.6,-24.9,28.95,10.0,0.0,0.0,0.0,10.0,0.0,0.0,0.0,10.0
1446038359894469334,187,1446038359889750957,robocape_mag,21.6,-24.9,28.95,10.0,0.0,0.0,0.0,10.0,0.0,0.0,0.0,10.0
1446038359928454459,188,1446038359923692941,robocape_mag,21.6,-24.9,28.95,10.0,0.0,0.0,0.0,10.0,0.0,0.0,0.0,10.0
1446038359961664084,189,1446038359956778049,robocape_mag,21.9,-25.8,28.05,10.0,0.0,0.0,0.0,10.0,0.0,0.0,0.0,10.0
1446038359994541709,190,1446038359989825963,robocape_mag,21.9,-25.8,28.05,10.0,0.0,0.0,0.0,10.0,0.0,0.0,0.0,10.0
1446038360027951001,191,1446038360023166894,robocape_mag,21.9,-25.8,28.05,10.0,0.0,0.0,0.0,10.0,0.0,0.0,0.0,10.0
1446038360061787168,192,1446038360056634902,robocape_mag,21.9,-25.8,28.05,10.0,0.0,0.0,0.0,10.0,0.0,0.0,0.0,10.0
1446038360094511334,193,1446038360089807033,robocape_mag,21.9,-25.8,28.05,10.0,0.0,0.0,0.0,10.0,0.0,0.0,0.0,10.0
1446038360128106668,194,1446038360123142957,robocape_mag,21.3,-25.8,26.25,10.0,0.0,0.0,0.0,10.0,0.0,0.0,0.0,10.0
1446038360161887084,195,1446038360156583070,robocape_mag,21.3,-25.8,26.25,10.0,0.0,0.0,0.0,10.0,0.0,0.0,0.0,10.0
1446038360195808084,196,1446038360191163063,robocape_mag,21.3,-25.8,26.25,10.0,0.0,0.0,0.0,10.0,0.0,0.0,0.0,10.0
1446038360228515709,197,1446038360223401069,robocape_mag,21.3,-25.8,26.25,10.0,0.0,0.0,0.0,10.0,0.0,0.0,0.0,10.0
1446038360261862376,198,1446038360256563901,robocape_mag,21.3,-25.8,26.25,10.0,0.0,0.0,0.0,10.0,0.0,0.0,0.0,10.0
1446038360294958001,199,1446038360290179014,robocape_mag,21.3,-24.6,28.65,10.0,0.0,0.0,0.0,10.0,0.0,0.0,0.0,10.0
1446038360328304543,200,1446038360323458909,robocape_mag,21.3,-24.6,28.65,10.0,0.0,0.0,0.0,10.0,0.0,0.0,0.0,10.0
1446038360361804459,201,1446038360356528997,robocape_mag,21.3,-24.6,28.65,10.0,0.0,0.0,0.0,10.0,0.0,0.0,0.0,10.0
1446038360394475001,202,1446038360389763116,robocape_mag,21.3,-24.6,28.65,10.0,0.0,0.0,0.0,10.0,0.0,0.0,0.0,10.0
1446038360432590960,203,1446038360427709102,robocape_mag,21.0,-25.5,28.95,10.0,0.0,0.0,0.0,10.0,0.0,0.0,0.0,10.0
1446038360461737126,204,1446038360456708908,robocape_mag,21.0,-25.5,28.95,10.0,0.0,0.0,0.0,10.0,0.0,0.0,0.0,10.0
1446038360494507876,205,1446038360489787101,robocape_mag,21.0,-25.5,28.95,10.0,0.0,0.0,0.0,10.0,0.0,0.0,0.0,10.0
1446038360528356918,206,1446038360523350000,robocape_mag,21.0,-25.5,28.95,10.0,0.0,0.0,0.0,10.0,0.0,0.0,0.0,10.0
1446038360562005876,207,1446038360556633949,robocape_mag,21.0,-25.5,28.95,10.0,0.0,0.0,0.0,10.0,0.0,0.0,0.0,10.0
1446038360594475335,208,1446038360589765071,robocape_mag,22.2,-24.9,29.55,10.0,0.0,0.0,0.0,10.0,0.0,0.0,0.0,10.0
1446038360629462585,209,1446038360623361110,robocape_mag,22.2,-24.9,29.55,10.0,0.0,0.0,0.0,10.0,0.0,0.0,0.0,10.0
1446038360661888668,210,1446038360656593084,robocape_mag,22.2,-24.9,29.55,10.0,0.0,0.0,0.0,10.0,0.0,0.0,0.0,10.0
1446038360694576668,211,1446038360689796924,robocape_mag,22.2,-24.9,29.55,10.0,0.0,0.0,0.0,10.0,0.0,0.0,0.0,10.0
1446038360727782418,212,1446038360723026990,robocape_mag,22.2,-24.9,29.55,10.0,0.0,0.0,0.0,10.0,0.0,0.0,0.0,10.0
1446038360761921418,213,1446038360756655931,robocape_mag,21.6,-26.7,28.35,10.0,0.0,0.0,0.0,10.0,0.0,0.0,0.0,10.0
1446038360795568668,214,1446038360789716958,robocape_mag,21.6,-26.7,28.35,10.0,0.0,0.0,0.0,10.0,0.0,0.0,0.0,10.0
1446038360828081001,215,1446038360823169946,robocape_mag,21.6,-26.7,28.35,10.0,0.0,0.0,0.0,10.0,0.0,0.0,0.0,10.0
1446038360861837001,216,1446038360856410026,robocape_mag,21.6,-26.7,28.35,10.0,0.0,0.0,0.0,10.0,0.0,0.0,0.0,10.0
1446038360894573668,217,1446038360889833927,robocape_mag,21.6,-26.7,28.35,10.0,0.0,0.0,0.0,10.0,0.0,0.0,0.0,10.0
1446038360928386126,218,1446038360923433065,robocape_mag,21.6,-24.9,28.35,10.0,0.0,0.0,0.0,10.0,0.0,0.0,0.0,10.0
1446038360962080793,219,1446038360956657886,robocape_mag,21.6,-24.9,28.35,10.0,0.0,0.0,0.0,10.0,0.0,0.0,0.0,10.0
1446038360994533793,220,1446038360989830970,robocape_mag,21.6,-24.9,28.35,10.0,0.0,0.0,0.0,10.0,0.0,0.0,0.0,10.0
1446038361027903043,221,1446038361023014068,robocape_mag,21.6,-24.9,28.35,10.0,0.0,0.0,0.0,10.0,0.0,0.0,0.0,10.0
1446038361061682960,222,1446038361056627988,robocape_mag,21.6,-24.9,28.35,10.0,0.0,0.0,0.0,10.0,0.0,0.0,0.0,10.0
1446038361094533293,223,1446038361089761018,robocape_mag,20.4,-24.3,28.35,10.0,0.0,0.0,0.0,10.0,0.0,0.0,0.0,10.0
1446038361128338960,224,1446038361123277902,robocape_mag,20.4,-24.3,28.35,10.0,0.0,0.0,0.0,10.0,0.0,0.0,0.0,10.0
1446038361161862835,225,1446038361156631946,robocape_mag,20.4,-24.3,28.35,10.0,0.0,0.0,0.0,10.0,0.0,0.0,0.0,10.0
1446038361196403627,226,1446038361189791917,robocape_mag,20.4,-24.3,28.35,10.0,0.0,0.0,0.0,10.0,0.0,0.0,0.0,10.0
1446038361227939335,227,1446038361223021984,robocape_mag,20.4,-24.3,28.35,10.0,0.0,0.0,0.0,10.0,0.0,0.0,0.0,10.0
1446038361262088918,228,1446038361256757020,robocape_mag,20.1,-25.8,30.45,10.0,0.0,0.0,0.0,10.0,0.0,0.0,0.0,10.0
1446038361296663085,229,1446038361289953947,robocape_mag,20.1,-25.8,30.45,10.0,0.0,0.0,0.0,10.0,0.0,0.0,0.0,10.0
1446038361327985835,230,1446038361323256015,robocape_mag,20.1,-25.8,30.45,10.0,0.0,0.0,0.0,10.0,0.0,0.0,0.0,10.0
1446038361362317418,231,1446038361356558084,robocape_mag,20.1,-25.8,30.45,10.0,0.0,0.0,0.0,10.0,0.0,0.0,0.0,10.0
1446038361394609168,232,1446038361389863014,robocape_mag,21.6,-26.1,28.95,10.0,0.0,0.0,0.0,10.0,0.0,0.0,0.0,10.0
1446038361433645835,233,1446038361428863048,robocape_mag,21.6,-26.1,28.95,10.0,0.0,0.0,0.0,10.0,0.0,0.0,0.0,10.0
1446038361461683543,234,1446038361456599950,robocape_mag,21.6,-26.1,28.95,10.0,0.0,0.0,0.0,10.0,0.0,0.0,0.0,10.0
1446038361494850335,235,1446038361490130901,robocape_mag,21.6,-26.1,28.95,10.0,0.0,0.0,0.0,10.0,0.0,0.0,0.0,10.0
1446038361528118627,236,1446038361523364067,robocape_mag,21.6,-26.1,28.95,10.0,0.0,0.0,0.0,10.0,0.0,0.0,0.0,10.0
1446038361563187293,237,1446038361556582927,robocape_mag,19.8,-25.5,28.35,10.0,0.0,0.0,0.0,10.0,0.0,0.0,0.0,10.0
1446038361594458418,238,1446038361589777946,robocape_mag,19.8,-25.5,28.35,10.0,0.0,0.0,0.0,10.0,0.0,0.0,0.0,10.0
1446038361627780752,239,1446038361623095989,robocape_mag,19.8,-25.5,28.35,10.0,0.0,0.0,0.0,10.0,0.0,0.0,0.0,10.0
1446038361662200668,240,1446038361656963109,robocape_mag,19.8,-25.5,28.35,10.0,0.0,0.0,0.0,10.0,0.0,0.0,0.0,10.0
1446038361694800918,241,1446038361690015077,robocape_mag,19.8,-25.5,28.35,10.0,0.0,0.0,0.0,10.0,0.0,0.0,0.0,10.0
1446038361727832877,242,1446038361723048925,robocape_mag,22.2,-24.3,28.95,10.0,0.0,0.0,0.0,10.0,0.0,0.0,0.0,10.0
1446038361761852043,243,1446038361756654024,robocape_mag,22.2,-24.3,28.95,10.0,0.0,0.0,0.0,10.0,0.0,0.0,0.0,10.0
1446038361795027668,244,1446038361790255069,robocape_mag,22.2,-24.3,28.95,10.0,0.0,0.0,0.0,10.0,0.0,0.0,0.0,10.0
1446038361828179669,245,1446038361823369026,robocape_mag,22.2,-24.3,28.95,10.0,0.0,0.0,0.0,10.0,0.0,0.0,0.0,10.0
1446038361863937127,246,1446038361858000040,robocape_mag,22.2,-24.3,28.95,10.0,0.0,0.0,0.0,10.0,0.0,0.0,0.0,10.0
1446038361894628294,247,1446038361889880895,robocape_mag,20.4,-26.1,27.15,10.0,0.0,0.0,0.0,10.0,0.0,0.0,0.0,10.0
1446038361928308335,248,1446038361923408031,robocape_mag,20.4,-26.1,27.15,10.0,0.0,0.0,0.0,10.0,0.0,0.0,0.0,10.0
1446038361962050210,249,1446038361956650018,robocape_mag,20.4,-26.1,27.15,10.0,0.0,0.0,0.0,10.0,0.0,0.0,0.0,10.0
1446038361994644210,250,1446038361989907979,robocape_mag,20.4,-26.1,27.15,10.0,0.0,0.0,0.0,10.0,0.0,0.0,0.0,10.0
1446038362029153377,251,1446038362024199008,robocape_mag,20.4,-26.1,27.15,10.0,0.0,0.0,0.0,10.0,0.0,0.0,0.0,10.0
1446038362061945085,252,1446038362056583881,robocape_mag,21.3,-25.2,29.85,10.0,0.0,0.0,0.0,10.0,0.0,0.0,0.0,10.0
1446038362094516919,253,1446038362089792966,robocape_mag,21.3,-25.2,29.85,10.0,0.0,0.0,0.0,10.0,0.0,0.0,0.0,10.0
1446038362128631252,254,1446038362123703956,robocape_mag,21.3,-25.2,29.85,10.0,0.0,0.0,0.0,10.0,0.0,0.0,0.0,10.0
1446038362161975335,255,1446038362156649112,robocape_mag,21.3,-25.2,29.85,10.0,0.0,0.0,0.0,10.0,0.0,0.0,0.0,10.0
1446038362194572085,256,1446038362189822912,robocape_mag,20.7,-24.0,29.25,10.0,0.0,0.0,0.0,10.0,0.0,0.0,0.0,10.0
1446038362227860377,257,1446038362223058938,robocape_mag,20.7,-24.0,29.25,10.0,0.0,0.0,0.0,10.0,0.0,0.0,0.0,10.0
1446038362262074752,258,1446038362256881952,robocape_mag,20.7,-24.0,29.25,10.0,0.0,0.0,0.0,10.0,0.0,0.0,0.0,10.0
1446038362294681210,259,1446038362289768934,robocape_mag,20.7,-24.0,29.25,10.0,0.0,0.0,0.0,10.0,0.0,0.0,0.0,10.0
1446038362327957960,260,1446038362323156118,robocape_mag,20.7,-24.0,29.25,10.0,0.0,0.0,0.0,10.0,0.0,0.0,0.0,10.0
1446038362362068752,261,1446038362356870889,robocape_mag,21.3,-24.6,29.25,10.0,0.0,0.0,0.0,10.0,0.0,0.0,0.0,10.0
1446038362401742960,262,1446038362396629095,robocape_mag,21.3,-24.6,29.25,10.0,0.0,0.0,0.0,10.0,0.0,0.0,0.0,10.0
1446038362443470877,263,1446038362438572883,robocape_mag,21.3,-24.6,29.25,10.0,0.0,0.0,0.0,10.0,0.0,0.0,0.0,10.0
1446038362478652210,264,1446038362473134040,robocape_mag,21.3,-24.6,29.25,10.0,0.0,0.0,0.0,10.0,0.0,0.0,0.0,10.0
1446038362510244419,265,1446038362505244016,robocape_mag,21.3,-24.6,28.05,10.0,0.0,0.0,0.0,10.0,0.0,0.0,0.0,10.0
1446038362541057544,266,1446038362536205053,robocape_mag,20.7,-26.4,28.05,10.0,0.0,0.0,0.0,10.0,0.0,0.0,0.0,10.0
1446038362573263461,267,1446038362567913055,robocape_mag,20.7,-26.4,28.05,10.0,0.0,0.0,0.0,10.0,0.0,0.0,0.0,10.0
1446038362605856211,268,1446038362600871086,robocape_mag,20.7,-26.4,28.05,10.0,0.0,0.0,0.0,10.0,0.0,0.0,0.0,10.0
1446038362641162086,269,1446038362633874893,robocape_mag,20.7,-26.4,28.05,10.0,0.0,0.0,0.0,10.0,0.0,0.0,0.0,10.0
1446038362672808877,270,1446038362667588949,robocape_mag,23.4,-24.9,29.55,10.0,0.0,0.0,0.0,10.0,0.0,0.0,0.0,10.0
1446038362704722169,271,1446038362699796915,robocape_mag,23.4,-24.9,29.55,10.0,0.0,0.0,0.0,10.0,0.0,0.0,0.0,10.0
1446038362727809086,272,1446038362723032951,robocape_mag,23.4,-24.9,29.55,10.0,0.0,0.0,0.0,10.0,0.0,0.0,0.0,10.0
1446038362761681877,273,1446038362756603956,robocape_mag,23.4,-24.9,29.55,10.0,0.0,0.0,0.0,10.0,0.0,0.0,0.0,10.0
1446038362794762002,274,1446038362790044069,robocape_mag,23.4,-24.9,29.55,10.0,0.0,0.0,0.0,10.0,0.0,0.0,0.0,10.0
1446038362827960877,275,1446038362823247909,robocape_mag,23.4,-24.9,29.55,10.0,0.0,0.0,0.0,10.0,0.0,0.0,0.0,10.0
1446038362861816044,276,1446038362856880903,robocape_mag,22.2,-25.5,28.35,10.0,0.0,0.0,0.0,10.0,0.0,0.0,0.0,10.0
1446038362895169544,277,1446038362890324115,robocape_mag,22.2,-25.5,28.35,10.0,0.0,0.0,0.0,10.0,0.0,0.0,0.0,10.0
1446038362928507586,278,1446038362923435926,robocape_mag,22.2,-25.5,28.35,10.0,0.0,0.0,0.0,10.0,0.0,0.0,0.0,10.0
1446038362961597252,279,1446038362956722974,robocape_mag,22.2,-25.5,28.35,10.0,0.0,0.0,0.0,10.0,0.0,0.0,0.0,10.0
1446038362995207336,280,1446038362990366935,robocape_mag,21.9,-25.8,28.05,10.0,0.0,0.0,0.0,10.0,0.0,0.0,0.0,10.0
1446038363028317377,281,1446038363023294925,robocape_mag,21.9,-25.8,28.05,10.0,0.0,0.0,0.0,10.0,0.0,0.0,0.0,10.0
1446038363061634127,282,1446038363056719064,robocape_mag,21.9,-25.8,28.05,10.0,0.0,0.0,0.0,10.0,0.0,0.0,0.0,10.0
1446038363094977627,283,1446038363090157985,robocape_mag,21.9,-25.8,28.05,10.0,0.0,0.0,0.0,10.0,0.0,0.0,0.0,10.0
1446038363128202169,284,1446038363123199939,robocape_mag,21.9,-25.8,28.05,10.0,0.0,0.0,0.0,10.0,0.0,0.0,0.0,10.0
1446038363161464419,285,1446038363156502962,robocape_mag,21.9,-24.6,29.25,10.0,0.0,0.0,0.0,10.0,0.0,0.0,0.0,10.0
1446038363195219044,286,1446038363190386056,robocape_mag,21.9,-24.6,29.25,10.0,0.0,0.0,0.0,10.0,0.0,0.0,0.0,10.0
1446038363228016503,287,1446038363223105907,robocape_mag,21.9,-24.6,29.25,10.0,0.0,0.0,0.0,10.0,0.0,0.0,0.0,10.0
1446038363261571711,288,1446038363256740093,robocape_mag,21.9,-24.6,29.25,10.0,0.0,0.0,0.0,10.0,0.0,0.0,0.0,10.0
1446038363295188669,289,1446038363290397882,robocape_mag,21.9,-24.6,29.25,10.0,0.0,0.0,0.0,10.0,0.0,0.0,0.0,10.0
1446038363328275419,290,1446038363323163986,robocape_mag,21.9,-25.2,28.05,10.0,0.0,0.0,0.0,10.0,0.0,0.0,0.0,10.0
1446038363362044086,291,1446038363356901884,robocape_mag,21.9,-25.2,28.05,10.0,0.0,0.0,0.0,10.0,0.0,0.0,0.0,10.0
1446038363394833628,292,1446038363390069007,robocape_mag,21.9,-25.2,28.05,10.0,0.0,0.0,0.0,10.0,0.0,0.0,0.0,10.0
1446038363431484419,293,1446038363426278114,robocape_mag,21.9,-25.2,28.05,10.0,0.0,0.0,0.0,10.0,0.0,0.0,0.0,10.0
1446038363461546086,294,1446038363456676959,robocape_mag,21.9,-25.2,28.05,10.0,0.0,0.0,0.0,10.0,0.0,0.0,0.0,10.0
1446038363495420836,295,1446038363490392923,robocape_mag,21.0,-25.5,27.15,10.0,0.0,0.0,0.0,10.0,0.0,0.0,0.0,10.0
1446038363531796419,296,1446038363524951934,robocape_mag,21.0,-25.5,27.15,10.0,0.0,0.0,0.0,10.0,0.0,0.0,0.0,10.0
1446038363563825836,297,1446038363558751106,robocape_mag,21.0,-25.5,27.15,10.0,0.0,0.0,0.0,10.0,0.0,0.0,0.0,10.0
1446038363596258753,298,1446038363591341972,robocape_mag,21.0,-25.5,27.15,10.0,0.0,0.0,0.0,10.0,0.0,0.0,0.0,10.0
1446038363628995461,299,1446038363623820066,robocape_mag,21.0,-25.5,27.15,10.0,0.0,0.0,0.0,10.0,0.0,0.0,0.0,10.0
1446038363666322378,300,1446038363657479047,robocape_mag,21.0,-24.3,28.95,10.0,0.0,0.0,0.0,10.0,0.0,0.0,0.0,10.0
1446038363695649128,301,1446038363690773010,robocape_mag,21.0,-24.3,28.95,10.0,0.0,0.0,0.0,10.0,0.0,0.0,0.0,10.0
1446038363730485669,302,1446038363725389957,robocape_mag,21.0,-24.3,28.95,10.0,0.0,0.0,0.0,10.0,0.0,0.0,0.0,10.0
1446038363763838294,303,1446038363758852958,robocape_mag,21.0,-24.3,28.95,10.0,0.0,0.0,0.0,10.0,0.0,0.0,0.0,10.0
1446038363796948628,304,1446038363792135953,robocape_mag,22.2,-24.9,29.55,10.0,0.0,0.0,0.0,10.0,0.0,0.0,0.0,10.0
1446038363828092961,305,1446038363823353052,robocape_mag,22.2,-24.9,29.55,10.0,0.0,0.0,0.0,10.0,0.0,0.0,0.0,10.0
1446038363861658544,306,1446038363856739997,robocape_mag,22.2,-24.9,29.55,10.0,0.0,0.0,0.0,10.0,0.0,0.0,0.0,10.0
1446038363895101003,307,1446038363890348911,robocape_mag,22.2,-24.9,29.55,10.0,0.0,0.0,0.0,10.0,0.0,0.0,0.0,10.0
1446038363928459545,308,1446038363923391103,robocape_mag,22.2,-24.9,29.55,10.0,0.0,0.0,0.0,10.0,0.0,0.0,0.0,10.0
1446038363961475128,309,1446038363956520080,robocape_mag,21.9,-24.6,28.65,10.0,0.0,0.0,0.0,10.0,0.0,0.0,0.0,10.0
1446038363995237420,310,1446038363990411996,robocape_mag,21.9,-24.6,28.65,10.0,0.0,0.0,0.0,10.0,0.0,0.0,0.0,10.0
1446038364027837586,311,1446038364023114919,robocape_mag,21.9,-24.6,28.65,10.0,0.0,0.0,0.0,10.0,0.0,0.0,0.0,10.0
1446038364061548128,312,1446038364056550979,robocape_mag,21.9,-24.6,28.65,10.0,0.0,0.0,0.0,10.0,0.0,0.0,0.0,10.0
1446038364096008961,313,1446038364090110063,robocape_mag,21.9,-24.6,28.65,10.0,0.0,0.0,0.0,10.0,0.0,0.0,0.0,10.0
1446038364128048170,314,1446038364123272895,robocape_mag,21.9,-27.0,29.25,10.0,0.0,0.0,0.0,10.0,0.0,0.0,0.0,10.0
1446038364161981836,315,1446038364156780004,robocape_mag,21.9,-27.0,29.25,10.0,0.0,0.0,0.0,10.0,0.0,0.0,0.0,10.0
1446038364195195420,316,1446038364190426111,robocape_mag,21.9,-27.0,29.25,10.0,0.0,0.0,0.0,10.0,0.0,0.0,0.0,10.0
1446038364228006128,317,1446038364223114967,robocape_mag,21.9,-27.0,29.25,10.0,0.0,0.0,0.0,10.0,0.0,0.0,0.0,10.0
1446038364261718795,318,1446038364256556987,robocape_mag,21.9,-27.0,29.25,10.0,0.0,0.0,0.0,10.0,0.0,0.0,0.0,10.0
1446038364295258128,319,1446038364290477037,robocape_mag,20.7,-25.2,29.25,10.0,0.0,0.0,0.0,10.0,0.0,0.0,0.0,10.0
1446038364328139378,320,1446038364323337078,robocape_mag,20.7,-25.2,29.25,10.0,0.0,0.0,0.0,10.0,0.0,0.0,0.0,10.0
1446038364362034086,321,1446038364356800079,robocape_mag,20.7,-25.2,29.25,10.0,0.0,0.0,0.0,10.0,0.0,0.0,0.0,10.0
1446038364394870420,322,1446038364390073060,robocape_mag,20.7,-25.2,29.25,10.0,0.0,0.0,0.0,10.0,0.0,0.0,0.0,10.0
1446038364432640045,323,1446038364427732944,robocape_mag,20.4,-26.7,28.35,10.0,0.0,0.0,0.0,10.0,0.0,0.0,0.0,10.0
1446038364462126586,324,1446038364456885099,robocape_mag,20.4,-26.7,28.35,10.0,0.0,0.0,0.0,10.0,0.0,0.0,0.0,10.0
1446038364497082128,325,1446038364492114067,robocape_mag,20.4,-26.7,28.35,10.0,0.0,0.0,0.0,10.0,0.0,0.0,0.0,10.0
1446038364529920836,326,1446038364524935960,robocape_mag,20.4,-26.7,28.35,10.0,0.0,0.0,0.0,10.0,0.0,0.0,0.0,10.0
1446038364563197878,327,1446038364557905912,robocape_mag,20.4,-26.7,28.35,10.0,0.0,0.0,0.0,10.0,0.0,0.0,0.0,10.0
1446038364596412795,328,1446038364591387033,robocape_mag,21.9,-24.6,27.45,10.0,0.0,0.0,0.0,10.0,0.0,0.0,0.0,10.0
1446038364628914545,329,1446038364624059915,robocape_mag,21.9,-24.6,27.45,10.0,0.0,0.0,0.0,10.0,0.0,0.0,0.0,10.0
1446038364662948920,330,1446038364657814979,robocape_mag,21.9,-24.6,27.45,10.0,0.0,0.0,0.0,10.0,0.0,0.0,0.0,10.0
1446038364696217253,331,1446038364691242933,robocape_mag,21.9,-24.6,27.45,10.0,0.0,0.0,0.0,10.0,0.0,0.0,0.0,10.0
1446038364729928003,332,1446038364724965095,robocape_mag,21.9,-24.6,27.45,10.0,0.0,0.0,0.0,10.0,0.0,0.0,0.0,10.0
1446038364765988378,333,1446038364757999897,robocape_mag,21.6,-24.9,28.35,10.0,0.0,0.0,0.0,10.0,0.0,0.0,0.0,10.0
1446038364796123545,334,1446038364791167020,robocape_mag,21.6,-24.9,28.35,10.0,0.0,0.0,0.0,10.0,0.0,0.0,0.0,10.0
1446038364828914128,335,1446038364823905944,robocape_mag,21.6,-24.9,28.35,10.0,0.0,0.0,0.0,10.0,0.0,0.0,0.0,10.0
1446038364863020837,336,1446038364857856988,robocape_mag,21.6,-24.9,28.35,10.0,0.0,0.0,0.0,10.0,0.0,0.0,0.0,10.0
1446038364896349920,337,1446038364891395092,robocape_mag,21.6,-24.9,28.35,10.0,0.0,0.0,0.0,10.0,0.0,0.0,0.0,10.0
1446038364930025795,338,1446038364924833059,robocape_mag,21.0,-24.9,28.95,10.0,0.0,0.0,0.0,10.0,0.0,0.0,0.0,10.0
1446038364967045587,339,1446038364957575082,robocape_mag,21.0,-24.9,28.95,10.0,0.0,0.0,0.0,10.0,0.0,0.0,0.0,10.0
1446038364995916962,340,1446038364991008996,robocape_mag,21.0,-24.9,28.95,10.0,0.0,0.0,0.0,10.0,0.0,0.0,0.0,10.0
1446038365029528545,341,1446038365024583101,robocape_mag,21.0,-24.9,28.95,10.0,0.0,0.0,0.0,10.0,0.0,0.0,0.0,10.0
1446038365062886545,342,1446038365057805061,robocape_mag,21.0,-24.9,28.95,10.0,0.0,0.0,0.0,10.0,0.0,0.0,0.0,10.0
1446038365097600920,343,1446038365092595100,robocape_mag,22.8,-24.9,28.35,10.0,0.0,0.0,0.0,10.0,0.0,0.0,0.0,10.0
1446038365130204503,344,1446038365125207901,robocape_mag,22.8,-24.9,28.35,10.0,0.0,0.0,0.0,10.0,0.0,0.0,0.0,10.0
1446038365164442753,345,1446038365157757997,robocape_mag,22.8,-24.9,28.35,10.0,0.0,0.0,0.0,10.0,0.0,0.0,0.0,10.0
1446038365196648628,346,1446038365191373109,robocape_mag,22.8,-24.9,28.35,10.0,0.0,0.0,0.0,10.0,0.0,0.0,0.0,10.0
1446038365228843962,347,1446038365223941087,robocape_mag,22.8,-24.9,28.35,10.0,0.0,0.0,0.0,10.0,0.0,0.0,0.0,10.0
1446038365262828253,348,1446038365257308959,robocape_mag,21.3,-25.8,30.45,10.0,0.0,0.0,0.0,10.0,0.0,0.0,0.0,10.0
1446038365300966670,349,1446038365292561054,robocape_mag,21.3,-25.8,30.45,10.0,0.0,0.0,0.0,10.0,0.0,0.0,0.0,10.0
1446038365335434337,350,1446038365330332994,robocape_mag,21.3,-25.8,30.45,10.0,0.0,0.0,0.0,10.0,0.0,0.0,0.0,10.0
1446038365367322087,351,1446038365362035989,robocape_mag,21.3,-25.8,30.45,10.0,0.0,0.0,0.0,10.0,0.0,0.0,0.0,10.0
1446038365399433379,352,1446038365394038915,robocape_mag,21.3,-24.0,28.05,10.0,0.0,0.0,0.0,10.0,0.0,0.0,0.0,10.0
1446038365441256129,353,1446038365436086893,robocape_mag,21.3,-24.0,28.05,10.0,0.0,0.0,0.0,10.0,0.0,0.0,0.0,10.0
1446038365475856920,354,1446038365470714092,robocape_mag,21.3,-24.0,28.05,10.0,0.0,0.0,0.0,10.0,0.0,0.0,0.0,10.0
1446038365499435462,355,1446038365494303941,robocape_mag,21.3,-24.0,28.05,10.0,0.0,0.0,0.0,10.0,0.0,0.0,0.0,10.0
1446038365528057129,356,1446038365523308992,robocape_mag,21.3,-24.0,28.05,10.0,0.0,0.0,0.0,10.0,0.0,0.0,0.0,10.0
1446038365561349045,357,1446038365556565046,robocape_mag,21.9,-25.8,29.85,10.0,0.0,0.0,0.0,10.0,0.0,0.0,0.0,10.0
1446038365594866504,358,1446038365589951992,robocape_mag,21.9,-25.8,29.85,10.0,0.0,0.0,0.0,10.0,0.0,0.0,0.0,10.0
1446038365628706004,359,1446038365623950958,robocape_mag,21.9,-25.8,29.85,10.0,0.0,0.0,0.0,10.0,0.0,0.0,0.0,10.0
1446038365661268504,360,1446038365656474113,robocape_mag,21.9,-25.8,29.85,10.0,0.0,0.0,0.0,10.0,0.0,0.0,0.0,10.0
1446038365695214879,361,1446038365690069913,robocape_mag,21.9,-25.8,29.85,10.0,0.0,0.0,0.0,10.0,0.0,0.0,0.0,10.0
1446038365727894420,362,1446038365723128080,robocape_mag,21.3,-26.4,28.65,10.0,0.0,0.0,0.0,10.0,0.0,0.0,0.0,10.0
1446038365761180379,363,1446038365756408929,robocape_mag,21.3,-26.4,28.65,10.0,0.0,0.0,0.0,10.0,0.0,0.0,0.0,10.0
1446038365795103629,364,1446038365789701938,robocape_mag,21.3,-26.4,28.65,10.0,0.0,0.0,0.0,10.0,0.0,0.0,0.0,10.0
1446038365828557170,365,1446038365823677062,robocape_mag,21.3,-26.4,28.65,10.0,0.0,0.0,0.0,10.0,0.0,0.0,0.0,10.0
1446038365861442754,366,1446038365856700897,robocape_mag,21.3,-26.4,28.65,10.0,0.0,0.0,0.0,10.0,0.0,0.0,0.0,10.0
1446038365895059045,367,1446038365889862060,robocape_mag,21.9,-25.8,29.25,10.0,0.0,0.0,0.0,10.0,0.0,0.0,0.0,10.0
1446038365928302879,368,1446038365923531055,robocape_mag,21.9,-25.8,29.25,10.0,0.0,0.0,0.0,10.0,0.0,0.0,0.0,10.0
1446038365961345254,369,1446038365956592082,robocape_mag,21.9,-25.8,29.25,10.0,0.0,0.0,0.0,10.0,0.0,0.0,0.0,10.0
1446038365995316295,370,1446038365989907026,robocape_mag,21.9,-25.8,29.25,10.0,0.0,0.0,0.0,10.0,0.0,0.0,0.0,10.0
1446038366027921629,371,1446038366023200988,robocape_mag,21.9,-25.8,29.25,10.0,0.0,0.0,0.0,10.0,0.0,0.0,0.0,10.0
1446038366061236296,372,1446038366056504011,robocape_mag,20.4,-27.3,28.95,10.0,0.0,0.0,0.0,10.0,0.0,0.0,0.0,10.0
1446038366094865587,373,1446038366089768886,robocape_mag,20.4,-27.3,28.95,10.0,0.0,0.0,0.0,10.0,0.0,0.0,0.0,10.0
1446038366127920629,374,1446038366123116970,robocape_mag,20.4,-27.3,28.95,10.0,0.0,0.0,0.0,10.0,0.0,0.0,0.0,10.0
1446038366161478379,375,1446038366156534910,robocape_mag,20.4,-27.3,28.95,10.0,0.0,0.0,0.0,10.0,0.0,0.0,0.0,10.0
1446038366195302296,376,1446038366189851999,robocape_mag,22.5,-25.2,28.65,10.0,0.0,0.0,0.0,10.0,0.0,0.0,0.0,10.0
1446038366228658712,377,1446038366223642110,robocape_mag,22.5,-25.2,28.65,10.0,0.0,0.0,0.0,10.0,0.0,0.0,0.0,10.0
1446038366261424837,378,1446038366256361961,robocape_mag,22.5,-25.2,28.65,10.0,0.0,0.0,0.0,10.0,0.0,0.0,0.0,10.0
1446038366295319546,379,1446038366289792060,robocape_mag,22.5,-25.2,28.65,10.0,0.0,0.0,0.0,10.0,0.0,0.0,0.0,10.0
1446038366329074712,380,1446038366324171066,robocape_mag,22.5,-25.2,28.65,10.0,0.0,0.0,0.0,10.0,0.0,0.0,0.0,10.0
1446038366361407796,381,1446038366356528997,robocape_mag,21.6,-25.5,30.75,10.0,0.0,0.0,0.0,10.0,0.0,0.0,0.0,10.0
1446038366395097546,382,1446038366389902114,robocape_mag,21.6,-25.5,30.75,10.0,0.0,0.0,0.0,10.0,0.0,0.0,0.0,10.0
1446038366432294879,383,1446038366427181005,robocape_mag,21.6,-25.5,30.75,10.0,0.0,0.0,0.0,10.0,0.0,0.0,0.0,10.0
1446038366461320129,384,1446038366456422090,robocape_mag,21.6,-25.5,30.75,10.0,0.0,0.0,0.0,10.0,0.0,0.0,0.0,10.0
1446038366495064962,385,1446038366489689111,robocape_mag,21.6,-25.5,30.75,10.0,0.0,0.0,0.0,10.0,0.0,0.0,0.0,10.0
1446038366528077962,386,1446038366523365020,robocape_mag,20.7,-27.0,29.25,10.0,0.0,0.0,0.0,10.0,0.0,0.0,0.0,10.0
1446038366561290504,387,1446038366556377887,robocape_mag,20.7,-27.0,29.25,10.0,0.0,0.0,0.0,10.0,0.0,0.0,0.0,10.0
1446038366595360504,388,1446038366589792013,robocape_mag,20.7,-27.0,29.25,10.0,0.0,0.0,0.0,10.0,0.0,0.0,0.0,10.0
1446038366629588171,389,1446038366623316049,robocape_mag,20.7,-27.0,29.25,10.0,0.0,0.0,0.0,10.0,0.0,0.0,0.0,10.0
1446038366661456629,390,1446038366656316995,robocape_mag,20.7,-27.0,29.25,10.0,0.0,0.0,0.0,10.0,0.0,0.0,0.0,10.0
1446038366695711671,391,1446038366690391063,robocape_mag,22.2,-25.5,28.35,10.0,0.0,0.0,0.0,10.0,0.0,0.0,0.0,10.0
1446038366728062671,392,1446038366723179101,robocape_mag,22.2,-25.5,28.35,10.0,0.0,0.0,0.0,10.0,0.0,0.0,0.0,10.0
1446038366762494129,393,1446038366757715940,robocape_mag,22.2,-25.5,28.35,10.0,0.0,0.0,0.0,10.0,0.0,0.0,0.0,10.0
1446038366795206546,394,1446038366789753913,robocape_mag,22.2,-25.5,28.35,10.0,0.0,0.0,0.0,10.0,0.0,0.0,0.0,10.0
1446038366828568838,395,1446038366823664903,robocape_mag,22.2,-25.5,28.35,10.0,0.0,0.0,0.0,10.0,0.0,0.0,0.0,10.0
1446038366861630338,396,1446038366856594085,robocape_mag,20.4,-26.1,28.35,10.0,0.0,0.0,0.0,10.0,0.0,0.0,0.0,10.0
1446038366895166504,397,1446038366889956951,robocape_mag,20.4,-26.1,28.35,10.0,0.0,0.0,0.0,10.0,0.0,0.0,0.0,10.0
1446038366929682296,398,1446038366924756050,robocape_mag,20.4,-26.1,28.35,10.0,0.0,0.0,0.0,10.0,0.0,0.0,0.0,10.0
1446038366962863421,399,1446038366957767009,robocape_mag,20.4,-26.1,28.35,10.0,0.0,0.0,0.0,10.0,0.0,0.0,0.0,10.0
1446038366996673921,400,1446038366991270065,robocape_mag,20.1,-25.2,26.85,10.0,0.0,0.0,0.0,10.0,0.0,0.0,0.0,10.0
1446038367029352338,401,1446038367024415016,robocape_mag,20.1,-25.2,26.85,10.0,0.0,0.0,0.0,10.0,0.0,0.0,0.0,10.0
1446038367062397921,402,1446038367057389020,robocape_mag,20.1,-25.2,26.85,10.0,0.0,0.0,0.0,10.0,0.0,0.0,0.0,10.0
1446038367096417213,403,1446038367091280937,robocape_mag,20.1,-25.2,26.85,10.0,0.0,0.0,0.0,10.0,0.0,0.0,0.0,10.0
1446038367129311379,404,1446038367124452114,robocape_mag,20.1,-25.2,26.85,10.0,0.0,0.0,0.0,10.0,0.0,0.0,0.0,10.0
1446038367166317088,405,1446038367161412954,robocape_mag,20.7,-24.0,26.85,10.0,0.0,0.0,0.0,10.0,0.0,0.0,0.0,10.0
1446038367203689338,406,1446038367193403005,robocape_mag,20.7,-24.0,26.85,10.0,0.0,0.0,0.0,10.0,0.0,0.0,0.0,10.0
1446038367231602671,407,1446038367226713895,robocape_mag,20.7,-24.0,26.85,10.0,0.0,0.0,0.0,10.0,0.0,0.0,0.0,10.0
1446038367261844379,408,1446038367256753921,robocape_mag,20.7,-24.0,26.85,10.0,0.0,0.0,0.0,10.0,0.0,0.0,0.0,10.0
1446038367299955963,409,1446038367294723033,robocape_mag,20.7,-24.0,26.85,10.0,0.0,0.0,0.0,10.0,0.0,0.0,0.0,10.0
1446038367339735171,410,1446038367326626062,robocape_mag,20.7,-25.8,29.25,10.0,0.0,0.0,0.0,10.0,0.0,0.0,0.0,10.0
1446038367368397963,411,1446038367363389968,robocape_mag,20.7,-25.8,29.25,10.0,0.0,0.0,0.0,10.0,0.0,0.0,0.0,10.0
1446038367403658505,412,1446038367398446083,robocape_mag,20.7,-25.8,29.25,10.0,0.0,0.0,0.0,10.0,0.0,0.0,0.0,10.0
1446038367443520130,413,1446038367438652038,robocape_mag,20.7,-25.8,29.25,10.0,0.0,0.0,0.0,10.0,0.0,0.0,0.0,10.0
1446038367475620713,414,1446038367470309972,robocape_mag,21.0,-24.9,28.95,10.0,0.0,0.0,0.0,10.0,0.0,0.0,0.0,10.0
1446038367510141963,415,1446038367505074024,robocape_mag,21.0,-24.9,28.95,10.0,0.0,0.0,0.0,10.0,0.0,0.0,0.0,10.0
1446038367542333338,416,1446038367537321090,robocape_mag,21.0,-24.9,28.95,10.0,0.0,0.0,0.0,10.0,0.0,0.0,0.0,10.0
1446038367579895630,417,1446038367570774078,robocape_mag,21.0,-24.9,28.95,10.0,0.0,0.0,0.0,10.0,0.0,0.0,0.0,10.0
1446038367610080838,418,1446038367605092048,robocape_mag,21.0,-24.9,28.95,10.0,0.0,0.0,0.0,10.0,0.0,0.0,0.0,10.0
1446038367640383671,419,1446038367635396957,robocape_mag,22.5,-24.6,28.65,10.0,0.0,0.0,0.0,10.0,0.0,0.0,0.0,10.0
1446038367672573421,420,1446038367667543888,robocape_mag,22.5,-24.6,28.65,10.0,0.0,0.0,0.0,10.0,0.0,0.0,0.0,10.0
1446038367703241963,421,1446038367698040008,robocape_mag,22.5,-24.6,28.65,10.0,0.0,0.0,0.0,10.0,0.0,0.0,0.0,10.0
1446038367736970255,422,1446038367731993913,robocape_mag,22.5,-24.6,28.65,10.0,0.0,0.0,0.0,10.0,0.0,0.0,0.0,10.0
1446038367770142880,423,1446038367765233993,robocape_mag,22.5,-24.6,28.65,10.0,0.0,0.0,0.0,10.0,0.0,0.0,0.0,10.0
1446038367802546255,424,1446038367797492027,robocape_mag,21.9,-25.2,29.85,10.0,0.0,0.0,0.0,10.0,0.0,0.0,0.0,10.0
1446038367837769338,425,1446038367832675933,robocape_mag,21.9,-25.2,29.85,10.0,0.0,0.0,0.0,10.0,0.0,0.0,0.0,10.0
1446038367870576088,426,1446038367865586996,robocape_mag,21.9,-25.2,29.85,10.0,0.0,0.0,0.0,10.0,0.0,0.0,0.0,10.0
1446038367904991546,427,1446038367899719953,robocape_mag,21.9,-25.2,29.85,10.0,0.0,0.0,0.0,10.0,0.0,0.0,0.0,10.0
1446038367928441255,428,1446038367923458099,robocape_mag,21.9,-25.2,29.85,10.0,0.0,0.0,0.0,10.0,0.0,0.0,0.0,10.0
1446038367961358755,429,1446038367956463098,robocape_mag,22.2,-24.3,28.95,10.0,0.0,0.0,0.0,10.0,0.0,0.0,0.0,10.0
1446038367994804338,430,1446038367989911079,robocape_mag,22.2,-24.3,28.95,10.0,0.0,0.0,0.0,10.0,0.0,0.0,0.0,10.0
1446038368028481296,431,1446038368023400068,robocape_mag,22.2,-24.3,28.95,10.0,0.0,0.0,0.0,10.0,0.0,0.0,0.0,10.0
1446038368061689921,432,1446038368056567907,robocape_mag,22.2,-24.3,28.95,10.0,0.0,0.0,0.0,10.0,0.0,0.0,0.0,10.0
1446038368094878047,433,1446038368089776992,robocape_mag,22.2,-24.3,28.95,10.0,0.0,0.0,0.0,10.0,0.0,0.0,0.0,10.0
1446038368128723547,434,1446038368123696088,robocape_mag,20.7,-24.6,29.85,10.0,0.0,0.0,0.0,10.0,0.0,0.0,0.0,10.0
1446038368161379713,435,1446038368156322956,robocape_mag,20.7,-24.6,29.85,10.0,0.0,0.0,0.0,10.0,0.0,0.0,0.0,10.0
1446038368194982880,436,1446038368189815044,robocape_mag,20.7,-24.6,29.85,10.0,0.0,0.0,0.0,10.0,0.0,0.0,0.0,10.0
1446038368228329380,437,1446038368223364114,robocape_mag,20.7,-24.6,29.85,10.0,0.0,0.0,0.0,10.0,0.0,0.0,0.0,10.0
1446038368263175130,438,1446038368257776021,robocape_mag,20.7,-24.6,29.85,10.0,0.0,0.0,0.0,10.0,0.0,0.0,0.0,10.0
1446038368294961713,439,1446038368289819002,robocape_mag,20.1,-25.2,29.25,10.0,0.0,0.0,0.0,10.0,0.0,0.0,0.0,10.0
1446038368329498880,440,1446038368323689937,robocape_mag,20.1,-25.2,29.25,10.0,0.0,0.0,0.0,10.0,0.0,0.0,0.0,10.0
1446038368361245755,441,1446038368356350898,robocape_mag,20.1,-25.2,29.25,10.0,0.0,0.0,0.0,10.0,0.0,0.0,0.0,10.0
1446038368394916505,442,1446038368389766931,robocape_mag,20.1,-25.2,29.25,10.0,0.0,0.0,0.0,10.0,0.0,0.0,0.0,10.0
1446038368433390297,443,1446038368428188085,robocape_mag,19.5,-24.0,29.25,10.0,0.0,0.0,0.0,10.0,0.0,0.0,0.0,10.0
1446038368461436130,444,1446038368456578016,robocape_mag,19.5,-24.0,29.25,10.0,0.0,0.0,0.0,10.0,0.0,0.0,0.0,10.0
1446038368495085213,445,1446038368489759922,robocape_mag,19.5,-24.0,29.25,10.0,0.0,0.0,0.0,10.0,0.0,0.0,0.0,10.0
1446038368528357755,446,1446038368523349046,robocape_mag,19.5,-24.0,29.25,10.0,0.0,0.0,0.0,10.0,0.0,0.0,0.0,10.0
1446038368561247255,447,1446038368556358098,robocape_mag,19.5,-24.0,29.25,10.0,0.0,0.0,0.0,10.0,0.0,0.0,0.0,10.0
1446038368595229213,448,1446038368589987993,robocape_mag,20.1,-25.8,29.25,10.0,0.0,0.0,0.0,10.0,0.0,0.0,0.0,10.0
1446038368628554088,449,1446038368623435020,robocape_mag,20.1,-25.8,29.25,10.0,0.0,0.0,0.0,10.0,0.0,0.0,0.0,10.0
1446038368661473255,450,1446038368656555891,robocape_mag,20.1,-25.8,29.25,10.0,0.0,0.0,0.0,10.0,0.0,0.0,0.0,10.0
1446038368694964255,451,1446038368689740896,robocape_mag,20.1,-25.8,29.25,10.0,0.0,0.0,0.0,10.0,0.0,0.0,0.0,10.0
1446038368728451922,452,1446038368723539113,robocape_mag,20.1,-25.8,29.25,10.0,0.0,0.0,0.0,10.0,0.0,0.0,0.0,10.0
1446038368761252338,453,1446038368756361961,robocape_mag,22.5,-25.2,28.65,10.0,0.0,0.0,0.0,10.0,0.0,0.0,0.0,10.0
1446038368795149505,454,1446038368790002107,robocape_mag,22.5,-25.2,28.65,10.0,0.0,0.0,0.0,10.0,0.0,0.0,0.0,10.0
1446038368831551130,455,1446038368823669910,robocape_mag,22.5,-25.2,28.65,10.0,0.0,0.0,0.0,10.0,0.0,0.0,0.0,10.0
1446038368861567297,456,1446038368856502056,robocape_mag,22.5,-25.2,28.65,10.0,0.0,0.0,0.0,10.0,0.0,0.0,0.0,10.0
1446038368895091922,457,1446038368889723062,robocape_mag,22.5,-25.2,28.65,10.0,0.0,0.0,0.0,10.0,0.0,0.0,0.0,10.0
1446038368929096422,458,1446038368924026012,robocape_mag,21.0,-24.9,28.95,10.0,0.0,0.0,0.0,10.0,0.0,0.0,0.0,10.0
1446038368961300589,459,1446038368956412076,robocape_mag,21.0,-24.9,28.95,10.0,0.0,0.0,0.0,10.0,0.0,0.0,0.0,10.0
1446038368994976380,460,1446038368989922046,robocape_mag,21.0,-24.9,28.95,10.0,0.0,0.0,0.0,10.0,0.0,0.0,0.0,10.0
1446038369028625464,461,1446038369023344993,robocape_mag,21.0,-24.9,28.95,10.0,0.0,0.0,0.0,10.0,0.0,0.0,0.0,10.0
1446038369061379047,462,1446038369056478023,robocape_mag,21.0,-24.9,28.95,10.0,0.0,0.0,0.0,10.0,0.0,0.0,0.0,10.0
1446038369094672047,463,1446038369089756965,robocape_mag,22.8,-24.9,27.15,10.0,0.0,0.0,0.0,10.0,0.0,0.0,0.0,10.0
1446038369128424047,464,1446038369123275041,robocape_mag,22.8,-24.9,27.15,10.0,0.0,0.0,0.0,10.0,0.0,0.0,0.0,10.0
1446038369161616380,465,1446038369156622886,robocape_mag,22.8,-24.9,27.15,10.0,0.0,0.0,0.0,10.0,0.0,0.0,0.0,10.0
1446038369194782839,466,1446038369189882993,robocape_mag,22.8,-24.9,27.15,10.0,0.0,0.0,0.0,10.0,0.0,0.0,0.0,10.0
1446038369228465339,467,1446038369223459005,robocape_mag,22.8,-24.9,27.15,10.0,0.0,0.0,0.0,10.0,0.0,0.0,0.0,10.0
1446038369261267422,468,1446038369256407022,robocape_mag,20.7,-25.2,28.65,10.0,0.0,0.0,0.0,10.0,0.0,0.0,0.0,10.0
1446038369294923797,469,1446038369289928913,robocape_mag,20.7,-25.2,28.65,10.0,0.0,0.0,0.0,10.0,0.0,0.0,0.0,10.0
1446038369330913464,470,1446038369323427915,robocape_mag,20.7,-25.2,28.65,10.0,0.0,0.0,0.0,10.0,0.0,0.0,0.0,10.0
1446038369361740172,471,1446038369356304883,robocape_mag,20.7,-25.2,28.65,10.0,0.0,0.0,0.0,10.0,0.0,0.0,0.0,10.0
1446038369394721672,472,1446038369389890909,robocape_mag,21.6,-26.1,28.95,10.0,0.0,0.0,0.0,10.0,0.0,0.0,0.0,10.0
1446038369433420672,473,1446038369428275108,robocape_mag,21.6,-26.1,28.95,10.0,0.0,0.0,0.0,10.0,0.0,0.0,0.0,10.0
1446038369461102339,474,1446038369456393003,robocape_mag,21.6,-26.1,28.95,10.0,0.0,0.0,0.0,10.0,0.0,0.0,0.0,10.0
1446038369494591131,475,1446038369489708900,robocape_mag,21.6,-26.1,28.95,10.0,0.0,0.0,0.0,10.0,0.0,0.0,0.0,10.0
1446038369528435172,476,1446038369523353099,robocape_mag,21.6,-26.1,28.95,10.0,0.0,0.0,0.0,10.0,0.0,0.0,0.0,10.0
1446038369561364672,477,1446038369556447982,robocape_mag,21.9,-25.2,26.85,10.0,0.0,0.0,0.0,10.0,0.0,0.0,0.0,10.0
1446038369594676381,478,1446038369589870929,robocape_mag,21.9,-25.2,26.85,10.0,0.0,0.0,0.0,10.0,0.0,0.0,0.0,10.0
1446038369628424422,479,1446038369623342990,robocape_mag,21.9,-25.2,26.85,10.0,0.0,0.0,0.0,10.0,0.0,0.0,0.0,10.0
1446038369661642672,480,1446038369656630039,robocape_mag,21.9,-25.2,26.85,10.0,0.0,0.0,0.0,10.0,0.0,0.0,0.0,10.0
1446038369694693339,481,1446038369689862012,robocape_mag,21.9,-25.2,26.85,10.0,0.0,0.0,0.0,10.0,0.0,0.0,0.0,10.0
1446038369728267422,482,1446038369723283052,robocape_mag,22.8,-25.5,28.35,10.0,0.0,0.0,0.0,10.0,0.0,0.0,0.0,10.0
1446038369761334131,483,1446038369756397008,robocape_mag,22.8,-25.5,28.35,10.0,0.0,0.0,0.0,10.0,0.0,0.0,0.0,10.0
1446038369794768797,484,1446038369790052890,robocape_mag,22.8,-25.5,28.35,10.0,0.0,0.0,0.0,10.0,0.0,0.0,0.0,10.0
1446038369828560714,485,1446038369823241949,robocape_mag,22.8,-25.5,28.35,10.0,0.0,0.0,0.0,10.0,0.0,0.0,0.0,10.0
1446038369861378297,486,1446038369856367111,robocape_mag,22.8,-25.5,28.35,10.0,0.0,0.0,0.0,10.0,0.0,0.0,0.0,10.0
1446038369894986714,487,1446038369890042066,robocape_mag,21.3,-24.6,28.05,10.0,0.0,0.0,0.0,10.0,0.0,0.0,0.0,10.0
1446038369928413131,488,1446038369923435926,robocape_mag,21.3,-24.6,28.05,10.0,0.0,0.0,0.0,10.0,0.0,0.0,0.0,10.0
1446038369961460214,489,1446038369956432104,robocape_mag,21.3,-24.6,28.05,10.0,0.0,0.0,0.0,10.0,0.0,0.0,0.0,10.0
1446038369994640589,490,1446038369989778995,robocape_mag,21.3,-24.6,28.05,10.0,0.0,0.0,0.0,10.0,0.0,0.0,0.0,10.0
1446038370028707464,491,1446038370023354053,robocape_mag,21.3,-24.6,28.05,10.0,0.0,0.0,0.0,10.0,0.0,0.0,0.0,10.0
1446038370061515339,492,1446038370056545972,robocape_mag,21.3,-24.6,29.25,10.0,0.0,0.0,0.0,10.0,0.0,0.0,0.0,10.0
1446038370096308297,493,1446038370091420888,robocape_mag,21.3,-24.6,29.25,10.0,0.0,0.0,0.0,10.0,0.0,0.0,0.0,10.0
1446038370128682839,494,1446038370123301982,robocape_mag,21.3,-24.6,29.25,10.0,0.0,0.0,0.0,10.0,0.0,0.0,0.0,10.0
1446038370161572589,495,1446038370156651020,robocape_mag,21.3,-24.6,29.25,10.0,0.0,0.0,0.0,10.0,0.0,0.0,0.0,10.0
1446038370194809923,496,1446038370189940929,robocape_mag,22.8,-25.5,28.35,10.0,0.0,0.0,0.0,10.0,0.0,0.0,0.0,10.0
1446038370228794756,497,1446038370223392963,robocape_mag,22.8,-25.5,28.35,10.0,0.0,0.0,0.0,10.0,0.0,0.0,0.0,10.0
1446038370261505381,498,1446038370256481885,robocape_mag,22.8,-25.5,28.35,10.0,0.0,0.0,0.0,10.0,0.0,0.0,0.0,10.0
1446038370294820839,499,1446038370289982080,robocape_mag,22.8,-25.5,28.35,10.0,0.0,0.0,0.0,10.0,0.0,0.0,0.0,10.0
1446038370328403964,500,1446038370323064088,robocape_mag,22.8,-25.5,28.35,10.0,0.0,0.0,0.0,10.0,0.0,0.0,0.0,10.0
1446038370361383548,501,1446038370356450080,robocape_mag,21.0,-26.1,28.95,10.0,0.0,0.0,0.0,10.0,0.0,0.0,0.0,10.0
1446038370394488714,502,1446038370389760971,robocape_mag,21.0,-26.1,28.95,10.0,0.0,0.0,0.0,10.0,0.0,0.0,0.0,10.0
1446038370433086048,503,1446038370427978038,robocape_mag,21.0,-26.1,28.95,10.0,0.0,0.0,0.0,10.0,0.0,0.0,0.0,10.0
1446038370461599714,504,1446038370456691026,robocape_mag,21.0,-26.1,28.95,10.0,0.0,0.0,0.0,10.0,0.0,0.0,0.0,10.0
1446038370494726214,505,1446038370489967107,robocape_mag,21.0,-26.1,28.95,10.0,0.0,0.0,0.0,10.0,0.0,0.0,0.0,10.0
1446038370528326423,506,1446038370523041009,robocape_mag,20.4,-25.5,29.55,10.0,0.0,0.0,0.0,10.0,0.0,0.0,0.0,10.0
1446038370561727381,507,1446038370556452989,robocape_mag,20.4,-25.5,29.55,10.0,0.0,0.0,0.0,10.0,0.0,0.0,0.0,10.0
1446038370594505464,508,1446038370589786052,robocape_mag,20.4,-25.5,29.55,10.0,0.0,0.0,0.0,10.0,0.0,0.0,0.0,10.0
1446038370628429339,509,1446038370623115062,robocape_mag,20.4,-25.5,29.55,10.0,0.0,0.0,0.0,10.0,0.0,0.0,0.0,10.0
1446038370661618548,510,1446038370656450986,robocape_mag,20.4,-25.5,29.55,10.0,0.0,0.0,0.0,10.0,0.0,0.0,0.0,10.0
1446038370694807256,511,1446038370689965963,robocape_mag,20.7,-26.4,28.05,10.0,0.0,0.0,0.0,10.0,0.0,0.0,0.0,10.0
1446038370727819964,512,1446038370723031044,robocape_mag,20.7,-26.4,28.05,10.0,0.0,0.0,0.0,10.0,0.0,0.0,0.0,10.0
1446038370761549173,513,1446038370756385087,robocape_mag,20.7,-26.4,28.05,10.0,0.0,0.0,0.0,10.0,0.0,0.0,0.0,10.0
1446038370794767006,514,1446038370789995908,robocape_mag,20.7,-26.4,28.05,10.0,0.0,0.0,0.0,10.0,0.0,0.0,0.0,10.0
1446038370827901548,515,1446038370823167085,robocape_mag,20.7,-26.4,28.05,10.0,0.0,0.0,0.0,10.0,0.0,0.0,0.0,10.0
1446038370861543964,516,1446038370856581926,robocape_mag,21.0,-24.3,27.75,10.0,0.0,0.0,0.0,10.0,0.0,0.0,0.0,10.0
1446038370895114465,517,1446038370890373945,robocape_mag,21.0,-24.3,27.75,10.0,0.0,0.0,0.0,10.0,0.0,0.0,0.0,10.0
1446038370928089298,518,1446038370923343896,robocape_mag,21.0,-24.3,27.75,10.0,0.0,0.0,0.0,10.0,0.0,0.0,0.0,10.0
1446038370961384048,519,1446038370956500053,robocape_mag,21.0,-24.3,27.75,10.0,0.0,0.0,0.0,10.0,0.0,0.0,0.0,10.0
1446038370994937006,520,1446038370990076065,robocape_mag,22.2,-26.1,28.35,10.0,0.0,0.0,0.0,10.0,0.0,0.0,0.0,10.0
1446038371027703381,521,1446038371022985935,robocape_mag,22.2,-26.1,28.35,10.0,0.0,0.0,0.0,10.0,0.0,0.0,0.0,10.0
1446038371061526590,522,1446038371056548118,robocape_mag,22.2,-26.1,28.35,10.0,0.0,0.0,0.0,10.0,0.0,0.0,0.0,10.0
1446038371094844048,523,1446038371090035915,robocape_mag,22.2,-26.1,28.35,10.0,0.0,0.0,0.0,10.0,0.0,0.0,0.0,10.0
1446038371128027423,524,1446038371123218059,robocape_mag,22.2,-26.1,28.35,10.0,0.0,0.0,0.0,10.0,0.0,0.0,0.0,10.0
1446038371161666090,525,1446038371156358957,robocape_mag,21.9,-26.4,27.45,10.0,0.0,0.0,0.0,10.0,0.0,0.0,0.0,10.0
1446038371194813381,526,1446038371190015077,robocape_mag,21.9,-26.4,27.45,10.0,0.0,0.0,0.0,10.0,0.0,0.0,0.0,10.0
1446038371227838423,527,1446038371223066091,robocape_mag,21.9,-26.4,27.45,10.0,0.0,0.0,0.0,10.0,0.0,0.0,0.0,10.0
1446038371261455340,528,1446038371256366968,robocape_mag,21.9,-26.4,27.45,10.0,0.0,0.0,0.0,10.0,0.0,0.0,0.0,10.0
