%time,field.header.seq,field.header.stamp,field.header.frame_id,field.magnetic_field.x,field.magnetic_field.y,field.magnetic_field.z,field.magnetic_field_covariance0,field.magnetic_field_covariance1,field.magnetic_field_covariance2,field.magnetic_field_covariance3,field.magnetic_field_covariance4,field.magnetic_field_covariance5,field.magnetic_field_covariance6,field.magnetic_field_covariance7,field.magnetic_field_covariance8
1446040707152949358,1,1446040707147613048,robocape_mag,-14.55,16.95,2.85,10.0,0.0,0.0,0.0,10.0,0.0,0.0,0.0,10.0
1446040707184929317,2,1446040707180100917,robocape_mag,-14.55,16.95,2.85,10.0,0.0,0.0,0.0,10.0,0.0,0.0,0.0,10.0
1446040707218304317,3,1446040707213515043,robocape_mag,-14.55,16.95,2.85,10.0,0.0,0.0,0.0,10.0,0.0,0.0,0.0,10.0
1446040707251230567,4,1446040707246568918,robocape_mag,-20.25,13.05,1.95,10.0,0.0,0.0,0.0,10.0,0.0,0.0,0.0,10.0
1446040707285222567,5,1446040707280251979,robocape_mag,-20.25,13.05,1.95,10.0,0.0,0.0,0.0,10.0,0.0,0.0,0.0,10.0
1446040707318100650,6,1446040707313365936,robocape_mag,-20.25,13.05,1.95,10.0,0.0,0.0,0.0,10.0,0.0,0.0,0.0,10.0
1446040707351960358,7,1446040707347301006,robocape_mag,-20.25,13.05,1.95,10.0,0.0,0.0,0.0,10.0,0.0,0.0,0.0,10.0
1446040707385377233,8,1446040707380171060,robocape_mag,-23.55,6.15,2.25,10.0,0.0,0.0,0.0,10.0,0.0,0.0,0.0,10.0
1446040707418209442,9,1446040707413440942,robocape_mag,-23.55,6.15,2.25,10.0,0.0,0.0,0.0,10.0,0.0,0.0,0.0,10.0
1446040707451731858,10,1446040707446985006,robocape_mag,-23.55,6.15,2.25,10.0,0.0,0.0,0.0,10.0,0.0,0.0,0.0,10.0
1446040707485403567,11,1446040707480271100,robocape_mag,-23.55,6.15,2.25,10.0,0.0,0.0,0.0,10.0,0.0,0.0,0.0,10.0
1446040707518121358,12,1446040707513380050,robocape_mag,-23.55,6.15,2.25,10.0,0.0,0.0,0.0,10.0,0.0,0.0,0.0,10.0
1446040707551414608,13,1446040707546679019,robocape_mag,-20.85,-1.35,4.35,10.0,0.0,0.0,0.0,10.0,0.0,0.0,0.0,10.0
1446040707585421442,14,1446040707580188035,robocape_mag,-20.85,-1.35,4.35,10.0,0.0,0.0,0.0,10.0,0.0,0.0,0.0,10.0
1446040707618006733,15,1446040707613313913,robocape_mag,-20.85,-1.35,4.35,10.0,0.0,0.0,0.0,10.0,0.0,0.0,0.0,10.0
1446040707651344983,16,1446040707646656990,robocape_mag,-20.85,-1.35,4.35,10.0,0.0,0.0,0.0,10.0,0.0,0.0,0.0,10.0
1446040707686380942,17,1446040707680943012,robocape_mag,-20.85,-1.35,4.35,10.0,0.0,0.0,0.0,10.0,0.0,0.0,0.0,10.0
1446040707718357608,18,1446040707713526964,robocape_mag,-15.75,-9.45,5.85,10.0,0.0,0.0,0.0,10.0,0.0,0.0,0.0,10.0
1446040707751305817,19,1446040707746622085,robocape_mag,-15.75,-9.45,5.85,10.0,0.0,0.0,0.0,10.0,0.0,0.0,0.0,10.0
1446040707785469233,20,1446040707780199050,robocape_mag,-15.75,-9.45,5.85,10.0,0.0,0.0,0.0,10.0,0.0,0.0,0.0,10.0
1446040707823278817,21,1446040707818428993,robocape_mag,-15.75,-9.45,5.85,10.0,0.0,0.0,0.0,10.0,0.0,0.0,0.0,10.0
1446040707851738359,22,1446040707846870899,robocape_mag,-15.75,-9.45,5.85,10.0,0.0,0.0,0.0,10.0,0.0,0.0,0.0,10.0
1446040707885437692,23,1446040707880409002,robocape_mag,-9.15,-16.05,6.45,10.0,0.0,0.0,0.0,10.0,0.0,0.0,0.0,10.0
1446040707918085734,24,1446040707913331031,robocape_mag,-9.15,-16.05,6.45,10.0,0.0,0.0,0.0,10.0,0.0,0.0,0.0,10.0
1446040707951454150,25,1446040707946758985,robocape_mag,-9.15,-16.05,6.45,10.0,0.0,0.0,0.0,10.0,0.0,0.0,0.0,10.0
1446040707985850775,26,1446040707980678081,robocape_mag,-9.15,-16.05,6.45,10.0,0.0,0.0,0.0,10.0,0.0,0.0,0.0,10.0
1446040708018355775,27,1446040708013672113,robocape_mag,-9.15,-16.05,6.45,10.0,0.0,0.0,0.0,10.0,0.0,0.0,0.0,10.0
1446040708051410859,28,1446040708046658039,robocape_mag,1.65,-21.45,5.85,10.0,0.0,0.0,0.0,10.0,0.0,0.0,0.0,10.0
1446040708086232109,29,1446040708081008911,robocape_mag,1.65,-21.45,5.85,10.0,0.0,0.0,0.0,10.0,0.0,0.0,0.0,10.0
1446040708118244567,30,1446040708113430976,robocape_mag,1.65,-21.45,5.85,10.0,0.0,0.0,0.0,10.0,0.0,0.0,0.0,10.0
1446040708151447984,31,1446040708146702051,robocape_mag,1.65,-21.45,5.85,10.0,0.0,0.0,0.0,10.0,0.0,0.0,0.0,10.0
1446040708185977692,32,1446040708180773973,robocape_mag,8.25,-20.85,5.25,10.0,0.0,0.0,0.0,10.0,0.0,0.0,0.0,10.0
1446040708218101359,33,1446040708213361978,robocape_mag,8.25,-20.85,5.25,10.0,0.0,0.0,0.0,10.0,0.0,0.0,0.0,10.0
1446040708251654650,34,1446040708246823072,robocape_mag,8.25,-20.85,5.25,10.0,0.0,0.0,0.0,10.0,0.0,0.0,0.0,10.0
1446040708285878109,35,1446040708280759096,robocape_mag,8.25,-20.85,5.25,10.0,0.0,0.0,0.0,10.0,0.0,0.0,0.0,10.0
1446040708318470192,36,1446040708313673973,robocape_mag,8.25,-20.85,5.25,10.0,0.0,0.0,0.0,10.0,0.0,0.0,0.0,10.0
1446040708351883525,37,1446040708347129106,robocape_mag,6.15,-19.95,4.95,10.0,0.0,0.0,0.0,10.0,0.0,0.0,0.0,10.0
1446040708385745567,38,1446040708380573987,robocape_mag,6.15,-19.95,4.95,10.0,0.0,0.0,0.0,10.0,0.0,0.0,0.0,10.0
1446040708418825734,39,1446040708414045095,robocape_mag,6.15,-19.95,4.95,10.0,0.0,0.0,0.0,10.0,0.0,0.0,0.0,10.0
1446040708451517609,40,1446040708446732044,robocape_mag,6.15,-19.95,4.95,10.0,0.0,0.0,0.0,10.0,0.0,0.0,0.0,10.0
1446040708486145817,41,1446040708481066942,robocape_mag,6.15,-19.95,4.95,10.0,0.0,0.0,0.0,10.0,0.0,0.0,0.0,10.0
1446040708518236984,42,1446040708513464927,robocape_mag,6.15,-22.95,3.75,10.0,0.0,0.0,0.0,10.0,0.0,0.0,0.0,10.0
1446040708551570109,43,1446040708546802043,robocape_mag,6.15,-22.95,3.75,10.0,0.0,0.0,0.0,10.0,0.0,0.0,0.0,10.0
1446040708585718317,44,1446040708580681085,robocape_mag,6.15,-22.95,3.75,10.0,0.0,0.0,0.0,10.0,0.0,0.0,0.0,10.0
1446040708618160901,45,1446040708613423109,robocape_mag,6.15,-22.95,3.75,10.0,0.0,0.0,0.0,10.0,0.0,0.0,0.0,10.0
1446040708651459234,46,1446040708646707057,robocape_mag,6.15,-22.95,3.75,10.0,0.0,0.0,0.0,10.0,0.0,0.0,0.0,10.0
1446040708685884442,47,1446040708680645942,robocape_mag,4.65,-23.25,2.85,10.0,0.0,0.0,0.0,10.0,0.0,0.0,0.0,10.0
1446040708719828567,48,1446040708715033054,robocape_mag,4.65,-23.25,2.85,10.0,0.0,0.0,0.0,10.0,0.0,0.0,0.0,10.0
1446040708751470609,49,1446040708746622085,robocape_mag,4.65,-23.25,2.85,10.0,0.0,0.0,0.0,10.0,0.0,0.0,0.0,10.0
1446040708785813651,50,1446040708780581951,robocape_mag,4.65,-23.25,2.85,10.0,0.0,0.0,0.0,10.0,0.0,0.0,0.0,10.0
1446040708824201817,51,1446040708819288969,robocape_mag,2.85,-21.45,3.45,10.0,0.0,0.0,0.0,10.0,0.0,0.0,0.0,10.0
1446040708851809817,52,1446040708846842050,robocape_mag,2.85,-21.45,3.45,10.0,0.0,0.0,0.0,10.0,0.0,0.0,0.0,10.0
1446040708887017234,53,1446040708881827116,robocape_mag,2.85,-21.45,3.45,10.0,0.0,0.0,0.0,10.0,0.0,0.0,0.0,10.0
1446040708918198901,54,1446040708913362979,robocape_mag,2.85,-21.45,3.45,10.0,0.0,0.0,0.0,10.0,0.0,0.0,0.0,10.0
1446040708951548484,55,1446040708946836948,robocape_mag,2.85,-21.45,3.45,10.0,0.0,0.0,0.0,10.0,0.0,0.0,0.0,10.0
1446040708985643151,56,1446040708980717897,robocape_mag,1.95,-18.75,3.75,10.0,0.0,0.0,0.0,10.0,0.0,0.0,0.0,10.0
1446040709018856609,57,1446040709013390064,robocape_mag,1.95,-18.75,3.75,10.0,0.0,0.0,0.0,10.0,0.0,0.0,0.0,10.0
1446040709051540984,58,1446040709046797990,robocape_mag,1.95,-18.75,3.75,10.0,0.0,0.0,0.0,10.0,0.0,0.0,0.0,10.0
1446040709085949567,59,1446040709080737113,robocape_mag,1.95,-18.75,3.75,10.0,0.0,0.0,0.0,10.0,0.0,0.0,0.0,10.0
1446040709118242942,60,1446040709113327980,robocape_mag,1.95,-18.75,3.75,10.0,0.0,0.0,0.0,10.0,0.0,0.0,0.0,10.0
1446040709151604692,61,1446040709146792888,robocape_mag,1.05,-19.65,2.85,10.0,0.0,0.0,0.0,10.0,0.0,0.0,0.0,10.0
1446040709185859109,62,1446040709180790901,robocape_mag,1.05,-19.65,2.85,10.0,0.0,0.0,0.0,10.0,0.0,0.0,0.0,10.0
1446040709218564693,63,1446040709213319063,robocape_mag,1.05,-19.65,2.85,10.0,0.0,0.0,0.0,10.0,0.0,0.0,0.0,10.0
1446040709251355193,64,1446040709246644973,robocape_mag,1.05,-19.65,2.85,10.0,0.0,0.0,0.0,10.0,0.0,0.0,0.0,10.0
1446040709286635234,65,1446040709280750989,robocape_mag,1.05,-19.65,2.85,10.0,0.0,0.0,0.0,10.0,0.0,0.0,0.0,10.0
1446040709318316234,66,1446040709313509941,robocape_mag,1.35,-19.95,3.15,10.0,0.0,0.0,0.0,10.0,0.0,0.0,0.0,10.0
1446040709351496151,67,1446040709346731901,robocape_mag,1.35,-19.95,3.15,10.0,0.0,0.0,0.0,10.0,0.0,0.0,0.0,10.0
1446040709385916818,68,1446040709380647897,robocape_mag,1.35,-19.95,3.15,10.0,0.0,0.0,0.0,10.0,0.0,0.0,0.0,10.0
1446040709418273693,69,1446040709413533926,robocape_mag,1.35,-19.95,3.15,10.0,0.0,0.0,0.0,10.0,0.0,0.0,0.0,10.0
1446040709451443443,70,1446040709446738958,robocape_mag,1.35,-19.95,3.15,10.0,0.0,0.0,0.0,10.0,0.0,0.0,0.0,10.0
1446040709486518776,71,1446040709481317996,robocape_mag,-0.15,-22.65,2.25,10.0,0.0,0.0,0.0,10.0,0.0,0.0,0.0,10.0
1446040709518398276,72,1446040709513653993,robocape_mag,-0.15,-22.65,2.25,10.0,0.0,0.0,0.0,10.0,0.0,0.0,0.0,10.0
1446040709551672859,73,1446040709546901941,robocape_mag,-0.15,-22.65,2.25,10.0,0.0,0.0,0.0,10.0,0.0,0.0,0.0,10.0
1446040709585861568,74,1446040709580580949,robocape_mag,-0.15,-22.65,2.25,10.0,0.0,0.0,0.0,10.0,0.0,0.0,0.0,10.0
1446040709618292651,75,1446040709613300085,robocape_mag,-0.15,-22.65,2.25,10.0,0.0,0.0,0.0,10.0,0.0,0.0,0.0,10.0
1446040709651447276,76,1446040709646701097,robocape_mag,1.05,-22.65,7.05,10.0,0.0,0.0,0.0,10.0,0.0,0.0,0.0,10.0
1446040709686174151,77,1446040709680804014,robocape_mag,1.05,-22.65,7.05,10.0,0.0,0.0,0.0,10.0,0.0,0.0,0.0,10.0
1446040709718371818,78,1446040709713283061,robocape_mag,1.05,-22.65,7.05,10.0,0.0,0.0,0.0,10.0,0.0,0.0,0.0,10.0
1446040709751323026,79,1446040709746603012,robocape_mag,1.05,-22.65,7.05,10.0,0.0,0.0,0.0,10.0,0.0,0.0,0.0,10.0
1446040709785914484,80,1446040709780577898,robocape_mag,0.75,-15.75,12.15,10.0,0.0,0.0,0.0,10.0,0.0,0.0,0.0,10.0
1446040709823900151,81,1446040709818995952,robocape_mag,0.75,-15.75,12.15,10.0,0.0,0.0,0.0,10.0,0.0,0.0,0.0,10.0
1446040709851505276,82,1446040709846606016,robocape_mag,0.75,-15.75,12.15,10.0,0.0,0.0,0.0,10.0,0.0,0.0,0.0,10.0
1446040709886128443,83,1446040709880783081,robocape_mag,0.75,-15.75,12.15,10.0,0.0,0.0,0.0,10.0,0.0,0.0,0.0,10.0
1446040709918124693,84,1446040709913347959,robocape_mag,0.75,-15.75,12.15,10.0,0.0,0.0,0.0,10.0,0.0,0.0,0.0,10.0
1446040709951417235,85,1446040709946649074,robocape_mag,0.75,-13.35,14.55,10.0,0.0,0.0,0.0,10.0,0.0,0.0,0.0,10.0
1446040709986123776,86,1446040709980755090,robocape_mag,0.75,-13.35,14.55,10.0,0.0,0.0,0.0,10.0,0.0,0.0,0.0,10.0
1446040710018376735,87,1446040710013654947,robocape_mag,0.75,-13.35,14.55,10.0,0.0,0.0,0.0,10.0,0.0,0.0,0.0,10.0
1446040710051535026,88,1446040710046802043,robocape_mag,0.75,-13.35,14.55,10.0,0.0,0.0,0.0,10.0,0.0,0.0,0.0,10.0
1446040710085693276,89,1446040710080661058,robocape_mag,0.75,-13.35,14.55,10.0,0.0,0.0,0.0,10.0,0.0,0.0,0.0,10.0
1446040710118101401,90,1446040710113322019,robocape_mag,1.95,-4.95,-15.45,10.0,0.0,0.0,0.0,10.0,0.0,0.0,0.0,10.0
1446040710151715026,91,1446040710146961927,robocape_mag,1.95,-4.95,-15.45,10.0,0.0,0.0,0.0,10.0,0.0,0.0,0.0,10.0
1446040710186005485,92,1446040710180392026,robocape_mag,1.95,-4.95,-15.45,10.0,0.0,0.0,0.0,10.0,0.0,0.0,0.0,10.0
1446040710218429818,93,1446040710213335037,robocape_mag,1.95,-4.95,-15.45,10.0,0.0,0.0,0.0,10.0,0.0,0.0,0.0,10.0
1446040710251640110,94,1446040710246824979,robocape_mag,1.95,-4.95,-15.45,10.0,0.0,0.0,0.0,10.0,0.0,0.0,0.0,10.0
1446040710285813193,95,1446040710280211925,robocape_mag,0.45,-14.25,12.45,10.0,0.0,0.0,0.0,10.0,0.0,0.0,0.0,10.0
1446040710318356151,96,1446040710313456058,robocape_mag,0.45,-14.25,12.45,10.0,0.0,0.0,0.0,10.0,0.0,0.0,0.0,10.0
1446040710351534860,97,1446040710346764087,robocape_mag,0.45,-14.25,12.45,10.0,0.0,0.0,0.0,10.0,0.0,0.0,0.0,10.0
1446040710386033943,98,1446040710380479097,robocape_mag,0.45,-14.25,12.45,10.0,0.0,0.0,0.0,10.0,0.0,0.0,0.0,10.0
1446040710418307068,99,1446040710413589000,robocape_mag,0.45,-14.25,12.45,10.0,0.0,0.0,0.0,10.0,0.0,0.0,0.0,10.0
1446040710451633026,100,1446040710446768999,robocape_mag,1.95,-1.35,-0.45,10.0,0.0,0.0,0.0,10.0,0.0,0.0,0.0,10.0
1446040710485742318,101,1446040710480220079,robocape_mag,1.95,-1.35,-0.45,10.0,0.0,0.0,0.0,10.0,0.0,0.0,0.0,10.0
1446040710518511610,102,1446040710513756990,robocape_mag,1.95,-1.35,-0.45,10.0,0.0,0.0,0.0,10.0,0.0,0.0,0.0,10.0
1446040710552528110,103,1446040710546745061,robocape_mag,1.95,-1.35,-0.45,10.0,0.0,0.0,0.0,10.0,0.0,0.0,0.0,10.0
1446040710586122943,104,1446040710580473899,robocape_mag,2.85,-8.85,-19.35,10.0,0.0,0.0,0.0,10.0,0.0,0.0,0.0,10.0
1446040710618562943,105,1446040710613501071,robocape_mag,2.85,-8.85,-19.35,10.0,0.0,0.0,0.0,10.0,0.0,0.0,0.0,10.0
1446040710651532735,106,1446040710646801948,robocape_mag,2.85,-8.85,-19.35,10.0,0.0,0.0,0.0,10.0,0.0,0.0,0.0,10.0
1446040710686041902,107,1446040710680519104,robocape_mag,2.85,-8.85,-19.35,10.0,0.0,0.0,0.0,10.0,0.0,0.0,0.0,10.0
1446040710718544110,108,1446040710713481903,robocape_mag,2.85,-8.85,-19.35,10.0,0.0,0.0,0.0,10.0,0.0,0.0,0.0,10.0
1446040710751606527,109,1446040710746597051,robocape_mag,3.45,-12.45,-18.15,10.0,0.0,0.0,0.0,10.0,0.0,0.0,0.0,10.0
1446040710786192652,110,1446040710780750989,robocape_mag,3.45,-12.45,-18.15,10.0,0.0,0.0,0.0,10.0,0.0,0.0,0.0,10.0
1446040710823971943,111,1446040710819096088,robocape_mag,3.45,-12.45,-18.15,10.0,0.0,0.0,0.0,10.0,0.0,0.0,0.0,10.0
1446040710851768693,112,1446040710846621990,robocape_mag,3.45,-12.45,-18.15,10.0,0.0,0.0,0.0,10.0,0.0,0.0,0.0,10.0
1446040710886014527,113,1446040710880518913,robocape_mag,3.45,-12.45,-18.15,10.0,0.0,0.0,0.0,10.0,0.0,0.0,0.0,10.0
1446040710918466860,114,1446040710913625001,robocape_mag,2.55,-11.55,-19.65,10.0,0.0,0.0,0.0,10.0,0.0,0.0,0.0,10.0
1446040710951393277,115,1446040710946660041,robocape_mag,2.55,-11.55,-19.65,10.0,0.0,0.0,0.0,10.0,0.0,0.0,0.0,10.0
1446040710985658485,116,1446040710980232954,robocape_mag,2.55,-11.55,-19.65,10.0,0.0,0.0,0.0,10.0,0.0,0.0,0.0,10.0
1446040711018545985,117,1446040711013772964,robocape_mag,2.55,-11.55,-19.65,10.0,0.0,0.0,0.0,10.0,0.0,0.0,0.0,10.0
1446040711051376235,118,1446040711046629905,robocape_mag,2.55,-11.55,-19.65,10.0,0.0,0.0,0.0,10.0,0.0,0.0,0.0,10.0
1446040711085270068,119,1446040711080238103,robocape_mag,1.05,-11.25,-19.35,10.0,0.0,0.0,0.0,10.0,0.0,0.0,0.0,10.0
1446040711118293277,120,1446040711113557100,robocape_mag,1.05,-11.25,-19.35,10.0,0.0,0.0,0.0,10.0,0.0,0.0,0.0,10.0
1446040711151389235,121,1446040711146666049,robocape_mag,1.05,-11.25,-19.35,10.0,0.0,0.0,0.0,10.0,0.0,0.0,0.0,10.0
1446040711189828152,122,1446040711184113979,robocape_mag,1.05,-11.25,-19.35,10.0,0.0,0.0,0.0,10.0,0.0,0.0,0.0,10.0
1446040711218656485,123,1446040711213551044,robocape_mag,1.05,-11.25,-19.35,10.0,0.0,0.0,0.0,10.0,0.0,0.0,0.0,10.0
1446040711251583860,124,1446040711246807098,robocape_mag,0.75,-12.75,-18.45,10.0,0.0,0.0,0.0,10.0,0.0,0.0,0.0,10.0
1446040711285097110,125,1446040711280277013,robocape_mag,0.75,-12.75,-18.45,10.0,0.0,0.0,0.0,10.0,0.0,0.0,0.0,10.0
1446040711318725944,126,1446040711313947916,robocape_mag,0.75,-12.75,-18.45,10.0,0.0,0.0,0.0,10.0,0.0,0.0,0.0,10.0
1446040711351673569,127,1446040711346870899,robocape_mag,0.75,-12.75,-18.45,10.0,0.0,0.0,0.0,10.0,0.0,0.0,0.0,10.0
1446040711385072319,128,1446040711380192995,robocape_mag,1.65,-11.25,-18.75,10.0,0.0,0.0,0.0,10.0,0.0,0.0,0.0,10.0
1446040711418430652,129,1446040711413666009,robocape_mag,1.65,-11.25,-18.75,10.0,0.0,0.0,0.0,10.0,0.0,0.0,0.0,10.0
1446040711451500110,130,1446040711446785926,robocape_mag,1.65,-11.25,-18.75,10.0,0.0,0.0,0.0,10.0,0.0,0.0,0.0,10.0
1446040711485231277,131,1446040711480412960,robocape_mag,1.65,-11.25,-18.75,10.0,0.0,0.0,0.0,10.0,0.0,0.0,0.0,10.0
1446040711518839110,132,1446040711513820886,robocape_mag,1.65,-11.25,-18.75,10.0,0.0,0.0,0.0,10.0,0.0,0.0,0.0,10.0
1446040711551761610,133,1446040711547040939,robocape_mag,1.35,-10.95,-20.25,10.0,0.0,0.0,0.0,10.0,0.0,0.0,0.0,10.0
1446040711585017902,134,1446040711580252885,robocape_mag,1.35,-10.95,-20.25,10.0,0.0,0.0,0.0,10.0,0.0,0.0,0.0,10.0
1446040711618797319,135,1446040711613801002,robocape_mag,1.35,-10.95,-20.25,10.0,0.0,0.0,0.0,10.0,0.0,0.0,0.0,10.0
1446040711651611152,136,1446040711646704912,robocape_mag,1.35,-10.95,-20.25,10.0,0.0,0.0,0.0,10.0,0.0,0.0,0.0,10.0
1446040711685289319,137,1446040711680454969,robocape_mag,1.35,-10.95,-20.25,10.0,0.0,0.0,0.0,10.0,0.0,0.0,0.0,10.0
1446040711719104694,138,1446040711713701963,robocape_mag,3.45,-11.25,-18.75,10.0,0.0,0.0,0.0,10.0,0.0,0.0,0.0,10.0
1446040711751613444,139,1446040711746649980,robocape_mag,3.45,-11.25,-18.75,10.0,0.0,0.0,0.0,10.0,0.0,0.0,0.0,10.0
1446040711785226277,140,1446040711780384063,robocape_mag,3.45,-11.25,-18.75,10.0,0.0,0.0,0.0,10.0,0.0,0.0,0.0,10.0
1446040711823168110,141,1446040711818291902,robocape_mag,3.45,-11.25,-18.75,10.0,0.0,0.0,0.0,10.0,0.0,0.0,0.0,10.0
1446040711851799860,142,1446040711846637010,robocape_mag,3.45,-11.25,-18.75,10.0,0.0,0.0,0.0,10.0,0.0,0.0,0.0,10.0
1446040711885323360,143,1446040711880392074,robocape_mag,1.05,-11.25,-18.15,10.0,0.0,0.0,0.0,10.0,0.0,0.0,0.0,10.0
1446040711918709610,144,1446040711913908958,robocape_mag,1.05,-11.25,-18.15,10.0,0.0,0.0,0.0,10.0,0.0,0.0,0.0,10.0
1446040711951650235,145,1446040711946762084,robocape_mag,1.05,-11.25,-18.15,10.0,0.0,0.0,0.0,10.0,0.0,0.0,0.0,10.0
1446040711985061444,146,1446040711980309963,robocape_mag,1.05,-11.25,-18.15,10.0,0.0,0.0,0.0,10.0,0.0,0.0,0.0,10.0
1446040712018634236,147,1446040712013709068,robocape_mag,1.05,-11.25,-18.15,10.0,0.0,0.0,0.0,10.0,0.0,0.0,0.0,10.0
1446040712051561736,148,1446040712046776056,robocape_mag,1.35,-12.15,-17.85,10.0,0.0,0.0,0.0,10.0,0.0,0.0,0.0,10.0
1446040712085041069,149,1446040712080276012,robocape_mag,1.35,-12.15,-17.85,10.0,0.0,0.0,0.0,10.0,0.0,0.0,0.0,10.0
1446040712118256527,150,1446040712113507986,robocape_mag,1.35,-12.15,-17.85,10.0,0.0,0.0,0.0,10.0,0.0,0.0,0.0,10.0
1446040712151726069,151,1446040712146939992,robocape_mag,1.35,-12.15,-17.85,10.0,0.0,0.0,0.0,10.0,0.0,0.0,0.0,10.0
1446040712186749569,152,1446040712181968927,robocape_mag,1.05,-11.85,-19.35,10.0,0.0,0.0,0.0,10.0,0.0,0.0,0.0,10.0
1446040712218535736,153,1446040712213676929,robocape_mag,1.05,-11.85,-19.35,10.0,0.0,0.0,0.0,10.0,0.0,0.0,0.0,10.0
1446040712251755444,154,1446040712246674060,robocape_mag,1.05,-11.85,-19.35,10.0,0.0,0.0,0.0,10.0,0.0,0.0,0.0,10.0
1446040712285414652,155,1446040712280467033,robocape_mag,1.05,-11.85,-19.35,10.0,0.0,0.0,0.0,10.0,0.0,0.0,0.0,10.0
1446040712318652236,156,1446040712313827037,robocape_mag,1.05,-11.85,-19.35,10.0,0.0,0.0,0.0,10.0,0.0,0.0,0.0,10.0
1446040712351638944,157,1446040712346621990,robocape_mag,2.55,-12.75,-19.05,10.0,0.0,0.0,0.0,10.0,0.0,0.0,0.0,10.0
1446040712385474694,158,1446040712380390882,robocape_mag,2.55,-12.75,-19.05,10.0,0.0,0.0,0.0,10.0,0.0,0.0,0.0,10.0
1446040712418637819,159,1446040712413840055,robocape_mag,2.55,-12.75,-19.05,10.0,0.0,0.0,0.0,10.0,0.0,0.0,0.0,10.0
1446040712451581819,160,1446040712446751117,robocape_mag,2.55,-12.75,-19.05,10.0,0.0,0.0,0.0,10.0,0.0,0.0,0.0,10.0
1446040712485118694,161,1446040712479994058,robocape_mag,2.55,-12.75,-19.05,10.0,0.0,0.0,0.0,10.0,0.0,0.0,0.0,10.0
1446040712518888819,162,1446040712513603925,robocape_mag,1.05,-11.25,-16.95,10.0,0.0,0.0,0.0,10.0,0.0,0.0,0.0,10.0
1446040712551757611,163,1446040712546919107,robocape_mag,1.05,-11.25,-16.95,10.0,0.0,0.0,0.0,10.0,0.0,0.0,0.0,10.0
1446040712585247527,164,1446040712580136060,robocape_mag,1.05,-11.25,-16.95,10.0,0.0,0.0,0.0,10.0,0.0,0.0,0.0,10.0
1446040712618782944,165,1446040712613723993,robocape_mag,1.05,-11.25,-16.95,10.0,0.0,0.0,0.0,10.0,0.0,0.0,0.0,10.0
1446040712651487861,166,1446040712646615982,robocape_mag,1.05,-11.25,-16.95,10.0,0.0,0.0,0.0,10.0,0.0,0.0,0.0,10.0
1446040712686383153,167,1446040712680660963,robocape_mag,2.25,-11.25,-17.55,10.0,0.0,0.0,0.0,10.0,0.0,0.0,0.0,10.0
1446040712723061319,168,1446040712714365005,robocape_mag,2.25,-11.25,-17.55,10.0,0.0,0.0,0.0,10.0,0.0,0.0,0.0,10.0
1446040712751702444,169,1446040712746684074,robocape_mag,2.25,-11.25,-17.55,10.0,0.0,0.0,0.0,10.0,0.0,0.0,0.0,10.0
1446040712785211319,170,1446040712780031919,robocape_mag,2.25,-11.25,-17.55,10.0,0.0,0.0,0.0,10.0,0.0,0.0,0.0,10.0
1446040712824457736,171,1446040712819499015,robocape_mag,2.55,-12.15,-18.45,10.0,0.0,0.0,0.0,10.0,0.0,0.0,0.0,10.0
1446040712851799611,172,1446040712846653938,robocape_mag,2.55,-12.15,-18.45,10.0,0.0,0.0,0.0,10.0,0.0,0.0,0.0,10.0
1446040712885425861,173,1446040712880202054,robocape_mag,2.55,-12.15,-18.45,10.0,0.0,0.0,0.0,10.0,0.0,0.0,0.0,10.0
1446040712918736528,174,1446040712913945913,robocape_mag,2.55,-12.15,-18.45,10.0,0.0,0.0,0.0,10.0,0.0,0.0,0.0,10.0
1446040712951522111,175,1446040712946757078,robocape_mag,2.55,-12.15,-18.45,10.0,0.0,0.0,0.0,10.0,0.0,0.0,0.0,10.0
1446040712985174236,176,1446040712980155944,robocape_mag,3.15,-11.55,-17.85,10.0,0.0,0.0,0.0,10.0,0.0,0.0,0.0,10.0
1446040713018470694,177,1446040713013470888,robocape_mag,3.15,-11.55,-17.85,10.0,0.0,0.0,0.0,10.0,0.0,0.0,0.0,10.0
1446040713051748278,178,1446040713046744108,robocape_mag,3.15,-11.55,-17.85,10.0,0.0,0.0,0.0,10.0,0.0,0.0,0.0,10.0
1446040713085193861,179,1446040713080060005,robocape_mag,3.15,-11.55,-17.85,10.0,0.0,0.0,0.0,10.0,0.0,0.0,0.0,10.0
1446040713119200236,180,1446040713114227056,robocape_mag,3.15,-11.55,-17.85,10.0,0.0,0.0,0.0,10.0,0.0,0.0,0.0,10.0
1446040713151843736,181,1446040713146756887,robocape_mag,1.65,-12.45,-18.15,10.0,0.0,0.0,0.0,10.0,0.0,0.0,0.0,10.0
1446040713185371903,182,1446040713180167913,robocape_mag,1.65,-12.45,-18.15,10.0,0.0,0.0,0.0,10.0,0.0,0.0,0.0,10.0
1446040713218549736,183,1446040713213654994,robocape_mag,1.65,-12.45,-18.15,10.0,0.0,0.0,0.0,10.0,0.0,0.0,0.0,10.0
1446040713251894403,184,1446040713246686935,robocape_mag,1.65,-12.45,-18.15,10.0,0.0,0.0,0.0,10.0,0.0,0.0,0.0,10.0
1446040713285308111,185,1446040713280061960,robocape_mag,1.65,-12.45,-18.15,10.0,0.0,0.0,0.0,10.0,0.0,0.0,0.0,10.0
1446040713318796986,186,1446040713313785076,robocape_mag,2.55,-10.95,-17.85,10.0,0.0,0.0,0.0,10.0,0.0,0.0,0.0,10.0
1446040713351767194,187,1446040713346647977,robocape_mag,2.55,-10.95,-17.85,10.0,0.0,0.0,0.0,10.0,0.0,0.0,0.0,10.0
1446040713385474361,188,1446040713380225896,robocape_mag,2.55,-10.95,-17.85,10.0,0.0,0.0,0.0,10.0,0.0,0.0,0.0,10.0
1446040713418661195,189,1446040713413670063,robocape_mag,2.55,-10.95,-17.85,10.0,0.0,0.0,0.0,10.0,0.0,0.0,0.0,10.0
1446040713451627486,190,1446040713446691036,robocape_mag,2.55,-10.95,-17.85,10.0,0.0,0.0,0.0,10.0,0.0,0.0,0.0,10.0
1446040713485387486,191,1446040713480173110,robocape_mag,1.65,-12.45,-18.75,10.0,0.0,0.0,0.0,10.0,0.0,0.0,0.0,10.0
1446040713518813903,192,1446040713513657093,robocape_mag,1.65,-12.45,-18.75,10.0,0.0,0.0,0.0,10.0,0.0,0.0,0.0,10.0
1446040713551851111,193,1446040713546837091,robocape_mag,1.65,-12.45,-18.75,10.0,0.0,0.0,0.0,10.0,0.0,0.0,0.0,10.0
1446040713585315028,194,1446040713580075025,robocape_mag,1.65,-12.45,-18.75,10.0,0.0,0.0,0.0,10.0,0.0,0.0,0.0,10.0
1446040713618318236,195,1446040713613542079,robocape_mag,1.65,-12.45,-18.75,10.0,0.0,0.0,0.0,10.0,0.0,0.0,0.0,10.0
1446040713651683278,196,1446040713646801948,robocape_mag,2.25,-12.45,-17.55,10.0,0.0,0.0,0.0,10.0,0.0,0.0,0.0,10.0
1446040713685508195,197,1446040713680233955,robocape_mag,2.25,-12.45,-17.55,10.0,0.0,0.0,0.0,10.0,0.0,0.0,0.0,10.0
1446040713718384195,198,1446040713713536977,robocape_mag,2.25,-12.45,-17.55,10.0,0.0,0.0,0.0,10.0,0.0,0.0,0.0,10.0
1446040713751738528,199,1446040713746648073,robocape_mag,2.25,-12.45,-17.55,10.0,0.0,0.0,0.0,10.0,0.0,0.0,0.0,10.0
1446040713787420070,200,1446040713782344102,robocape_mag,2.25,-11.85,-18.75,10.0,0.0,0.0,0.0,10.0,0.0,0.0,0.0,10.0
1446040713824247820,201,1446040713819324016,robocape_mag,2.25,-11.85,-18.75,10.0,0.0,0.0,0.0,10.0,0.0,0.0,0.0,10.0
1446040713851760903,202,1446040713846613883,robocape_mag,2.25,-11.85,-18.75,10.0,0.0,0.0,0.0,10.0,0.0,0.0,0.0,10.0
1446040713885521445,203,1446040713880198955,robocape_mag,2.25,-11.85,-18.75,10.0,0.0,0.0,0.0,10.0,0.0,0.0,0.0,10.0
1446040713918585820,204,1446040713913773059,robocape_mag,2.25,-11.85,-18.75,10.0,0.0,0.0,0.0,10.0,0.0,0.0,0.0,10.0
1446040713951758320,205,1446040713946808099,robocape_mag,1.35,-9.75,-19.05,10.0,0.0,0.0,0.0,10.0,0.0,0.0,0.0,10.0
1446040713985024695,206,1446040713980114936,robocape_mag,1.35,-9.75,-19.05,10.0,0.0,0.0,0.0,10.0,0.0,0.0,0.0,10.0
1446040714018877278,207,1446040714013881921,robocape_mag,1.35,-9.75,-19.05,10.0,0.0,0.0,0.0,10.0,0.0,0.0,0.0,10.0
1446040714051862611,208,1446040714046943902,robocape_mag,1.35,-9.75,-19.05,10.0,0.0,0.0,0.0,10.0,0.0,0.0,0.0,10.0
1446040714085215778,209,1446040714080291032,robocape_mag,1.35,-9.75,-19.05,10.0,0.0,0.0,0.0,10.0,0.0,0.0,0.0,10.0
1446040714118482653,210,1446040714113538980,robocape_mag,2.85,-11.85,-18.75,10.0,0.0,0.0,0.0,10.0,0.0,0.0,0.0,10.0
1446040714151897695,211,1446040714146724939,robocape_mag,2.85,-11.85,-18.75,10.0,0.0,0.0,0.0,10.0,0.0,0.0,0.0,10.0
1446040714186667653,212,1446040714179994106,robocape_mag,2.85,-11.85,-18.75,10.0,0.0,0.0,0.0,10.0,0.0,0.0,0.0,10.0
1446040714218726362,213,1446040714213788032,robocape_mag,2.85,-11.85,-18.75,10.0,0.0,0.0,0.0,10.0,0.0,0.0,0.0,10.0
1446040714252041862,214,1446040714246917963,robocape_mag,2.85,-11.85,-18.75,10.0,0.0,0.0,0.0,10.0,0.0,0.0,0.0,10.0
1446040714285016403,215,1446040714280081987,robocape_mag,1.65,-10.65,-17.55,10.0,0.0,0.0,0.0,10.0,0.0,0.0,0.0,10.0
1446040714318650862,216,1446040714313664913,robocape_mag,1.65,-10.65,-17.55,10.0,0.0,0.0,0.0,10.0,0.0,0.0,0.0,10.0
1446040714352044403,217,1446040714346868038,robocape_mag,1.65,-10.65,-17.55,10.0,0.0,0.0,0.0,10.0,0.0,0.0,0.0,10.0
1446040714385330278,218,1446040714380248069,robocape_mag,1.65,-10.65,-17.55,10.0,0.0,0.0,0.0,10.0,0.0,0.0,0.0,10.0
1446040714418881528,219,1446040714413924932,robocape_mag,1.65,-10.65,-17.55,10.0,0.0,0.0,0.0,10.0,0.0,0.0,0.0,10.0
1446040714451960278,220,1446040714446978092,robocape_mag,-0.15,-10.65,-17.55,10.0,0.0,0.0,0.0,10.0,0.0,0.0,0.0,10.0
1446040714485023487,221,1446040714479944944,robocape_mag,-0.15,-10.65,-17.55,10.0,0.0,0.0,0.0,10.0,0.0,0.0,0.0,10.0
1446040714519183070,222,1446040714513639926,robocape_mag,-0.15,-10.65,-17.55,10.0,0.0,0.0,0.0,10.0,0.0,0.0,0.0,10.0
1446040714552251695,223,1446040714547190904,robocape_mag,-0.15,-10.65,-17.55,10.0,0.0,0.0,0.0,10.0,0.0,0.0,0.0,10.0
1446040714585178695,224,1446040714579921007,robocape_mag,1.95,-12.15,-19.05,10.0,0.0,0.0,0.0,10.0,0.0,0.0,0.0,10.0
1446040714619052820,225,1446040714613878011,robocape_mag,1.95,-12.15,-19.05,10.0,0.0,0.0,0.0,10.0,0.0,0.0,0.0,10.0
1446040714651660528,226,1446040714646640062,robocape_mag,1.95,-12.15,-19.05,10.0,0.0,0.0,0.0,10.0,0.0,0.0,0.0,10.0
1446040714685327487,227,1446040714680071115,robocape_mag,1.95,-12.15,-19.05,10.0,0.0,0.0,0.0,10.0,0.0,0.0,0.0,10.0
1446040714718897195,228,1446040714713507890,robocape_mag,1.95,-12.15,-19.05,10.0,0.0,0.0,0.0,10.0,0.0,0.0,0.0,10.0
1446040714751805070,229,1446040714746663093,robocape_mag,3.45,-11.25,-19.35,10.0,0.0,0.0,0.0,10.0,0.0,0.0,0.0,10.0
1446040714785517779,230,1446040714779898881,robocape_mag,3.45,-11.25,-19.35,10.0,0.0,0.0,0.0,10.0,0.0,0.0,0.0,10.0
1446040714823969737,231,1446040714819091081,robocape_mag,3.45,-11.25,-19.35,10.0,0.0,0.0,0.0,10.0,0.0,0.0,0.0,10.0
1446040714853029154,232,1446040714847784042,robocape_mag,3.45,-11.25,-19.35,10.0,0.0,0.0,0.0,10.0,0.0,0.0,0.0,10.0
1446040714885657945,233,1446040714880373001,robocape_mag,3.45,-11.25,-19.35,10.0,0.0,0.0,0.0,10.0,0.0,0.0,0.0,10.0
1446040714919265862,234,1446040714913927078,robocape_mag,3.45,-11.85,-19.35,10.0,0.0,0.0,0.0,10.0,0.0,0.0,0.0,10.0
1446040714951815487,235,1446040714946887016,robocape_mag,3.45,-11.85,-19.35,10.0,0.0,0.0,0.0,10.0,0.0,0.0,0.0,10.0
1446040714985117154,236,1446040714979973077,robocape_mag,3.45,-11.85,-19.35,10.0,0.0,0.0,0.0,10.0,0.0,0.0,0.0,10.0
1446040715019034404,237,1446040715013643026,robocape_mag,3.45,-11.85,-19.35,10.0,0.0,0.0,0.0,10.0,0.0,0.0,0.0,10.0
1446040715051632320,238,1446040715046720027,robocape_mag,3.45,-11.85,-19.35,10.0,0.0,0.0,0.0,10.0,0.0,0.0,0.0,10.0
1446040715084928779,239,1446040715079933881,robocape_mag,1.65,-11.25,-18.75,10.0,0.0,0.0,0.0,10.0,0.0,0.0,0.0,10.0
1446040715119199612,240,1446040715113814115,robocape_mag,1.65,-11.25,-18.75,10.0,0.0,0.0,0.0,10.0,0.0,0.0,0.0,10.0
1446040715151924404,241,1446040715146836042,robocape_mag,1.65,-11.25,-18.75,10.0,0.0,0.0,0.0,10.0,0.0,0.0,0.0,10.0
1446040715185083362,242,1446040715179964065,robocape_mag,1.65,-11.25,-18.75,10.0,0.0,0.0,0.0,10.0,0.0,0.0,0.0,10.0
1446040715218998904,243,1446040715213733911,robocape_mag,1.65,-11.25,-18.75,10.0,0.0,0.0,0.0,10.0,0.0,0.0,0.0,10.0
1446040715251771112,244,1446040715246583938,robocape_mag,0.75,-11.55,-17.85,10.0,0.0,0.0,0.0,10.0,0.0,0.0,0.0,10.0
1446040715284954570,245,1446040715279932022,robocape_mag,0.75,-11.55,-17.85,10.0,0.0,0.0,0.0,10.0,0.0,0.0,0.0,10.0
1446040715319153112,246,1446040715313972949,robocape_mag,0.75,-11.55,-17.85,10.0,0.0,0.0,0.0,10.0,0.0,0.0,0.0,10.0
1446040715351841695,247,1446040715346684932,robocape_mag,0.75,-11.55,-17.85,10.0,0.0,0.0,0.0,10.0,0.0,0.0,0.0,10.0
1446040715385494320,248,1446040715380394935,robocape_mag,3.15,-12.15,-19.65,10.0,0.0,0.0,0.0,10.0,0.0,0.0,0.0,10.0
1446040715419036904,249,1446040715413973093,robocape_mag,3.15,-12.15,-19.65,10.0,0.0,0.0,0.0,10.0,0.0,0.0,0.0,10.0
1446040715451977195,250,1446040715447022914,robocape_mag,3.15,-12.15,-19.65,10.0,0.0,0.0,0.0,10.0,0.0,0.0,0.0,10.0
1446040715484965821,251,1446040715480004072,robocape_mag,3.15,-12.15,-19.65,10.0,0.0,0.0,0.0,10.0,0.0,0.0,0.0,10.0
1446040715518747404,252,1446040715513638973,robocape_mag,3.15,-12.15,-19.65,10.0,0.0,0.0,0.0,10.0,0.0,0.0,0.0,10.0
1446040715551684029,253,1446040715546658992,robocape_mag,2.55,-12.75,-18.45,10.0,0.0,0.0,0.0,10.0,0.0,0.0,0.0,10.0
1446040715584955779,254,1446040715579997062,robocape_mag,2.55,-12.75,-18.45,10.0,0.0,0.0,0.0,10.0,0.0,0.0,0.0,10.0
1446040715618897071,255,1446040715613794088,robocape_mag,2.55,-12.75,-18.45,10.0,0.0,0.0,0.0,10.0,0.0,0.0,0.0,10.0
1446040715651692987,256,1446040715646625041,robocape_mag,2.55,-12.75,-18.45,10.0,0.0,0.0,0.0,10.0,0.0,0.0,0.0,10.0
1446040715684965571,257,1446040715680053949,robocape_mag,2.55,-12.75,-18.45,10.0,0.0,0.0,0.0,10.0,0.0,0.0,0.0,10.0
1446040715718643821,258,1446040715713556051,robocape_mag,2.25,-10.65,-18.15,10.0,0.0,0.0,0.0,10.0,0.0,0.0,0.0,10.0
1446040715752198571,259,1446040715747014999,robocape_mag,2.25,-10.65,-18.15,10.0,0.0,0.0,0.0,10.0,0.0,0.0,0.0,10.0
1446040715784900737,260,1446040715779937982,robocape_mag,2.25,-10.65,-18.15,10.0,0.0,0.0,0.0,10.0,0.0,0.0,0.0,10.0
1446040715824718362,261,1446040715819555997,robocape_mag,2.25,-10.65,-18.15,10.0,0.0,0.0,0.0,10.0,0.0,0.0,0.0,10.0
1446040715852026029,262,1446040715846687078,robocape_mag,2.25,-10.65,-18.15,10.0,0.0,0.0,0.0,10.0,0.0,0.0,0.0,10.0
1446040715885425237,263,1446040715880336999,robocape_mag,2.55,-12.15,-18.45,10.0,0.0,0.0,0.0,10.0,0.0,0.0,0.0,10.0
1446040715919049362,264,1446040715913939952,robocape_mag,2.55,-12.15,-18.45,10.0,0.0,0.0,0.0,10.0,0.0,0.0,0.0,10.0
1446040715955592321,265,1446040715950870037,robocape_mag,2.55,-12.15,-18.45,10.0,0.0,0.0,0.0,10.0,0.0,0.0,0.0,10.0
1446040715984817279,266,1446040715979953050,robocape_mag,2.55,-12.15,-18.45,10.0,0.0,0.0,0.0,10.0,0.0,0.0,0.0,10.0
1446040716019235737,267,1446040716014131069,robocape_mag,2.55,-12.15,-18.45,10.0,0.0,0.0,0.0,10.0,0.0,0.0,0.0,10.0
1446040716051460946,268,1446040716046755075,robocape_mag,2.55,-12.15,-17.85,10.0,0.0,0.0,0.0,10.0,0.0,0.0,0.0,10.0
1446040716084868487,269,1446040716079935073,robocape_mag,2.55,-12.15,-17.85,10.0,0.0,0.0,0.0,10.0,0.0,0.0,0.0,10.0
1446040716118447612,270,1446040716113615989,robocape_mag,2.55,-12.15,-17.85,10.0,0.0,0.0,0.0,10.0,0.0,0.0,0.0,10.0
1446040716151472987,271,1446040716146594047,robocape_mag,2.55,-12.15,-17.85,10.0,0.0,0.0,0.0,10.0,0.0,0.0,0.0,10.0
1446040716185346363,272,1446040716180234909,robocape_mag,2.55,-11.55,-19.65,10.0,0.0,0.0,0.0,10.0,0.0,0.0,0.0,10.0
1446040716218706779,273,1446040716213829994,robocape_mag,2.55,-11.55,-19.65,10.0,0.0,0.0,0.0,10.0,0.0,0.0,0.0,10.0
1446040716251582321,274,1446040716246582031,robocape_mag,2.55,-11.55,-19.65,10.0,0.0,0.0,0.0,10.0,0.0,0.0,0.0,10.0
1446040716285213196,275,1446040716279887914,robocape_mag,2.55,-11.55,-19.65,10.0,0.0,0.0,0.0,10.0,0.0,0.0,0.0,10.0
1446040716319112071,276,1446040716314280033,robocape_mag,2.55,-11.55,-19.65,10.0,0.0,0.0,0.0,10.0,0.0,0.0,0.0,10.0
1446040716351751529,277,1446040716346759080,robocape_mag,1.95,-12.15,-18.45,10.0,0.0,0.0,0.0,10.0,0.0,0.0,0.0,10.0
1446040716385987529,278,1446040716380800008,robocape_mag,1.95,-12.15,-18.45,10.0,0.0,0.0,0.0,10.0,0.0,0.0,0.0,10.0
1446040716418680321,279,1446040716413764953,robocape_mag,1.95,-12.15,-18.45,10.0,0.0,0.0,0.0,10.0,0.0,0.0,0.0,10.0
1446040716451665321,280,1446040716446842908,robocape_mag,1.95,-12.15,-18.45,10.0,0.0,0.0,0.0,10.0,0.0,0.0,0.0,10.0
1446040716485031904,281,1446040716479953050,robocape_mag,1.95,-12.15,-18.45,10.0,0.0,0.0,0.0,10.0,0.0,0.0,0.0,10.0
1446040716518787404,282,1446040716513820886,robocape_mag,1.05,-11.25,-18.75,10.0,0.0,0.0,0.0,10.0,0.0,0.0,0.0,10.0
1446040716551796571,283,1446040716546885013,robocape_mag,1.05,-11.25,-18.75,10.0,0.0,0.0,0.0,10.0,0.0,0.0,0.0,10.0
1446040716585110821,284,1446040716580060005,robocape_mag,1.05,-11.25,-18.75,10.0,0.0,0.0,0.0,10.0,0.0,0.0,0.0,10.0
1446040716618512696,285,1446040716613257884,robocape_mag,1.05,-11.25,-18.75,10.0,0.0,0.0,0.0,10.0,0.0,0.0,0.0,10.0
1446040716651907904,286,1446040716646879911,robocape_mag,1.05,-11.25,-18.75,10.0,0.0,0.0,0.0,10.0,0.0,0.0,0.0,10.0
1446040716684965154,287,1446040716679939985,robocape_mag,1.95,-11.55,-18.45,10.0,0.0,0.0,0.0,10.0,0.0,0.0,0.0,10.0
1446040716718793196,288,1446040716713366031,robocape_mag,1.95,-11.55,-18.45,10.0,0.0,0.0,0.0,10.0,0.0,0.0,0.0,10.0
1446040716751870404,289,1446040716746774911,robocape_mag,1.95,-11.55,-18.45,10.0,0.0,0.0,0.0,10.0,0.0,0.0,0.0,10.0
1446040716785121529,290,1446040716780014991,robocape_mag,1.95,-11.55,-18.45,10.0,0.0,0.0,0.0,10.0,0.0,0.0,0.0,10.0
1446040716824034529,291,1446040716818821907,robocape_mag,1.95,-13.65,-18.75,10.0,0.0,0.0,0.0,10.0,0.0,0.0,0.0,10.0
1446040716851811321,292,1446040716846554994,robocape_mag,3.45,-13.65,-18.75,10.0,0.0,0.0,0.0,10.0,0.0,0.0,0.0,10.0
1446040716885724238,293,1446040716880060911,robocape_mag,3.45,-13.65,-18.75,10.0,0.0,0.0,0.0,10.0,0.0,0.0,0.0,10.0
1446040716918754113,294,1446040716913326978,robocape_mag,3.45,-13.65,-18.75,10.0,0.0,0.0,0.0,10.0,0.0,0.0,0.0,10.0
1446040716951846113,295,1446040716946835041,robocape_mag,3.45,-13.65,-18.75,10.0,0.0,0.0,0.0,10.0,0.0,0.0,0.0,10.0
1446040716985690738,296,1446040716980696916,robocape_mag,3.45,-11.85,-19.95,10.0,0.0,0.0,0.0,10.0,0.0,0.0,0.0,10.0
1446040717018668613,297,1446040717013364076,robocape_mag,3.45,-11.85,-19.95,10.0,0.0,0.0,0.0,10.0,0.0,0.0,0.0,10.0
1446040717051759905,298,1446040717046705007,robocape_mag,3.45,-11.85,-19.95,10.0,0.0,0.0,0.0,10.0,0.0,0.0,0.0,10.0
1446040717084991696,299,1446040717079999923,robocape_mag,3.45,-11.85,-19.95,10.0,0.0,0.0,0.0,10.0,0.0,0.0,0.0,10.0
1446040717120193405,300,1446040717113605976,robocape_mag,3.45,-11.85,-19.95,10.0,0.0,0.0,0.0,10.0,0.0,0.0,0.0,10.0
1446040717151892821,301,1446040717146816015,robocape_mag,3.45,-11.85,-20.55,10.0,0.0,0.0,0.0,10.0,0.0,0.0,0.0,10.0
1446040717184875446,302,1446040717179959058,robocape_mag,3.45,-11.85,-20.55,10.0,0.0,0.0,0.0,10.0,0.0,0.0,0.0,10.0
1446040717218745321,303,1446040717213356971,robocape_mag,3.45,-11.85,-20.55,10.0,0.0,0.0,0.0,10.0,0.0,0.0,0.0,10.0
1446040717252183196,304,1446040717246978998,robocape_mag,3.45,-11.85,-20.55,10.0,0.0,0.0,0.0,10.0,0.0,0.0,0.0,10.0
1446040717284798988,305,1446040717280014991,robocape_mag,3.45,-11.85,-20.55,10.0,0.0,0.0,0.0,10.0,0.0,0.0,0.0,10.0
1446040717318980363,306,1446040717313510894,robocape_mag,4.05,-13.65,-19.35,10.0,0.0,0.0,0.0,10.0,0.0,0.0,0.0,10.0
1446040717351734488,307,1446040717346617937,robocape_mag,4.05,-13.65,-19.35,10.0,0.0,0.0,0.0,10.0,0.0,0.0,0.0,10.0
1446040717385568738,308,1446040717379913091,robocape_mag,4.05,-13.65,-19.35,10.0,0.0,0.0,0.0,10.0,0.0,0.0,0.0,10.0
1446040717419023655,309,1446040717413549900,robocape_mag,4.05,-13.65,-19.35,10.0,0.0,0.0,0.0,10.0,0.0,0.0,0.0,10.0
1446040717451811863,310,1446040717446764945,robocape_mag,4.05,-13.65,-19.35,10.0,0.0,0.0,0.0,10.0,0.0,0.0,0.0,10.0
1446040717484949530,311,1446040717479990959,robocape_mag,1.35,-10.95,-18.45,10.0,0.0,0.0,0.0,10.0,0.0,0.0,0.0,10.0
1446040717518429363,312,1446040717513422012,robocape_mag,1.35,-10.95,-18.45,10.0,0.0,0.0,0.0,10.0,0.0,0.0,0.0,10.0
1446040717552051030,313,1446040717546627044,robocape_mag,1.35,-10.95,-18.45,10.0,0.0,0.0,0.0,10.0,0.0,0.0,0.0,10.0
1446040717584954155,314,1446040717580051898,robocape_mag,1.35,-10.95,-18.45,10.0,0.0,0.0,0.0,10.0,0.0,0.0,0.0,10.0
1446040717618481822,315,1446040717613339900,robocape_mag,1.35,-10.95,-18.45,10.0,0.0,0.0,0.0,10.0,0.0,0.0,0.0,10.0
1446040717651606572,316,1446040717646601915,robocape_mag,3.45,-12.45,-17.55,10.0,0.0,0.0,0.0,10.0,0.0,0.0,0.0,10.0
1446040717685385822,317,1446040717680314064,robocape_mag,3.45,-12.45,-17.55,10.0,0.0,0.0,0.0,10.0,0.0,0.0,0.0,10.0
1446040717718271363,318,1446040717713283061,robocape_mag,3.45,-12.45,-17.55,10.0,0.0,0.0,0.0,10.0,0.0,0.0,0.0,10.0
1446040717751924072,319,1446040717746856927,robocape_mag,3.45,-12.45,-17.55,10.0,0.0,0.0,0.0,10.0,0.0,0.0,0.0,10.0
1446040717784729822,320,1446040717779956102,robocape_mag,78.45,-11.85,-18.15,10.0,0.0,0.0,0.0,10.0,0.0,0.0,0.0,10.0
1446040717824742655,321,1446040717819181919,robocape_mag,1.65,-11.85,-18.15,10.0,0.0,0.0,0.0,10.0,0.0,0.0,0.0,10.0
1446040717851812197,322,1446040717846622943,robocape_mag,1.65,-11.85,-18.15,10.0,0.0,0.0,0.0,10.0,0.0,0.0,0.0,10.0
1446040717885309863,323,1446040717879874944,robocape_mag,1.65,-11.85,-18.15,10.0,0.0,0.0,0.0,10.0,0.0,0.0,0.0,10.0
1446040717918548322,324,1446040717913450956,robocape_mag,1.65,-11.85,-18.15,10.0,0.0,0.0,0.0,10.0,0.0,0.0,0.0,10.0
1446040717951716238,325,1446040717946691036,robocape_mag,2.25,-11.85,-19.35,10.0,0.0,0.0,0.0,10.0,0.0,0.0,0.0,10.0
1446040717984988947,326,1446040717979995012,robocape_mag,2.25,-11.85,-19.35,10.0,0.0,0.0,0.0,10.0,0.0,0.0,0.0,10.0
1446040718018263697,327,1446040718013380050,robocape_mag,2.25,-11.85,-19.35,10.0,0.0,0.0,0.0,10.0,0.0,0.0,0.0,10.0
1446040718052651613,328,1446040718047532081,robocape_mag,2.25,-11.85,-19.35,10.0,0.0,0.0,0.0,10.0,0.0,0.0,0.0,10.0
1446040718084911155,329,1446040718080008983,robocape_mag,2.25,-11.85,-19.35,10.0,0.0,0.0,0.0,10.0,0.0,0.0,0.0,10.0
1446040718118403405,330,1446040718113493919,robocape_mag,1.95,-10.95,-17.25,10.0,0.0,0.0,0.0,10.0,0.0,0.0,0.0,10.0
1446040718151639447,331,1446040718146646976,robocape_mag,1.95,-10.95,-17.25,10.0,0.0,0.0,0.0,10.0,0.0,0.0,0.0,10.0
1446040718185107780,332,1446040718180141925,robocape_mag,1.95,-10.95,-17.25,10.0,0.0,0.0,0.0,10.0,0.0,0.0,0.0,10.0
1446040718218316613,333,1446040718213483095,robocape_mag,1.95,-10.95,-17.25,10.0,0.0,0.0,0.0,10.0,0.0,0.0,0.0,10.0
1446040718251729363,334,1446040718246623992,robocape_mag,1.95,-10.95,-17.25,10.0,0.0,0.0,0.0,10.0,0.0,0.0,0.0,10.0
1446040718285062614,335,1446040718279998064,robocape_mag,1.05,-12.45,-18.75,10.0,0.0,0.0,0.0,10.0,0.0,0.0,0.0,10.0
1446040718318406489,336,1446040718313602924,robocape_mag,1.05,-12.45,-18.75,10.0,0.0,0.0,0.0,10.0,0.0,0.0,0.0,10.0
1446040718351699489,337,1446040718346632957,robocape_mag,1.05,-12.45,-18.75,10.0,0.0,0.0,0.0,10.0,0.0,0.0,0.0,10.0
1446040718385344905,338,1446040718379968881,robocape_mag,1.05,-12.45,-18.75,10.0,0.0,0.0,0.0,10.0,0.0,0.0,0.0,10.0
1446040718418209989,339,1446040718413305997,robocape_mag,1.05,-12.45,-18.75,10.0,0.0,0.0,0.0,10.0,0.0,0.0,0.0,10.0
1446040718451653114,340,1446040718446651935,robocape_mag,2.85,-11.85,-19.35,10.0,0.0,0.0,0.0,10.0,0.0,0.0,0.0,10.0
1446040718485042072,341,1446040718480133056,robocape_mag,2.85,-11.85,-19.35,10.0,0.0,0.0,0.0,10.0,0.0,0.0,0.0,10.0
1446040718518071655,342,1446040718513310909,robocape_mag,2.85,-11.85,-19.35,10.0,0.0,0.0,0.0,10.0,0.0,0.0,0.0,10.0
1446040718551978905,343,1446040718546951055,robocape_mag,2.85,-11.85,-19.35,10.0,0.0,0.0,0.0,10.0,0.0,0.0,0.0,10.0
1446040718585518405,344,1446040718580302000,robocape_mag,1.35,-10.95,-19.05,10.0,0.0,0.0,0.0,10.0,0.0,0.0,0.0,10.0
1446040718618014155,345,1446040718613272905,robocape_mag,1.35,-10.95,-19.05,10.0,0.0,0.0,0.0,10.0,0.0,0.0,0.0,10.0
1446040718651907530,346,1446040718646811962,robocape_mag,1.35,-10.95,-19.05,10.0,0.0,0.0,0.0,10.0,0.0,0.0,0.0,10.0
1446040718684925405,347,1446040718680025100,robocape_mag,1.35,-10.95,-19.05,10.0,0.0,0.0,0.0,10.0,0.0,0.0,0.0,10.0
1446040718718154947,348,1446040718713361024,robocape_mag,1.35,-10.95,-19.05,10.0,0.0,0.0,0.0,10.0,0.0,0.0,0.0,10.0
1446040718751712572,349,1446040718746793985,robocape_mag,2.85,-11.25,-18.15,10.0,0.0,0.0,0.0,10.0,0.0,0.0,0.0,10.0
1446040718784945239,350,1446040718779972076,robocape_mag,2.85,-11.25,-18.15,10.0,0.0,0.0,0.0,10.0,0.0,0.0,0.0,10.0
1446040718822762197,351,1446040718817621946,robocape_mag,2.85,-11.25,-18.15,10.0,0.0,0.0,0.0,10.0,0.0,0.0,0.0,10.0
1446040718856385614,352,1446040718851443052,robocape_mag,2.85,-11.25,-18.15,10.0,0.0,0.0,0.0,10.0,0.0,0.0,0.0,10.0
1446040718885435280,353,1446040718880022048,robocape_mag,2.85,-11.25,-18.15,10.0,0.0,0.0,0.0,10.0,0.0,0.0,0.0,10.0
1446040718918233114,354,1446040718913289070,robocape_mag,1.35,-10.95,-18.45,10.0,0.0,0.0,0.0,10.0,0.0,0.0,0.0,10.0
1446040718951790905,355,1446040718946822881,robocape_mag,1.35,-10.95,-18.45,10.0,0.0,0.0,0.0,10.0,0.0,0.0,0.0,10.0
1446040718985010781,356,1446040718980103969,robocape_mag,1.35,-10.95,-18.45,10.0,0.0,0.0,0.0,10.0,0.0,0.0,0.0,10.0
1446040719018138739,357,1446040719013348102,robocape_mag,1.35,-10.95,-18.45,10.0,0.0,0.0,0.0,10.0,0.0,0.0,0.0,10.0
1446040719055577781,358,1446040719048702001,robocape_mag,1.35,-10.95,-18.45,10.0,0.0,0.0,0.0,10.0,0.0,0.0,0.0,10.0
1446040719087682156,359,1446040719082459926,robocape_mag,1.05,-11.25,-18.75,10.0,0.0,0.0,0.0,10.0,0.0,0.0,0.0,10.0
1446040719123176697,360,1446040719118113994,robocape_mag,1.05,-11.25,-18.75,10.0,0.0,0.0,0.0,10.0,0.0,0.0,0.0,10.0
1446040719159183614,361,1446040719150067090,robocape_mag,1.05,-11.25,-18.75,10.0,0.0,0.0,0.0,10.0,0.0,0.0,0.0,10.0
1446040719186804281,362,1446040719181891918,robocape_mag,1.05,-11.25,-18.75,10.0,0.0,0.0,0.0,10.0,0.0,0.0,0.0,10.0
1446040719219716781,363,1446040719214770078,robocape_mag,1.05,-11.25,-18.75,10.0,0.0,0.0,0.0,10.0,0.0,0.0,0.0,10.0
1446040719253110572,364,1446040719247934103,robocape_mag,2.85,-13.05,-17.55,10.0,0.0,0.0,0.0,10.0,0.0,0.0,0.0,10.0
1446040719286036656,365,1446040719281110048,robocape_mag,2.85,-13.05,-17.55,10.0,0.0,0.0,0.0,10.0,0.0,0.0,0.0,10.0
1446040719319589489,366,1446040719314546108,robocape_mag,2.85,-13.05,-17.55,10.0,0.0,0.0,0.0,10.0,0.0,0.0,0.0,10.0
1446040719353241864,367,1446040719348045110,robocape_mag,2.85,-13.05,-17.55,10.0,0.0,0.0,0.0,10.0,0.0,0.0,0.0,10.0
1446040719387781197,368,1446040719380703926,robocape_mag,2.85,-11.25,-18.15,10.0,0.0,0.0,0.0,10.0,0.0,0.0,0.0,10.0
1446040719419788989,369,1446040719414757013,robocape_mag,2.85,-11.25,-18.15,10.0,0.0,0.0,0.0,10.0,0.0,0.0,0.0,10.0
1446040719452961447,370,1446040719447957992,robocape_mag,2.85,-11.25,-18.15,10.0,0.0,0.0,0.0,10.0,0.0,0.0,0.0,10.0
1446040719491006572,371,1446040719481630086,robocape_mag,2.85,-11.25,-18.15,10.0,0.0,0.0,0.0,10.0,0.0,0.0,0.0,10.0
1446040719519543322,372,1446040719514532089,robocape_mag,2.85,-11.25,-18.15,10.0,0.0,0.0,0.0,10.0,0.0,0.0,0.0,10.0
1446040719553133281,373,1446040719548218011,robocape_mag,0.45,-11.85,-18.15,10.0,0.0,0.0,0.0,10.0,0.0,0.0,0.0,10.0
1446040719585774489,374,1446040719580804109,robocape_mag,0.45,-11.85,-18.15,10.0,0.0,0.0,0.0,10.0,0.0,0.0,0.0,10.0
1446040719619818239,375,1446040719614856958,robocape_mag,0.45,-11.85,-18.15,10.0,0.0,0.0,0.0,10.0,0.0,0.0,0.0,10.0
1446040719656630281,376,1446040719651609897,robocape_mag,0.45,-11.85,-18.15,10.0,0.0,0.0,0.0,10.0,0.0,0.0,0.0,10.0
1446040719688678281,377,1446040719683633089,robocape_mag,0.45,-11.85,-18.15,10.0,0.0,0.0,0.0,10.0,0.0,0.0,0.0,10.0
1446040719722382739,378,1446040719717386007,robocape_mag,2.55,-11.55,-19.65,10.0,0.0,0.0,0.0,10.0,0.0,0.0,0.0,10.0
1446040719752572573,379,1446040719747718095,robocape_mag,2.55,-11.55,-19.65,10.0,0.0,0.0,0.0,10.0,0.0,0.0,0.0,10.0
1446040719785534239,380,1446040719780635118,robocape_mag,2.55,-11.55,-19.65,10.0,0.0,0.0,0.0,10.0,0.0,0.0,0.0,10.0
1446040719824152864,381,1446040719815361022,robocape_mag,2.55,-11.55,-19.65,10.0,0.0,0.0,0.0,10.0,0.0,0.0,0.0,10.0
1446040719853269031,382,1446040719848268985,robocape_mag,2.55,-11.55,-19.65,10.0,0.0,0.0,0.0,10.0,0.0,0.0,0.0,10.0
1446040719885849739,383,1446040719880667924,robocape_mag,1.95,-11.55,-19.05,10.0,0.0,0.0,0.0,10.0,0.0,0.0,0.0,10.0
1446040719919125823,384,1446040719914145946,robocape_mag,1.95,-11.55,-19.05,10.0,0.0,0.0,0.0,10.0,0.0,0.0,0.0,10.0
1446040719952223364,385,1446040719947407960,robocape_mag,1.95,-11.55,-19.05,10.0,0.0,0.0,0.0,10.0,0.0,0.0,0.0,10.0
1446040719986508739,386,1446040719981441020,robocape_mag,1.95,-11.55,-19.05,10.0,0.0,0.0,0.0,10.0,0.0,0.0,0.0,10.0
1446040720021163114,387,1446040720014437913,robocape_mag,1.95,-11.55,-19.05,10.0,0.0,0.0,0.0,10.0,0.0,0.0,0.0,10.0
1446040720055219864,388,1446040720050066947,robocape_mag,2.25,-10.65,-19.35,10.0,0.0,0.0,0.0,10.0,0.0,0.0,0.0,10.0
1446040720088293531,389,1446040720083096027,robocape_mag,2.25,-10.65,-19.35,10.0,0.0,0.0,0.0,10.0,0.0,0.0,0.0,10.0
1446040720122749698,390,1446040720117806911,robocape_mag,2.25,-10.65,-19.35,10.0,0.0,0.0,0.0,10.0,0.0,0.0,0.0,10.0
1446040720153557739,391,1446040720148643016,robocape_mag,2.25,-10.65,-19.35,10.0,0.0,0.0,0.0,10.0,0.0,0.0,0.0,10.0
1446040720186523198,392,1446040720180741071,robocape_mag,2.55,-12.75,-17.25,10.0,0.0,0.0,0.0,10.0,0.0,0.0,0.0,10.0
1446040720221582406,393,1446040720215085983,robocape_mag,2.55,-12.75,-17.25,10.0,0.0,0.0,0.0,10.0,0.0,0.0,0.0,10.0
1446040720254824948,394,1446040720249871015,robocape_mag,2.55,-12.75,-17.25,10.0,0.0,0.0,0.0,10.0,0.0,0.0,0.0,10.0
1446040720286908531,395,1446040720281698942,robocape_mag,2.55,-12.75,-17.25,10.0,0.0,0.0,0.0,10.0,0.0,0.0,0.0,10.0
1446040720319657656,396,1446040720314596891,robocape_mag,2.55,-12.75,-17.25,10.0,0.0,0.0,0.0,10.0,0.0,0.0,0.0,10.0
1446040720353977156,397,1446040720348860025,robocape_mag,2.25,-11.25,-18.15,10.0,0.0,0.0,0.0,10.0,0.0,0.0,0.0,10.0
1446040720386898823,398,1446040720381599903,robocape_mag,2.25,-11.25,-18.15,10.0,0.0,0.0,0.0,10.0,0.0,0.0,0.0,10.0
1446040720422905823,399,1446040720417824983,robocape_mag,2.25,-11.25,-18.15,10.0,0.0,0.0,0.0,10.0,0.0,0.0,0.0,10.0
1446040720455709990,400,1446040720450535058,robocape_mag,2.25,-11.25,-18.15,10.0,0.0,0.0,0.0,10.0,0.0,0.0,0.0,10.0
1446040720493012490,401,1446040720483725070,robocape_mag,2.25,-11.25,-18.15,10.0,0.0,0.0,0.0,10.0,0.0,0.0,0.0,10.0
1446040720523413906,402,1446040720518312931,robocape_mag,2.25,-10.05,-18.75,10.0,0.0,0.0,0.0,10.0,0.0,0.0,0.0,10.0
1446040720555213365,403,1446040720550302982,robocape_mag,2.25,-10.05,-18.75,10.0,0.0,0.0,0.0,10.0,0.0,0.0,0.0,10.0
1446040720586002156,404,1446040720580925941,robocape_mag,2.25,-10.05,-18.75,10.0,0.0,0.0,0.0,10.0,0.0,0.0,0.0,10.0
1446040720619518781,405,1446040720614594936,robocape_mag,2.25,-10.05,-18.75,10.0,0.0,0.0,0.0,10.0,0.0,0.0,0.0,10.0
1446040720652409281,406,1446040720647340059,robocape_mag,2.25,-10.05,-18.75,10.0,0.0,0.0,0.0,10.0,0.0,0.0,0.0,10.0
1446040720685274156,407,1446040720680449008,robocape_mag,2.85,-12.45,-18.15,10.0,0.0,0.0,0.0,10.0,0.0,0.0,0.0,10.0
1446040720718629198,408,1446040720713764905,robocape_mag,2.85,-12.45,-18.15,10.0,0.0,0.0,0.0,10.0,0.0,0.0,0.0,10.0
1446040720752443281,409,1446040720747612953,robocape_mag,2.85,-12.45,-18.15,10.0,0.0,0.0,0.0,10.0,0.0,0.0,0.0,10.0
1446040720788062073,410,1446040720780265092,robocape_mag,2.85,-12.45,-18.15,10.0,0.0,0.0,0.0,10.0,0.0,0.0,0.0,10.0
1446040720823294948,411,1446040720818455934,robocape_mag,2.85,-12.45,-18.15,10.0,0.0,0.0,0.0,10.0,0.0,0.0,0.0,10.0
1446040720855942531,412,1446040720850828886,robocape_mag,1.95,-11.55,-18.45,10.0,0.0,0.0,0.0,10.0,0.0,0.0,0.0,10.0
1446040720893940823,413,1446040720883444070,robocape_mag,1.95,-11.55,-18.45,10.0,0.0,0.0,0.0,10.0,0.0,0.0,0.0,10.0
1446040720922802948,414,1446040720917844057,robocape_mag,1.95,-11.55,-18.45,10.0,0.0,0.0,0.0,10.0,0.0,0.0,0.0,10.0
1446040720955763573,415,1446040720950828075,robocape_mag,1.95,-11.55,-18.45,10.0,0.0,0.0,0.0,10.0,0.0,0.0,0.0,10.0
1446040720988558698,416,1446040720983592987,robocape_mag,2.85,-11.85,-18.15,10.0,0.0,0.0,0.0,10.0,0.0,0.0,0.0,10.0
1446040721022351573,417,1446040721017179012,robocape_mag,2.85,-11.85,-18.15,10.0,0.0,0.0,0.0,10.0,0.0,0.0,0.0,10.0
1446040721056047365,418,1446040721051141023,robocape_mag,2.85,-11.85,-18.15,10.0,0.0,0.0,0.0,10.0,0.0,0.0,0.0,10.0
1446040721089088115,419,1446040721084186077,robocape_mag,2.85,-11.85,-18.15,10.0,0.0,0.0,0.0,10.0,0.0,0.0,0.0,10.0
1446040721121592157,420,1446040721116475105,robocape_mag,2.85,-11.85,-18.15,10.0,0.0,0.0,0.0,10.0,0.0,0.0,0.0,10.0
1446040721152171657,421,1446040721147238016,robocape_mag,3.75,-12.75,-19.05,10.0,0.0,0.0,0.0,10.0,0.0,0.0,0.0,10.0
1446040721186427990,422,1446040721181489944,robocape_mag,3.75,-12.75,-19.05,10.0,0.0,0.0,0.0,10.0,0.0,0.0,0.0,10.0
1446040721223699532,423,1446040721214803934,robocape_mag,3.75,-12.75,-19.05,10.0,0.0,0.0,0.0,10.0,0.0,0.0,0.0,10.0
1446040721251651198,424,1446040721246690034,robocape_mag,3.75,-12.75,-19.05,10.0,0.0,0.0,0.0,10.0,0.0,0.0,0.0,10.0
1446040721284732323,425,1446040721279829978,robocape_mag,3.75,-12.75,-19.05,10.0,0.0,0.0,0.0,10.0,0.0,0.0,0.0,10.0
1446040721319664157,426,1446040721314552068,robocape_mag,1.65,-11.85,-17.55,10.0,0.0,0.0,0.0,10.0,0.0,0.0,0.0,10.0
1446040721351837157,427,1446040721346889019,robocape_mag,1.65,-11.85,-17.55,10.0,0.0,0.0,0.0,10.0,0.0,0.0,0.0,10.0
1446040721384905532,428,1446040721379961013,robocape_mag,1.65,-11.85,-17.55,10.0,0.0,0.0,0.0,10.0,0.0,0.0,0.0,10.0
1446040721419821198,429,1446040721414835929,robocape_mag,1.65,-11.85,-17.55,10.0,0.0,0.0,0.0,10.0,0.0,0.0,0.0,10.0
1446040721452664198,430,1446040721447676897,robocape_mag,1.65,-11.85,-17.55,10.0,0.0,0.0,0.0,10.0,0.0,0.0,0.0,10.0
1446040721485711240,431,1446040721480640888,robocape_mag,2.85,-11.85,-16.95,10.0,0.0,0.0,0.0,10.0,0.0,0.0,0.0,10.0
1446040721518633157,432,1446040721513830900,robocape_mag,2.85,-11.85,-16.95,10.0,0.0,0.0,0.0,10.0,0.0,0.0,0.0,10.0
1446040721552556490,433,1446040721547692060,robocape_mag,2.85,-11.85,-16.95,10.0,0.0,0.0,0.0,10.0,0.0,0.0,0.0,10.0
1446040721584981115,434,1446040721580189943,robocape_mag,2.85,-11.85,-16.95,10.0,0.0,0.0,0.0,10.0,0.0,0.0,0.0,10.0
1446040721624009157,435,1446040721614586114,robocape_mag,2.85,-11.85,-16.95,10.0,0.0,0.0,0.0,10.0,0.0,0.0,0.0,10.0
1446040721653103198,436,1446040721648180961,robocape_mag,2.85,-11.25,-18.75,10.0,0.0,0.0,0.0,10.0,0.0,0.0,0.0,10.0
1446040721690011198,437,1446040721680794954,robocape_mag,2.85,-11.25,-18.75,10.0,0.0,0.0,0.0,10.0,0.0,0.0,0.0,10.0
1446040721719411490,438,1446040721714509963,robocape_mag,2.85,-11.25,-18.75,10.0,0.0,0.0,0.0,10.0,0.0,0.0,0.0,10.0
1446040721753240073,439,1446040721748393058,robocape_mag,2.85,-11.25,-18.75,10.0,0.0,0.0,0.0,10.0,0.0,0.0,0.0,10.0
1446040721785994949,440,1446040721781097888,robocape_mag,78.45,-10.65,-18.15,10.0,0.0,0.0,0.0,10.0,0.0,0.0,0.0,10.0
1446040721825175949,441,1446040721820190906,robocape_mag,1.65,-10.65,-18.15,10.0,0.0,0.0,0.0,10.0,0.0,0.0,0.0,10.0
1446040721859339615,442,1446040721854295015,robocape_mag,1.65,-10.65,-18.15,10.0,0.0,0.0,0.0,10.0,0.0,0.0,0.0,10.0
1446040721897204032,443,1446040721887192010,robocape_mag,1.65,-10.65,-18.15,10.0,0.0,0.0,0.0,10.0,0.0,0.0,0.0,10.0
1446040721925144615,444,1446040721920255899,robocape_mag,1.65,-10.65,-18.15,10.0,0.0,0.0,0.0,10.0,0.0,0.0,0.0,10.0
1446040721956123115,445,1446040721951248884,robocape_mag,1.65,-11.85,-18.15,10.0,0.0,0.0,0.0,10.0,0.0,0.0,0.0,10.0
1446040721986458657,446,1446040721981472969,robocape_mag,1.65,-11.85,-18.15,10.0,0.0,0.0,0.0,10.0,0.0,0.0,0.0,10.0
1446040722019916740,447,1446040722014739036,robocape_mag,1.65,-11.85,-18.15,10.0,0.0,0.0,0.0,10.0,0.0,0.0,0.0,10.0
1446040722053459365,448,1446040722048590898,robocape_mag,1.65,-11.85,-18.15,10.0,0.0,0.0,0.0,10.0,0.0,0.0,0.0,10.0
1446040722086156615,449,1446040722081131935,robocape_mag,1.65,-11.85,-18.15,10.0,0.0,0.0,0.0,10.0,0.0,0.0,0.0,10.0
1446040722120044240,450,1446040722115051031,robocape_mag,2.55,-11.55,-18.45,10.0,0.0,0.0,0.0,10.0,0.0,0.0,0.0,10.0
1446040722152727324,451,1446040722147542953,robocape_mag,2.55,-11.55,-18.45,10.0,0.0,0.0,0.0,10.0,0.0,0.0,0.0,10.0
1446040722185862990,452,1446040722180841922,robocape_mag,2.55,-11.55,-18.45,10.0,0.0,0.0,0.0,10.0,0.0,0.0,0.0,10.0
1446040722225429115,453,1446040722214601993,robocape_mag,2.55,-11.55,-18.45,10.0,0.0,0.0,0.0,10.0,0.0,0.0,0.0,10.0
1446040722254845699,454,1446040722249547004,robocape_mag,2.55,-11.55,-18.45,10.0,0.0,0.0,0.0,10.0,0.0,0.0,0.0,10.0
1446040722287536449,455,1446040722282414913,robocape_mag,0.75,-10.95,-18.45,10.0,0.0,0.0,0.0,10.0,0.0,0.0,0.0,10.0
1446040722326221490,456,1446040722314937114,robocape_mag,0.75,-10.95,-18.45,10.0,0.0,0.0,0.0,10.0,0.0,0.0,0.0,10.0
1446040722354727949,457,1446040722349483013,robocape_mag,0.75,-10.95,-18.45,10.0,0.0,0.0,0.0,10.0,0.0,0.0,0.0,10.0
1446040722386591240,458,1446040722381531953,robocape_mag,0.75,-10.95,-18.45,10.0,0.0,0.0,0.0,10.0,0.0,0.0,0.0,10.0
1446040722420021824,459,1446040722414880990,robocape_mag,0.75,-10.95,-18.45,10.0,0.0,0.0,0.0,10.0,0.0,0.0,0.0,10.0
1446040722457574907,460,1446040722447963953,robocape_mag,2.25,-11.25,-19.95,10.0,0.0,0.0,0.0,10.0,0.0,0.0,0.0,10.0
1446040722486562241,461,1446040722481441974,robocape_mag,2.25,-11.25,-19.95,10.0,0.0,0.0,0.0,10.0,0.0,0.0,0.0,10.0
1446040722519997366,462,1446040722514890909,robocape_mag,2.25,-11.25,-19.95,10.0,0.0,0.0,0.0,10.0,0.0,0.0,0.0,10.0
1446040722554594449,463,1446040722547910928,robocape_mag,2.25,-11.25,-19.95,10.0,0.0,0.0,0.0,10.0,0.0,0.0,0.0,10.0
1446040722587711199,464,1446040722582638025,robocape_mag,3.15,-10.35,-18.45,10.0,0.0,0.0,0.0,10.0,0.0,0.0,0.0,10.0
1446040722620091491,465,1446040722615092039,robocape_mag,3.15,-10.35,-18.45,10.0,0.0,0.0,0.0,10.0,0.0,0.0,0.0,10.0
1446040722653714657,466,1446040722648159027,robocape_mag,3.15,-10.35,-18.45,10.0,0.0,0.0,0.0,10.0,0.0,0.0,0.0,10.0
1446040722690207157,467,1446040722681375026,robocape_mag,3.15,-10.35,-18.45,10.0,0.0,0.0,0.0,10.0,0.0,0.0,0.0,10.0
1446040722721065032,468,1446040722715744018,robocape_mag,3.15,-10.35,-18.45,10.0,0.0,0.0,0.0,10.0,0.0,0.0,0.0,10.0
1446040722753044074,469,1446040722747874975,robocape_mag,1.65,-11.85,-19.95,10.0,0.0,0.0,0.0,10.0,0.0,0.0,0.0,10.0
1446040722791578532,470,1446040722781430959,robocape_mag,1.65,-11.85,-19.95,10.0,0.0,0.0,0.0,10.0,0.0,0.0,0.0,10.0
1446040722825236157,471,1446040722818145036,robocape_mag,1.65,-11.85,-19.95,10.0,0.0,0.0,0.0,10.0,0.0,0.0,0.0,10.0
1446040722859570157,472,1446040722849467992,robocape_mag,1.65,-11.85,-19.95,10.0,0.0,0.0,0.0,10.0,0.0,0.0,0.0,10.0
1446040722888943782,473,1446040722883934974,robocape_mag,1.65,-11.85,-19.95,10.0,0.0,0.0,0.0,10.0,0.0,0.0,0.0,10.0
1446040722923148991,474,1446040722918045043,robocape_mag,3.15,-12.15,-17.85,10.0,0.0,0.0,0.0,10.0,0.0,0.0,0.0,10.0
1446040722955255449,475,1446040722949688911,robocape_mag,3.15,-12.15,-17.85,10.0,0.0,0.0,0.0,10.0,0.0,0.0,0.0,10.0
1446040722988577199,476,1446040722983544111,robocape_mag,3.15,-12.15,-17.85,10.0,0.0,0.0,0.0,10.0,0.0,0.0,0.0,10.0
1446040723020094241,477,1446040723014795064,robocape_mag,3.15,-12.15,-17.85,10.0,0.0,0.0,0.0,10.0,0.0,0.0,0.0,10.0
1446040723055642199,478,1446040723049638986,robocape_mag,3.15,-12.15,-17.85,10.0,0.0,0.0,0.0,10.0,0.0,0.0,0.0,10.0
1446040723089573782,479,1446040723084558963,robocape_mag,2.85,-12.45,-17.55,10.0,0.0,0.0,0.0,10.0,0.0,0.0,0.0,10.0
1446040723120798074,480,1446040723115593910,robocape_mag,2.85,-12.45,-17.55,10.0,0.0,0.0,0.0,10.0,0.0,0.0,0.0,10.0
1446040723153698116,481,1446040723148838043,robocape_mag,2.85,-12.45,-17.55,10.0,0.0,0.0,0.0,10.0,0.0,0.0,0.0,10.0
1446040723186059824,482,1446040723181216001,robocape_mag,2.85,-12.45,-17.55,10.0,0.0,0.0,0.0,10.0,0.0,0.0,0.0,10.0
1446040723222537908,483,1446040723216922044,robocape_mag,2.85,-12.45,-17.55,10.0,0.0,0.0,0.0,10.0,0.0,0.0,0.0,10.0
1446040723252279908,484,1446040723247051954,robocape_mag,0.75,-10.35,-19.05,10.0,0.0,0.0,0.0,10.0,0.0,0.0,0.0,10.0
1446040723296929824,485,1446040723280013084,robocape_mag,0.75,-10.35,-19.05,10.0,0.0,0.0,0.0,10.0,0.0,0.0,0.0,10.0
1446040723332780241,486,1446040723327475070,robocape_mag,0.75,-10.35,-19.05,10.0,0.0,0.0,0.0,10.0,0.0,0.0,0.0,10.0
1446040723375684908,487,1446040723370842933,robocape_mag,0.75,-10.35,-19.05,10.0,0.0,0.0,0.0,10.0,0.0,0.0,0.0,10.0
1446040723422847449,488,1446040723413327932,robocape_mag,0.75,-11.55,-17.25,10.0,0.0,0.0,0.0,10.0,0.0,0.0,0.0,10.0
1446040723461701158,489,1446040723454011917,robocape_mag,0.75,-11.55,-17.25,10.0,0.0,0.0,0.0,10.0,0.0,0.0,0.0,10.0
1446040723498433866,490,1446040723493068933,robocape_mag,0.75,-11.55,-17.25,10.0,0.0,0.0,0.0,10.0,0.0,0.0,0.0,10.0
1446040723545974741,491,1446040723535803079,robocape_mag,0.75,-11.55,-17.25,10.0,0.0,0.0,0.0,10.0,0.0,0.0,0.0,10.0
1446040723588426074,492,1446040723583539009,robocape_mag,3.15,-11.55,-19.05,10.0,0.0,0.0,0.0,10.0,0.0,0.0,0.0,10.0
1446040723632776033,493,1446040723625897884,robocape_mag,3.15,-11.55,-19.05,10.0,0.0,0.0,0.0,10.0,0.0,0.0,0.0,10.0
1446040723686770116,494,1446040723680011034,robocape_mag,3.15,-11.55,-19.05,10.0,0.0,0.0,0.0,10.0,0.0,0.0,0.0,10.0
1446040723732306824,495,1446040723720829010,robocape_mag,1.65,-10.65,-17.55,10.0,0.0,0.0,0.0,10.0,0.0,0.0,0.0,10.0
1446040723785811241,496,1446040723780777931,robocape_mag,1.65,-10.65,-17.55,10.0,0.0,0.0,0.0,10.0,0.0,0.0,0.0,10.0
1446040723843640033,497,1446040723831841945,robocape_mag,1.65,-10.65,-17.55,10.0,0.0,0.0,0.0,10.0,0.0,0.0,0.0,10.0
1446040723912228116,498,1446040723883595943,robocape_mag,4.65,-13.05,-21.15,10.0,0.0,0.0,0.0,10.0,0.0,0.0,0.0,10.0
1446040723963944700,499,1446040723956300973,robocape_mag,4.65,-13.05,-21.15,10.0,0.0,0.0,0.0,10.0,0.0,0.0,0.0,10.0
1446040724018535658,500,1446040724004822015,robocape_mag,4.65,-13.05,-21.15,10.0,0.0,0.0,0.0,10.0,0.0,0.0,0.0,10.0
1446040724060242700,501,1446040724052583932,robocape_mag,1.95,-12.15,-19.65,10.0,0.0,0.0,0.0,10.0,0.0,0.0,0.0,10.0
1446040724099818616,502,1446040724093012094,robocape_mag,1.95,-12.15,-19.65,10.0,0.0,0.0,0.0,10.0,0.0,0.0,0.0,10.0
1446040724141974450,503,1446040724135481119,robocape_mag,1.95,-12.15,-19.65,10.0,0.0,0.0,0.0,10.0,0.0,0.0,0.0,10.0
1446040724181330616,504,1446040724175780057,robocape_mag,1.95,-12.15,-19.65,10.0,0.0,0.0,0.0,10.0,0.0,0.0,0.0,10.0
1446040724222035700,505,1446040724216658115,robocape_mag,4.35,-13.95,-15.45,10.0,0.0,0.0,0.0,10.0,0.0,0.0,0.0,10.0
1446040724268763950,506,1446040724258691072,robocape_mag,4.35,-13.95,-15.45,10.0,0.0,0.0,0.0,10.0,0.0,0.0,0.0,10.0
1446040724310544700,507,1446040724302472114,robocape_mag,4.35,-13.95,-15.45,10.0,0.0,0.0,0.0,10.0,0.0,0.0,0.0,10.0
1446040724349247450,508,1446040724341176986,robocape_mag,78.45,-11.85,-18.75,10.0,0.0,0.0,0.0,10.0,0.0,0.0,0.0,10.0
1446040724392791741,509,1446040724384390115,robocape_mag,1.65,-11.85,-18.75,10.0,0.0,0.0,0.0,10.0,0.0,0.0,0.0,10.0
1446040724435686991,510,1446040724430202960,robocape_mag,1.65,-11.85,-18.75,10.0,0.0,0.0,0.0,10.0,0.0,0.0,0.0,10.0
1446040724477750658,511,1446040724470850944,robocape_mag,1.65,-11.85,-18.75,10.0,0.0,0.0,0.0,10.0,0.0,0.0,0.0,10.0
1446040724519441491,512,1446040724510092973,robocape_mag,2.25,-12.45,-18.75,10.0,0.0,0.0,0.0,10.0,0.0,0.0,0.0,10.0
1446040724561375575,513,1446040724554807901,robocape_mag,2.25,-12.45,-18.75,10.0,0.0,0.0,0.0,10.0,0.0,0.0,0.0,10.0
1446040724602730742,514,1446040724596383094,robocape_mag,2.25,-12.45,-18.75,10.0,0.0,0.0,0.0,10.0,0.0,0.0,0.0,10.0
1446040724645331950,515,1446040724636365890,robocape_mag,2.25,-12.45,-18.75,10.0,0.0,0.0,0.0,10.0,0.0,0.0,0.0,10.0
1446040724685838950,516,1446040724677336931,robocape_mag,1.65,-11.25,-19.35,10.0,0.0,0.0,0.0,10.0,0.0,0.0,0.0,10.0
1446040724726796742,517,1446040724718636035,robocape_mag,1.65,-11.25,-19.35,10.0,0.0,0.0,0.0,10.0,0.0,0.0,0.0,10.0
1446040724768955283,518,1446040724761354923,robocape_mag,1.65,-11.25,-19.35,10.0,0.0,0.0,0.0,10.0,0.0,0.0,0.0,10.0
1446040724813770408,519,1446040724802405118,robocape_mag,1.65,-11.25,-19.35,10.0,0.0,0.0,0.0,10.0,0.0,0.0,0.0,10.0
1446040724858274450,520,1446040724853116989,robocape_mag,1.65,-11.85,-18.15,10.0,0.0,0.0,0.0,10.0,0.0,0.0,0.0,10.0
