%time,field.header.seq,field.header.stamp,field.header.frame_id,field.magnetic_field.x,field.magnetic_field.y,field.magnetic_field.z,field.magnetic_field_covariance0,field.magnetic_field_covariance1,field.magnetic_field_covariance2,field.magnetic_field_covariance3,field.magnetic_field_covariance4,field.magnetic_field_covariance5,field.magnetic_field_covariance6,field.magnetic_field_covariance7,field.magnetic_field_covariance8
1446036228379521052,1,1446036228364459991,robocape_mag,12.6,-27.15,8.85,10.0,0.0,0.0,0.0,10.0,0.0,0.0,0.0,10.0
1446036228404499427,2,1446036228399431943,robocape_mag,12.6,-27.15,8.85,10.0,0.0,0.0,0.0,10.0,0.0,0.0,0.0,10.0
1446036228435124010,3,1446036228430041074,robocape_mag,12.6,-27.15,8.85,10.0,0.0,0.0,0.0,10.0,0.0,0.0,0.0,10.0
1446036228467232927,4,1446036228462460994,robocape_mag,14.1,-28.05,8.55,10.0,0.0,0.0,0.0,10.0,0.0,0.0,0.0,10.0
1446036228500813010,5,1446036228495889902,robocape_mag,14.1,-28.05,8.55,10.0,0.0,0.0,0.0,10.0,0.0,0.0,0.0,10.0
1446036228534016635,6,1446036228529040098,robocape_mag,14.1,-28.05,8.55,10.0,0.0,0.0,0.0,10.0,0.0,0.0,0.0,10.0
1446036228567363635,7,1446036228562536001,robocape_mag,14.1,-28.05,8.55,10.0,0.0,0.0,0.0,10.0,0.0,0.0,0.0,10.0
1446036228600613343,8,1446036228595685005,robocape_mag,14.1,-28.05,8.55,10.0,0.0,0.0,0.0,10.0,0.0,0.0,0.0,10.0
1446036228633929927,9,1446036228629100084,robocape_mag,13.5,-28.65,9.75,10.0,0.0,0.0,0.0,10.0,0.0,0.0,0.0,10.0
1446036228667775135,10,1446036228662910938,robocape_mag,13.5,-28.65,9.75,10.0,0.0,0.0,0.0,10.0,0.0,0.0,0.0,10.0
1446036228701079343,11,1446036228696233034,robocape_mag,13.5,-28.65,9.75,10.0,0.0,0.0,0.0,10.0,0.0,0.0,0.0,10.0
1446036228734201427,12,1446036228729433059,robocape_mag,13.5,-28.65,9.75,10.0,0.0,0.0,0.0,10.0,0.0,0.0,0.0,10.0
1446036228767472260,13,1446036228762540102,robocape_mag,13.5,-28.65,9.75,10.0,0.0,0.0,0.0,10.0,0.0,0.0,0.0,10.0
1446036228802764135,14,1446036228795732021,robocape_mag,12.6,-27.75,9.45,10.0,0.0,0.0,0.0,10.0,0.0,0.0,0.0,10.0
1446036228833968552,15,1446036228829221010,robocape_mag,12.6,-27.75,9.45,10.0,0.0,0.0,0.0,10.0,0.0,0.0,0.0,10.0
1446036228867656343,16,1446036228862709045,robocape_mag,12.6,-27.75,9.45,10.0,0.0,0.0,0.0,10.0,0.0,0.0,0.0,10.0
1446036228902918760,17,1446036228897639989,robocape_mag,12.6,-27.75,9.45,10.0,0.0,0.0,0.0,10.0,0.0,0.0,0.0,10.0
1446036228933880343,18,1446036228929088115,robocape_mag,12.6,-27.75,9.45,10.0,0.0,0.0,0.0,10.0,0.0,0.0,0.0,10.0
1446036228971446719,19,1446036228964345932,robocape_mag,13.5,-28.65,9.75,10.0,0.0,0.0,0.0,10.0,0.0,0.0,0.0,10.0
1446036229000418552,20,1446036228995528936,robocape_mag,13.5,-28.65,9.75,10.0,0.0,0.0,0.0,10.0,0.0,0.0,0.0,10.0
1446036229034028177,21,1446036229029017925,robocape_mag,13.5,-28.65,9.75,10.0,0.0,0.0,0.0,10.0,0.0,0.0,0.0,10.0
1446036229068223052,22,1446036229062525987,robocape_mag,13.5,-28.65,9.75,10.0,0.0,0.0,0.0,10.0,0.0,0.0,0.0,10.0
1446036229101193635,23,1446036229095598936,robocape_mag,13.5,-28.65,9.75,10.0,0.0,0.0,0.0,10.0,0.0,0.0,0.0,10.0
1446036229134070052,24,1446036229128875017,robocape_mag,12.9,-26.85,8.55,10.0,0.0,0.0,0.0,10.0,0.0,0.0,0.0,10.0
1446036229167944052,25,1446036229162595033,robocape_mag,12.9,-26.85,8.55,10.0,0.0,0.0,0.0,10.0,0.0,0.0,0.0,10.0
1446036229205558510,26,1446036229195511102,robocape_mag,12.9,-26.85,8.55,10.0,0.0,0.0,0.0,10.0,0.0,0.0,0.0,10.0
1446036229235327635,27,1446036229230318069,robocape_mag,12.9,-26.85,8.55,10.0,0.0,0.0,0.0,10.0,0.0,0.0,0.0,10.0
1446036229267882469,28,1446036229262558937,robocape_mag,12.9,-28.05,9.75,10.0,0.0,0.0,0.0,10.0,0.0,0.0,0.0,10.0
1446036229301038010,29,1446036229295687913,robocape_mag,12.9,-28.05,9.75,10.0,0.0,0.0,0.0,10.0,0.0,0.0,0.0,10.0
1446036229333872094,30,1446036229328962087,robocape_mag,12.9,-28.05,9.75,10.0,0.0,0.0,0.0,10.0,0.0,0.0,0.0,10.0
1446036229367494385,31,1446036229362440109,robocape_mag,12.9,-28.05,9.75,10.0,0.0,0.0,0.0,10.0,0.0,0.0,0.0,10.0
1446036229400565302,32,1446036229395705938,robocape_mag,12.9,-28.05,9.75,10.0,0.0,0.0,0.0,10.0,0.0,0.0,0.0,10.0
1446036229433781719,33,1446036229428998947,robocape_mag,13.5,-27.45,7.95,10.0,0.0,0.0,0.0,10.0,0.0,0.0,0.0,10.0
1446036229467423469,34,1446036229462527036,robocape_mag,13.5,-27.45,7.95,10.0,0.0,0.0,0.0,10.0,0.0,0.0,0.0,10.0
1446036229503635885,35,1446036229498766899,robocape_mag,13.5,-27.45,7.95,10.0,0.0,0.0,0.0,10.0,0.0,0.0,0.0,10.0
1446036229534093010,36,1446036229529201030,robocape_mag,13.5,-27.45,7.95,10.0,0.0,0.0,0.0,10.0,0.0,0.0,0.0,10.0
1446036229568465010,37,1446036229563518047,robocape_mag,13.5,-27.45,7.95,10.0,0.0,0.0,0.0,10.0,0.0,0.0,0.0,10.0
1446036229603408594,38,1446036229596878051,robocape_mag,14.4,-28.35,8.85,10.0,0.0,0.0,0.0,10.0,0.0,0.0,0.0,10.0
1446036229635046552,39,1446036229630223989,robocape_mag,14.4,-28.35,8.85,10.0,0.0,0.0,0.0,10.0,0.0,0.0,0.0,10.0
1446036229668034969,40,1446036229663074016,robocape_mag,14.4,-28.35,8.85,10.0,0.0,0.0,0.0,10.0,0.0,0.0,0.0,10.0
1446036229711139594,41,1446036229703501939,robocape_mag,14.4,-28.35,8.85,10.0,0.0,0.0,0.0,10.0,0.0,0.0,0.0,10.0
1446036229735490969,42,1446036229730433940,robocape_mag,14.4,-28.35,8.85,10.0,0.0,0.0,0.0,10.0,0.0,0.0,0.0,10.0
1446036229769192802,43,1446036229764096021,robocape_mag,15.3,-27.45,9.75,10.0,0.0,0.0,0.0,10.0,0.0,0.0,0.0,10.0
1446036229802011469,44,1446036229797077894,robocape_mag,15.3,-27.45,9.75,10.0,0.0,0.0,0.0,10.0,0.0,0.0,0.0,10.0
1446036229837830969,45,1446036229832248926,robocape_mag,15.3,-27.45,9.75,10.0,0.0,0.0,0.0,10.0,0.0,0.0,0.0,10.0
1446036229868198094,46,1446036229863277912,robocape_mag,15.3,-27.45,9.75,10.0,0.0,0.0,0.0,10.0,0.0,0.0,0.0,10.0
1446036229910077761,47,1446036229901004076,robocape_mag,14.1,-27.45,9.15,10.0,0.0,0.0,0.0,10.0,0.0,0.0,0.0,10.0
1446036229934912844,48,1446036229930052042,robocape_mag,14.1,-27.45,9.15,10.0,0.0,0.0,0.0,10.0,0.0,0.0,0.0,10.0
1446036229972446844,49,1446036229966931104,robocape_mag,14.1,-27.45,9.15,10.0,0.0,0.0,0.0,10.0,0.0,0.0,0.0,10.0
1446036230006206802,50,1446036230000927925,robocape_mag,14.1,-27.45,9.15,10.0,0.0,0.0,0.0,10.0,0.0,0.0,0.0,10.0
1446036230038475844,51,1446036230033457994,robocape_mag,14.1,-27.45,9.15,10.0,0.0,0.0,0.0,10.0,0.0,0.0,0.0,10.0
1446036230072056719,52,1446036230066801071,robocape_mag,13.5,-27.45,9.15,10.0,0.0,0.0,0.0,10.0,0.0,0.0,0.0,10.0
1446036230105729594,53,1446036230098995923,robocape_mag,13.5,-27.45,9.15,10.0,0.0,0.0,0.0,10.0,0.0,0.0,0.0,10.0
1446036230138806344,54,1446036230133776903,robocape_mag,13.5,-27.45,9.15,10.0,0.0,0.0,0.0,10.0,0.0,0.0,0.0,10.0
1446036230172167719,55,1446036230167087078,robocape_mag,13.5,-27.45,9.15,10.0,0.0,0.0,0.0,10.0,0.0,0.0,0.0,10.0
1446036230213730136,56,1446036230202234983,robocape_mag,13.5,-27.45,9.15,10.0,0.0,0.0,0.0,10.0,0.0,0.0,0.0,10.0
1446036230238112177,57,1446036230233216047,robocape_mag,12.0,-27.15,9.45,10.0,0.0,0.0,0.0,10.0,0.0,0.0,0.0,10.0
1446036230271959052,58,1446036230266906976,robocape_mag,12.0,-27.15,9.45,10.0,0.0,0.0,0.0,10.0,0.0,0.0,0.0,10.0
1446036230303122386,59,1446036230298187971,robocape_mag,12.0,-27.15,9.45,10.0,0.0,0.0,0.0,10.0,0.0,0.0,0.0,10.0
1446036230341749761,60,1446036230331892013,robocape_mag,12.0,-27.15,9.45,10.0,0.0,0.0,0.0,10.0,0.0,0.0,0.0,10.0
1446036230371237636,61,1446036230366096019,robocape_mag,12.0,-27.15,9.45,10.0,0.0,0.0,0.0,10.0,0.0,0.0,0.0,10.0
1446036230402731428,62,1446036230397737026,robocape_mag,13.8,-27.75,9.45,10.0,0.0,0.0,0.0,10.0,0.0,0.0,0.0,10.0
1446036230437516053,63,1446036230432730913,robocape_mag,13.8,-27.75,9.45,10.0,0.0,0.0,0.0,10.0,0.0,0.0,0.0,10.0
1446036230474175178,64,1446036230465262889,robocape_mag,13.8,-27.75,9.45,10.0,0.0,0.0,0.0,10.0,0.0,0.0,0.0,10.0
1446036230502874803,65,1446036230498038053,robocape_mag,13.8,-27.75,9.45,10.0,0.0,0.0,0.0,10.0,0.0,0.0,0.0,10.0
1446036230534339969,66,1446036230529177904,robocape_mag,13.8,-27.75,9.45,10.0,0.0,0.0,0.0,10.0,0.0,0.0,0.0,10.0
1446036230567424219,67,1446036230562556028,robocape_mag,16.5,-28.65,9.15,10.0,0.0,0.0,0.0,10.0,0.0,0.0,0.0,10.0
1446036230602081469,68,1446036230597295999,robocape_mag,16.5,-28.65,9.15,10.0,0.0,0.0,0.0,10.0,0.0,0.0,0.0,10.0
1446036230635212553,69,1446036230630247116,robocape_mag,16.5,-28.65,9.15,10.0,0.0,0.0,0.0,10.0,0.0,0.0,0.0,10.0
1446036230668381928,70,1446036230663525104,robocape_mag,16.5,-28.65,9.15,10.0,0.0,0.0,0.0,10.0,0.0,0.0,0.0,10.0
1446036230701516886,71,1446036230696418046,robocape_mag,16.5,-28.65,9.15,10.0,0.0,0.0,0.0,10.0,0.0,0.0,0.0,10.0
1446036230735022719,72,1446036230730086088,robocape_mag,11.1,-28.05,12.75,10.0,0.0,0.0,0.0,10.0,0.0,0.0,0.0,10.0
1446036230767816636,73,1446036230762950897,robocape_mag,11.1,-28.05,12.75,10.0,0.0,0.0,0.0,10.0,0.0,0.0,0.0,10.0
1446036230800710428,74,1446036230795969009,robocape_mag,11.1,-28.05,12.75,10.0,0.0,0.0,0.0,10.0,0.0,0.0,0.0,10.0
1446036230834520178,75,1446036230829539060,robocape_mag,11.1,-28.05,12.75,10.0,0.0,0.0,0.0,10.0,0.0,0.0,0.0,10.0
1446036230867514261,76,1446036230862377882,robocape_mag,18.0,-31.95,11.85,10.0,0.0,0.0,0.0,10.0,0.0,0.0,0.0,10.0
1446036230900566219,77,1446036230895817995,robocape_mag,18.0,-31.95,11.85,10.0,0.0,0.0,0.0,10.0,0.0,0.0,0.0,10.0
1446036230934509719,78,1446036230929027080,robocape_mag,18.0,-31.95,11.85,10.0,0.0,0.0,0.0,10.0,0.0,0.0,0.0,10.0
1446036230968596886,79,1446036230962587118,robocape_mag,18.0,-31.95,11.85,10.0,0.0,0.0,0.0,10.0,0.0,0.0,0.0,10.0
1446036231000752719,80,1446036230995960950,robocape_mag,18.0,-31.95,11.85,10.0,0.0,0.0,0.0,10.0,0.0,0.0,0.0,10.0
1446036231034351386,81,1446036231029019117,robocape_mag,16.5,-26.85,13.35,10.0,0.0,0.0,0.0,10.0,0.0,0.0,0.0,10.0
1446036231067792178,82,1446036231062581062,robocape_mag,16.5,-26.85,13.35,10.0,0.0,0.0,0.0,10.0,0.0,0.0,0.0,10.0
1446036231100657220,83,1446036231095810890,robocape_mag,16.5,-26.85,13.35,10.0,0.0,0.0,0.0,10.0,0.0,0.0,0.0,10.0
1446036231136088678,84,1446036231129239082,robocape_mag,16.5,-26.85,13.35,10.0,0.0,0.0,0.0,10.0,0.0,0.0,0.0,10.0
1446036231169517886,85,1446036231164594888,robocape_mag,16.5,-26.85,13.35,10.0,0.0,0.0,0.0,10.0,0.0,0.0,0.0,10.0
1446036231207293511,86,1446036231195749044,robocape_mag,15.6,-27.15,14.25,10.0,0.0,0.0,0.0,10.0,0.0,0.0,0.0,10.0
1446036231236054678,87,1446036231229507923,robocape_mag,15.6,-27.15,14.25,10.0,0.0,0.0,0.0,10.0,0.0,0.0,0.0,10.0
1446036231267888261,88,1446036231262718915,robocape_mag,15.6,-27.15,14.25,10.0,0.0,0.0,0.0,10.0,0.0,0.0,0.0,10.0
1446036231300477261,89,1446036231295749902,robocape_mag,15.6,-27.15,14.25,10.0,0.0,0.0,0.0,10.0,0.0,0.0,0.0,10.0
1446036231333931136,90,1446036231329217910,robocape_mag,15.6,-27.15,14.25,10.0,0.0,0.0,0.0,10.0,0.0,0.0,0.0,10.0
1446036231368623720,91,1446036231362677097,robocape_mag,16.2,-28.95,16.05,10.0,0.0,0.0,0.0,10.0,0.0,0.0,0.0,10.0
1446036231401238553,92,1446036231395755052,robocape_mag,16.2,-28.95,16.05,10.0,0.0,0.0,0.0,10.0,0.0,0.0,0.0,10.0
1446036231434385345,93,1446036231428919076,robocape_mag,16.2,-28.95,16.05,10.0,0.0,0.0,0.0,10.0,0.0,0.0,0.0,10.0
1446036231470080386,94,1446036231464843034,robocape_mag,16.2,-28.95,16.05,10.0,0.0,0.0,0.0,10.0,0.0,0.0,0.0,10.0
1446036231500518136,95,1446036231495605945,robocape_mag,16.2,-28.95,16.05,10.0,0.0,0.0,0.0,10.0,0.0,0.0,0.0,10.0
1446036231534061095,96,1446036231529010057,robocape_mag,17.7,-26.85,12.75,10.0,0.0,0.0,0.0,10.0,0.0,0.0,0.0,10.0
1446036231570172511,97,1446036231564981937,robocape_mag,17.7,-26.85,12.75,10.0,0.0,0.0,0.0,10.0,0.0,0.0,0.0,10.0
1446036231600814928,98,1446036231595701932,robocape_mag,17.7,-26.85,12.75,10.0,0.0,0.0,0.0,10.0,0.0,0.0,0.0,10.0
1446036231634034428,99,1446036231629113912,robocape_mag,17.7,-26.85,12.75,10.0,0.0,0.0,0.0,10.0,0.0,0.0,0.0,10.0
1446036231667637470,100,1446036231662441015,robocape_mag,15.3,-27.45,15.15,10.0,0.0,0.0,0.0,10.0,0.0,0.0,0.0,10.0
1446036231700490011,101,1446036231695559024,robocape_mag,15.3,-27.45,15.15,10.0,0.0,0.0,0.0,10.0,0.0,0.0,0.0,10.0
1446036231733992428,102,1446036231729202985,robocape_mag,15.3,-27.45,15.15,10.0,0.0,0.0,0.0,10.0,0.0,0.0,0.0,10.0
1446036231767758012,103,1446036231762783050,robocape_mag,15.3,-27.45,15.15,10.0,0.0,0.0,0.0,10.0,0.0,0.0,0.0,10.0
1446036231800569428,104,1446036231795727968,robocape_mag,15.3,-27.45,15.15,10.0,0.0,0.0,0.0,10.0,0.0,0.0,0.0,10.0
1446036231833925095,105,1446036231829171895,robocape_mag,15.0,-25.95,14.25,10.0,0.0,0.0,0.0,10.0,0.0,0.0,0.0,10.0
1446036231867251970,106,1446036231862382888,robocape_mag,15.0,-25.95,14.25,10.0,0.0,0.0,0.0,10.0,0.0,0.0,0.0,10.0
1446036231900621220,107,1446036231895855903,robocape_mag,15.0,-25.95,14.25,10.0,0.0,0.0,0.0,10.0,0.0,0.0,0.0,10.0
1446036231936494178,108,1446036231930197000,robocape_mag,15.0,-25.95,14.25,10.0,0.0,0.0,0.0,10.0,0.0,0.0,0.0,10.0
1446036231968612595,109,1446036231963623046,robocape_mag,15.0,-25.95,14.25,10.0,0.0,0.0,0.0,10.0,0.0,0.0,0.0,10.0
1446036232001695720,110,1446036231996953010,robocape_mag,15.0,-26.55,14.25,10.0,0.0,0.0,0.0,10.0,0.0,0.0,0.0,10.0
1446036232036050137,111,1446036232030699968,robocape_mag,15.0,-26.55,14.25,10.0,0.0,0.0,0.0,10.0,0.0,0.0,0.0,10.0
1446036232067887470,112,1446036232063028097,robocape_mag,15.0,-26.55,14.25,10.0,0.0,0.0,0.0,10.0,0.0,0.0,0.0,10.0
1446036232105091095,113,1446036232096151113,robocape_mag,15.0,-26.55,14.25,10.0,0.0,0.0,0.0,10.0,0.0,0.0,0.0,10.0
1446036232135764553,114,1446036232130774974,robocape_mag,15.0,-26.55,14.25,10.0,0.0,0.0,0.0,10.0,0.0,0.0,0.0,10.0
1446036232173979762,115,1446036232166600942,robocape_mag,18.0,-27.15,7.65,10.0,0.0,0.0,0.0,10.0,0.0,0.0,0.0,10.0
1446036232207274512,116,1446036232198921918,robocape_mag,18.0,-27.15,7.65,10.0,0.0,0.0,0.0,10.0,0.0,0.0,0.0,10.0
1446036232243692887,117,1446036232231384038,robocape_mag,18.0,-27.15,7.65,10.0,0.0,0.0,0.0,10.0,0.0,0.0,0.0,10.0
1446036232277222053,118,1446036232266392946,robocape_mag,18.0,-27.15,7.65,10.0,0.0,0.0,0.0,10.0,0.0,0.0,0.0,10.0
1446036232305904345,119,1446036232300842046,robocape_mag,18.0,-27.15,6.15,10.0,0.0,0.0,0.0,10.0,0.0,0.0,0.0,10.0
1446036232338673678,120,1446036232333597898,robocape_mag,16.5,-26.25,6.15,10.0,0.0,0.0,0.0,10.0,0.0,0.0,0.0,10.0
1446036232375137553,121,1446036232365659952,robocape_mag,16.5,-26.25,6.15,10.0,0.0,0.0,0.0,10.0,0.0,0.0,0.0,10.0
1446036232404803220,122,1446036232399818897,robocape_mag,16.5,-26.25,6.15,10.0,0.0,0.0,0.0,10.0,0.0,0.0,0.0,10.0
1446036232438423012,123,1446036232433247089,robocape_mag,16.5,-26.25,6.15,10.0,0.0,0.0,0.0,10.0,0.0,0.0,0.0,10.0
1446036232474704137,124,1446036232465691089,robocape_mag,15.6,-21.75,-0.15,10.0,0.0,0.0,0.0,10.0,0.0,0.0,0.0,10.0
1446036232505211679,125,1446036232499965906,robocape_mag,15.6,-21.75,-0.15,10.0,0.0,0.0,0.0,10.0,0.0,0.0,0.0,10.0
1446036232536595012,126,1446036232531449079,robocape_mag,15.6,-21.75,-0.15,10.0,0.0,0.0,0.0,10.0,0.0,0.0,0.0,10.0
1446036232575241887,127,1446036232566108942,robocape_mag,15.6,-21.75,-0.15,10.0,0.0,0.0,0.0,10.0,0.0,0.0,0.0,10.0
1446036232604468304,128,1446036232599277973,robocape_mag,15.6,-21.75,-0.15,10.0,0.0,0.0,0.0,10.0,0.0,0.0,0.0,10.0
1446036232637006804,129,1446036232632046937,robocape_mag,15.9,-9.45,17.55,10.0,0.0,0.0,0.0,10.0,0.0,0.0,0.0,10.0
1446036232671488220,130,1446036232666368961,robocape_mag,15.9,-9.45,17.55,10.0,0.0,0.0,0.0,10.0,0.0,0.0,0.0,10.0
1446036232703742137,131,1446036232698365926,robocape_mag,15.9,-9.45,17.55,10.0,0.0,0.0,0.0,10.0,0.0,0.0,0.0,10.0
1446036232737524137,132,1446036232732705116,robocape_mag,15.9,-9.45,17.55,10.0,0.0,0.0,0.0,10.0,0.0,0.0,0.0,10.0
1446036232770095762,133,1446036232765252113,robocape_mag,15.9,-9.45,17.55,10.0,0.0,0.0,0.0,10.0,0.0,0.0,0.0,10.0
1446036232803852845,134,1446036232798860073,robocape_mag,16.8,-7.95,19.05,10.0,0.0,0.0,0.0,10.0,0.0,0.0,0.0,10.0
1446036232836098554,135,1446036232831299066,robocape_mag,16.8,-7.95,19.05,10.0,0.0,0.0,0.0,10.0,0.0,0.0,0.0,10.0
1446036232870542429,136,1446036232865735054,robocape_mag,16.8,-7.95,19.05,10.0,0.0,0.0,0.0,10.0,0.0,0.0,0.0,10.0
1446036232903130845,137,1446036232897864103,robocape_mag,16.8,-7.95,19.05,10.0,0.0,0.0,0.0,10.0,0.0,0.0,0.0,10.0
1446036232936471720,138,1446036232931477069,robocape_mag,16.8,-7.95,19.05,10.0,0.0,0.0,0.0,10.0,0.0,0.0,0.0,10.0
1446036232968707387,139,1446036232963658094,robocape_mag,15.0,-13.35,3.45,10.0,0.0,0.0,0.0,10.0,0.0,0.0,0.0,10.0
1446036233001687970,140,1446036232996431112,robocape_mag,15.0,-13.35,3.45,10.0,0.0,0.0,0.0,10.0,0.0,0.0,0.0,10.0
1446036233034903720,141,1446036233029874086,robocape_mag,15.0,-13.35,3.45,10.0,0.0,0.0,0.0,10.0,0.0,0.0,0.0,10.0
1446036233068109804,142,1446036233063009977,robocape_mag,15.0,-13.35,3.45,10.0,0.0,0.0,0.0,10.0,0.0,0.0,0.0,10.0
1446036233101234012,143,1446036233095942020,robocape_mag,15.0,-13.35,3.45,10.0,0.0,0.0,0.0,10.0,0.0,0.0,0.0,10.0
1446036233134104387,144,1446036233129291057,robocape_mag,18.0,-8.55,14.25,10.0,0.0,0.0,0.0,10.0,0.0,0.0,0.0,10.0
1446036233168064304,145,1446036233163007974,robocape_mag,18.0,-8.55,14.25,10.0,0.0,0.0,0.0,10.0,0.0,0.0,0.0,10.0
1446036233209162679,146,1446036233197659969,robocape_mag,18.0,-8.55,14.25,10.0,0.0,0.0,0.0,10.0,0.0,0.0,0.0,10.0
1446036233237083387,147,1446036233232270956,robocape_mag,18.0,-8.55,14.25,10.0,0.0,0.0,0.0,10.0,0.0,0.0,0.0,10.0
1446036233268222054,148,1446036233263123035,robocape_mag,32.4,-10.35,4.05,10.0,0.0,0.0,0.0,10.0,0.0,0.0,0.0,10.0
1446036233300371471,149,1446036233295639038,robocape_mag,32.4,-10.35,4.05,10.0,0.0,0.0,0.0,10.0,0.0,0.0,0.0,10.0
1446036233333970137,150,1446036233329232931,robocape_mag,32.4,-10.35,4.05,10.0,0.0,0.0,0.0,10.0,0.0,0.0,0.0,10.0
1446036233367636471,151,1446036233362585067,robocape_mag,32.4,-10.35,4.05,10.0,0.0,0.0,0.0,10.0,0.0,0.0,0.0,10.0
1446036233400594554,152,1446036233395814895,robocape_mag,32.4,-10.35,4.05,10.0,0.0,0.0,0.0,10.0,0.0,0.0,0.0,10.0
1446036233433932679,153,1446036233429169893,robocape_mag,37.5,-13.65,-5.85,10.0,0.0,0.0,0.0,10.0,0.0,0.0,0.0,10.0
1446036233467710012,154,1446036233462656021,robocape_mag,37.5,-13.65,-5.85,10.0,0.0,0.0,0.0,10.0,0.0,0.0,0.0,10.0
1446036233500517054,155,1446036233495820999,robocape_mag,37.5,-13.65,-5.85,10.0,0.0,0.0,0.0,10.0,0.0,0.0,0.0,10.0
1446036233534099429,156,1446036233529107093,robocape_mag,37.5,-13.65,-5.85,10.0,0.0,0.0,0.0,10.0,0.0,0.0,0.0,10.0
1446036233567205721,157,1446036233562393903,robocape_mag,37.5,-13.65,-5.85,10.0,0.0,0.0,0.0,10.0,0.0,0.0,0.0,10.0
1446036233600530596,158,1446036233595678091,robocape_mag,38.4,-19.95,-11.55,10.0,0.0,0.0,0.0,10.0,0.0,0.0,0.0,10.0
1446036233636309137,159,1446036233630883932,robocape_mag,38.4,-19.95,-11.55,10.0,0.0,0.0,0.0,10.0,0.0,0.0,0.0,10.0
1446036233667406596,160,1446036233662457942,robocape_mag,38.4,-19.95,-11.55,10.0,0.0,0.0,0.0,10.0,0.0,0.0,0.0,10.0
1446036233700460429,161,1446036233695657968,robocape_mag,38.4,-19.95,-11.55,10.0,0.0,0.0,0.0,10.0,0.0,0.0,0.0,10.0
1446036233735001721,162,1446036233729372024,robocape_mag,38.4,-19.95,-11.55,10.0,0.0,0.0,0.0,10.0,0.0,0.0,0.0,10.0
1446036233768078304,163,1446036233762480020,robocape_mag,42.6,-10.95,-9.15,10.0,0.0,0.0,0.0,10.0,0.0,0.0,0.0,10.0
1446036233802293471,164,1446036233795612096,robocape_mag,42.6,-10.95,-9.15,10.0,0.0,0.0,0.0,10.0,0.0,0.0,0.0,10.0
1446036233834057804,165,1446036233829138040,robocape_mag,42.6,-10.95,-9.15,10.0,0.0,0.0,0.0,10.0,0.0,0.0,0.0,10.0
1446036233867337971,166,1446036233862205028,robocape_mag,42.6,-10.95,-9.15,10.0,0.0,0.0,0.0,10.0,0.0,0.0,0.0,10.0
1446036233900559804,167,1446036233895457983,robocape_mag,42.6,-10.95,-9.15,10.0,0.0,0.0,0.0,10.0,0.0,0.0,0.0,10.0
1446036233934463513,168,1446036233929251909,robocape_mag,37.8,-24.75,11.85,10.0,0.0,0.0,0.0,10.0,0.0,0.0,0.0,10.0
1446036233967842679,169,1446036233962243080,robocape_mag,37.8,-24.75,11.85,10.0,0.0,0.0,0.0,10.0,0.0,0.0,0.0,10.0
1446036234000448721,170,1446036233995527029,robocape_mag,37.8,-24.75,11.85,10.0,0.0,0.0,0.0,10.0,0.0,0.0,0.0,10.0
1446036234033968929,171,1446036234029014110,robocape_mag,37.8,-24.75,11.85,10.0,0.0,0.0,0.0,10.0,0.0,0.0,0.0,10.0
1446036234067297638,172,1446036234062258958,robocape_mag,42.3,-25.65,15.75,10.0,0.0,0.0,0.0,10.0,0.0,0.0,0.0,10.0
1446036234100258679,173,1446036234095547914,robocape_mag,42.3,-25.65,15.75,10.0,0.0,0.0,0.0,10.0,0.0,0.0,0.0,10.0
1446036234134001679,174,1446036234129189014,robocape_mag,42.3,-25.65,15.75,10.0,0.0,0.0,0.0,10.0,0.0,0.0,0.0,10.0
1446036234167450763,175,1446036234162532091,robocape_mag,42.3,-25.65,15.75,10.0,0.0,0.0,0.0,10.0,0.0,0.0,0.0,10.0
1446036234207610304,176,1446036234195749044,robocape_mag,42.3,-25.65,15.75,10.0,0.0,0.0,0.0,10.0,0.0,0.0,0.0,10.0
1446036234234555263,177,1446036234229307889,robocape_mag,36.3,-20.25,12.75,10.0,0.0,0.0,0.0,10.0,0.0,0.0,0.0,10.0
1446036234268866263,178,1446036234263649940,robocape_mag,36.3,-20.25,12.75,10.0,0.0,0.0,0.0,10.0,0.0,0.0,0.0,10.0
1446036234300681554,179,1446036234295903921,robocape_mag,36.3,-20.25,12.75,10.0,0.0,0.0,0.0,10.0,0.0,0.0,0.0,10.0
1446036234334390971,180,1446036234329441070,robocape_mag,36.3,-20.25,12.75,10.0,0.0,0.0,0.0,10.0,0.0,0.0,0.0,10.0
1446036234367238679,181,1446036234362366914,robocape_mag,36.3,-20.25,12.75,10.0,0.0,0.0,0.0,10.0,0.0,0.0,0.0,10.0
1446036234400706054,182,1446036234395915031,robocape_mag,39.0,-9.15,-10.95,10.0,0.0,0.0,0.0,10.0,0.0,0.0,0.0,10.0
1446036234434641263,183,1446036234429440975,robocape_mag,39.0,-9.15,-10.95,10.0,0.0,0.0,0.0,10.0,0.0,0.0,0.0,10.0
1446036234467542929,184,1446036234462599039,robocape_mag,39.0,-9.15,-10.95,10.0,0.0,0.0,0.0,10.0,0.0,0.0,0.0,10.0
1446036234500575013,185,1446036234495815038,robocape_mag,39.0,-9.15,-10.95,10.0,0.0,0.0,0.0,10.0,0.0,0.0,0.0,10.0
1446036234538893013,186,1446036234529304981,robocape_mag,39.0,-9.15,-10.95,10.0,0.0,0.0,0.0,10.0,0.0,0.0,0.0,10.0
1446036234567550471,187,1446036234562482118,robocape_mag,43.2,-18.15,-11.55,10.0,0.0,0.0,0.0,10.0,0.0,0.0,0.0,10.0
1446036234600633971,188,1446036234595844030,robocape_mag,43.2,-18.15,-11.55,10.0,0.0,0.0,0.0,10.0,0.0,0.0,0.0,10.0
1446036234637827680,189,1446036234629359960,robocape_mag,43.2,-18.15,-11.55,10.0,0.0,0.0,0.0,10.0,0.0,0.0,0.0,10.0
1446036234667827263,190,1446036234662828922,robocape_mag,43.2,-18.15,-11.55,10.0,0.0,0.0,0.0,10.0,0.0,0.0,0.0,10.0
1446036234700651805,191,1446036234695816993,robocape_mag,43.2,-18.15,-11.55,10.0,0.0,0.0,0.0,10.0,0.0,0.0,0.0,10.0
1446036234736437805,192,1446036234729460000,robocape_mag,41.7,-1.65,-13.05,10.0,0.0,0.0,0.0,10.0,0.0,0.0,0.0,10.0
1446036234769661388,193,1446036234762698888,robocape_mag,41.7,-1.65,-13.05,10.0,0.0,0.0,0.0,10.0,0.0,0.0,0.0,10.0
1446036234800514638,194,1446036234795747041,robocape_mag,41.7,-1.65,-13.05,10.0,0.0,0.0,0.0,10.0,0.0,0.0,0.0,10.0
1446036234833993596,195,1446036234829107999,robocape_mag,41.7,-1.65,-13.05,10.0,0.0,0.0,0.0,10.0,0.0,0.0,0.0,10.0
1446036234867615638,196,1446036234862464904,robocape_mag,42.6,7.65,-7.35,10.0,0.0,0.0,0.0,10.0,0.0,0.0,0.0,10.0
1446036234900525596,197,1446036234895570039,robocape_mag,42.6,7.65,-7.35,10.0,0.0,0.0,0.0,10.0,0.0,0.0,0.0,10.0
1446036234934600055,198,1446036234929450035,robocape_mag,42.6,7.65,-7.35,10.0,0.0,0.0,0.0,10.0,0.0,0.0,0.0,10.0
1446036234967712596,199,1446036234962380886,robocape_mag,42.6,7.65,-7.35,10.0,0.0,0.0,0.0,10.0,0.0,0.0,0.0,10.0
1446036235000463721,200,1446036234995531082,robocape_mag,42.6,7.65,-7.35,10.0,0.0,0.0,0.0,10.0,0.0,0.0,0.0,10.0
1446036235034196513,201,1446036235029072046,robocape_mag,38.4,-9.75,8.85,10.0,0.0,0.0,0.0,10.0,0.0,0.0,0.0,10.0
1446036235067408680,202,1446036235062241077,robocape_mag,38.4,-9.75,8.85,10.0,0.0,0.0,0.0,10.0,0.0,0.0,0.0,10.0
1446036235100635263,203,1446036235095516920,robocape_mag,38.4,-9.75,8.85,10.0,0.0,0.0,0.0,10.0,0.0,0.0,0.0,10.0
1446036235136193096,204,1446036235129348039,robocape_mag,38.4,-9.75,8.85,10.0,0.0,0.0,0.0,10.0,0.0,0.0,0.0,10.0
1446036235167440138,205,1446036235162419080,robocape_mag,38.4,-9.75,8.85,10.0,0.0,0.0,0.0,10.0,0.0,0.0,0.0,10.0
1446036235207338638,206,1446036235195672035,robocape_mag,38.1,4.35,-14.85,10.0,0.0,0.0,0.0,10.0,0.0,0.0,0.0,10.0
1446036235236410846,207,1446036235229619979,robocape_mag,38.1,4.35,-14.85,10.0,0.0,0.0,0.0,10.0,0.0,0.0,0.0,10.0
1446036235267458680,208,1446036235262665033,robocape_mag,38.1,4.35,-14.85,10.0,0.0,0.0,0.0,10.0,0.0,0.0,0.0,10.0
1446036235300441597,209,1446036235295696020,robocape_mag,38.1,4.35,-14.85,10.0,0.0,0.0,0.0,10.0,0.0,0.0,0.0,10.0
1446036235334954680,210,1446036235330012083,robocape_mag,38.1,4.35,-14.85,10.0,0.0,0.0,0.0,10.0,0.0,0.0,0.0,10.0
1446036235367276263,211,1446036235362487077,robocape_mag,37.5,-1.05,12.75,10.0,0.0,0.0,0.0,10.0,0.0,0.0,0.0,10.0
1446036235401771805,212,1446036235396919012,robocape_mag,37.5,-1.05,12.75,10.0,0.0,0.0,0.0,10.0,0.0,0.0,0.0,10.0
1446036235435163638,213,1446036235430205106,robocape_mag,37.5,-1.05,12.75,10.0,0.0,0.0,0.0,10.0,0.0,0.0,0.0,10.0
1446036235469621638,214,1446036235463733911,robocape_mag,37.5,-1.05,12.75,10.0,0.0,0.0,0.0,10.0,0.0,0.0,0.0,10.0
1446036235502178430,215,1446036235496934890,robocape_mag,37.5,-1.05,12.75,10.0,0.0,0.0,0.0,10.0,0.0,0.0,0.0,10.0
1446036235536181430,216,1446036235530808925,robocape_mag,38.7,-7.65,-0.45,10.0,0.0,0.0,0.0,10.0,0.0,0.0,0.0,10.0
1446036235570000597,217,1446036235563997030,robocape_mag,38.7,-7.65,-0.45,10.0,0.0,0.0,0.0,10.0,0.0,0.0,0.0,10.0
1446036235606404680,218,1446036235599268913,robocape_mag,38.7,-7.65,-0.45,10.0,0.0,0.0,0.0,10.0,0.0,0.0,0.0,10.0
1446036235635672847,219,1446036235630578041,robocape_mag,38.7,-7.65,-0.45,10.0,0.0,0.0,0.0,10.0,0.0,0.0,0.0,10.0
1446036235677978722,220,1446036235664563894,robocape_mag,35.1,15.75,1.35,10.0,0.0,0.0,0.0,10.0,0.0,0.0,0.0,10.0
1446036235710407097,221,1446036235698708057,robocape_mag,35.1,15.75,1.35,10.0,0.0,0.0,0.0,10.0,0.0,0.0,0.0,10.0
1446036235739759930,222,1446036235731513977,robocape_mag,35.1,15.75,1.35,10.0,0.0,0.0,0.0,10.0,0.0,0.0,0.0,10.0
1446036235774511388,223,1446036235766272068,robocape_mag,35.1,15.75,1.35,10.0,0.0,0.0,0.0,10.0,0.0,0.0,0.0,10.0
1446036235805327013,224,1446036235799889087,robocape_mag,35.1,15.75,1.35,10.0,0.0,0.0,0.0,10.0,0.0,0.0,0.0,10.0
1446036235839892680,225,1446036235833096981,robocape_mag,36.9,18.75,3.75,10.0,0.0,0.0,0.0,10.0,0.0,0.0,0.0,10.0
1446036235871276930,226,1446036235865443944,robocape_mag,36.9,18.75,3.75,10.0,0.0,0.0,0.0,10.0,0.0,0.0,0.0,10.0
1446036235904143097,227,1446036235898631095,robocape_mag,36.9,18.75,3.75,10.0,0.0,0.0,0.0,10.0,0.0,0.0,0.0,10.0
1446036235940099263,228,1446036235932116031,robocape_mag,36.9,18.75,3.75,10.0,0.0,0.0,0.0,10.0,0.0,0.0,0.0,10.0
1446036235971880555,229,1446036235966619968,robocape_mag,36.9,18.75,3.75,10.0,0.0,0.0,0.0,10.0,0.0,0.0,0.0,10.0
1446036236005119847,230,1446036235999919891,robocape_mag,32.1,18.75,7.35,10.0,0.0,0.0,0.0,10.0,0.0,0.0,0.0,10.0
1446036236037917180,231,1446036236032571077,robocape_mag,32.1,18.75,7.35,10.0,0.0,0.0,0.0,10.0,0.0,0.0,0.0,10.0
1446036236075721597,232,1446036236066309928,robocape_mag,32.1,18.75,7.35,10.0,0.0,0.0,0.0,10.0,0.0,0.0,0.0,10.0
1446036236105092139,233,1446036236099565982,robocape_mag,32.1,18.75,7.35,10.0,0.0,0.0,0.0,10.0,0.0,0.0,0.0,10.0
1446036236140609430,234,1446036236132184982,robocape_mag,32.1,18.75,7.35,10.0,0.0,0.0,0.0,10.0,0.0,0.0,0.0,10.0
1446036236171687764,235,1446036236166560888,robocape_mag,29.4,21.45,7.65,10.0,0.0,0.0,0.0,10.0,0.0,0.0,0.0,10.0
1446036236213082097,236,1446036236200325965,robocape_mag,29.4,21.45,7.65,10.0,0.0,0.0,0.0,10.0,0.0,0.0,0.0,10.0
1446036236237740680,237,1446036236231448888,robocape_mag,29.4,21.45,7.65,10.0,0.0,0.0,0.0,10.0,0.0,0.0,0.0,10.0
1446036236271468430,238,1446036236266403913,robocape_mag,29.4,21.45,7.65,10.0,0.0,0.0,0.0,10.0,0.0,0.0,0.0,10.0
1446036236303503430,239,1446036236298652887,robocape_mag,29.4,73.95,4.35,10.0,0.0,0.0,0.0,10.0,0.0,0.0,0.0,10.0
1446036236337904430,240,1446036236330722093,robocape_mag,27.9,-2.85,4.35,10.0,0.0,0.0,0.0,10.0,0.0,0.0,0.0,10.0
1446036236370352305,241,1446036236365334987,robocape_mag,27.9,-2.85,4.35,10.0,0.0,0.0,0.0,10.0,0.0,0.0,0.0,10.0
1446036236403784430,242,1446036236398997068,robocape_mag,27.9,-2.85,4.35,10.0,0.0,0.0,0.0,10.0,0.0,0.0,0.0,10.0
1446036236436046305,243,1446036236431310892,robocape_mag,27.9,-2.85,4.35,10.0,0.0,0.0,0.0,10.0,0.0,0.0,0.0,10.0
1446036236468902097,244,1446036236463990926,robocape_mag,32.7,-6.45,5.55,10.0,0.0,0.0,0.0,10.0,0.0,0.0,0.0,10.0
1446036236501484222,245,1446036236496599912,robocape_mag,32.7,-6.45,5.55,10.0,0.0,0.0,0.0,10.0,0.0,0.0,0.0,10.0
1446036236534523305,246,1446036236529544115,robocape_mag,32.7,-6.45,5.55,10.0,0.0,0.0,0.0,10.0,0.0,0.0,0.0,10.0
1446036236568153805,247,1446036236562741994,robocape_mag,32.7,-6.45,5.55,10.0,0.0,0.0,0.0,10.0,0.0,0.0,0.0,10.0
1446036236601418889,248,1446036236596635103,robocape_mag,32.7,-6.45,5.55,10.0,0.0,0.0,0.0,10.0,0.0,0.0,0.0,10.0
1446036236634746722,249,1446036236629709005,robocape_mag,33.0,27.45,4.65,10.0,0.0,0.0,0.0,10.0,0.0,0.0,0.0,10.0
1446036236668229764,250,1446036236662929058,robocape_mag,33.0,27.45,4.65,10.0,0.0,0.0,0.0,10.0,0.0,0.0,0.0,10.0
1446036236704687556,251,1446036236695823907,robocape_mag,33.0,27.45,4.65,10.0,0.0,0.0,0.0,10.0,0.0,0.0,0.0,10.0
1446036236734226056,252,1446036236729398012,robocape_mag,33.0,27.45,4.65,10.0,0.0,0.0,0.0,10.0,0.0,0.0,0.0,10.0
1446036236767835389,253,1446036236762459993,robocape_mag,33.0,27.45,4.65,10.0,0.0,0.0,0.0,10.0,0.0,0.0,0.0,10.0
1446036236800607556,254,1446036236795842885,robocape_mag,45.6,-2.55,-6.15,10.0,0.0,0.0,0.0,10.0,0.0,0.0,0.0,10.0
1446036236833953931,255,1446036236829233884,robocape_mag,45.6,-2.55,-6.15,10.0,0.0,0.0,0.0,10.0,0.0,0.0,0.0,10.0
1446036236872007347,256,1446036236862324953,robocape_mag,45.6,-2.55,-6.15,10.0,0.0,0.0,0.0,10.0,0.0,0.0,0.0,10.0
1446036236900783431,257,1446036236895982980,robocape_mag,45.6,-2.55,-6.15,10.0,0.0,0.0,0.0,10.0,0.0,0.0,0.0,10.0
1446036236934334056,258,1446036236929435014,robocape_mag,45.6,-2.55,-6.15,10.0,0.0,0.0,0.0,10.0,0.0,0.0,0.0,10.0
1446036236967845889,259,1446036236962621927,robocape_mag,36.3,16.35,4.95,10.0,0.0,0.0,0.0,10.0,0.0,0.0,0.0,10.0
1446036237000920556,260,1446036236996098041,robocape_mag,36.3,16.35,4.95,10.0,0.0,0.0,0.0,10.0,0.0,0.0,0.0,10.0
1446036237034757139,261,1446036237029277086,robocape_mag,36.3,16.35,4.95,10.0,0.0,0.0,0.0,10.0,0.0,0.0,0.0,10.0
1446036237067219514,262,1446036237062402963,robocape_mag,36.3,16.35,4.95,10.0,0.0,0.0,0.0,10.0,0.0,0.0,0.0,10.0
1446036237100749181,263,1446036237095963954,robocape_mag,36.3,16.35,4.95,10.0,0.0,0.0,0.0,10.0,0.0,0.0,0.0,10.0
1446036237135585389,264,1446036237130532026,robocape_mag,36.9,-4.65,6.75,10.0,0.0,0.0,0.0,10.0,0.0,0.0,0.0,10.0
1446036237167250514,265,1446036237162339925,robocape_mag,36.9,-4.65,6.75,10.0,0.0,0.0,0.0,10.0,0.0,0.0,0.0,10.0
1446036237206763139,266,1446036237196027994,robocape_mag,36.9,-4.65,6.75,10.0,0.0,0.0,0.0,10.0,0.0,0.0,0.0,10.0
1446036237236619181,267,1446036237229983091,robocape_mag,36.9,-4.65,6.75,10.0,0.0,0.0,0.0,10.0,0.0,0.0,0.0,10.0
1446036237267896764,268,1446036237262439966,robocape_mag,36.0,14.25,7.65,10.0,0.0,0.0,0.0,10.0,0.0,0.0,0.0,10.0
1446036237302314722,269,1446036237295680046,robocape_mag,36.0,14.25,7.65,10.0,0.0,0.0,0.0,10.0,0.0,0.0,0.0,10.0
1446036237333996722,270,1446036237329061985,robocape_mag,36.0,14.25,7.65,10.0,0.0,0.0,0.0,10.0,0.0,0.0,0.0,10.0
1446036237367205223,271,1446036237362221956,robocape_mag,36.0,14.25,7.65,10.0,0.0,0.0,0.0,10.0,0.0,0.0,0.0,10.0
1446036237400885389,272,1446036237395781993,robocape_mag,36.0,14.25,7.65,10.0,0.0,0.0,0.0,10.0,0.0,0.0,0.0,10.0
1446036237434165723,273,1446036237429099082,robocape_mag,45.6,10.05,-6.15,10.0,0.0,0.0,0.0,10.0,0.0,0.0,0.0,10.0
1446036237467441098,274,1446036237462172985,robocape_mag,45.6,10.05,-6.15,10.0,0.0,0.0,0.0,10.0,0.0,0.0,0.0,10.0
1446036237500535848,275,1446036237495610952,robocape_mag,45.6,10.05,-6.15,10.0,0.0,0.0,0.0,10.0,0.0,0.0,0.0,10.0
1446036237534280056,276,1446036237529004096,robocape_mag,45.6,10.05,-6.15,10.0,0.0,0.0,0.0,10.0,0.0,0.0,0.0,10.0
1446036237567296306,277,1446036237562186956,robocape_mag,45.6,10.05,-6.15,10.0,0.0,0.0,0.0,10.0,0.0,0.0,0.0,10.0
1446036237601188014,278,1446036237596227884,robocape_mag,35.1,-9.45,-2.85,10.0,0.0,0.0,0.0,10.0,0.0,0.0,0.0,10.0
1446036237634282014,279,1446036237629264116,robocape_mag,35.1,-9.45,-2.85,10.0,0.0,0.0,0.0,10.0,0.0,0.0,0.0,10.0
1446036237667552139,280,1446036237662467002,robocape_mag,35.1,-9.45,-2.85,10.0,0.0,0.0,0.0,10.0,0.0,0.0,0.0,10.0
1446036237704083431,281,1446036237697069883,robocape_mag,35.1,-9.45,-2.85,10.0,0.0,0.0,0.0,10.0,0.0,0.0,0.0,10.0
1446036237735393431,282,1446036237730360984,robocape_mag,35.1,-9.45,-2.85,10.0,0.0,0.0,0.0,10.0,0.0,0.0,0.0,10.0
1446036237768448389,283,1446036237763463020,robocape_mag,37.8,-1.95,-1.95,10.0,0.0,0.0,0.0,10.0,0.0,0.0,0.0,10.0
1446036237802119431,284,1446036237797241926,robocape_mag,37.8,-1.95,-1.95,10.0,0.0,0.0,0.0,10.0,0.0,0.0,0.0,10.0
1446036237836064139,285,1446036237830713987,robocape_mag,37.8,-1.95,-1.95,10.0,0.0,0.0,0.0,10.0,0.0,0.0,0.0,10.0
1446036237868961473,286,1446036237863912105,robocape_mag,37.8,-1.95,-1.95,10.0,0.0,0.0,0.0,10.0,0.0,0.0,0.0,10.0
1446036237906076973,287,1446036237900928974,robocape_mag,27.3,29.55,4.35,10.0,0.0,0.0,0.0,10.0,0.0,0.0,0.0,10.0
1446036237935491639,288,1446036237930526018,robocape_mag,27.3,29.55,4.35,10.0,0.0,0.0,0.0,10.0,0.0,0.0,0.0,10.0
1446036237969316056,289,1446036237964078903,robocape_mag,27.3,29.55,4.35,10.0,0.0,0.0,0.0,10.0,0.0,0.0,0.0,10.0
1446036238004456556,290,1446036237998991966,robocape_mag,27.3,29.55,4.35,10.0,0.0,0.0,0.0,10.0,0.0,0.0,0.0,10.0
1446036238034561639,291,1446036238029529094,robocape_mag,27.3,29.55,4.35,10.0,0.0,0.0,0.0,10.0,0.0,0.0,0.0,10.0
1446036238070736098,292,1446036238065793991,robocape_mag,12.9,23.55,10.35,10.0,0.0,0.0,0.0,10.0,0.0,0.0,0.0,10.0
1446036238109297015,293,1446036238098917007,robocape_mag,12.9,23.55,10.35,10.0,0.0,0.0,0.0,10.0,0.0,0.0,0.0,10.0
1446036238140062973,294,1446036238130368947,robocape_mag,12.9,23.55,10.35,10.0,0.0,0.0,0.0,10.0,0.0,0.0,0.0,10.0
1446036238172024015,295,1446036238166802883,robocape_mag,12.9,23.55,10.35,10.0,0.0,0.0,0.0,10.0,0.0,0.0,0.0,10.0
1446036238216906806,296,1446036238205929040,robocape_mag,12.9,23.55,10.35,10.0,0.0,0.0,0.0,10.0,0.0,0.0,0.0,10.0
1446036238240215640,297,1446036238234477996,robocape_mag,-9.6,15.45,4.65,10.0,0.0,0.0,0.0,10.0,0.0,0.0,0.0,10.0
1446036238271264140,298,1446036238266019105,robocape_mag,-9.6,15.45,4.65,10.0,0.0,0.0,0.0,10.0,0.0,0.0,0.0,10.0
1446036238304091098,299,1446036238299005031,robocape_mag,-9.6,15.45,4.65,10.0,0.0,0.0,0.0,10.0,0.0,0.0,0.0,10.0
1446036238341810515,300,1446036238332545042,robocape_mag,-9.6,15.45,4.65,10.0,0.0,0.0,0.0,10.0,0.0,0.0,0.0,10.0
1446036238375453890,301,1446036238365628004,robocape_mag,-9.6,15.45,4.65,10.0,0.0,0.0,0.0,10.0,0.0,0.0,0.0,10.0
1446036238404936140,302,1446036238400069952,robocape_mag,-12.0,26.85,10.05,10.0,0.0,0.0,0.0,10.0,0.0,0.0,0.0,10.0
1446036238437685515,303,1446036238432599067,robocape_mag,-12.0,26.85,10.05,10.0,0.0,0.0,0.0,10.0,0.0,0.0,0.0,10.0
1446036238470351223,304,1446036238465182065,robocape_mag,-12.0,26.85,10.05,10.0,0.0,0.0,0.0,10.0,0.0,0.0,0.0,10.0
1446036238504336848,305,1446036238499365091,robocape_mag,-12.0,26.85,10.05,10.0,0.0,0.0,0.0,10.0,0.0,0.0,0.0,10.0
1446036238536787848,306,1446036238531763076,robocape_mag,-12.0,26.85,10.05,10.0,0.0,0.0,0.0,10.0,0.0,0.0,0.0,10.0
1446036238569833640,307,1446036238564981937,robocape_mag,-0.9,9.15,10.35,10.0,0.0,0.0,0.0,10.0,0.0,0.0,0.0,10.0
1446036238603267848,308,1446036238598295927,robocape_mag,-0.9,9.15,10.35,10.0,0.0,0.0,0.0,10.0,0.0,0.0,0.0,10.0
1446036238640568015,309,1446036238631709098,robocape_mag,-0.9,9.15,10.35,10.0,0.0,0.0,0.0,10.0,0.0,0.0,0.0,10.0
1446036238701004348,310,1446036238666071891,robocape_mag,-0.9,9.15,10.35,10.0,0.0,0.0,0.0,10.0,0.0,0.0,0.0,10.0
1446036238723647181,311,1446036238718306064,robocape_mag,-7.8,21.45,11.85,10.0,0.0,0.0,0.0,10.0,0.0,0.0,0.0,10.0
1446036238744496057,312,1446036238739515066,robocape_mag,-7.8,21.45,11.85,10.0,0.0,0.0,0.0,10.0,0.0,0.0,0.0,10.0
1446036238769735682,313,1446036238764997959,robocape_mag,-7.8,21.45,11.85,10.0,0.0,0.0,0.0,10.0,0.0,0.0,0.0,10.0
1446036238801964723,314,1446036238796761989,robocape_mag,-7.8,21.45,11.85,10.0,0.0,0.0,0.0,10.0,0.0,0.0,0.0,10.0
1446036238835314140,315,1446036238830404996,robocape_mag,-7.8,21.45,11.85,10.0,0.0,0.0,0.0,10.0,0.0,0.0,0.0,10.0
1446036238867548765,316,1446036238862782001,robocape_mag,-14.4,-7.95,13.05,10.0,0.0,0.0,0.0,10.0,0.0,0.0,0.0,10.0
1446036238901658057,317,1446036238896641969,robocape_mag,-14.4,-7.95,13.05,10.0,0.0,0.0,0.0,10.0,0.0,0.0,0.0,10.0
1446036238934407348,318,1446036238929326057,robocape_mag,-14.4,-7.95,13.05,10.0,0.0,0.0,0.0,10.0,0.0,0.0,0.0,10.0
1446036238967543223,319,1446036238962632894,robocape_mag,-14.4,-7.95,13.05,10.0,0.0,0.0,0.0,10.0,0.0,0.0,0.0,10.0
1446036239000967682,320,1446036238995989084,robocape_mag,-14.4,-7.95,13.05,10.0,0.0,0.0,0.0,10.0,0.0,0.0,0.0,10.0
1446036239033964140,321,1446036239029139041,robocape_mag,-14.4,13.05,17.25,10.0,0.0,0.0,0.0,10.0,0.0,0.0,0.0,10.0
1446036239067309682,322,1446036239062238931,robocape_mag,-14.4,13.05,17.25,10.0,0.0,0.0,0.0,10.0,0.0,0.0,0.0,10.0
1446036239101117765,323,1446036239096179008,robocape_mag,-14.4,13.05,17.25,10.0,0.0,0.0,0.0,10.0,0.0,0.0,0.0,10.0
1446036239134302765,324,1446036239129401922,robocape_mag,-14.4,13.05,17.25,10.0,0.0,0.0,0.0,10.0,0.0,0.0,0.0,10.0
1446036239167764182,325,1446036239162911891,robocape_mag,-14.4,13.05,17.25,10.0,0.0,0.0,0.0,10.0,0.0,0.0,0.0,10.0
1446036239206959473,326,1446036239196346044,robocape_mag,10.5,11.55,15.75,10.0,0.0,0.0,0.0,10.0,0.0,0.0,0.0,10.0
1446036239234691723,327,1446036239229863882,robocape_mag,10.5,11.55,15.75,10.0,0.0,0.0,0.0,10.0,0.0,0.0,0.0,10.0
1446036239267310515,328,1446036239262576103,robocape_mag,10.5,11.55,15.75,10.0,0.0,0.0,0.0,10.0,0.0,0.0,0.0,10.0
1446036239300692182,329,1446036239295844078,robocape_mag,10.5,11.55,15.75,10.0,0.0,0.0,0.0,10.0,0.0,0.0,0.0,10.0
1446036239334000515,330,1446036239329250097,robocape_mag,10.5,11.55,15.75,10.0,0.0,0.0,0.0,10.0,0.0,0.0,0.0,10.0
1446036239367116473,331,1446036239362323999,robocape_mag,6.0,-12.15,17.85,10.0,0.0,0.0,0.0,10.0,0.0,0.0,0.0,10.0
1446036239400714223,332,1446036239395891904,robocape_mag,6.0,-12.15,17.85,10.0,0.0,0.0,0.0,10.0,0.0,0.0,0.0,10.0
1446036239434119390,333,1446036239429233074,robocape_mag,6.0,-12.15,17.85,10.0,0.0,0.0,0.0,10.0,0.0,0.0,0.0,10.0
1446036239466998390,334,1446036239462230920,robocape_mag,6.0,-12.15,17.85,10.0,0.0,0.0,0.0,10.0,0.0,0.0,0.0,10.0
1446036239500429140,335,1446036239495630025,robocape_mag,6.0,-12.15,17.85,10.0,0.0,0.0,0.0,10.0,0.0,0.0,0.0,10.0
1446036239534462807,336,1446036239529023885,robocape_mag,2.1,1.95,18.75,10.0,0.0,0.0,0.0,10.0,0.0,0.0,0.0,10.0
1446036239567155932,337,1446036239562196016,robocape_mag,2.1,1.95,18.75,10.0,0.0,0.0,0.0,10.0,0.0,0.0,0.0,10.0
1446036239602642099,338,1446036239595828056,robocape_mag,2.1,1.95,18.75,10.0,0.0,0.0,0.0,10.0,0.0,0.0,0.0,10.0
1446036239634348515,339,1446036239629143953,robocape_mag,2.1,1.95,18.75,10.0,0.0,0.0,0.0,10.0,0.0,0.0,0.0,10.0
1446036239667831140,340,1446036239662604093,robocape_mag,-14.4,-18.75,18.45,10.0,0.0,0.0,0.0,10.0,0.0,0.0,0.0,10.0
1446036239700949515,341,1446036239695831060,robocape_mag,-14.4,-18.75,18.45,10.0,0.0,0.0,0.0,10.0,0.0,0.0,0.0,10.0
1446036239734223265,342,1446036239729110956,robocape_mag,-14.4,-18.75,18.45,10.0,0.0,0.0,0.0,10.0,0.0,0.0,0.0,10.0
1446036239767431724,343,1446036239762325048,robocape_mag,-14.4,-18.75,18.45,10.0,0.0,0.0,0.0,10.0,0.0,0.0,0.0,10.0
1446036239803858682,344,1446036239798890113,robocape_mag,-14.4,-18.75,18.45,10.0,0.0,0.0,0.0,10.0,0.0,0.0,0.0,10.0
1446036239836722724,345,1446036239831541061,robocape_mag,1.2,-5.55,17.25,10.0,0.0,0.0,0.0,10.0,0.0,0.0,0.0,10.0
1446036239869310224,346,1446036239864528894,robocape_mag,1.2,-5.55,17.25,10.0,0.0,0.0,0.0,10.0,0.0,0.0,0.0,10.0
1446036239903296515,347,1446036239898360967,robocape_mag,1.2,-5.55,17.25,10.0,0.0,0.0,0.0,10.0,0.0,0.0,0.0,10.0
1446036239935107224,348,1446036239930242061,robocape_mag,1.2,-5.55,17.25,10.0,0.0,0.0,0.0,10.0,0.0,0.0,0.0,10.0
1446036239968729474,349,1446036239963970899,robocape_mag,1.2,-5.55,17.25,10.0,0.0,0.0,0.0,10.0,0.0,0.0,0.0,10.0
1446036240001849807,350,1446036239996961116,robocape_mag,1.8,-3.15,17.85,10.0,0.0,0.0,0.0,10.0,0.0,0.0,0.0,10.0
1446036240034836599,351,1446036240029849052,robocape_mag,1.8,-3.15,17.85,10.0,0.0,0.0,0.0,10.0,0.0,0.0,0.0,10.0
1446036240067646932,352,1446036240062716960,robocape_mag,1.8,-3.15,17.85,10.0,0.0,0.0,0.0,10.0,0.0,0.0,0.0,10.0
1446036240101687182,353,1446036240096709012,robocape_mag,1.8,-3.15,17.85,10.0,0.0,0.0,0.0,10.0,0.0,0.0,0.0,10.0
1446036240140184432,354,1446036240129385948,robocape_mag,1.8,-3.15,17.85,10.0,0.0,0.0,0.0,10.0,0.0,0.0,0.0,10.0
1446036240168223141,355,1446036240163232088,robocape_mag,9.0,-31.95,17.25,10.0,0.0,0.0,0.0,10.0,0.0,0.0,0.0,10.0
1446036240208870682,356,1446036240196429967,robocape_mag,9.0,-31.95,17.25,10.0,0.0,0.0,0.0,10.0,0.0,0.0,0.0,10.0
1446036240235749349,357,1446036240230812072,robocape_mag,9.0,-31.95,17.25,10.0,0.0,0.0,0.0,10.0,0.0,0.0,0.0,10.0
1446036240268928349,358,1446036240264098882,robocape_mag,9.0,-31.95,17.25,10.0,0.0,0.0,0.0,10.0,0.0,0.0,0.0,10.0
1446036240302703349,359,1446036240297692060,robocape_mag,9.0,-31.95,2.25,10.0,0.0,0.0,0.0,10.0,0.0,0.0,0.0,10.0
1446036240335144307,360,1446036240330035924,robocape_mag,45.0,-25.35,2.25,10.0,0.0,0.0,0.0,10.0,0.0,0.0,0.0,10.0
1446036240376680516,361,1446036240366569995,robocape_mag,45.0,-25.35,2.25,10.0,0.0,0.0,0.0,10.0,0.0,0.0,0.0,10.0
1446036240404236932,362,1446036240398526906,robocape_mag,45.0,-25.35,2.25,10.0,0.0,0.0,0.0,10.0,0.0,0.0,0.0,10.0
1446036240440729807,363,1446036240432915925,robocape_mag,45.0,-25.35,2.25,10.0,0.0,0.0,0.0,10.0,0.0,0.0,0.0,10.0
1446036240476757766,364,1446036240466424942,robocape_mag,21.3,-11.85,12.75,10.0,0.0,0.0,0.0,10.0,0.0,0.0,0.0,10.0
1446036240509447391,365,1446036240500231027,robocape_mag,21.3,-11.85,12.75,10.0,0.0,0.0,0.0,10.0,0.0,0.0,0.0,10.0
1446036240542997932,366,1446036240532145977,robocape_mag,21.3,-11.85,12.75,10.0,0.0,0.0,0.0,10.0,0.0,0.0,0.0,10.0
1446036240571649974,367,1446036240566575050,robocape_mag,21.3,-11.85,12.75,10.0,0.0,0.0,0.0,10.0,0.0,0.0,0.0,10.0
1446036240605493849,368,1446036240600163936,robocape_mag,21.3,-11.85,12.75,10.0,0.0,0.0,0.0,10.0,0.0,0.0,0.0,10.0
1446036240639556099,369,1446036240633955001,robocape_mag,19.5,-6.45,16.95,10.0,0.0,0.0,0.0,10.0,0.0,0.0,0.0,10.0
1446036240672731141,370,1446036240667481899,robocape_mag,19.5,-6.45,16.95,10.0,0.0,0.0,0.0,10.0,0.0,0.0,0.0,10.0
1446036240707118932,371,1446036240699140071,robocape_mag,19.5,-6.45,16.95,10.0,0.0,0.0,0.0,10.0,0.0,0.0,0.0,10.0
1446036240738446641,372,1446036240733215093,robocape_mag,19.5,-6.45,16.95,10.0,0.0,0.0,0.0,10.0,0.0,0.0,0.0,10.0
1446036240770976641,373,1446036240765985012,robocape_mag,19.5,-6.45,16.95,10.0,0.0,0.0,0.0,10.0,0.0,0.0,0.0,10.0
1446036240803027932,374,1446036240798238039,robocape_mag,-9.0,0.45,17.25,10.0,0.0,0.0,0.0,10.0,0.0,0.0,0.0,10.0
1446036240833885557,375,1446036240828844070,robocape_mag,-9.0,0.45,17.25,10.0,0.0,0.0,0.0,10.0,0.0,0.0,0.0,10.0
1446036240867495849,376,1446036240862349987,robocape_mag,-9.0,0.45,17.25,10.0,0.0,0.0,0.0,10.0,0.0,0.0,0.0,10.0
1446036240901211849,377,1446036240895683050,robocape_mag,-9.0,0.45,17.25,10.0,0.0,0.0,0.0,10.0,0.0,0.0,0.0,10.0
1446036240934732266,378,1446036240928950071,robocape_mag,-9.0,0.45,17.25,10.0,0.0,0.0,0.0,10.0,0.0,0.0,0.0,10.0
1446036240974082641,379,1446036240965173006,robocape_mag,-10.5,-32.85,19.35,10.0,0.0,0.0,0.0,10.0,0.0,0.0,0.0,10.0
1446036241003782016,380,1446036240998987913,robocape_mag,-10.5,-32.85,19.35,10.0,0.0,0.0,0.0,10.0,0.0,0.0,0.0,10.0
1446036241037133349,381,1446036241031872034,robocape_mag,-10.5,-32.85,19.35,10.0,0.0,0.0,0.0,10.0,0.0,0.0,0.0,10.0
1446036241069906683,382,1446036241064779996,robocape_mag,-10.5,-32.85,19.35,10.0,0.0,0.0,0.0,10.0,0.0,0.0,0.0,10.0
1446036241103086433,383,1446036241098007917,robocape_mag,-10.5,-32.85,16.05,10.0,0.0,0.0,0.0,10.0,0.0,0.0,0.0,10.0
1446036241135340683,384,1446036241130434036,robocape_mag,9.0,-34.95,16.05,10.0,0.0,0.0,0.0,10.0,0.0,0.0,0.0,10.0
1446036241168936683,385,1446036241163929939,robocape_mag,9.0,-34.95,16.05,10.0,0.0,0.0,0.0,10.0,0.0,0.0,0.0,10.0
1446036241208444849,386,1446036241197887897,robocape_mag,9.0,-34.95,16.05,10.0,0.0,0.0,0.0,10.0,0.0,0.0,0.0,10.0
1446036241236485391,387,1446036241231514930,robocape_mag,9.0,-34.95,16.05,10.0,0.0,0.0,0.0,10.0,0.0,0.0,0.0,10.0
1446036241267723099,388,1446036241262758016,robocape_mag,23.4,-16.35,14.85,10.0,0.0,0.0,0.0,10.0,0.0,0.0,0.0,10.0
1446036241301386933,389,1446036241296447992,robocape_mag,23.4,-16.35,14.85,10.0,0.0,0.0,0.0,10.0,0.0,0.0,0.0,10.0
1446036241333835724,390,1446036241329061985,robocape_mag,23.4,-16.35,14.85,10.0,0.0,0.0,0.0,10.0,0.0,0.0,0.0,10.0
1446036241371039349,391,1446036241362354993,robocape_mag,23.4,-16.35,14.85,10.0,0.0,0.0,0.0,10.0,0.0,0.0,0.0,10.0
1446036241400789058,392,1446036241396025896,robocape_mag,23.4,-16.35,14.85,10.0,0.0,0.0,0.0,10.0,0.0,0.0,0.0,10.0
1446036241434007974,393,1446036241428952932,robocape_mag,30.9,-40.05,8.55,10.0,0.0,0.0,0.0,10.0,0.0,0.0,0.0,10.0
1446036241467138974,394,1446036241462393999,robocape_mag,30.9,-40.05,8.55,10.0,0.0,0.0,0.0,10.0,0.0,0.0,0.0,10.0
1446036241500770266,395,1446036241495938062,robocape_mag,30.9,-40.05,8.55,10.0,0.0,0.0,0.0,10.0,0.0,0.0,0.0,10.0
1446036241533950183,396,1446036241529119968,robocape_mag,30.9,-40.05,8.55,10.0,0.0,0.0,0.0,10.0,0.0,0.0,0.0,10.0
1446036241567043808,397,1446036241562294006,robocape_mag,30.9,-40.05,8.55,10.0,0.0,0.0,0.0,10.0,0.0,0.0,0.0,10.0
1446036241600932891,398,1446036241595980882,robocape_mag,37.2,-2.55,6.45,10.0,0.0,0.0,0.0,10.0,0.0,0.0,0.0,10.0
1446036241634034391,399,1446036241629154920,robocape_mag,37.2,-2.55,6.45,10.0,0.0,0.0,0.0,10.0,0.0,0.0,0.0,10.0
1446036241671442808,400,1446036241662336111,robocape_mag,37.2,-2.55,6.45,10.0,0.0,0.0,0.0,10.0,0.0,0.0,0.0,10.0
1446036241700665725,401,1446036241695687055,robocape_mag,37.2,-2.55,6.45,10.0,0.0,0.0,0.0,10.0,0.0,0.0,0.0,10.0
1446036241735768433,402,1446036241730683088,robocape_mag,37.2,-2.55,6.45,10.0,0.0,0.0,0.0,10.0,0.0,0.0,0.0,10.0
1446036241767279641,403,1446036241762450933,robocape_mag,23.7,-11.85,9.15,10.0,0.0,0.0,0.0,10.0,0.0,0.0,0.0,10.0
1446036241802860725,404,1446036241797161102,robocape_mag,23.7,-11.85,9.15,10.0,0.0,0.0,0.0,10.0,0.0,0.0,0.0,10.0
1446036241834036141,405,1446036241829202890,robocape_mag,23.7,-11.85,9.15,10.0,0.0,0.0,0.0,10.0,0.0,0.0,0.0,10.0
1446036241867328975,406,1446036241862461090,robocape_mag,23.7,-11.85,9.15,10.0,0.0,0.0,0.0,10.0,0.0,0.0,0.0,10.0
1446036241901556225,407,1446036241896006107,robocape_mag,23.7,-11.85,9.15,10.0,0.0,0.0,0.0,10.0,0.0,0.0,0.0,10.0
1446036241935895600,408,1446036241928936958,robocape_mag,22.2,0.45,14.85,10.0,0.0,0.0,0.0,10.0,0.0,0.0,0.0,10.0
1446036241967320141,409,1446036241962342977,robocape_mag,22.2,0.45,14.85,10.0,0.0,0.0,0.0,10.0,0.0,0.0,0.0,10.0
1446036242000874475,410,1446036241995870113,robocape_mag,22.2,0.45,14.85,10.0,0.0,0.0,0.0,10.0,0.0,0.0,0.0,10.0
1446036242033849516,411,1446036242028923988,robocape_mag,22.2,0.45,14.85,10.0,0.0,0.0,0.0,10.0,0.0,0.0,0.0,10.0
1446036242067708725,412,1446036242062591075,robocape_mag,22.5,-6.45,15.15,10.0,0.0,0.0,0.0,10.0,0.0,0.0,0.0,10.0
1446036242104258683,413,1446036242099262952,robocape_mag,22.5,-6.45,15.15,10.0,0.0,0.0,0.0,10.0,0.0,0.0,0.0,10.0
1446036242136648600,414,1446036242131877899,robocape_mag,22.5,-6.45,15.15,10.0,0.0,0.0,0.0,10.0,0.0,0.0,0.0,10.0
1446036242169837266,415,1446036242164913892,robocape_mag,22.5,-6.45,15.15,10.0,0.0,0.0,0.0,10.0,0.0,0.0,0.0,10.0
1446036242211008975,416,1446036242199995994,robocape_mag,22.5,-6.45,15.15,10.0,0.0,0.0,0.0,10.0,0.0,0.0,0.0,10.0
1446036242236629141,417,1446036242231688976,robocape_mag,-3.6,5.25,19.65,10.0,0.0,0.0,0.0,10.0,0.0,0.0,0.0,10.0
1446036242268826350,418,1446036242263995885,robocape_mag,-3.6,5.25,19.65,10.0,0.0,0.0,0.0,10.0,0.0,0.0,0.0,10.0
1446036242302375600,419,1446036242297329902,robocape_mag,-3.6,5.25,19.65,10.0,0.0,0.0,0.0,10.0,0.0,0.0,0.0,10.0
1446036242335225308,420,1446036242330310106,robocape_mag,-3.6,5.25,19.65,10.0,0.0,0.0,0.0,10.0,0.0,0.0,0.0,10.0
1446036242368543433,421,1446036242363529920,robocape_mag,-3.6,5.25,19.65,10.0,0.0,0.0,0.0,10.0,0.0,0.0,0.0,10.0
1446036242401433683,422,1446036242396389007,robocape_mag,3.6,-25.35,17.25,10.0,0.0,0.0,0.0,10.0,0.0,0.0,0.0,10.0
1446036242434453808,423,1446036242429322004,robocape_mag,3.6,-25.35,17.25,10.0,0.0,0.0,0.0,10.0,0.0,0.0,0.0,10.0
1446036242467257725,424,1446036242462428092,robocape_mag,3.6,-25.35,17.25,10.0,0.0,0.0,0.0,10.0,0.0,0.0,0.0,10.0
1446036242501153475,425,1446036242495953083,robocape_mag,3.6,-25.35,17.25,10.0,0.0,0.0,0.0,10.0,0.0,0.0,0.0,10.0
1446036242533768225,426,1446036242529047966,robocape_mag,3.6,-25.35,17.25,10.0,0.0,0.0,0.0,10.0,0.0,0.0,0.0,10.0
1446036242567278517,427,1446036242562254905,robocape_mag,11.1,-17.25,16.35,10.0,0.0,0.0,0.0,10.0,0.0,0.0,0.0,10.0
1446036242601362183,428,1446036242596051931,robocape_mag,11.1,-17.25,16.35,10.0,0.0,0.0,0.0,10.0,0.0,0.0,0.0,10.0
1446036242634137142,429,1446036242629288911,robocape_mag,11.1,-17.25,16.35,10.0,0.0,0.0,0.0,10.0,0.0,0.0,0.0,10.0
1446036242671890475,430,1446036242662600994,robocape_mag,11.1,-17.25,16.35,10.0,0.0,0.0,0.0,10.0,0.0,0.0,0.0,10.0
1446036242701575100,431,1446036242696118116,robocape_mag,11.1,-17.25,16.35,10.0,0.0,0.0,0.0,10.0,0.0,0.0,0.0,10.0
1446036242734237850,432,1446036242729293107,robocape_mag,4.2,-22.35,19.05,10.0,0.0,0.0,0.0,10.0,0.0,0.0,0.0,10.0
1446036242767364642,433,1446036242762612104,robocape_mag,4.2,-22.35,19.05,10.0,0.0,0.0,0.0,10.0,0.0,0.0,0.0,10.0
1446036242804462017,434,1446036242795918941,robocape_mag,4.2,-22.35,19.05,10.0,0.0,0.0,0.0,10.0,0.0,0.0,0.0,10.0
1446036242834856308,435,1446036242829901933,robocape_mag,4.2,-22.35,19.05,10.0,0.0,0.0,0.0,10.0,0.0,0.0,0.0,10.0
1446036242871271475,436,1446036242866107940,robocape_mag,35.4,-13.95,8.85,10.0,0.0,0.0,0.0,10.0,0.0,0.0,0.0,10.0
1446036242905115642,437,1446036242898910045,robocape_mag,35.4,-13.95,8.85,10.0,0.0,0.0,0.0,10.0,0.0,0.0,0.0,10.0
1446036242937705059,438,1446036242932248115,robocape_mag,35.4,-13.95,8.85,10.0,0.0,0.0,0.0,10.0,0.0,0.0,0.0,10.0
1446036242971897892,439,1446036242966423988,robocape_mag,35.4,-13.95,8.85,10.0,0.0,0.0,0.0,10.0,0.0,0.0,0.0,10.0
1446036243004731517,440,1446036242999427080,robocape_mag,35.4,-13.95,8.85,10.0,0.0,0.0,0.0,10.0,0.0,0.0,0.0,10.0
1446036243033483434,441,1446036243028687953,robocape_mag,28.8,-25.95,4.05,10.0,0.0,0.0,0.0,10.0,0.0,0.0,0.0,10.0
1446036243068304809,442,1446036243062156915,robocape_mag,28.8,-25.95,4.05,10.0,0.0,0.0,0.0,10.0,0.0,0.0,0.0,10.0
1446036243102874892,443,1446036243095972061,robocape_mag,28.8,-25.95,4.05,10.0,0.0,0.0,0.0,10.0,0.0,0.0,0.0,10.0
1446036243134239225,444,1446036243129153966,robocape_mag,28.8,-25.95,4.05,10.0,0.0,0.0,0.0,10.0,0.0,0.0,0.0,10.0
1446036243170101642,445,1446036243162329912,robocape_mag,28.8,-25.95,4.05,10.0,0.0,0.0,0.0,10.0,0.0,0.0,0.0,10.0
1446036243205287184,446,1446036243195775032,robocape_mag,28.2,-6.15,7.65,10.0,0.0,0.0,0.0,10.0,0.0,0.0,0.0,10.0
1446036243234660600,447,1446036243229522943,robocape_mag,28.2,-6.15,7.65,10.0,0.0,0.0,0.0,10.0,0.0,0.0,0.0,10.0
1446036243267831267,448,1446036243262449979,robocape_mag,28.2,-6.15,7.65,10.0,0.0,0.0,0.0,10.0,0.0,0.0,0.0,10.0
1446036243301036934,449,1446036243295979022,robocape_mag,28.2,-6.15,7.65,10.0,0.0,0.0,0.0,10.0,0.0,0.0,0.0,10.0
1446036243333812725,450,1446036243328892946,robocape_mag,28.2,-6.15,7.65,10.0,0.0,0.0,0.0,10.0,0.0,0.0,0.0,10.0
1446036243367521100,451,1446036243362225055,robocape_mag,30.9,7.35,10.95,10.0,0.0,0.0,0.0,10.0,0.0,0.0,0.0,10.0
1446036243400768017,452,1446036243395833015,robocape_mag,30.9,7.35,10.95,10.0,0.0,0.0,0.0,10.0,0.0,0.0,0.0,10.0
1446036243433794017,453,1446036243428989887,robocape_mag,30.9,7.35,10.95,10.0,0.0,0.0,0.0,10.0,0.0,0.0,0.0,10.0
1446036243467794684,454,1446036243462467908,robocape_mag,30.9,7.35,10.95,10.0,0.0,0.0,0.0,10.0,0.0,0.0,0.0,10.0
1446036243501087850,455,1446036243495986938,robocape_mag,30.9,7.35,10.95,10.0,0.0,0.0,0.0,10.0,0.0,0.0,0.0,10.0
1446036243537543600,456,1446036243532644987,robocape_mag,19.2,8.25,14.85,10.0,0.0,0.0,0.0,10.0,0.0,0.0,0.0,10.0
1446036243568645975,457,1446036243562704086,robocape_mag,19.2,8.25,14.85,10.0,0.0,0.0,0.0,10.0,0.0,0.0,0.0,10.0
1446036243601971100,458,1446036243596971988,robocape_mag,19.2,8.25,14.85,10.0,0.0,0.0,0.0,10.0,0.0,0.0,0.0,10.0
1446036243634949642,459,1446036243630218029,robocape_mag,19.2,8.25,14.85,10.0,0.0,0.0,0.0,10.0,0.0,0.0,0.0,10.0
1446036243673400684,460,1446036243663702011,robocape_mag,2.7,-20.25,15.75,10.0,0.0,0.0,0.0,10.0,0.0,0.0,0.0,10.0
1446036243702737726,461,1446036243696294069,robocape_mag,2.7,-20.25,15.75,10.0,0.0,0.0,0.0,10.0,0.0,0.0,0.0,10.0
1446036243734426142,462,1446036243729456901,robocape_mag,2.7,-20.25,15.75,10.0,0.0,0.0,0.0,10.0,0.0,0.0,0.0,10.0
1446036243768779017,463,1446036243763657093,robocape_mag,2.7,-20.25,15.75,10.0,0.0,0.0,0.0,10.0,0.0,0.0,0.0,10.0
1446036243808837184,464,1446036243799295902,robocape_mag,2.7,-20.25,15.75,10.0,0.0,0.0,0.0,10.0,0.0,0.0,0.0,10.0
1446036243834802476,465,1446036243829730987,robocape_mag,4.5,-0.45,19.95,10.0,0.0,0.0,0.0,10.0,0.0,0.0,0.0,10.0
1446036243868367101,466,1446036243863214015,robocape_mag,4.5,-0.45,19.95,10.0,0.0,0.0,0.0,10.0,0.0,0.0,0.0,10.0
1446036243904916476,467,1446036243899781942,robocape_mag,4.5,-0.45,19.95,10.0,0.0,0.0,0.0,10.0,0.0,0.0,0.0,10.0
1446036243933863934,468,1446036243929013967,robocape_mag,4.5,-0.45,19.95,10.0,0.0,0.0,0.0,10.0,0.0,0.0,0.0,10.0
1446036243971491476,469,1446036243962869882,robocape_mag,4.5,-0.45,19.95,10.0,0.0,0.0,0.0,10.0,0.0,0.0,0.0,10.0
1446036244000874142,470,1446036243995758056,robocape_mag,-9.9,1.35,16.35,10.0,0.0,0.0,0.0,10.0,0.0,0.0,0.0,10.0
1446036244033804767,471,1446036244029005050,robocape_mag,-9.9,1.35,16.35,10.0,0.0,0.0,0.0,10.0,0.0,0.0,0.0,10.0
1446036244071359892,472,1446036244065804958,robocape_mag,-9.9,1.35,16.35,10.0,0.0,0.0,0.0,10.0,0.0,0.0,0.0,10.0
1446036244105300017,473,1446036244099805116,robocape_mag,-9.9,1.35,16.35,10.0,0.0,0.0,0.0,10.0,0.0,0.0,0.0,10.0
1446036244137679142,474,1446036244132210969,robocape_mag,-9.9,1.35,16.35,10.0,0.0,0.0,0.0,10.0,0.0,0.0,0.0,10.0
1446036244174612559,475,1446036244166822910,robocape_mag,-10.2,-11.55,17.25,10.0,0.0,0.0,0.0,10.0,0.0,0.0,0.0,10.0
1446036244213147392,476,1446036244200596094,robocape_mag,-10.2,-11.55,17.25,10.0,0.0,0.0,0.0,10.0,0.0,0.0,0.0,10.0
1446036244238512642,477,1446036244232435941,robocape_mag,-10.2,-11.55,17.25,10.0,0.0,0.0,0.0,10.0,0.0,0.0,0.0,10.0
1446036244270919559,478,1446036244265628099,robocape_mag,-10.2,-11.55,17.25,10.0,0.0,0.0,0.0,10.0,0.0,0.0,0.0,10.0
1446036244304246392,479,1446036244298948049,robocape_mag,-10.2,-5.55,16.05,10.0,0.0,0.0,0.0,10.0,0.0,0.0,0.0,10.0
1446036244338097643,480,1446036244332149982,robocape_mag,6.0,-5.55,16.05,10.0,0.0,0.0,0.0,10.0,0.0,0.0,0.0,10.0
1446036244371474018,481,1446036244366249084,robocape_mag,6.0,-5.55,16.05,10.0,0.0,0.0,0.0,10.0,0.0,0.0,0.0,10.0
1446036244402726268,482,1446036244397842884,robocape_mag,6.0,-5.55,16.05,10.0,0.0,0.0,0.0,10.0,0.0,0.0,0.0,10.0
1446036244441009309,483,1446036244431976079,robocape_mag,6.0,-5.55,16.05,10.0,0.0,0.0,0.0,10.0,0.0,0.0,0.0,10.0
1446036244469190893,484,1446036244464205980,robocape_mag,15.0,-18.75,10.05,10.0,0.0,0.0,0.0,10.0,0.0,0.0,0.0,10.0
1446036244503744434,485,1446036244498647928,robocape_mag,15.0,-18.75,10.05,10.0,0.0,0.0,0.0,10.0,0.0,0.0,0.0,10.0
1446036244536246601,486,1446036244531183958,robocape_mag,15.0,-18.75,10.05,10.0,0.0,0.0,0.0,10.0,0.0,0.0,0.0,10.0
1446036244569310268,487,1446036244564208984,robocape_mag,15.0,-18.75,10.05,10.0,0.0,0.0,0.0,10.0,0.0,0.0,0.0,10.0
1446036244601984184,488,1446036244597217082,robocape_mag,15.0,-18.75,10.05,10.0,0.0,0.0,0.0,10.0,0.0,0.0,0.0,10.0
1446036244640157393,489,1446036244630743980,robocape_mag,27.6,-6.15,7.65,10.0,0.0,0.0,0.0,10.0,0.0,0.0,0.0,10.0
1446036244672245976,490,1446036244663660049,robocape_mag,27.6,-6.15,7.65,10.0,0.0,0.0,0.0,10.0,0.0,0.0,0.0,10.0
1446036244701532476,491,1446036244696376085,robocape_mag,27.6,-6.15,7.65,10.0,0.0,0.0,0.0,10.0,0.0,0.0,0.0,10.0
1446036244734285601,492,1446036244729448080,robocape_mag,27.6,-6.15,7.65,10.0,0.0,0.0,0.0,10.0,0.0,0.0,0.0,10.0
1446036244767712726,493,1446036244762928009,robocape_mag,27.6,-6.15,7.65,10.0,0.0,0.0,0.0,10.0,0.0,0.0,0.0,10.0
1446036244800651643,494,1446036244795892953,robocape_mag,24.9,-24.45,5.55,10.0,0.0,0.0,0.0,10.0,0.0,0.0,0.0,10.0
1446036244834530393,495,1446036244829320907,robocape_mag,24.9,-24.45,5.55,10.0,0.0,0.0,0.0,10.0,0.0,0.0,0.0,10.0
1446036244867363184,496,1446036244862618923,robocape_mag,24.9,-24.45,5.55,10.0,0.0,0.0,0.0,10.0,0.0,0.0,0.0,10.0
1446036244900516851,497,1446036244895750999,robocape_mag,24.9,-24.45,5.55,10.0,0.0,0.0,0.0,10.0,0.0,0.0,0.0,10.0
1446036244933924851,498,1446036244929132938,robocape_mag,24.9,-24.45,5.55,10.0,0.0,0.0,0.0,10.0,0.0,0.0,0.0,10.0
1446036244967994434,499,1446036244963113069,robocape_mag,20.4,-22.95,11.25,10.0,0.0,0.0,0.0,10.0,0.0,0.0,0.0,10.0
1446036245000592934,500,1446036244995862960,robocape_mag,20.4,-22.95,11.25,10.0,0.0,0.0,0.0,10.0,0.0,0.0,0.0,10.0
1446036245034100893,501,1446036245029283046,robocape_mag,20.4,-22.95,11.25,10.0,0.0,0.0,0.0,10.0,0.0,0.0,0.0,10.0
1446036245067156268,502,1446036245062326908,robocape_mag,20.4,-22.95,11.25,10.0,0.0,0.0,0.0,10.0,0.0,0.0,0.0,10.0
1446036245101243643,503,1446036245096434116,robocape_mag,20.4,-22.95,11.25,10.0,0.0,0.0,0.0,10.0,0.0,0.0,0.0,10.0
1446036245133978310,504,1446036245129163980,robocape_mag,5.7,-18.45,15.75,10.0,0.0,0.0,0.0,10.0,0.0,0.0,0.0,10.0
1446036245167474143,505,1446036245162331104,robocape_mag,5.7,-18.45,15.75,10.0,0.0,0.0,0.0,10.0,0.0,0.0,0.0,10.0
1446036245207078268,506,1446036245195812940,robocape_mag,5.7,-18.45,15.75,10.0,0.0,0.0,0.0,10.0,0.0,0.0,0.0,10.0
1446036245235708810,507,1446036245230788946,robocape_mag,5.7,-18.45,15.75,10.0,0.0,0.0,0.0,10.0,0.0,0.0,0.0,10.0
1446036245267483810,508,1446036245262590885,robocape_mag,9.6,-11.55,22.65,10.0,0.0,0.0,0.0,10.0,0.0,0.0,0.0,10.0
1446036245300524810,509,1446036245295785903,robocape_mag,9.6,-11.55,22.65,10.0,0.0,0.0,0.0,10.0,0.0,0.0,0.0,10.0
1446036245333798351,510,1446036245329046010,robocape_mag,9.6,-11.55,22.65,10.0,0.0,0.0,0.0,10.0,0.0,0.0,0.0,10.0
1446036245367261726,511,1446036245362411975,robocape_mag,9.6,-11.55,22.65,10.0,0.0,0.0,0.0,10.0,0.0,0.0,0.0,10.0
1446036245402518601,512,1446036245395828962,robocape_mag,9.6,-11.55,22.65,10.0,0.0,0.0,0.0,10.0,0.0,0.0,0.0,10.0
1446036245435572060,513,1446036245428877115,robocape_mag,-7.5,-1.65,19.95,10.0,0.0,0.0,0.0,10.0,0.0,0.0,0.0,10.0
1446036245467409393,514,1446036245462412118,robocape_mag,-7.5,-1.65,19.95,10.0,0.0,0.0,0.0,10.0,0.0,0.0,0.0,10.0
1446036245500591601,515,1446036245495601892,robocape_mag,-7.5,-1.65,19.95,10.0,0.0,0.0,0.0,10.0,0.0,0.0,0.0,10.0
1446036245534055268,516,1446036245528959989,robocape_mag,-7.5,-1.65,19.95,10.0,0.0,0.0,0.0,10.0,0.0,0.0,0.0,10.0
1446036245569339185,517,1446036245562295913,robocape_mag,-7.5,-1.65,19.95,10.0,0.0,0.0,0.0,10.0,0.0,0.0,0.0,10.0
1446036245602364018,518,1446036245595525026,robocape_mag,13.5,-8.85,22.35,10.0,0.0,0.0,0.0,10.0,0.0,0.0,0.0,10.0
1446036245634127893,519,1446036245628959894,robocape_mag,13.5,-8.85,22.35,10.0,0.0,0.0,0.0,10.0,0.0,0.0,0.0,10.0
1446036245667630143,520,1446036245662254095,robocape_mag,13.5,-8.85,22.35,10.0,0.0,0.0,0.0,10.0,0.0,0.0,0.0,10.0
1446036245700746643,521,1446036245695720911,robocape_mag,13.5,-8.85,22.35,10.0,0.0,0.0,0.0,10.0,0.0,0.0,0.0,10.0
1446036245733989810,522,1446036245729134082,robocape_mag,13.5,-8.85,22.35,10.0,0.0,0.0,0.0,10.0,0.0,0.0,0.0,10.0
1446036245767317518,523,1446036245762514114,robocape_mag,25.8,-5.55,17.25,10.0,0.0,0.0,0.0,10.0,0.0,0.0,0.0,10.0
1446036245801093518,524,1446036245796236038,robocape_mag,25.8,-5.55,17.25,10.0,0.0,0.0,0.0,10.0,0.0,0.0,0.0,10.0
1446036245833954893,525,1446036245829176902,robocape_mag,25.8,-5.55,17.25,10.0,0.0,0.0,0.0,10.0,0.0,0.0,0.0,10.0
1446036245867173810,526,1446036245862396955,robocape_mag,25.8,-5.55,17.25,10.0,0.0,0.0,0.0,10.0,0.0,0.0,0.0,10.0
1446036245901567852,527,1446036245896789073,robocape_mag,25.8,-5.55,17.25,10.0,0.0,0.0,0.0,10.0,0.0,0.0,0.0,10.0
