%time,field.header.seq,field.header.stamp,field.header.frame_id,field.orientation.x,field.orientation.y,field.orientation.z,field.orientation.w,field.orientation_covariance0,field.orientation_covariance1,field.orientation_covariance2,field.orientation_covariance3,field.orientation_covariance4,field.orientation_covariance5,field.orientation_covariance6,field.orientation_covariance7,field.orientation_covariance8,field.angular_velocity.x,field.angular_velocity.y,field.angular_velocity.z,field.angular_velocity_covariance0,field.angular_velocity_covariance1,field.angular_velocity_covariance2,field.angular_velocity_covariance3,field.angular_velocity_covariance4,field.angular_velocity_covariance5,field.angular_velocity_covariance6,field.angular_velocity_covariance7,field.angular_velocity_covariance8,field.linear_acceleration.x,field.linear_acceleration.y,field.linear_acceleration.z,field.linear_acceleration_covariance0,field.linear_acceleration_covariance1,field.linear_acceleration_covariance2,field.linear_acceleration_covariance3,field.linear_acceleration_covariance4,field.linear_acceleration_covariance5,field.linear_acceleration_covariance6,field.linear_acceleration_covariance7,field.linear_acceleration_covariance8
1446036510918284383,1,1446036510915179967,robocape,6.00664472692,4.7634395038,28.108478431,0.0,10.0,0.0,0.0,0.0,10.0,0.0,0.0,0.0,10.0,-0.19068233405,0.017710021249,0.110521185238,1.0,0.0,0.0,0.0,1.0,0.0,0.0,0.0,1.0,0.0467028808594,-0.662222900391,10.0315393066,0.1,0.0,0.0,0.0,0.1,0.0,0.0,0.0,0.1
1446036510954921091,2,1446036510947953939,robocape,5.82581189626,4.78531532693,28.0705077471,0.0,10.0,0.0,0.0,0.0,10.0,0.0,0.0,0.0,10.0,-0.0873516837546,0.0170442309765,0.0138484376684,1.0,0.0,0.0,0.0,1.0,0.0,0.0,0.0,1.0,0.120948486328,-0.907712402344,10.0914147949,0.1,0.0,0.0,0.0,0.1,0.0,0.0,0.0,0.1
1446036510985212341,3,1446036510982192039,robocape,5.9589872618,4.8460615655,27.6817495176,0.0,10.0,0.0,0.0,0.0,10.0,0.0,0.0,0.0,10.0,0.0910801092807,0.016378440704,-0.180162847744,1.0,0.0,0.0,0.0,1.0,0.0,0.0,0.0,1.0,0.154478759766,-0.702938232422,10.0207617188,0.1,0.0,0.0,0.0,0.1,0.0,0.0,0.0,0.1
1446036511017506424,4,1446036511014540910,robocape,5.763257662,4.86452312657,27.6519068393,0.0,10.0,0.0,0.0,0.0,10.0,0.0,0.0,0.0,10.0,-0.0956074831338,0.0157126504315,0.01744370514,1.0,0.0,0.0,0.0,1.0,0.0,0.0,0.0,1.0,0.067060546875,0.504151611328,9.98962646484,0.1,0.0,0.0,0.0,0.1,0.0,0.0,0.0,0.1
1446036511050872133,5,1446036511047909021,robocape,5.54753742674,4.88339586565,27.623042918,0.0,10.0,0.0,0.0,0.0,10.0,0.0,0.0,0.0,10.0,-0.106393285549,0.0159789665405,0.0178431793035,1.0,0.0,0.0,0.0,1.0,0.0,0.0,0.0,1.0,0.0538879394531,-0.825084228516,10.0674645996,0.1,0.0,0.0,0.0,0.1,0.0,0.0,0.0,0.1
1446036511084530424,6,1446036511081384897,robocape,5.47242940622,4.91986104538,27.4283146848,0.0,10.0,0.0,0.0,0.0,10.0,0.0,0.0,0.0,10.0,-0.0260989786828,0.015845808486,-0.0737695621952,1.0,0.0,0.0,0.0,1.0,0.0,0.0,0.0,1.0,0.0431103515625,-0.444276123047,10.0614770508,0.1,0.0,0.0,0.0,0.1,0.0,0.0,0.0,0.1
1446036511117625049,7,1446036511114655017,robocape,5.15658220877,4.93221442771,27.4290508998,0.0,10.0,0.0,0.0,0.0,10.0,0.0,0.0,0.0,10.0,-0.160588613732,0.0141147537774,0.033555829735,1.0,0.0,0.0,0.0,1.0,0.0,0.0,0.0,1.0,0.0622705078125,0.511336669922,10.0171691895,0.1,0.0,0.0,0.0,0.1,0.0,0.0,0.0,0.1
1446036511150848008,8,1446036511147905111,robocape,4.50530624201,4.90722078088,27.6989472087,0.0,10.0,0.0,0.0,0.0,10.0,0.0,0.0,0.0,10.0,-0.348341470582,0.00785632521573,0.182293376616,1.0,0.0,0.0,0.0,1.0,0.0,0.0,0.0,1.0,0.0526904296875,-1.39509887695,10.1177600098,0.1,0.0,0.0,0.0,0.1,0.0,0.0,0.0,0.1
1446036511184981008,9,1446036511181534051,robocape,4.14879473362,4.91714900315,27.7605825853,0.0,10.0,0.0,0.0,0.0,10.0,0.0,0.0,0.0,10.0,-0.185622327979,0.0154463343225,0.068176923906,1.0,0.0,0.0,0.0,1.0,0.0,0.0,0.0,1.0,0.106578369141,-1.91841064453,10.0650695801,0.1,0.0,0.0,0.0,0.1,0.0,0.0,0.0,0.1
1446036511217969091,10,1446036511214572906,robocape,4.33655899645,4.95331904186,27.6098785425,0.0,10.0,0.0,0.0,0.0,10.0,0.0,0.0,0.0,10.0,0.108656972475,0.0198405501211,-0.0480700576759,1.0,0.0,0.0,0.0,1.0,0.0,0.0,0.0,1.0,0.239501953125,-1.74237670898,9.97645385742,0.1,0.0,0.0,0.0,0.1,0.0,0.0,0.0,0.1
1446036511251625883,11,1446036511248248100,robocape,4.459088148,4.97856415412,27.562813609,0.0,10.0,0.0,0.0,0.0,10.0,0.0,0.0,0.0,10.0,0.0703074527781,0.0187752856851,0.00905474770627,1.0,0.0,0.0,0.0,1.0,0.0,0.0,0.0,1.0,-0.0622705078125,-0.149688720703,10.0255517578,0.1,0.0,0.0,0.0,0.1,0.0,0.0,0.0,0.1
1446036511284896716,12,1446036511281461954,robocape,4.40773776685,4.99110902462,27.630457727,0.0,10.0,0.0,0.0,0.0,10.0,0.0,0.0,0.0,10.0,-0.0256995045193,0.01744370514,0.0721716655411,1.0,0.0,0.0,0.0,1.0,0.0,0.0,0.0,1.0,0.167651367188,-0.640667724609,10.0471069336,0.1,0.0,0.0,0.0,0.1,0.0,0.0,0.0,0.1
1446036511318021466,13,1446036511314613103,robocape,4.41828293444,5.01162921664,27.6306791007,0.0,10.0,0.0,0.0,0.0,10.0,0.0,0.0,0.0,10.0,0.00958737992429,0.0185089695761,0.0350205683345,1.0,0.0,0.0,0.0,1.0,0.0,0.0,0.0,1.0,0.0946032714844,-0.904119873047,10.0315393066,0.1,0.0,0.0,0.0,0.1,0.0,0.0,0.0,0.1
1446036511354563341,14,1446036511351533889,robocape,4.62372800903,5.0501053175,27.4700828265,0.0,10.0,0.0,0.0,0.0,10.0,0.0,0.0,0.0,10.0,0.118776984618,0.0203731823391,-0.0537958540196,1.0,0.0,0.0,0.0,1.0,0.0,0.0,0.0,1.0,0.0598754882813,-1.01548828125,10.0614770508,0.1,0.0,0.0,0.0,0.1,0.0,0.0,0.0,0.1
1446036511386788050,15,1446036511383696079,robocape,4.81200323993,5.10026093834,27.1540102853,0.0,10.0,0.0,0.0,0.0,10.0,0.0,0.0,0.0,10.0,0.116646455745,0.0185089695761,-0.140348589447,1.0,0.0,0.0,0.0,1.0,0.0,0.0,0.0,1.0,0.0634680175781,0.141306152344,10.0255517578,0.1,0.0,0.0,0.0,0.1,0.0,0.0,0.0,0.1
1446036511419419216,16,1446036511416346073,robocape,4.52490318645,5.11000354245,27.2441735618,0.0,10.0,0.0,0.0,0.0,10.0,0.0,0.0,0.0,10.0,-0.15020228548,0.017177389031,0.082691151847,1.0,0.0,0.0,0.0,1.0,0.0,0.0,0.0,1.0,0.0275427246094,0.09580078125,10.0698596191,0.1,0.0,0.0,0.0,0.1,0.0,0.0,0.0,0.1
1446036511453105300,17,1446036511449819087,robocape,4.21593357203,5.11816797409,27.3156411148,0.0,10.0,0.0,0.0,0.0,10.0,0.0,0.0,0.0,10.0,-0.161254404004,0.0151800182135,0.0727042977592,1.0,0.0,0.0,0.0,1.0,0.0,0.0,0.0,1.0,0.123343505859,-1.52203491211,10.0471069336,0.1,0.0,0.0,0.0,0.1,0.0,0.0,0.0,0.1
1446036511485022716,18,1446036511481982946,robocape,4.18448666924,5.13902251403,27.2887200078,0.0,10.0,0.0,0.0,0.0,10.0,0.0,0.0,0.0,10.0,-0.0115847507418,0.01744370514,0.0191747598486,1.0,0.0,0.0,0.0,1.0,0.0,0.0,0.0,1.0,0.128133544922,-1.86093017578,10.0027990723,0.1,0.0,0.0,0.0,0.1,0.0,0.0,0.0,0.1
1446036511518892216,19,1446036511515821933,robocape,4.48294547857,5.17952358473,27.0664176786,0.0,10.0,0.0,0.0,0.0,10.0,0.0,0.0,0.0,10.0,0.170175993656,0.0189084437396,-0.0882837901361,1.0,0.0,0.0,0.0,1.0,0.0,0.0,0.0,1.0,0.125738525391,-0.328117675781,10.1261425781,0.1,0.0,0.0,0.0,0.1,0.0,0.0,0.0,0.1
1446036511551613300,20,1446036511548572063,robocape,4.55810845832,5.20835620462,27.0059028823,0.0,10.0,0.0,0.0,0.0,10.0,0.0,0.0,0.0,10.0,0.0462058449129,0.0201068662301,0.000133158054504,1.0,0.0,0.0,0.0,1.0,0.0,0.0,0.0,1.0,0.0371228027344,-0.542471923828,10.0854272461,0.1,0.0,0.0,0.0,0.1,0.0,0.0,0.0,0.1
1446036511585451675,21,1446036511582350969,robocape,4.61212450342,5.23839120231,26.8587796554,0.0,10.0,0.0,0.0,0.0,10.0,0.0,0.0,0.0,10.0,0.0390153099697,0.0165115987585,-0.0478037415669,1.0,0.0,0.0,0.0,1.0,0.0,0.0,0.0,1.0,0.067060546875,-0.116158447266,9.99321899414,0.1,0.0,0.0,0.0,0.1,0.0,0.0,0.0,0.1
1446036511618087425,22,1446036511614877939,robocape,4.54751664014,5.26702498747,26.7530306231,0.0,10.0,0.0,0.0,0.0,10.0,0.0,0.0,0.0,10.0,-0.0250337142467,0.017710021249,-0.0256995045193,1.0,0.0,0.0,0.0,1.0,0.0,0.0,0.0,1.0,0.0383203125,-0.696950683594,10.0291442871,0.1,0.0,0.0,0.0,0.1,0.0,0.0,0.0,0.1
1446036511651106258,23,1446036511648081064,robocape,4.29665823943,5.28080407231,26.7449124524,0.0,10.0,0.0,0.0,0.0,10.0,0.0,0.0,0.0,10.0,-0.127299100106,0.0145142279409,0.0276968753368,1.0,0.0,0.0,0.0,1.0,0.0,0.0,0.0,1.0,0.0407153320313,0.0981958007813,10.019564209,0.1,0.0,0.0,0.0,0.1,0.0,0.0,0.0,0.1
1446036511685288133,24,1446036511681787014,robocape,4.14525741171,5.30312485681,26.6603890218,0.0,10.0,0.0,0.0,0.0,10.0,0.0,0.0,0.0,10.0,-0.0719053494321,0.015579492377,-0.0142479118319,1.0,0.0,0.0,0.0,1.0,0.0,0.0,0.0,1.0,0.0730480957031,-1.3064831543,10.039921875,0.1,0.0,0.0,0.0,0.1,0.0,0.0,0.0,0.1
1446036511717850758,25,1446036511714679002,robocape,4.06259549494,5.32534634293,26.5987225604,0.0,10.0,0.0,0.0,0.0,10.0,0.0,0.0,0.0,10.0,-0.0370179391521,0.016644756813,-0.00159789665405,1.0,0.0,0.0,0.0,1.0,0.0,0.0,0.0,1.0,0.0886157226563,-0.70892578125,10.0483044434,0.1,0.0,0.0,0.0,0.1,0.0,0.0,0.0,0.1
1446036511751672675,26,1446036511748591899,robocape,4.13619078366,5.35087873936,26.5618064957,0.0,10.0,0.0,0.0,0.0,10.0,0.0,0.0,0.0,10.0,0.0438089999318,0.0195742340121,0.0122505410144,1.0,0.0,0.0,0.0,1.0,0.0,0.0,0.0,1.0,0.108973388672,-1.47533203125,10.0506994629,0.1,0.0,0.0,0.0,0.1,0.0,0.0,0.0,0.1
1446036511784965216,27,1446036511781864881,robocape,4.26384720279,5.37234095442,26.5622771601,0.0,10.0,0.0,0.0,0.0,10.0,0.0,0.0,0.0,10.0,0.0705737688871,0.0191747598486,0.033023197517,1.0,0.0,0.0,0.0,1.0,0.0,0.0,0.0,1.0,0.0514929199219,-0.371228027344,10.0207617188,0.1,0.0,0.0,0.0,0.1,0.0,0.0,0.0,0.1
1446036511823934716,28,1446036511814690113,robocape,4.4009482019,5.39816674851,26.4944243825,0.0,10.0,0.0,0.0,0.0,10.0,0.0,0.0,0.0,10.0,0.0788295682663,0.0183758115215,-0.00466053190764,1.0,0.0,0.0,0.0,1.0,0.0,0.0,0.0,1.0,0.00119750976563,-0.834664306641,10.0746496582,0.1,0.0,0.0,0.0,0.1,0.0,0.0,0.0,0.1
1446036511852045425,29,1446036511849024057,robocape,4.57808248393,5.43799112113,26.2536742669,0.0,10.0,0.0,0.0,0.0,10.0,0.0,0.0,0.0,10.0,0.107991182203,0.01744370514,-0.100134856987,1.0,0.0,0.0,0.0,1.0,0.0,0.0,0.0,1.0,0.117355957031,-0.108973388672,9.96807128906,0.1,0.0,0.0,0.0,0.1,0.0,0.0,0.0,0.1
1446036511884665675,30,1446036511881588935,robocape,4.58665063114,5.47790666466,25.9935546236,0.0,10.0,0.0,0.0,0.0,10.0,0.0,0.0,0.0,10.0,0.0206394984481,0.0162452826495,-0.111719607729,1.0,0.0,0.0,0.0,1.0,0.0,0.0,0.0,1.0,-0.0263452148438,0.270637207031,10.0339343262,0.1,0.0,0.0,0.0,0.1,0.0,0.0,0.0,0.1
1446036511917796550,31,1446036511914571046,robocape,4.3251305162,5.50119759772,25.8373314942,0.0,10.0,0.0,0.0,0.0,10.0,0.0,0.0,0.0,10.0,-0.125967519561,0.0125168571234,-0.0555269087282,1.0,0.0,0.0,0.0,1.0,0.0,0.0,0.0,1.0,0.0431103515625,0.105380859375,10.0530944824,0.1,0.0,0.0,0.0,0.1,0.0,0.0,0.0,0.1
1446036511951136675,32,1446036511948079109,robocape,3.94445044775,5.51299636254,25.6960423122,0.0,10.0,0.0,0.0,0.0,10.0,0.0,0.0,0.0,10.0,-0.189483911559,0.00745685105222,-0.0475374254579,1.0,0.0,0.0,0.0,1.0,0.0,0.0,0.0,1.0,0.131726074219,-0.861009521484,10.0255517578,0.1,0.0,0.0,0.0,0.1,0.0,0.0,0.0,0.1
1446036511984932050,33,1446036511981527090,robocape,3.62540187445,5.52455297921,25.5996252845,0.0,10.0,0.0,0.0,0.0,10.0,0.0,0.0,0.0,10.0,-0.15965650735,0.00958737992429,-0.0229031853747,1.0,0.0,0.0,0.0,1.0,0.0,0.0,0.0,1.0,-0.0538879394531,-1.28373046875,10.060279541,0.1,0.0,0.0,0.0,0.1,0.0,0.0,0.0,0.1
1446036512017900716,34,1446036512014657020,robocape,3.41417721816,5.52963686687,25.5817783236,0.0,10.0,0.0,0.0,0.0,10.0,0.0,0.0,0.0,10.0,-0.107192233876,0.00945422186978,0.0205063403936,1.0,0.0,0.0,0.0,1.0,0.0,0.0,0.0,1.0,0.0239501953125,-1.23702758789,10.0590820312,0.1,0.0,0.0,0.0,0.1,0.0,0.0,0.0,0.1
1446036512051228508,35,1446036512048233985,robocape,3.30043703043,5.5439132337,25.5406248745,0.0,10.0,0.0,0.0,0.0,10.0,0.0,0.0,0.0,10.0,-0.0551274345646,0.0134489635049,0.00772316716123,1.0,0.0,0.0,0.0,1.0,0.0,0.0,0.0,1.0,0.482596435547,-1.11009155273,10.0219592285,0.1,0.0,0.0,0.0,0.1,0.0,0.0,0.0,0.1
1446036512084682925,36,1446036512081666946,robocape,3.28560039057,5.56779498925,25.4911464404,0.0,10.0,0.0,0.0,0.0,10.0,0.0,0.0,0.0,10.0,-0.00292947719909,0.018242653467,0.00306263525359,1.0,0.0,0.0,0.0,1.0,0.0,0.0,0.0,1.0,-0.0299377441406,-1.30528564453,10.0506994629,0.1,0.0,0.0,0.0,0.1,0.0,0.0,0.0,0.1
1446036512119405925,37,1446036512116369009,robocape,3.37131275363,5.5936858927,25.4478907618,0.0,10.0,0.0,0.0,0.0,10.0,0.0,0.0,0.0,10.0,0.0495347962755,0.0195742340121,0.00652474467069,1.0,0.0,0.0,0.0,1.0,0.0,0.0,0.0,1.0,0.233514404297,-1.20948486328,10.0303417969,0.1,0.0,0.0,0.0,0.1,0.0,0.0,0.0,0.1
1446036512151015342,38,1446036512148005008,robocape,3.38928535565,5.61390435404,25.5666653738,0.0,10.0,0.0,0.0,0.0,10.0,0.0,0.0,0.0,10.0,0.00612527050718,0.0226368692657,0.0952080089703,1.0,0.0,0.0,0.0,1.0,0.0,0.0,0.0,1.0,0.0754431152344,-0.437091064453,10.0662670898,0.1,0.0,0.0,0.0,0.1,0.0,0.0,0.0,0.1
1446036512184431342,39,1446036512181263923,robocape,3.5226155725,5.65094684401,25.563346002,0.0,10.0,0.0,0.0,0.0,10.0,0.0,0.0,0.0,10.0,0.0727042977592,0.0270310850643,0.0283626656093,1.0,0.0,0.0,0.0,1.0,0.0,0.0,0.0,1.0,0.184416503906,-1.89326293945,9.93214599609,0.1,0.0,0.0,0.0,0.1,0.0,0.0,0.0,0.1
1446036512217838092,40,1446036512214684963,robocape,3.84718338998,5.69205568334,25.4659472569,0.0,10.0,0.0,0.0,0.0,10.0,0.0,0.0,0.0,10.0,0.177899160817,0.0255663464648,-0.0229031853747,1.0,0.0,0.0,0.0,1.0,0.0,0.0,0.0,1.0,0.340092773437,-0.446671142578,10.0303417969,0.1,0.0,0.0,0.0,0.1,0.0,0.0,0.0,0.1
1446036512251436383,41,1446036512248198032,robocape,4.17781291193,5.73903954452,25.2793583551,0.0,10.0,0.0,0.0,0.0,10.0,0.0,0.0,0.0,10.0,0.185888644088,0.0246342400832,-0.0720385074866,1.0,0.0,0.0,0.0,1.0,0.0,0.0,0.0,1.0,0.0311352539063,-0.70892578125,10.2015856934,0.1,0.0,0.0,0.0,0.1,0.0,0.0,0.0,0.1
1446036512285622967,42,1446036512281836032,robocape,4.27078470733,5.76599224861,25.1841718188,0.0,10.0,0.0,0.0,0.0,10.0,0.0,0.0,0.0,10.0,0.0569916473277,0.0178431793035,-0.0223705531567,1.0,0.0,0.0,0.0,1.0,0.0,0.0,0.0,1.0,-0.238304443359,0.204774169922,10.0279467773,0.1,0.0,0.0,0.0,0.1,0.0,0.0,0.0,0.1
1446036512317630258,43,1446036512314551115,robocape,4.13721431976,5.7867484789,25.1225684558,0.0,10.0,0.0,0.0,0.0,10.0,0.0,0.0,0.0,10.0,-0.0635163919984,0.0159789665405,-0.00466053190764,1.0,0.0,0.0,0.0,1.0,0.0,0.0,0.0,1.0,0.182021484375,-0.233514404297,9.99321899414,0.1,0.0,0.0,0.0,0.1,0.0,0.0,0.0,0.1
1446036512351107675,44,1446036512347996950,robocape,3.95691433577,5.80604817241,25.0442106691,0.0,10.0,0.0,0.0,0.0,10.0,0.0,0.0,0.0,10.0,-0.0873516837546,0.0145142279409,-0.0139815957229,1.0,0.0,0.0,0.0,1.0,0.0,0.0,0.0,1.0,0.0251477050781,-0.828676757813,10.0423168945,0.1,0.0,0.0,0.0,0.1,0.0,0.0,0.0,0.1
1446036512384853342,45,1446036512381442070,robocape,3.82610788593,5.82371804356,24.9835036464,0.0,10.0,0.0,0.0,0.0,10.0,0.0,0.0,0.0,10.0,-0.0624511275624,0.0145142279409,-0.00426105774413,1.0,0.0,0.0,0.0,1.0,0.0,0.0,0.0,1.0,0.05748046875,-1.1460168457,10.0650695801,0.1,0.0,0.0,0.0,0.1,0.0,0.0,0.0,0.1
1446036512418035883,46,1446036512414525985,robocape,3.77203155127,5.84162084432,24.9501708445,0.0,10.0,0.0,0.0,0.0,10.0,0.0,0.0,0.0,10.0,-0.0237021337017,0.015845808486,0.0107858024148,1.0,0.0,0.0,0.0,1.0,0.0,0.0,0.0,1.0,0.132923583984,-1.03704345703,10.0506994629,0.1,0.0,0.0,0.0,0.1,0.0,0.0,0.0,0.1
1446036512451236342,47,1446036512447858095,robocape,3.575774615,5.85009943266,25.0910964116,0.0,10.0,0.0,0.0,0.0,10.0,0.0,0.0,0.0,10.0,-0.10732539193,0.0178431793035,0.105860653331,1.0,0.0,0.0,0.0,1.0,0.0,0.0,0.0,1.0,0.136516113281,-0.269439697266,10.0255517578,0.1,0.0,0.0,0.0,0.1,0.0,0.0,0.0,0.1
1446036512485020175,48,1446036512481404066,robocape,3.6145117198,5.86933553901,25.15853688,0.0,10.0,0.0,0.0,0.0,10.0,0.0,0.0,0.0,10.0,0.0195742340121,0.0206394984481,0.066312711143,1.0,0.0,0.0,0.0,1.0,0.0,0.0,0.0,1.0,0.0682580566406,-1.77231445313,9.94771362305,0.1,0.0,0.0,0.0,0.1,0.0,0.0,0.0,0.1
1446036512518182175,49,1446036512514476060,robocape,3.62857712376,5.88977900577,25.262146168,0.0,10.0,0.0,0.0,0.0,10.0,0.0,0.0,0.0,10.0,0.00479368996214,0.0227700273202,0.0861532612641,1.0,0.0,0.0,0.0,1.0,0.0,0.0,0.0,1.0,0.308957519531,-0.403560791016,10.0016015625,0.1,0.0,0.0,0.0,0.1,0.0,0.0,0.0,0.1
1446036512551117175,50,1446036512547939062,robocape,3.8576096023,5.92935025137,25.2071989463,0.0,10.0,0.0,0.0,0.0,10.0,0.0,0.0,0.0,10.0,0.125834361506,0.0266316109008,-0.000399474163512,1.0,0.0,0.0,0.0,1.0,0.0,0.0,0.0,1.0,-0.0526904296875,-1.36276611328,10.0530944824,0.1,0.0,0.0,0.0,0.1,0.0,0.0,0.0,0.1
1446036512584613925,51,1446036512581470012,robocape,4.18249075982,5.97454364832,25.0102734088,0.0,10.0,0.0,0.0,0.0,10.0,0.0,0.0,0.0,10.0,0.183758115215,0.0234358175927,-0.0780306199393,1.0,0.0,0.0,0.0,1.0,0.0,0.0,0.0,1.0,0.24908203125,-0.51732421875,9.98124389648,0.1,0.0,0.0,0.0,0.1,0.0,0.0,0.0,0.1
1446036512617825425,52,1446036512614646911,robocape,4.32495589808,6.00564498546,24.8334550669,0.0,10.0,0.0,0.0,0.0,10.0,0.0,0.0,0.0,10.0,0.0873516837546,0.0165115987585,-0.067377975579,1.0,0.0,0.0,0.0,1.0,0.0,0.0,0.0,1.0,-0.142503662109,0.470621337891,10.0506994629,0.1,0.0,0.0,0.0,0.1,0.0,0.0,0.0,0.1
1446036512651112967,53,1446036512648102998,robocape,4.15130343577,6.02631984576,24.746143443,0.0,10.0,0.0,0.0,0.0,10.0,0.0,0.0,0.0,10.0,-0.0830906260105,0.0149137021044,-0.0194410759576,1.0,0.0,0.0,0.0,1.0,0.0,0.0,0.0,1.0,-0.0275427246094,0.275427246094,10.0566870117,0.1,0.0,0.0,0.0,0.1,0.0,0.0,0.0,0.1
1446036512684419300,54,1446036512681401014,robocape,3.86916964831,6.0416856633,24.6663616926,0.0,10.0,0.0,0.0,0.0,10.0,0.0,0.0,0.0,10.0,-0.140614905556,0.0125168571234,-0.015579492377,1.0,0.0,0.0,0.0,1.0,0.0,0.0,0.0,1.0,0.0610729980469,-0.792751464844,10.0854272461,0.1,0.0,0.0,0.0,0.1,0.0,0.0,0.0,0.1
1446036512717937425,55,1446036512714761018,robocape,3.64386273906,6.05473627051,24.6087641532,0.0,10.0,0.0,0.0,0.0,10.0,0.0,0.0,0.0,10.0,-0.112252239947,0.0123836990689,-0.0033289513626,1.0,0.0,0.0,0.0,1.0,0.0,0.0,0.0,1.0,-0.0383203125,-1.29091552734,10.0566870117,0.1,0.0,0.0,0.0,0.1,0.0,0.0,0.0,0.1
1446036512752754008,56,1446036512748506069,robocape,3.41186205908,6.05800071857,24.6779940476,0.0,10.0,0.0,0.0,0.0,10.0,0.0,0.0,0.0,10.0,-0.122771726253,0.0122505410144,0.066046395034,1.0,0.0,0.0,0.0,1.0,0.0,0.0,0.0,1.0,0.119750976563,-0.542471923828,10.0722546387,0.1,0.0,0.0,0.0,0.1,0.0,0.0,0.0,0.1
1446036512786011467,57,1446036512782708883,robocape,3.3345454885,6.08046891417,24.6744232913,0.0,10.0,0.0,0.0,0.0,10.0,0.0,0.0,0.0,10.0,-0.0379500455336,0.0195742340121,0.0263652947918,1.0,0.0,0.0,0.0,1.0,0.0,0.0,0.0,1.0,0.457448730469,-2.16030761719,9.94891113281,0.1,0.0,0.0,0.0,0.1,0.0,0.0,0.0,0.1
1446036512824418759,58,1446036512815835952,robocape,3.58525131886,6.12145261072,24.5651288629,0.0,10.0,0.0,0.0,0.0,10.0,0.0,0.0,0.0,10.0,0.139815957229,0.0254331884103,-0.0311589847539,1.0,0.0,0.0,0.0,1.0,0.0,0.0,0.0,1.0,0.257464599609,-0.968785400391,10.1249450684,0.1,0.0,0.0,0.0,0.1,0.0,0.0,0.0,0.1
1446036512853638592,59,1446036512850325107,robocape,3.84091723085,6.15979201253,24.4281994291,0.0,10.0,0.0,0.0,0.0,10.0,0.0,0.0,0.0,10.0,0.144210173028,0.0227700273202,-0.0463390029674,1.0,0.0,0.0,0.0,1.0,0.0,0.0,0.0,1.0,0.0455053710938,-0.144898681641,10.1069824219,0.1,0.0,0.0,0.0,0.1,0.0,0.0,0.0,0.1
1446036512884487509,60,1446036512881385087,robocape,3.79340621973,6.16608041622,24.6023990787,0.0,10.0,0.0,0.0,0.0,10.0,0.0,0.0,0.0,10.0,-0.0314253008629,0.0186421276306,0.123171200416,1.0,0.0,0.0,0.0,1.0,0.0,0.0,0.0,1.0,-0.1149609375,-1.46934448242,10.1141674805,0.1,0.0,0.0,0.0,0.1,0.0,0.0,0.0,0.1
1446036512917824925,61,1446036512914577007,robocape,4.02776752892,6.19464184842,24.5174096552,0.0,10.0,0.0,0.0,0.0,10.0,0.0,0.0,0.0,10.0,0.130494893414,0.0197073920666,-0.017710021249,1.0,0.0,0.0,0.0,1.0,0.0,0.0,0.0,1.0,0.295784912109,-0.524509277344,10.0674645996,0.1,0.0,0.0,0.0,0.1,0.0,0.0,0.0,0.1
1446036512950966342,62,1446036512947897911,robocape,4.22310325761,6.22724442878,24.3812602717,0.0,10.0,0.0,0.0,0.0,10.0,0.0,0.0,0.0,10.0,0.113051188274,0.0194410759576,-0.0459395288039,1.0,0.0,0.0,0.0,1.0,0.0,0.0,0.0,1.0,-0.00359252929688,-0.21076171875,10.039921875,0.1,0.0,0.0,0.0,0.1,0.0,0.0,0.0,0.1
1446036512984511800,63,1446036512981440067,robocape,4.19352649287,6.249941925,24.2942580796,0.0,10.0,0.0,0.0,0.0,10.0,0.0,0.0,0.0,10.0,-0.00745685105222,0.0162452826495,-0.0197073920666,1.0,0.0,0.0,0.0,1.0,0.0,0.0,0.0,1.0,-0.0203576660156,0.0431103515625,9.99920654297,0.1,0.0,0.0,0.0,0.1,0.0,0.0,0.0,0.1
1446036513017575425,64,1446036513014494895,robocape,4.00535065763,6.27019972033,24.1890784518,0.0,10.0,0.0,0.0,0.0,10.0,0.0,0.0,0.0,10.0,-0.0897485287357,0.0141147537774,-0.0300937203179,1.0,0.0,0.0,0.0,1.0,0.0,0.0,0.0,1.0,0.150886230469,-0.393980712891,10.0303417969,0.1,0.0,0.0,0.0,0.1,0.0,0.0,0.0,0.1
1446036513051213134,65,1446036513048219919,robocape,3.63804501268,6.270404074,24.283114324,0.0,10.0,0.0,0.0,0.0,10.0,0.0,0.0,0.0,10.0,-0.194943391794,0.0119842249054,0.0782969360483,1.0,0.0,0.0,0.0,1.0,0.0,0.0,0.0,1.0,-0.0299377441406,-0.413140869141,10.0830322266,0.1,0.0,0.0,0.0,0.1,0.0,0.0,0.0,0.1
1446036513084944759,66,1446036513081908941,robocape,3.53690364337,6.28345141129,24.3293563983,0.0,10.0,0.0,0.0,0.0,10.0,0.0,0.0,0.0,10.0,-0.0529969056926,0.0167779148675,0.0528637476381,1.0,0.0,0.0,0.0,1.0,0.0,0.0,0.0,1.0,-0.00838256835938,-1.84656005859,9.95729370117,0.1,0.0,0.0,0.0,0.1,0.0,0.0,0.0,0.1
1446036513117586675,67,1446036513114599943,robocape,3.42255514058,6.29509932702,24.4235056952,0.0,10.0,0.0,0.0,0.0,10.0,0.0,0.0,0.0,10.0,-0.0627174436714,0.0178431793035,0.0790958843754,1.0,0.0,0.0,0.0,1.0,0.0,0.0,0.0,1.0,0.432301025391,-0.6514453125,9.98483642578,0.1,0.0,0.0,0.0,0.1,0.0,0.0,0.0,0.1
1446036513151870675,68,1446036513148794889,robocape,3.5437835406,6.33256024926,24.3108422025,0.0,10.0,0.0,0.0,0.0,10.0,0.0,0.0,0.0,10.0,0.0723048235957,0.0235689756472,-0.033555829735,1.0,0.0,0.0,0.0,1.0,0.0,0.0,0.0,1.0,0.0299377441406,-1.4525793457,9.97645385742,0.1,0.0,0.0,0.0,0.1,0.0,0.0,0.0,0.1
1446036513184719884,69,1446036513181648969,robocape,3.66255646121,6.34976213221,24.3807466328,0.0,10.0,0.0,0.0,0.0,10.0,0.0,0.0,0.0,10.0,0.0609863889628,0.0201068662301,0.0661795530885,1.0,0.0,0.0,0.0,1.0,0.0,0.0,0.0,1.0,0.112565917969,-0.441881103516,10.0435144043,0.1,0.0,0.0,0.0,0.1,0.0,0.0,0.0,0.1
1446036513218263967,70,1446036513215183973,robocape,3.94585704802,6.38392042473,24.2899731447,0.0,10.0,0.0,0.0,0.0,10.0,0.0,0.0,0.0,10.0,0.156460714042,0.0226368692657,-0.0213052887206,1.0,0.0,0.0,0.0,1.0,0.0,0.0,0.0,1.0,0.116158447266,-1.17595458984,10.0387243652,0.1,0.0,0.0,0.0,0.1,0.0,0.0,0.0,0.1
1446036513253087009,71,1446036513249886035,robocape,4.09830225744,6.41338727145,24.2746813438,0.0,10.0,0.0,0.0,0.0,10.0,0.0,0.0,0.0,10.0,0.0838895743375,0.0233026595382,0.0194410759576,1.0,0.0,0.0,0.0,1.0,0.0,0.0,0.0,1.0,0.119750976563,-0.341290283203,10.0530944824,0.1,0.0,0.0,0.0,0.1,0.0,0.0,0.0,0.1
1446036513284555509,72,1446036513281337022,robocape,4.32271716966,6.44430019192,24.2168596958,0.0,10.0,0.0,0.0,0.0,10.0,0.0,0.0,0.0,10.0,0.124236464852,0.0222373951022,-0.00359526747161,1.0,0.0,0.0,0.0,1.0,0.0,0.0,0.0,1.0,-0.0131726074219,-0.638272705078,10.024354248,0.1,0.0,0.0,0.0,0.1,0.0,0.0,0.0,0.1
1446036513317954550,73,1446036513314796924,robocape,4.54750785372,6.47645690568,24.0365259385,0.0,10.0,0.0,0.0,0.0,10.0,0.0,0.0,0.0,10.0,0.13156015785,0.0170442309765,-0.0703074527781,1.0,0.0,0.0,0.0,1.0,0.0,0.0,0.0,1.0,0.047900390625,-0.086220703125,10.0471069336,0.1,0.0,0.0,0.0,0.1,0.0,0.0,0.0,0.1
1446036513351119675,74,1446036513348056077,robocape,4.40830575623,6.4981753613,24.0473313986,0.0,10.0,0.0,0.0,0.0,10.0,0.0,0.0,0.0,10.0,-0.0700411366691,0.0203731823391,0.032490565299,1.0,0.0,0.0,0.0,1.0,0.0,0.0,0.0,1.0,0.0598754882813,0.740061035156,10.0063916016,0.1,0.0,0.0,0.0,0.1,0.0,0.0,0.0,0.1
1446036513384461342,75,1446036513381350040,robocape,4.14981558947,6.51768965665,23.967528855,0.0,10.0,0.0,0.0,0.0,10.0,0.0,0.0,0.0,10.0,-0.127698574269,0.0149137021044,-0.016911072922,1.0,0.0,0.0,0.0,1.0,0.0,0.0,0.0,1.0,0.0922082519531,-1.22625,10.019564209,0.1,0.0,0.0,0.0,0.1,0.0,0.0,0.0,0.1
1446036513417735384,76,1446036513414520978,robocape,4.15309218594,6.54782180388,23.7665333034,0.0,10.0,0.0,0.0,0.0,10.0,0.0,0.0,0.0,10.0,0.016378440704,0.015313176268,-0.082424835738,1.0,0.0,0.0,0.0,1.0,0.0,0.0,0.0,1.0,0.0993933105469,-1.28852050781,10.0530944824,0.1,0.0,0.0,0.0,0.1,0.0,0.0,0.0,0.1
1446036513450928925,77,1446036513447854042,robocape,4.18950827758,6.5798199067,23.5353692568,0.0,10.0,0.0,0.0,0.0,10.0,0.0,0.0,0.0,10.0,0.0355532005526,0.0149137021044,-0.0990695925509,1.0,0.0,0.0,0.0,1.0,0.0,0.0,0.0,1.0,0.102985839844,-0.453856201172,10.019564209,0.1,0.0,0.0,0.0,0.1,0.0,0.0,0.0,0.1
1446036513485085967,78,1446036513481934070,robocape,4.13042108545,6.60268170691,23.3531486092,0.0,10.0,0.0,0.0,0.0,10.0,0.0,0.0,0.0,10.0,-0.0173105470855,0.0122505410144,-0.0728374558137,1.0,0.0,0.0,0.0,1.0,0.0,0.0,0.0,1.0,0.0778381347656,-0.591569824219,10.0291442871,0.1,0.0,0.0,0.0,0.1,0.0,0.0,0.0,0.1
1446036513518415217,79,1446036513514976024,robocape,4.07976047208,6.62804745009,23.1066154893,0.0,10.0,0.0,0.0,0.0,10.0,0.0,0.0,0.0,10.0,-0.00918790576077,0.0107858024148,-0.107991182203,1.0,0.0,0.0,0.0,1.0,0.0,0.0,0.0,1.0,0.0658630371094,-0.55564453125,10.0566870117,0.1,0.0,0.0,0.0,0.1,0.0,0.0,0.0,0.1
1446036513551187717,80,1446036513547944068,robocape,3.9832543331,6.66143979775,22.8131297339,0.0,10.0,0.0,0.0,0.0,10.0,0.0,0.0,0.0,10.0,-0.0304931944814,0.0130494893414,-0.134090160885,1.0,0.0,0.0,0.0,1.0,0.0,0.0,0.0,1.0,0.0910107421875,-0.180823974609,10.0614770508,0.1,0.0,0.0,0.0,0.1,0.0,0.0,0.0,0.1
1446036513585025551,81,1446036513581665039,robocape,3.7108114285,6.67072284543,22.6907121139,0.0,10.0,0.0,0.0,0.0,10.0,0.0,0.0,0.0,10.0,-0.132891738395,0.00785632521573,-0.0416784710597,1.0,0.0,0.0,0.0,1.0,0.0,0.0,0.0,1.0,0.0107775878906,-0.631087646484,10.0387243652,0.1,0.0,0.0,0.0,0.1,0.0,0.0,0.0,0.1
1446036513618061384,82,1446036513614602088,robocape,3.45354738819,6.69060926586,22.6268953397,0.0,10.0,0.0,0.0,0.0,10.0,0.0,0.0,0.0,10.0,-0.128630680651,0.0159789665405,-0.0103863282513,1.0,0.0,0.0,0.0,1.0,0.0,0.0,0.0,1.0,-0.0526904296875,-1.16637451172,10.1165625,0.1,0.0,0.0,0.0,0.1,0.0,0.0,0.0,0.1
1446036513651173134,83,1446036513648005962,robocape,3.25556304258,6.70138304974,22.5735523738,0.0,10.0,0.0,0.0,0.0,10.0,0.0,0.0,0.0,10.0,-0.0984038022784,0.0117179087963,-0.00439421579863,1.0,0.0,0.0,0.0,1.0,0.0,0.0,0.0,1.0,0.141306152344,-1.00590820312,10.0459094238,0.1,0.0,0.0,0.0,0.1,0.0,0.0,0.0,0.1
1446036513684995092,84,1446036513681787967,robocape,3.09416480345,6.71142031879,22.5440252825,0.0,10.0,0.0,0.0,0.0,10.0,0.0,0.0,0.0,10.0,-0.0808269390839,0.0122505410144,0.00852211548825,1.0,0.0,0.0,0.0,1.0,0.0,0.0,0.0,1.0,0.397573242188,-1.35558105469,10.024354248,0.1,0.0,0.0,0.0,0.1,0.0,0.0,0.0,0.1
1446036513718577509,85,1446036513715297937,robocape,3.07041141353,6.72936976401,22.5038738615,0.0,10.0,0.0,0.0,0.0,10.0,0.0,0.0,0.0,10.0,-0.00812264132474,0.016112124595,0.00279631914458,1.0,0.0,0.0,0.0,1.0,0.0,0.0,0.0,1.0,0.0922082519531,-1.37833374023,10.0387243652,0.1,0.0,0.0,0.0,0.1,0.0,0.0,0.0,0.1
1446036513751555176,86,1446036513747922897,robocape,3.16757981265,6.75838135856,22.4558512155,0.0,10.0,0.0,0.0,0.0,10.0,0.0,0.0,0.0,10.0,0.0557932248372,0.0217047628841,-0.00159789665405,1.0,0.0,0.0,0.0,1.0,0.0,0.0,0.0,1.0,0.219144287109,-1.22385498047,9.95370117188,0.1,0.0,0.0,0.0,0.1,0.0,0.0,0.0,0.1
1446036513785271467,87,1446036513782023906,robocape,3.33764778768,6.79187541673,22.4082469821,0.0,10.0,0.0,0.0,0.0,10.0,0.0,0.0,0.0,10.0,0.0941427445343,0.0241016078652,-0.00146473859954,1.0,0.0,0.0,0.0,1.0,0.0,0.0,0.0,1.0,0.0622705078125,-1.02866088867,10.0506994629,0.1,0.0,0.0,0.0,0.1,0.0,0.0,0.0,0.1
1446036513824968509,88,1446036513814951896,robocape,3.48940149106,6.82163943832,22.3634178959,0.0,10.0,0.0,0.0,0.0,10.0,0.0,0.0,0.0,10.0,0.08455536461,0.0222373951022,0.0,1.0,0.0,0.0,0.0,1.0,0.0,0.0,0.0,1.0,0.137713623047,-0.573607177734,10.0375268555,0.1,0.0,0.0,0.0,0.1,0.0,0.0,0.0,0.1
1446036513852597926,89,1446036513849546909,robocape,3.55538602803,6.84778092062,22.3102303577,0.0,10.0,0.0,0.0,0.0,10.0,0.0,0.0,0.0,10.0,0.0402137324602,0.0199737081756,-0.00466053190764,1.0,0.0,0.0,0.0,1.0,0.0,0.0,0.0,1.0,0.00718505859375,-0.365240478516,10.0327368164,0.1,0.0,0.0,0.0,0.1,0.0,0.0,0.0,0.1
1446036513885928551,90,1446036513882879018,robocape,3.57135164392,6.86967668275,22.2601404075,0.0,10.0,0.0,0.0,0.0,10.0,0.0,0.0,0.0,10.0,0.0138484376684,0.0178431793035,-0.00306263525359,1.0,0.0,0.0,0.0,1.0,0.0,0.0,0.0,1.0,-0.129331054688,-0.678988037109,10.0303417969,0.1,0.0,0.0,0.0,0.1,0.0,0.0,0.0,0.1
1446036513918891342,91,1446036513915771961,robocape,3.52182458468,6.88720038353,22.2319273169,0.0,10.0,0.0,0.0,0.0,10.0,0.0,0.0,0.0,10.0,-0.0218379209386,0.016378440704,0.00865527354276,1.0,0.0,0.0,0.0,1.0,0.0,0.0,0.0,1.0,0.104183349609,-0.643062744141,10.0159716797,0.1,0.0,0.0,0.0,0.1,0.0,0.0,0.0,0.1
1446036513952384842,92,1446036513949351072,robocape,3.40695894414,6.90028621226,22.2060121992,0.0,10.0,0.0,0.0,0.0,10.0,0.0,0.0,0.0,10.0,-0.0563258570552,0.0141147537774,0.00985369603329,1.0,0.0,0.0,0.0,1.0,0.0,0.0,0.0,1.0,0.0514929199219,-0.686173095703,10.039921875,0.1,0.0,0.0,0.0,0.1,0.0,0.0,0.0,0.1
1446036513985843301,93,1446036513982726097,robocape,3.27638794582,6.90877555732,22.1804641232,0.0,10.0,0.0,0.0,0.0,10.0,0.0,0.0,0.0,10.0,-0.0647148144889,0.0117179087963,0.0101200121423,1.0,0.0,0.0,0.0,1.0,0.0,0.0,0.0,1.0,0.143701171875,-0.90052734375,10.0878222656,0.1,0.0,0.0,0.0,0.1,0.0,0.0,0.0,0.1
1446036514019629801,94,1446036514015866041,robocape,3.14177229884,6.91254524834,22.2090217637,0.0,10.0,0.0,0.0,0.0,10.0,0.0,0.0,0.0,10.0,-0.0703074527781,0.0111852765783,0.0394147841332,1.0,0.0,0.0,0.0,1.0,0.0,0.0,0.0,1.0,0.141306152344,-0.918489990234,9.97046630859,0.1,0.0,0.0,0.0,0.1,0.0,0.0,0.0,0.1
1446036514051315176,95,1446036514048320055,robocape,3.01382957276,6.89906414292,22.3545339867,0.0,10.0,0.0,0.0,0.0,10.0,0.0,0.0,0.0,10.0,-0.0741690363587,0.00612527050718,0.103064334186,1.0,0.0,0.0,0.0,1.0,0.0,0.0,0.0,1.0,0.132923583984,-1.1076965332,10.1632653809,0.1,0.0,0.0,0.0,0.1,0.0,0.0,0.0,0.1
1446036514086411884,96,1446036514083367109,robocape,2.90324174492,6.88539361813,22.72124461,0.0,10.0,0.0,0.0,0.0,10.0,0.0,0.0,0.0,10.0,-0.0788295682663,0.0133158054504,0.223039741294,1.0,0.0,0.0,0.0,1.0,0.0,0.0,0.0,1.0,0.28740234375,-2.26209594727,9.81598754883,0.1,0.0,0.0,0.0,0.1,0.0,0.0,0.0,0.1
1446036514119329926,97,1446036514116056919,robocape,3.35610141092,6.94331870392,22.6816527016,0.0,10.0,0.0,0.0,0.0,10.0,0.0,0.0,0.0,10.0,0.241815026979,0.0375505713701,0.0031957933081,1.0,0.0,0.0,0.0,1.0,0.0,0.0,0.0,1.0,0.246687011719,-1.56634277344,10.0255517578,0.1,0.0,0.0,0.0,0.1,0.0,0.0,0.0,0.1
1446036514155308051,98,1446036514151215076,robocape,3.84352637316,6.99652261438,22.5754178056,0.0,10.0,0.0,0.0,0.0,10.0,0.0,0.0,0.0,10.0,0.264585054299,0.032490565299,-0.032756881408,1.0,0.0,0.0,0.0,1.0,0.0,0.0,0.0,1.0,0.215551757813,-0.585582275391,10.0794396973,0.1,0.0,0.0,0.0,0.1,0.0,0.0,0.0,0.1
1446036514185680801,99,1446036514182591915,robocape,4.25182785078,7.0378983279,22.556633991,0.0,10.0,0.0,0.0,0.0,10.0,0.0,0.0,0.0,10.0,0.218246051332,0.0298274042089,0.0145142279409,1.0,0.0,0.0,0.0,1.0,0.0,0.0,0.0,1.0,0.146096191406,-0.111368408203,10.060279541,0.1,0.0,0.0,0.0,0.1,0.0,0.0,0.0,0.1
1446036514223595718,100,1446036514219436883,robocape,4.22289439901,7.04832999069,22.8553072677,0.0,10.0,0.0,0.0,0.0,10.0,0.0,0.0,0.0,10.0,-0.0304931944814,0.0278300333913,0.185888644088,1.0,0.0,0.0,0.0,1.0,0.0,0.0,0.0,1.0,-0.189206542969,-0.391585693359,9.92735595703,0.1,0.0,0.0,0.0,0.1,0.0,0.0,0.0,0.1
1446036514256682093,101,1446036514253427028,robocape,4.36778232481,7.06413780234,23.048972906,0.0,10.0,0.0,0.0,0.0,10.0,0.0,0.0,0.0,10.0,0.0672448175245,0.0262321367373,0.13009541925,1.0,0.0,0.0,0.0,1.0,0.0,0.0,0.0,1.0,0.05748046875,-1.53880004883,9.94651611328,0.1,0.0,0.0,0.0,0.1,0.0,0.0,0.0,0.1
1446036514289506718,102,1446036514284574031,robocape,4.73804359345,7.09207082961,22.9560816955,0.0,10.0,0.0,0.0,0.0,10.0,0.0,0.0,0.0,10.0,0.203465507282,0.0194410759576,-0.0242347659197,1.0,0.0,0.0,0.0,1.0,0.0,0.0,0.0,1.0,0.165256347656,0.076640625,10.0854272461,0.1,0.0,0.0,0.0,0.1,0.0,0.0,0.0,0.1
1446036514322314176,103,1446036514318504095,robocape,4.76128554216,7.10650855565,23.0822583403,0.0,10.0,0.0,0.0,0.0,10.0,0.0,0.0,0.0,10.0,0.00812264132474,0.0230363434292,0.0934769542618,1.0,0.0,0.0,0.0,1.0,0.0,0.0,0.0,1.0,-0.00718505859375,0.0646655273438,10.1069824219,0.1,0.0,0.0,0.0,0.1,0.0,0.0,0.0,0.1
1446036514354597218,104,1446036514351304054,robocape,4.63739638374,7.11655144219,23.1670475669,0.0,10.0,0.0,0.0,0.0,10.0,0.0,0.0,0.0,10.0,-0.066579027252,0.0185089695761,0.0711064011051,1.0,0.0,0.0,0.0,1.0,0.0,0.0,0.0,1.0,0.0550854492188,-0.435893554688,10.0363293457,0.1,0.0,0.0,0.0,0.1,0.0,0.0,0.0,0.1
1446036514388126843,105,1446036514385003089,robocape,4.53729951642,7.13702076933,23.1143114025,0.0,10.0,0.0,0.0,0.0,10.0,0.0,0.0,0.0,10.0,-0.0456732126949,0.017177389031,-0.0033289513626,1.0,0.0,0.0,0.0,1.0,0.0,0.0,0.0,1.0,0.0898132324219,-1.09212890625,10.0087866211,0.1,0.0,0.0,0.0,0.1,0.0,0.0,0.0,0.1
1446036514421443384,106,1446036514417706966,robocape,4.61359117974,7.17010962217,22.8713207236,0.0,10.0,0.0,0.0,0.0,10.0,0.0,0.0,0.0,10.0,0.0587227020362,0.0146473859954,-0.10612696944,1.0,0.0,0.0,0.0,1.0,0.0,0.0,0.0,1.0,0.0407153320313,-0.208366699219,10.0411193848,0.1,0.0,0.0,0.0,0.1,0.0,0.0,0.0,0.1
1446036514454506718,107,1446036514451282978,robocape,4.3671237541,7.17780233703,22.8665741486,0.0,10.0,0.0,0.0,0.0,10.0,0.0,0.0,0.0,10.0,-0.125568045397,0.0126500151779,0.0221042370477,1.0,0.0,0.0,0.0,1.0,0.0,0.0,0.0,1.0,0.0754431152344,-0.560434570312,10.0447119141,0.1,0.0,0.0,0.0,0.1,0.0,0.0,0.0,0.1
1446036514489496426,108,1446036514485446929,robocape,4.3441434597,7.20819182766,22.6237655756,0.0,10.0,0.0,0.0,0.0,10.0,0.0,0.0,0.0,10.0,0.00652474467069,0.0135821215594,-0.106526443603,1.0,0.0,0.0,0.0,1.0,0.0,0.0,0.0,1.0,0.0826281738281,-0.450263671875,10.0734521484,0.1,0.0,0.0,0.0,0.1,0.0,0.0,0.0,0.1
1446036514520146009,109,1446036514516992092,robocape,4.0716971093,7.20894598765,22.6951763809,0.0,10.0,0.0,0.0,0.0,10.0,0.0,0.0,0.0,10.0,-0.144343331082,0.0123836990689,0.0629837597804,1.0,0.0,0.0,0.0,1.0,0.0,0.0,0.0,1.0,0.0646655273438,-1.17475708008,10.0914147949,0.1,0.0,0.0,0.0,0.1,0.0,0.0,0.0,0.1
1446036514554720176,110,1446036514551249027,robocape,3.97156039373,7.22548106208,22.762627416,0.0,10.0,0.0,0.0,0.0,10.0,0.0,0.0,0.0,10.0,-0.0539290120741,0.0205063403936,0.0609863889628,1.0,0.0,0.0,0.0,1.0,0.0,0.0,0.0,1.0,0.0275427246094,-1.65974853516,9.98842895508,0.1,0.0,0.0,0.0,0.1,0.0,0.0,0.0,0.1
1446036514590151051,111,1446036514586934089,robocape,4.17376237225,7.24926690901,22.7404481975,0.0,10.0,0.0,0.0,0.0,10.0,0.0,0.0,0.0,10.0,0.110388027184,0.0206394984481,0.0131826473959,1.0,0.0,0.0,0.0,1.0,0.0,0.0,0.0,1.0,0.373623046875,-1.44898681641,9.96088623047,0.1,0.0,0.0,0.0,0.1,0.0,0.0,0.0,0.1
1446036514621281468,112,1446036514617995023,robocape,4.55220728791,7.29854471996,22.4918742785,0.0,10.0,0.0,0.0,0.0,10.0,0.0,0.0,0.0,10.0,0.217580261059,0.0235689756472,-0.109455920802,1.0,0.0,0.0,0.0,1.0,0.0,0.0,0.0,1.0,0.318537597656,-0.468226318359,10.1033898926,0.1,0.0,0.0,0.0,0.1,0.0,0.0,0.0,0.1
1446036514653853926,113,1446036514650548934,robocape,4.64685989026,7.31757520103,22.4777370442,0.0,10.0,0.0,0.0,0.0,10.0,0.0,0.0,0.0,10.0,0.0540621701286,0.0185089695761,0.016911072922,1.0,0.0,0.0,0.0,1.0,0.0,0.0,0.0,1.0,-0.326920166016,-0.360450439453,10.0518969727,0.1,0.0,0.0,0.0,0.1,0.0,0.0,0.0,0.1
1446036514687851593,114,1446036514684667110,robocape,4.75947481217,7.35034887628,22.313230402,0.0,10.0,0.0,0.0,0.0,10.0,0.0,0.0,0.0,10.0,0.0732369299772,0.018242653467,-0.0645816564344,1.0,0.0,0.0,0.0,1.0,0.0,0.0,0.0,1.0,-0.123343505859,0.13412109375,10.0351318359,0.1,0.0,0.0,0.0,0.1,0.0,0.0,0.0,0.1
1446036514720231759,115,1446036514716979980,robocape,4.5937083802,7.3637457525,22.3790849607,0.0,10.0,0.0,0.0,0.0,10.0,0.0,0.0,0.0,10.0,-0.0876179998636,0.0193079179031,0.0591221761998,1.0,0.0,0.0,0.0,1.0,0.0,0.0,0.0,1.0,0.178428955078,-0.476608886719,10.0770446777,0.1,0.0,0.0,0.0,0.1,0.0,0.0,0.0,0.1
1446036514754695926,116,1446036514750916004,robocape,4.53492412599,7.38611666827,22.2273518066,0.0,10.0,0.0,0.0,0.0,10.0,0.0,0.0,0.0,10.0,-0.0175768631945,0.0134489635049,-0.0579237537092,1.0,0.0,0.0,0.0,1.0,0.0,0.0,0.0,1.0,0.0778381347656,0.028740234375,10.0171691895,0.1,0.0,0.0,0.0,0.1,0.0,0.0,0.0,0.1
1446036514787396259,117,1446036514784260988,robocape,4.10731323832,7.37503618437,22.3858366207,0.0,10.0,0.0,0.0,0.0,10.0,0.0,0.0,0.0,10.0,-0.231428698728,0.0102531701968,0.109056446639,1.0,0.0,0.0,0.0,1.0,0.0,0.0,0.0,1.0,0.0814306640625,-0.577199707031,10.1129699707,0.1,0.0,0.0,0.0,0.1,0.0,0.0,0.0,0.1
1446036514827258843,118,1446036514817013978,robocape,3.78255422213,7.36055230271,22.6952653709,0.0,10.0,0.0,0.0,0.0,10.0,0.0,0.0,0.0,10.0,-0.187752856851,0.0145142279409,0.191348124322,1.0,0.0,0.0,0.0,1.0,0.0,0.0,0.0,1.0,-0.0694555664063,-1.85973266602,10.0123791504,0.1,0.0,0.0,0.0,0.1,0.0,0.0,0.0,0.1
1446036514855038343,119,1446036514851794004,robocape,3.73943179984,7.33792995887,23.0658265157,0.0,10.0,0.0,0.0,0.0,10.0,0.0,0.0,0.0,10.0,-0.0442084740953,0.0125168571234,0.226102376548,1.0,0.0,0.0,0.0,1.0,0.0,0.0,0.0,1.0,0.110170898438,-1.78907958984,9.98603393555,0.1,0.0,0.0,0.0,0.1,0.0,0.0,0.0,0.1
1446036514887606635,120,1446036514884567022,robocape,3.95821101719,7.33581033254,23.4880318241,0.0,10.0,0.0,0.0,0.0,10.0,0.0,0.0,0.0,10.0,0.0900148448447,0.0260989786828,0.254997674375,1.0,0.0,0.0,0.0,1.0,0.0,0.0,0.0,1.0,0.583187255859,-2.21659057617,9.95609619141,0.1,0.0,0.0,0.0,0.1,0.0,0.0,0.0,0.1
1446036514919762051,121,1446036514916688919,robocape,4.47284056605,7.32125761333,23.9729356305,0.0,10.0,0.0,0.0,0.0,10.0,0.0,0.0,0.0,10.0,0.241815026979,0.0243679239742,0.2912166652,1.0,0.0,0.0,0.0,1.0,0.0,0.0,0.0,1.0,-0.0275427246094,-2.1040246582,9.97525634766,0.1,0.0,0.0,0.0,0.1,0.0,0.0,0.0,0.1
1446036514952662510,122,1446036514949372053,robocape,5.42533562564,7.29116192156,24.1864564057,0.0,10.0,0.0,0.0,0.0,10.0,0.0,0.0,0.0,10.0,0.490154798629,0.00599211245268,0.147405966336,1.0,0.0,0.0,0.0,1.0,0.0,0.0,0.0,1.0,-0.182021484375,-1.98786621094,10.1848205566,0.1,0.0,0.0,0.0,0.1,0.0,0.0,0.0,0.1
1446036514988091135,123,1446036514984682083,robocape,6.81843472293,7.30160731951,24.1299897476,0.0,10.0,0.0,0.0,0.0,10.0,0.0,0.0,0.0,10.0,0.740225624988,0.0135821215594,0.00239684498107,1.0,0.0,0.0,0.0,1.0,0.0,0.0,0.0,1.0,0.283809814453,-1.29331054688,9.80161743164,0.1,0.0,0.0,0.0,0.1,0.0,0.0,0.0,0.1
1446036515018787885,124,1446036515015749931,robocape,8.10928886889,7.26465556529,24.2048124646,0.0,10.0,0.0,0.0,0.0,10.0,0.0,0.0,0.0,10.0,0.680837132679,-0.000932106381528,0.0774979877213,1.0,0.0,0.0,0.0,1.0,0.0,0.0,0.0,1.0,-0.336500244141,1.07416625977,10.0123791504,0.1,0.0,0.0,0.0,0.1,0.0,0.0,0.0,0.1
1446036515052607135,125,1446036515049509048,robocape,9.04969719827,7.24997171851,24.1159397728,0.0,10.0,0.0,0.0,0.0,10.0,0.0,0.0,0.0,10.0,0.508397452096,-0.00239684498107,-0.0122505410144,1.0,0.0,0.0,0.0,1.0,0.0,0.0,0.0,1.0,-0.156873779297,1.60226806641,9.99082397461,0.1,0.0,0.0,0.0,0.1,0.0,0.0,0.0,0.1
1446036515085388760,126,1446036515081743001,robocape,9.62052619152,7.25464905354,24.0694936536,0.0,10.0,0.0,0.0,0.0,10.0,0.0,0.0,0.0,10.0,0.312655111975,0.0106526443603,0.00732369299772,1.0,0.0,0.0,0.0,1.0,0.0,0.0,0.0,1.0,0.831071777344,1.50167724609,9.93813354492,0.1,0.0,0.0,0.0,0.1,0.0,0.0,0.0,0.1
1446036515118542676,127,1446036515115225076,robocape,9.75784860712,7.27173064893,24.0604091493,0.0,10.0,0.0,0.0,0.0,10.0,0.0,0.0,0.0,10.0,0.082691151847,0.0195742340121,0.0233026595382,1.0,0.0,0.0,0.0,1.0,0.0,0.0,0.0,1.0,-0.100590820313,2.06450683594,9.99561401367,0.1,0.0,0.0,0.0,0.1,0.0,0.0,0.0,0.1
1446036515151309551,128,1446036515148298978,robocape,9.43401717561,7.30353676082,24.0535231623,0.0,10.0,0.0,0.0,0.0,10.0,0.0,0.0,0.0,10.0,-0.160455455677,0.0260989786828,0.0197073920666,1.0,0.0,0.0,0.0,1.0,0.0,0.0,0.0,1.0,0.411943359375,1.27534790039,9.82077758789,0.1,0.0,0.0,0.0,0.1,0.0,0.0,0.0,0.1
1446036515185567718,129,1446036515181925058,robocape,8.87600950477,7.35352483638,24.0438302493,0.0,10.0,0.0,0.0,0.0,10.0,0.0,0.0,0.0,10.0,-0.284026130257,0.034621094171,0.0151800182135,1.0,0.0,0.0,0.0,1.0,0.0,0.0,0.0,1.0,0.0407153320313,0.584384765625,10.0662670898,0.1,0.0,0.0,0.0,0.1,0.0,0.0,0.0,0.1
1446036515217753676,130,1446036515214745044,robocape,8.29273224684,7.39624623742,23.9991703227,0.0,10.0,0.0,0.0,0.0,10.0,0.0,0.0,0.0,10.0,-0.295744039053,0.0278300333913,-0.00279631914458,1.0,0.0,0.0,0.0,1.0,0.0,0.0,0.0,1.0,-0.0538879394531,-0.331710205078,10.0926123047,0.1,0.0,0.0,0.0,0.1,0.0,0.0,0.0,0.1
1446036515251101718,131,1446036515247942924,robocape,7.96323693905,7.45709175641,23.7827691865,0.0,10.0,0.0,0.0,0.0,10.0,0.0,0.0,0.0,10.0,-0.152066498244,0.0239684498107,-0.0944090606433,1.0,0.0,0.0,0.0,1.0,0.0,0.0,0.0,1.0,0.0694555664063,-0.831071777344,10.0830322266,0.1,0.0,0.0,0.0,0.1,0.0,0.0,0.0,0.1
1446036515286013218,132,1446036515282416105,robocape,7.78750838795,7.51828864011,23.4854498084,0.0,10.0,0.0,0.0,0.0,10.0,0.0,0.0,0.0,10.0,-0.066312711143,0.0185089695761,-0.137152796139,1.0,0.0,0.0,0.0,1.0,0.0,0.0,0.0,1.0,-0.0969982910156,-0.197589111328,10.0483044434,0.1,0.0,0.0,0.0,0.1,0.0,0.0,0.0,0.1
1446036515317811635,133,1446036515314709901,robocape,7.48986349222,7.55533668861,23.3583089462,0.0,10.0,0.0,0.0,0.0,10.0,0.0,0.0,0.0,10.0,-0.141280695829,0.0194410759576,-0.0452737385313,1.0,0.0,0.0,0.0,1.0,0.0,0.0,0.0,1.0,0.148491210938,-0.396375732422,10.0111816406,0.1,0.0,0.0,0.0,0.1,0.0,0.0,0.0,0.1
1446036515351299926,134,1446036515348234891,robocape,7.21982236755,7.57189001707,23.2912041938,0.0,10.0,0.0,0.0,0.0,10.0,0.0,0.0,0.0,10.0,-0.130894367577,0.0135821215594,-0.0117179087963,1.0,0.0,0.0,0.0,1.0,0.0,0.0,0.0,1.0,0.0682580566406,-1.17595458984,9.99321899414,0.1,0.0,0.0,0.0,0.1,0.0,0.0,0.0,0.1
1446036515385574385,135,1446036515382015943,robocape,7.13311986769,7.59591663744,23.2284802081,0.0,10.0,0.0,0.0,0.0,10.0,0.0,0.0,0.0,10.0,-0.0350205683345,0.018242653467,-0.00892158965177,1.0,0.0,0.0,0.0,1.0,0.0,0.0,0.0,1.0,-0.0407153320313,-1.06099365234,10.0722546387,0.1,0.0,0.0,0.0,0.1,0.0,0.0,0.0,0.1
1446036515418014260,136,1446036515414949893,robocape,7.34111554915,7.63239012203,23.1045772735,0.0,10.0,0.0,0.0,0.0,10.0,0.0,0.0,0.0,10.0,0.123836990689,0.0207726565026,-0.0411458388417,1.0,0.0,0.0,0.0,1.0,0.0,0.0,0.0,1.0,0.0934057617188,-1.25259521484,10.0914147949,0.1,0.0,0.0,0.0,0.1,0.0,0.0,0.0,0.1
1446036515451243593,137,1446036515448168039,robocape,7.56151055804,7.65588785407,23.0051961195,0.0,10.0,0.0,0.0,0.0,10.0,0.0,0.0,0.0,10.0,0.129030154814,0.0157126504315,-0.0272974011733,1.0,0.0,0.0,0.0,1.0,0.0,0.0,0.0,1.0,0.0742456054688,-0.140108642578,10.1045874023,0.1,0.0,0.0,0.0,0.1,0.0,0.0,0.0,0.1
1446036515485555718,138,1446036515481822013,robocape,7.54453826336,7.67211663179,23.0091384114,0.0,10.0,0.0,0.0,0.0,10.0,0.0,0.0,0.0,10.0,-0.00226368692657,0.0193079179031,0.0271642431188,1.0,0.0,0.0,0.0,1.0,0.0,0.0,0.0,1.0,0.0814306640625,0.243094482422,10.0027990723,0.1,0.0,0.0,0.0,0.1,0.0,0.0,0.0,0.1
1446036515517722218,139,1446036515514698028,robocape,7.55703099617,7.68964696606,22.9580427777,0.0,10.0,0.0,0.0,0.0,10.0,0.0,0.0,0.0,10.0,0.0167779148675,0.015845808486,-0.00226368692657,1.0,0.0,0.0,0.0,1.0,0.0,0.0,0.0,1.0,0.207169189453,-0.119750976563,10.0997973633,0.1,0.0,0.0,0.0,0.1,0.0,0.0,0.0,0.1
1446036515551192010,140,1446036515548187017,robocape,7.48040646255,7.70518689583,22.9663870174,0.0,10.0,0.0,0.0,0.0,10.0,0.0,0.0,0.0,10.0,-0.0339553038985,0.0191747598486,0.0291616139364,1.0,0.0,0.0,0.0,1.0,0.0,0.0,0.0,1.0,-0.0047900390625,-0.0203576660156,10.0818347168,0.1,0.0,0.0,0.0,0.1,0.0,0.0,0.0,0.1
1446036515585220427,141,1446036515581780910,robocape,7.49369753913,7.72970046705,22.8983539497,0.0,10.0,0.0,0.0,0.0,10.0,0.0,0.0,0.0,10.0,0.018242653467,0.018242653467,-0.0118510668509,1.0,0.0,0.0,0.0,1.0,0.0,0.0,0.0,1.0,0.0993933105469,-0.549656982422,10.1177600098,0.1,0.0,0.0,0.0,0.1,0.0,0.0,0.0,0.1
1446036515617620927,142,1446036515614622116,robocape,7.47265920256,7.74183304398,22.9126452902,0.0,10.0,0.0,0.0,0.0,10.0,0.0,0.0,0.0,10.0,-0.00519316412565,0.017976337358,0.032756881408,1.0,0.0,0.0,0.0,1.0,0.0,0.0,0.0,1.0,0.0107775878906,-0.193996582031,9.97884887695,0.1,0.0,0.0,0.0,0.1,0.0,0.0,0.0,0.1
1446036515651214802,143,1446036515648217916,robocape,7.49110294332,7.74440301261,22.97727564,0.0,10.0,0.0,0.0,0.0,10.0,0.0,0.0,0.0,10.0,0.0122505410144,0.016911072922,0.0605869147993,1.0,0.0,0.0,0.0,1.0,0.0,0.0,0.0,1.0,0.124541015625,-0.676593017578,10.0423168945,0.1,0.0,0.0,0.0,0.1,0.0,0.0,0.0,0.1
1446036515685307843,144,1446036515681716918,robocape,7.70459175953,7.75789091425,22.9421706526,0.0,10.0,0.0,0.0,0.0,10.0,0.0,0.0,0.0,10.0,0.121440145708,0.0154463343225,0.00759000910673,1.0,0.0,0.0,0.0,1.0,0.0,0.0,0.0,1.0,-0.143701171875,-0.234711914063,10.0650695801,0.1,0.0,0.0,0.0,0.1,0.0,0.0,0.0,0.1
1446036515717824093,145,1446036515714787960,robocape,7.79938136406,7.77230344914,22.9293083956,0.0,10.0,0.0,0.0,0.0,10.0,0.0,0.0,0.0,10.0,0.0577905956547,0.01744370514,0.0187752856851,1.0,0.0,0.0,0.0,1.0,0.0,0.0,0.0,1.0,0.0850231933594,0.320932617188,10.0111816406,0.1,0.0,0.0,0.0,0.1,0.0,0.0,0.0,0.1
1446036515750905302,146,1446036515747911930,robocape,7.82356102748,7.79404557704,22.8713698211,0.0,10.0,0.0,0.0,0.0,10.0,0.0,0.0,0.0,10.0,0.0237021337017,0.0175768631945,-0.00625842856169,1.0,0.0,0.0,0.0,1.0,0.0,0.0,0.0,1.0,0.176033935547,0.0922082519531,10.0638720703,0.1,0.0,0.0,0.0,0.1,0.0,0.0,0.0,0.1
1446036515784873427,147,1446036515781610012,robocape,7.67882472467,7.81357782305,22.8613565227,0.0,10.0,0.0,0.0,0.0,10.0,0.0,0.0,0.0,10.0,-0.0683100819605,0.0198405501211,0.0185089695761,1.0,0.0,0.0,0.0,1.0,0.0,0.0,0.0,1.0,0.0586779785156,-0.0443078613281,9.9980090332,0.1,0.0,0.0,0.0,0.1,0.0,0.0,0.0,0.1
1446036515822923343,148,1446036515814491033,robocape,7.55407834952,7.84397713305,22.7825544296,0.0,10.0,0.0,0.0,0.0,10.0,0.0,0.0,0.0,10.0,-0.0533963798561,0.0202400242846,-0.0189084437396,1.0,0.0,0.0,0.0,1.0,0.0,0.0,0.0,1.0,0.112565917969,-0.720900878906,10.0423168945,0.1,0.0,0.0,0.0,0.1,0.0,0.0,0.0,0.1
1446036515851775718,149,1446036515848514080,robocape,7.5671737852,7.87830201278,22.6329228663,0.0,10.0,0.0,0.0,0.0,10.0,0.0,0.0,0.0,10.0,0.0237021337017,0.017177389031,-0.0564590151097,1.0,0.0,0.0,0.0,1.0,0.0,0.0,0.0,1.0,-0.00359252929688,-0.141306152344,9.98723144531,0.1,0.0,0.0,0.0,0.1,0.0,0.0,0.0,0.1
1446036515885184218,150,1446036515881540060,robocape,7.50588006503,7.91547465793,22.4743306438,0.0,10.0,0.0,0.0,0.0,10.0,0.0,0.0,0.0,10.0,-0.0147805440499,0.0178431793035,-0.0620516533988,1.0,0.0,0.0,0.0,1.0,0.0,0.0,0.0,1.0,0.129331054688,-0.0610729980469,10.0471069336,0.1,0.0,0.0,0.0,0.1,0.0,0.0,0.0,0.1
1446036515918067010,151,1446036515914571046,robocape,7.41721350337,7.95096717778,22.3269414661,0.0,10.0,0.0,0.0,0.0,10.0,0.0,0.0,0.0,10.0,-0.0299605622634,0.0178431793035,-0.0563258570552,1.0,0.0,0.0,0.0,1.0,0.0,0.0,0.0,1.0,0.101788330078,-0.142503662109,10.0662670898,0.1,0.0,0.0,0.0,0.1,0.0,0.0,0.0,0.1
1446036515951372510,152,1446036515947954893,robocape,7.15650020087,7.96960644651,22.3148643849,0.0,10.0,0.0,0.0,0.0,10.0,0.0,0.0,0.0,10.0,-0.129695945087,0.0189084437396,0.0159789665405,1.0,0.0,0.0,0.0,1.0,0.0,0.0,0.0,1.0,0.0143701171875,-0.235909423828,9.99920654297,0.1,0.0,0.0,0.0,0.1,0.0,0.0,0.0,0.1
1446036515984787760,153,1446036515981580018,robocape,6.91703363896,7.95513943957,22.5132831023,0.0,10.0,0.0,0.0,0.0,10.0,0.0,0.0,0.0,10.0,-0.133158054504,0.0167779148675,0.130761209523,1.0,0.0,0.0,0.0,1.0,0.0,0.0,0.0,1.0,0.0227526855469,-0.8047265625,10.0075891113,0.1,0.0,0.0,0.0,0.1,0.0,0.0,0.0,0.1
1446036516017861677,154,1446036516014655113,robocape,6.95006583829,7.97741153993,22.458363417,0.0,10.0,0.0,0.0,0.0,10.0,0.0,0.0,0.0,10.0,0.0271642431188,0.0183758115215,-0.00532632218016,1.0,0.0,0.0,0.0,1.0,0.0,0.0,0.0,1.0,0.0586779785156,-1.50287475586,10.0818347168,0.1,0.0,0.0,0.0,0.1,0.0,0.0,0.0,0.1
1446036516051097885,155,1446036516047903060,robocape,7.47586416541,8.02171666006,22.2206464634,0.0,10.0,0.0,0.0,0.0,10.0,0.0,0.0,0.0,10.0,0.298806674307,0.0173105470855,-0.102265385859,1.0,0.0,0.0,0.0,1.0,0.0,0.0,0.0,1.0,0.0850231933594,-0.537681884766,10.0722546387,0.1,0.0,0.0,0.0,0.1,0.0,0.0,0.0,0.1
1446036516084848718,156,1446036516081823110,robocape,7.73064710513,8.0534822235,22.0836888921,0.0,10.0,0.0,0.0,0.0,10.0,0.0,0.0,0.0,10.0,0.150069127426,0.0173105470855,-0.049135322112,1.0,0.0,0.0,0.0,1.0,0.0,0.0,0.0,1.0,-0.0682580566406,0.735270996094,10.0051940918,0.1,0.0,0.0,0.0,0.1,0.0,0.0,0.0,0.1
1446036516117678802,157,1446036516114655971,robocape,7.6765916849,8.07743740677,22.0207476757,0.0,10.0,0.0,0.0,0.0,10.0,0.0,0.0,0.0,10.0,-0.017177389031,0.018242653467,-0.0109189604693,1.0,0.0,0.0,0.0,1.0,0.0,0.0,0.0,1.0,0.185614013672,0.644260253906,9.99321899414,0.1,0.0,0.0,0.0,0.1,0.0,0.0,0.0,0.1
1446036516150983843,158,1446036516148010015,robocape,7.36105046947,8.0907537904,22.0321309722,0.0,10.0,0.0,0.0,0.0,10.0,0.0,0.0,0.0,10.0,-0.159922823459,0.0178431793035,0.0279631914458,1.0,0.0,0.0,0.0,1.0,0.0,0.0,0.0,1.0,0.0910107421875,0.274229736328,9.98244140625,0.1,0.0,0.0,0.0,0.1,0.0,0.0,0.0,0.1
1446036516185089968,159,1446036516181631088,robocape,7.13545685096,8.10900400378,22.0066158973,0.0,10.0,0.0,0.0,0.0,10.0,0.0,0.0,0.0,10.0,-0.110388027184,0.0178431793035,0.00852211548825,1.0,0.0,0.0,0.0,1.0,0.0,0.0,0.0,1.0,0.0263452148438,-1.18553466797,10.100994873,0.1,0.0,0.0,0.0,0.1,0.0,0.0,0.0,0.1
1446036516218337468,160,1446036516214802980,robocape,7.25453676663,8.1527145836,21.8115801585,0.0,10.0,0.0,0.0,0.0,10.0,0.0,0.0,0.0,10.0,0.082424835738,0.0194410759576,-0.0818922035199,1.0,0.0,0.0,0.0,1.0,0.0,0.0,0.0,1.0,0.0802331542969,-1.13643676758,10.0866247559,0.1,0.0,0.0,0.0,0.1,0.0,0.0,0.0,0.1
1446036516252030510,161,1446036516248050928,robocape,7.2250519887,8.15549895458,21.8921898668,0.0,10.0,0.0,0.0,0.0,10.0,0.0,0.0,0.0,10.0,-0.0147805440499,0.017976337358,0.0667121853065,1.0,0.0,0.0,0.0,1.0,0.0,0.0,0.0,1.0,0.0299377441406,0.304167480469,10.0255517578,0.1,0.0,0.0,0.0,0.1,0.0,0.0,0.0,0.1
1446036516286271427,162,1446036516282591104,robocape,7.25235443132,8.14145086121,22.068546802,0.0,10.0,0.0,0.0,0.0,10.0,0.0,0.0,0.0,10.0,0.00838895743375,0.016378440704,0.119309616836,1.0,0.0,0.0,0.0,1.0,0.0,0.0,0.0,1.0,0.100590820313,-0.920885009766,9.99561401367,0.1,0.0,0.0,0.0,0.1,0.0,0.0,0.0,0.1
1446036516319186469,163,1446036516315912008,robocape,7.56222773744,8.1428331272,22.1339767571,0.0,10.0,0.0,0.0,0.0,10.0,0.0,0.0,0.0,10.0,0.164849671476,0.0170442309765,0.0608532309083,1.0,0.0,0.0,0.0,1.0,0.0,0.0,0.0,1.0,0.076640625,-0.741258544922,10.0435144043,0.1,0.0,0.0,0.0,0.1,0.0,0.0,0.0,0.1
1446036516352562885,164,1446036516348695039,robocape,7.87555428906,8.14586266564,22.1702508612,0.0,10.0,0.0,0.0,0.0,10.0,0.0,0.0,0.0,10.0,0.16911072922,0.0159789665405,0.0454068965859,1.0,0.0,0.0,0.0,1.0,0.0,0.0,0.0,1.0,-0.0227526855469,-0.0239501953125,10.0483044434,0.1,0.0,0.0,0.0,0.1,0.0,0.0,0.0,0.1
1446036516386657427,165,1446036516383337020,robocape,8.1261582891,8.16840221592,22.0660564752,0.0,10.0,0.0,0.0,0.0,10.0,0.0,0.0,0.0,10.0,0.146207543845,0.0149137021044,-0.0310258266994,1.0,0.0,0.0,0.0,1.0,0.0,0.0,0.0,1.0,0.105380859375,0.780776367188,10.0638720703,0.1,0.0,0.0,0.0,0.1,0.0,0.0,0.0,0.1
1446036516420003844,166,1446036516416289091,robocape,8.13540900655,8.19100349983,21.9758525231,0.0,10.0,0.0,0.0,0.0,10.0,0.0,0.0,0.0,10.0,0.0185089695761,0.0154463343225,-0.0250337142467,1.0,0.0,0.0,0.0,1.0,0.0,0.0,0.0,1.0,0.229921875,1.32684082031,9.94292358398,0.1,0.0,0.0,0.0,0.1,0.0,0.0,0.0,0.1
1446036516452874635,167,1446036516449732065,robocape,7.79360393681,8.21929582506,21.9790203363,0.0,10.0,0.0,0.0,0.0,10.0,0.0,0.0,0.0,10.0,-0.172705996692,0.0251668723012,0.0222373951022,1.0,0.0,0.0,0.0,1.0,0.0,0.0,0.0,1.0,0.259859619141,0.0227526855469,10.1309326172,0.1,0.0,0.0,0.0,0.1,0.0,0.0,0.0,0.1
1446036516486567594,168,1446036516483427047,robocape,7.5875444888,8.25389492614,21.8504562706,0.0,10.0,0.0,0.0,0.0,10.0,0.0,0.0,0.0,10.0,-0.0924116898257,0.0185089695761,-0.0475374254579,1.0,0.0,0.0,0.0,1.0,0.0,0.0,0.0,1.0,-0.165256347656,0.0562829589844,9.97286132813,0.1,0.0,0.0,0.0,0.1,0.0,0.0,0.0,0.1
1446036516521591385,169,1446036516517549037,robocape,7.32938793412,8.26500972,21.8911975403,0.0,10.0,0.0,0.0,0.0,10.0,0.0,0.0,0.0,10.0,-0.131959632013,0.0191747598486,0.0438089999318,1.0,0.0,0.0,0.0,1.0,0.0,0.0,0.0,1.0,0.0526904296875,-0.653840332031,10.024354248,0.1,0.0,0.0,0.0,0.1,0.0,0.0,0.0,0.1
1446036516554609594,170,1446036516550884008,robocape,7.21329692258,8.27561679066,21.9018616914,0.0,10.0,0.0,0.0,0.0,10.0,0.0,0.0,0.0,10.0,-0.0553937506736,0.016911072922,0.0286289817184,1.0,0.0,0.0,0.0,1.0,0.0,0.0,0.0,1.0,0.141306152344,-0.6514453125,10.0351318359,0.1,0.0,0.0,0.0,0.1,0.0,0.0,0.0,0.1
1446036516588708635,171,1446036516584429979,robocape,7.22064180075,8.29293390805,21.8704460496,0.0,10.0,0.0,0.0,0.0,10.0,0.0,0.0,0.0,10.0,0.0123836990689,0.0175768631945,0.00639158661619,1.0,0.0,0.0,0.0,1.0,0.0,0.0,0.0,1.0,0.0969982910156,-0.743653564453,10.0423168945,0.1,0.0,0.0,0.0,0.1,0.0,0.0,0.0,0.1
1446036516621066969,172,1446036516617804050,robocape,7.46290757817,8.3455659055,21.603159595,0.0,10.0,0.0,0.0,0.0,10.0,0.0,0.0,0.0,10.0,0.152732288516,0.0189084437396,-0.120508039326,1.0,0.0,0.0,0.0,1.0,0.0,0.0,0.0,1.0,0.0610729980469,-1.19750976562,10.0746496582,0.1,0.0,0.0,0.0,0.1,0.0,0.0,0.0,0.1
1446036516654057885,173,1446036516650962114,robocape,7.59643089738,8.3680987876,21.496167645,0.0,10.0,0.0,0.0,0.0,10.0,0.0,0.0,0.0,10.0,0.0844222065555,0.0147805440499,-0.034088461953,1.0,0.0,0.0,0.0,1.0,0.0,0.0,0.0,1.0,0.0323327636719,1.36635864258,9.94052856445,0.1,0.0,0.0,0.0,0.1,0.0,0.0,0.0,0.1
1446036516690248594,174,1446036516684916973,robocape,7.33930834552,8.3730556562,21.5916083336,0.0,10.0,0.0,0.0,0.0,10.0,0.0,0.0,0.0,10.0,-0.135421741431,0.0201068662301,0.0727042977592,1.0,0.0,0.0,0.0,1.0,0.0,0.0,0.0,1.0,0.137713623047,-0.320932617188,10.0435144043,0.1,0.0,0.0,0.0,0.1,0.0,0.0,0.0,0.1
1446036516721823427,175,1446036516718523025,robocape,7.18762266739,8.37617517785,21.6524346834,0.0,10.0,0.0,0.0,0.0,10.0,0.0,0.0,0.0,10.0,-0.0777643038303,0.016644756813,0.0551274345646,1.0,0.0,0.0,0.0,1.0,0.0,0.0,0.0,1.0,0.0634680175781,-0.548459472656,10.0027990723,0.1,0.0,0.0,0.0,0.1,0.0,0.0,0.0,0.1
1446036516754240594,176,1446036516751007080,robocape,7.1904255162,8.38366084808,21.6854080069,0.0,10.0,0.0,0.0,0.0,10.0,0.0,0.0,0.0,10.0,0.00532632218016,0.017177389031,0.0408795227327,1.0,0.0,0.0,0.0,1.0,0.0,0.0,0.0,1.0,0.0467028808594,-1.13044921875,10.0423168945,0.1,0.0,0.0,0.0,0.1,0.0,0.0,0.0,0.1
1446036516789051885,177,1446036516784652948,robocape,7.54160598498,8.42436510155,21.4984272654,0.0,10.0,0.0,0.0,0.0,10.0,0.0,0.0,0.0,10.0,0.204397613664,0.0189084437396,-0.0766990393943,1.0,0.0,0.0,0.0,1.0,0.0,0.0,0.0,1.0,0.154478759766,-0.564027099609,10.0770446777,0.1,0.0,0.0,0.0,0.1,0.0,0.0,0.0,0.1
1446036516830278344,178,1446036516820904970,robocape,7.61301009456,8.44223667065,21.4314914933,0.0,10.0,0.0,0.0,0.0,10.0,0.0,0.0,0.0,10.0,0.0490021640575,0.015313176268,-0.0129163312869,1.0,0.0,0.0,0.0,1.0,0.0,0.0,0.0,1.0,-0.0143701171875,1.12446166992,9.97765136719,0.1,0.0,0.0,0.0,0.1,0.0,0.0,0.0,0.1
1446036516855264385,179,1446036516851490020,robocape,7.38457217788,8.45930556673,21.4660422609,0.0,10.0,0.0,0.0,0.0,10.0,0.0,0.0,0.0,10.0,-0.115980665473,0.0219710789932,0.0395479421877,1.0,0.0,0.0,0.0,1.0,0.0,0.0,0.0,1.0,0.219144287109,0.0586779785156,10.075847168,0.1,0.0,0.0,0.0,0.1,0.0,0.0,0.0,0.1
1446036516888992635,180,1446036516885324001,robocape,7.24591194166,8.47569615663,21.4229512586,0.0,10.0,0.0,0.0,0.0,10.0,0.0,0.0,0.0,10.0,-0.0633832339439,0.0159789665405,-0.00119842249054,1.0,0.0,0.0,0.0,1.0,0.0,0.0,0.0,1.0,0.0143701171875,0.203576660156,9.98723144531,0.1,0.0,0.0,0.0,0.1,0.0,0.0,0.0,0.1
1446036516920999427,181,1446036516917784929,robocape,7.0270880057,8.47475147619,21.5264499887,0.0,10.0,0.0,0.0,0.0,10.0,0.0,0.0,0.0,10.0,-0.116380139636,0.01744370514,0.0774979877213,1.0,0.0,0.0,0.0,1.0,0.0,0.0,0.0,1.0,0.028740234375,-0.331710205078,10.0339343262,0.1,0.0,0.0,0.0,0.1,0.0,0.0,0.0,0.1
1446036516953893927,182,1446036516950683116,robocape,6.85781372419,8.481688403,21.5842150679,0.0,10.0,0.0,0.0,0.0,10.0,0.0,0.0,0.0,10.0,-0.0872185257001,0.018242653467,0.0531300637471,1.0,0.0,0.0,0.0,1.0,0.0,0.0,0.0,1.0,0.0993933105469,-1.149609375,10.0710571289,0.1,0.0,0.0,0.0,0.1,0.0,0.0,0.0,0.1
1446036516988034927,183,1446036516984545946,robocape,7.14405667604,8.56140695127,21.129907178,0.0,10.0,0.0,0.0,0.0,10.0,0.0,0.0,0.0,10.0,0.189617069614,0.0206394984481,-0.221841318804,1.0,0.0,0.0,0.0,1.0,0.0,0.0,0.0,1.0,0.149688720703,-1.70046386719,10.0650695801,0.1,0.0,0.0,0.0,0.1,0.0,0.0,0.0,0.1
1446036517021356094,184,1446036517018273115,robocape,7.36392682085,8.62133232094,20.7242117462,0.0,10.0,0.0,0.0,0.0,10.0,0.0,0.0,0.0,10.0,0.15166702408,0.0127831732324,-0.195476024012,1.0,0.0,0.0,0.0,1.0,0.0,0.0,0.0,1.0,-0.0718505859375,1.609453125,10.0866247559,0.1,0.0,0.0,0.0,0.1,0.0,0.0,0.0,0.1
1446036517054374927,185,1446036517051245927,robocape,7.22416738639,8.67812497292,20.3457392299,0.0,10.0,0.0,0.0,0.0,10.0,0.0,0.0,0.0,10.0,-0.0390153099697,0.0122505410144,-0.182826008834,1.0,0.0,0.0,0.0,1.0,0.0,0.0,0.0,1.0,0.182021484375,1.24301513672,10.0111816406,0.1,0.0,0.0,0.0,0.1,0.0,0.0,0.0,0.1
1446036517087109052,186,1446036517083590984,robocape,6.74845178606,8.73119082785,19.9345904689,0.0,10.0,0.0,0.0,0.0,10.0,0.0,0.0,0.0,10.0,-0.213052887206,0.00825579937925,-0.201734452574,1.0,0.0,0.0,0.0,1.0,0.0,0.0,0.0,1.0,0.257464599609,1.33881591797,9.8830480957,0.1,0.0,0.0,0.0,0.1,0.0,0.0,0.0,0.1
1446036517120635802,187,1446036517117532968,robocape,5.98111389161,8.73698295014,19.811944785,0.0,10.0,0.0,0.0,0.0,10.0,0.0,0.0,0.0,10.0,-0.388422044988,0.00399474163512,-0.0476705835124,1.0,0.0,0.0,0.0,1.0,0.0,0.0,0.0,1.0,-0.00119750976563,0.622705078125,10.0650695801,0.1,0.0,0.0,0.0,0.1,0.0,0.0,0.0,0.1
1446036517154080344,188,1446036517150986909,robocape,4.9379601144,8.71360119446,19.8432596126,0.0,10.0,0.0,0.0,0.0,10.0,0.0,0.0,0.0,10.0,-0.545681707357,-0.00199737081756,0.034621094171,1.0,0.0,0.0,0.0,1.0,0.0,0.0,0.0,1.0,-0.149688720703,-0.0203576660156,10.0411193848,0.1,0.0,0.0,0.0,0.1,0.0,0.0,0.0,0.1
1446036517188021136,189,1446036517184225082,robocape,3.70797272909,8.67671069399,20.0414943233,0.0,10.0,0.0,0.0,0.0,10.0,0.0,0.0,0.0,10.0,-0.657534473141,-0.00173105470855,0.124103306798,1.0,0.0,0.0,0.0,1.0,0.0,0.0,0.0,1.0,-0.211959228516,0.0694555664063,9.94172607422,0.1,0.0,0.0,0.0,0.1,0.0,0.0,0.0,0.1
1446036517219765844,190,1446036517216732978,robocape,2.8410897991,8.65098496952,19.9999554114,0.0,10.0,0.0,0.0,0.0,10.0,0.0,0.0,0.0,10.0,-0.449408433951,-0.00599211245268,-0.00213052887206,1.0,0.0,0.0,0.0,1.0,0.0,0.0,0.0,1.0,-0.136516113281,-2.41896972656,9.99441650391,0.1,0.0,0.0,0.0,0.1,0.0,0.0,0.0,0.1
1446036517252988261,191,1446036517249943017,robocape,2.2548067943,8.60227212088,20.0614394958,0.0,10.0,0.0,0.0,0.0,10.0,0.0,0.0,0.0,10.0,-0.311057215321,-0.0145142279409,0.0539290120741,1.0,0.0,0.0,0.0,1.0,0.0,0.0,0.0,1.0,0.506546630859,-2.42615478516,10.0447119141,0.1,0.0,0.0,0.0,0.1,0.0,0.0,0.0,0.1
1446036517286291094,192,1446036517282872915,robocape,2.1792654571,8.63432419516,19.9320705078,0.0,10.0,0.0,0.0,0.0,10.0,0.0,0.0,0.0,10.0,-0.0287621397729,0.0227700273202,-0.0486026898939,1.0,0.0,0.0,0.0,1.0,0.0,0.0,0.0,1.0,0.294587402344,-2.77942016602,9.99920654297,0.1,0.0,0.0,0.0,0.1,0.0,0.0,0.0,0.1
1446036517318454219,193,1446036517315371990,robocape,2.48043108697,8.68081287887,19.7991070518,0.0,10.0,0.0,0.0,0.0,10.0,0.0,0.0,0.0,10.0,0.16911072922,0.0302268783724,-0.050733218766,1.0,0.0,0.0,0.0,1.0,0.0,0.0,0.0,1.0,0.0395178222656,-1.43701171875,9.94292358398,0.1,0.0,0.0,0.0,0.1,0.0,0.0,0.0,0.1
1446036517352161136,194,1446036517349009037,robocape,2.7846885742,8.70953705729,19.8815335236,0.0,10.0,0.0,0.0,0.0,10.0,0.0,0.0,0.0,10.0,0.154197027116,0.0272974011733,0.0643153403254,1.0,0.0,0.0,0.0,1.0,0.0,0.0,0.0,1.0,0.223934326172,-1.86332519531,9.97525634766,0.1,0.0,0.0,0.0,0.1,0.0,0.0,0.0,0.1
