%time,field.header.seq,field.header.stamp,field.header.frame_id,field.magnetic_field.x,field.magnetic_field.y,field.magnetic_field.z,field.magnetic_field_covariance0,field.magnetic_field_covariance1,field.magnetic_field_covariance2,field.magnetic_field_covariance3,field.magnetic_field_covariance4,field.magnetic_field_covariance5,field.magnetic_field_covariance6,field.magnetic_field_covariance7,field.magnetic_field_covariance8
1446038820194455984,1,1446038819848248004,robocape_mag,7.95,14.55,-11.7,10.0,0.0,0.0,0.0,10.0,0.0,0.0,0.0,10.0
1446038820202837150,2,1446038819877482891,robocape_mag,7.95,14.55,-11.7,10.0,0.0,0.0,0.0,10.0,0.0,0.0,0.0,10.0
1446038820209188942,3,1446038819909210920,robocape_mag,7.95,14.55,-11.7,10.0,0.0,0.0,0.0,10.0,0.0,0.0,0.0,10.0
1446038820221568859,4,1446038819957351922,robocape_mag,7.95,14.55,-11.7,10.0,0.0,0.0,0.0,10.0,0.0,0.0,0.0,10.0
1446038820221609609,5,1446038819981993913,robocape_mag,5.85,16.05,-13.8,10.0,0.0,0.0,0.0,10.0,0.0,0.0,0.0,10.0
1446038820221646359,6,1446038820008788108,robocape_mag,5.85,16.05,-13.8,10.0,0.0,0.0,0.0,10.0,0.0,0.0,0.0,10.0
1446038820221679900,7,1446038820045274019,robocape_mag,5.85,16.05,-13.8,10.0,0.0,0.0,0.0,10.0,0.0,0.0,0.0,10.0
1446038820221713275,8,1446038820075706005,robocape_mag,5.85,16.05,-13.8,10.0,0.0,0.0,0.0,10.0,0.0,0.0,0.0,10.0
1446038820221746150,9,1446038820124070882,robocape_mag,7.35,15.75,-14.1,10.0,0.0,0.0,0.0,10.0,0.0,0.0,0.0,10.0
1446038820221816442,10,1446038820170490026,robocape_mag,7.35,15.75,-14.1,10.0,0.0,0.0,0.0,10.0,0.0,0.0,0.0,10.0
1446038820221907817,11,1446038820196346998,robocape_mag,7.35,15.75,-14.1,10.0,0.0,0.0,0.0,10.0,0.0,0.0,0.0,10.0
1446038820226554525,12,1446038820216223955,robocape_mag,7.35,15.75,-14.1,10.0,0.0,0.0,0.0,10.0,0.0,0.0,0.0,10.0
1446038820252846525,13,1446038820243175029,robocape_mag,7.35,15.75,-14.1,10.0,0.0,0.0,0.0,10.0,0.0,0.0,0.0,10.0
1446038820281737650,14,1446038820276031017,robocape_mag,4.95,14.55,-13.5,10.0,0.0,0.0,0.0,10.0,0.0,0.0,0.0,10.0
1446038820311628025,15,1446038820306720972,robocape_mag,4.95,14.55,-13.5,10.0,0.0,0.0,0.0,10.0,0.0,0.0,0.0,10.0
1446038820352664651,16,1446038820341866016,robocape_mag,4.95,14.55,-13.5,10.0,0.0,0.0,0.0,10.0,0.0,0.0,0.0,10.0
1446038820380636984,17,1446038820375453948,robocape_mag,4.95,14.55,-13.5,10.0,0.0,0.0,0.0,10.0,0.0,0.0,0.0,10.0
1446038820411986734,18,1446038820406806945,robocape_mag,4.95,14.55,-13.5,10.0,0.0,0.0,0.0,10.0,0.0,0.0,0.0,10.0
1446038820444944609,19,1446038820440221071,robocape_mag,5.55,16.95,-12.9,10.0,0.0,0.0,0.0,10.0,0.0,0.0,0.0,10.0
1446038820478491276,20,1446038820473700046,robocape_mag,5.55,16.95,-12.9,10.0,0.0,0.0,0.0,10.0,0.0,0.0,0.0,10.0
1446038820511685484,21,1446038820506673097,robocape_mag,5.55,16.95,-12.9,10.0,0.0,0.0,0.0,10.0,0.0,0.0,0.0,10.0
1446038820544857734,22,1446038820540083885,robocape_mag,5.55,16.95,-12.9,10.0,0.0,0.0,0.0,10.0,0.0,0.0,0.0,10.0
1446038820578357526,23,1446038820573424100,robocape_mag,5.55,16.95,-12.9,10.0,0.0,0.0,0.0,10.0,0.0,0.0,0.0,10.0
1446038820612486026,24,1446038820606704950,robocape_mag,5.25,16.65,-14.4,10.0,0.0,0.0,0.0,10.0,0.0,0.0,0.0,10.0
1446038820646710651,25,1446038820640014886,robocape_mag,5.25,16.65,-14.4,10.0,0.0,0.0,0.0,10.0,0.0,0.0,0.0,10.0
1446038820678873067,26,1446038820673631906,robocape_mag,5.25,16.65,-14.4,10.0,0.0,0.0,0.0,10.0,0.0,0.0,0.0,10.0
1446038820713494359,27,1446038820706646919,robocape_mag,5.25,16.65,-14.4,10.0,0.0,0.0,0.0,10.0,0.0,0.0,0.0,10.0
1446038820745038942,28,1446038820740072965,robocape_mag,5.25,16.65,-14.4,10.0,0.0,0.0,0.0,10.0,0.0,0.0,0.0,10.0
1446038820778923817,29,1446038820773701906,robocape_mag,5.85,17.25,-15.0,10.0,0.0,0.0,0.0,10.0,0.0,0.0,0.0,10.0
1446038820814168359,30,1446038820808765888,robocape_mag,5.85,17.25,-15.0,10.0,0.0,0.0,0.0,10.0,0.0,0.0,0.0,10.0
1446038820850491234,31,1446038820845350027,robocape_mag,5.85,17.25,-15.0,10.0,0.0,0.0,0.0,10.0,0.0,0.0,0.0,10.0
1446038820881766026,32,1446038820876585006,robocape_mag,5.85,17.25,-15.0,10.0,0.0,0.0,0.0,10.0,0.0,0.0,0.0,10.0
1446038820914260817,33,1446038820909106969,robocape_mag,6.75,17.55,-15.9,10.0,0.0,0.0,0.0,10.0,0.0,0.0,0.0,10.0
1446038820947254567,34,1446038820942224025,robocape_mag,6.75,17.55,-15.9,10.0,0.0,0.0,0.0,10.0,0.0,0.0,0.0,10.0
1446038820979620234,35,1446038820974795103,robocape_mag,6.75,17.55,-15.9,10.0,0.0,0.0,0.0,10.0,0.0,0.0,0.0,10.0
1446038821018199567,36,1446038821008033037,robocape_mag,6.75,17.55,-15.9,10.0,0.0,0.0,0.0,10.0,0.0,0.0,0.0,10.0
1446038821045693817,37,1446038821040702104,robocape_mag,6.75,17.55,-15.9,10.0,0.0,0.0,0.0,10.0,0.0,0.0,0.0,10.0
1446038821078947193,38,1446038821074136018,robocape_mag,7.65,16.65,-15.6,10.0,0.0,0.0,0.0,10.0,0.0,0.0,0.0,10.0
1446038821112300693,39,1446038821107103109,robocape_mag,7.65,16.65,-15.6,10.0,0.0,0.0,0.0,10.0,0.0,0.0,0.0,10.0
1446038821145262026,40,1446038821140497922,robocape_mag,7.65,16.65,-15.6,10.0,0.0,0.0,0.0,10.0,0.0,0.0,0.0,10.0
1446038821178936734,41,1446038821173820018,robocape_mag,7.65,16.65,-15.6,10.0,0.0,0.0,0.0,10.0,0.0,0.0,0.0,10.0
1446038821216011443,42,1446038821210944890,robocape_mag,7.65,16.65,-15.6,10.0,0.0,0.0,0.0,10.0,0.0,0.0,0.0,10.0
1446038821245114193,43,1446038821240317106,robocape_mag,7.95,18.15,-19.5,10.0,0.0,0.0,0.0,10.0,0.0,0.0,0.0,10.0
1446038821278231734,44,1446038821273391008,robocape_mag,7.95,18.15,-19.5,10.0,0.0,0.0,0.0,10.0,0.0,0.0,0.0,10.0
1446038821311899443,45,1446038821307028055,robocape_mag,7.95,18.15,-19.5,10.0,0.0,0.0,0.0,10.0,0.0,0.0,0.0,10.0
1446038821344851568,46,1446038821340102910,robocape_mag,7.95,18.15,-19.5,10.0,0.0,0.0,0.0,10.0,0.0,0.0,0.0,10.0
1446038821378612109,47,1446038821373675107,robocape_mag,7.95,18.15,-19.5,10.0,0.0,0.0,0.0,10.0,0.0,0.0,0.0,10.0
1446038821411753359,48,1446038821406709909,robocape_mag,6.15,16.35,-15.9,10.0,0.0,0.0,0.0,10.0,0.0,0.0,0.0,10.0
1446038821444842359,49,1446038821440025091,robocape_mag,6.15,16.35,-15.9,10.0,0.0,0.0,0.0,10.0,0.0,0.0,0.0,10.0
1446038821478589359,50,1446038821473683118,robocape_mag,6.15,16.35,-15.9,10.0,0.0,0.0,0.0,10.0,0.0,0.0,0.0,10.0
1446038821511804901,51,1446038821506845951,robocape_mag,6.15,16.35,-15.9,10.0,0.0,0.0,0.0,10.0,0.0,0.0,0.0,10.0
1446038821545050401,52,1446038821540271043,robocape_mag,6.15,16.35,-15.9,10.0,0.0,0.0,0.0,10.0,0.0,0.0,0.0,10.0
1446038821578917943,53,1446038821574064970,robocape_mag,11.25,14.85,-18.0,10.0,0.0,0.0,0.0,10.0,0.0,0.0,0.0,10.0
1446038821613451026,54,1446038821608258962,robocape_mag,11.25,14.85,-18.0,10.0,0.0,0.0,0.0,10.0,0.0,0.0,0.0,10.0
1446038821644849234,55,1446038821640098094,robocape_mag,11.25,14.85,-18.0,10.0,0.0,0.0,0.0,10.0,0.0,0.0,0.0,10.0
1446038821678563901,56,1446038821673729896,robocape_mag,11.25,14.85,-18.0,10.0,0.0,0.0,0.0,10.0,0.0,0.0,0.0,10.0
1446038821711375359,57,1446038821706598997,robocape_mag,11.25,16.65,-18.0,10.0,0.0,0.0,0.0,10.0,0.0,0.0,0.0,10.0
1446038821745005109,58,1446038821740181922,robocape_mag,5.85,16.65,-18.0,10.0,0.0,0.0,0.0,10.0,0.0,0.0,0.0,10.0
1446038821779109151,59,1446038821773464918,robocape_mag,5.85,16.65,-18.0,10.0,0.0,0.0,0.0,10.0,0.0,0.0,0.0,10.0
1446038821812135151,60,1446038821806680917,robocape_mag,5.85,16.65,-18.0,10.0,0.0,0.0,0.0,10.0,0.0,0.0,0.0,10.0
1446038821845288860,61,1446038821840210914,robocape_mag,5.85,16.65,-18.0,10.0,0.0,0.0,0.0,10.0,0.0,0.0,0.0,10.0
1446038821878875110,62,1446038821873581886,robocape_mag,8.55,15.75,-15.9,10.0,0.0,0.0,0.0,10.0,0.0,0.0,0.0,10.0
1446038821912019776,63,1446038821906826972,robocape_mag,8.55,15.75,-15.9,10.0,0.0,0.0,0.0,10.0,0.0,0.0,0.0,10.0
1446038821945331151,64,1446038821940177917,robocape_mag,8.55,15.75,-15.9,10.0,0.0,0.0,0.0,10.0,0.0,0.0,0.0,10.0
1446038821980254443,65,1446038821973361968,robocape_mag,8.55,15.75,-15.9,10.0,0.0,0.0,0.0,10.0,0.0,0.0,0.0,10.0
1446038822011932068,66,1446038822006674051,robocape_mag,8.55,15.75,-15.9,10.0,0.0,0.0,0.0,10.0,0.0,0.0,0.0,10.0
1446038822046766651,67,1446038822040031909,robocape_mag,10.05,15.45,-20.4,10.0,0.0,0.0,0.0,10.0,0.0,0.0,0.0,10.0
1446038822081036776,68,1446038822073295116,robocape_mag,10.05,15.45,-20.4,10.0,0.0,0.0,0.0,10.0,0.0,0.0,0.0,10.0
1446038822111885526,69,1446038822106864929,robocape_mag,10.05,15.45,-20.4,10.0,0.0,0.0,0.0,10.0,0.0,0.0,0.0,10.0
1446038822144876485,70,1446038822140073060,robocape_mag,10.05,15.45,-20.4,10.0,0.0,0.0,0.0,10.0,0.0,0.0,0.0,10.0
1446038822178411318,71,1446038822173542022,robocape_mag,10.05,15.45,-20.4,10.0,0.0,0.0,0.0,10.0,0.0,0.0,0.0,10.0
1446038822212683610,72,1446038822207330942,robocape_mag,9.45,16.05,-19.8,10.0,0.0,0.0,0.0,10.0,0.0,0.0,0.0,10.0
1446038822245159651,73,1446038822240339994,robocape_mag,9.45,16.05,-19.8,10.0,0.0,0.0,0.0,10.0,0.0,0.0,0.0,10.0
1446038822278329651,74,1446038822273488998,robocape_mag,9.45,16.05,-19.8,10.0,0.0,0.0,0.0,10.0,0.0,0.0,0.0,10.0
1446038822312862151,75,1446038822307985067,robocape_mag,9.45,16.05,-19.8,10.0,0.0,0.0,0.0,10.0,0.0,0.0,0.0,10.0
1446038822346891985,76,1446038822341576099,robocape_mag,9.45,16.05,-19.8,10.0,0.0,0.0,0.0,10.0,0.0,0.0,0.0,10.0
1446038822380431860,77,1446038822375237941,robocape_mag,10.35,16.35,-14.7,10.0,0.0,0.0,0.0,10.0,0.0,0.0,0.0,10.0
1446038822413538276,78,1446038822408535003,robocape_mag,10.35,16.35,-14.7,10.0,0.0,0.0,0.0,10.0,0.0,0.0,0.0,10.0
1446038822446886152,79,1446038822441975116,robocape_mag,10.35,16.35,-14.7,10.0,0.0,0.0,0.0,10.0,0.0,0.0,0.0,10.0
1446038822480102943,80,1446038822475126028,robocape_mag,10.35,16.35,-14.7,10.0,0.0,0.0,0.0,10.0,0.0,0.0,0.0,10.0
1446038822517196402,81,1446038822509788990,robocape_mag,7.65,17.25,-22.8,10.0,0.0,0.0,0.0,10.0,0.0,0.0,0.0,10.0
1446038822548196527,82,1446038822541523933,robocape_mag,7.65,17.25,-22.8,10.0,0.0,0.0,0.0,10.0,0.0,0.0,0.0,10.0
1446038822581588360,83,1446038822575082063,robocape_mag,7.65,17.25,-22.8,10.0,0.0,0.0,0.0,10.0,0.0,0.0,0.0,10.0
1446038822615808985,84,1446038822609484910,robocape_mag,7.65,17.25,-22.8,10.0,0.0,0.0,0.0,10.0,0.0,0.0,0.0,10.0
1446038822647500152,85,1446038822641859054,robocape_mag,7.65,17.25,-22.8,10.0,0.0,0.0,0.0,10.0,0.0,0.0,0.0,10.0
1446038822687710443,86,1446038822676536083,robocape_mag,8.25,16.65,-23.4,10.0,0.0,0.0,0.0,10.0,0.0,0.0,0.0,10.0
1446038822719224860,87,1446038822710086107,robocape_mag,8.25,16.65,-23.4,10.0,0.0,0.0,0.0,10.0,0.0,0.0,0.0,10.0
1446038822752389235,88,1446038822743119955,robocape_mag,8.25,16.65,-23.4,10.0,0.0,0.0,0.0,10.0,0.0,0.0,0.0,10.0
1446038822782304902,89,1446038822777302980,robocape_mag,8.25,16.65,-23.4,10.0,0.0,0.0,0.0,10.0,0.0,0.0,0.0,10.0
1446038822815332068,90,1446038822810313940,robocape_mag,8.25,16.65,-23.4,10.0,0.0,0.0,0.0,10.0,0.0,0.0,0.0,10.0
1446038822848362568,91,1446038822843157052,robocape_mag,9.15,16.95,-21.3,10.0,0.0,0.0,0.0,10.0,0.0,0.0,0.0,10.0
1446038822883155360,92,1446038822878030061,robocape_mag,9.15,16.95,-21.3,10.0,0.0,0.0,0.0,10.0,0.0,0.0,0.0,10.0
1446038822915615193,93,1446038822910392999,robocape_mag,9.15,16.95,-21.3,10.0,0.0,0.0,0.0,10.0,0.0,0.0,0.0,10.0
1446038822950249485,94,1446038822945231914,robocape_mag,9.15,16.95,-21.3,10.0,0.0,0.0,0.0,10.0,0.0,0.0,0.0,10.0
1446038822981922985,95,1446038822976789951,robocape_mag,9.15,16.95,-21.3,10.0,0.0,0.0,0.0,10.0,0.0,0.0,0.0,10.0
1446038823014716027,96,1446038823009776115,robocape_mag,11.25,15.45,-18.0,10.0,0.0,0.0,0.0,10.0,0.0,0.0,0.0,10.0
1446038823047816902,97,1446038823042642116,robocape_mag,11.25,15.45,-18.0,10.0,0.0,0.0,0.0,10.0,0.0,0.0,0.0,10.0
1446038823086018943,98,1446038823076247930,robocape_mag,11.25,15.45,-18.0,10.0,0.0,0.0,0.0,10.0,0.0,0.0,0.0,10.0
1446038823114284777,99,1446038823109515905,robocape_mag,11.25,15.45,-18.0,10.0,0.0,0.0,0.0,10.0,0.0,0.0,0.0,10.0
1446038823148586194,100,1446038823143773078,robocape_mag,11.25,15.45,-18.0,10.0,0.0,0.0,0.0,10.0,0.0,0.0,0.0,10.0
1446038823185961777,101,1446038823176388978,robocape_mag,12.75,15.15,-19.5,10.0,0.0,0.0,0.0,10.0,0.0,0.0,0.0,10.0
1446038823213752610,102,1446038823208949089,robocape_mag,12.75,15.15,-19.5,10.0,0.0,0.0,0.0,10.0,0.0,0.0,0.0,10.0
1446038823252591110,103,1446038823243166923,robocape_mag,12.75,15.15,-19.5,10.0,0.0,0.0,0.0,10.0,0.0,0.0,0.0,10.0
1446038823280897985,104,1446038823275315999,robocape_mag,12.75,15.15,-19.5,10.0,0.0,0.0,0.0,10.0,0.0,0.0,0.0,10.0
1446038823313553152,105,1446038823308706045,robocape_mag,8.55,18.15,-18.3,10.0,0.0,0.0,0.0,10.0,0.0,0.0,0.0,10.0
1446038823346157027,106,1446038823341075897,robocape_mag,8.55,18.15,-18.3,10.0,0.0,0.0,0.0,10.0,0.0,0.0,0.0,10.0
1446038823379513485,107,1446038823374587059,robocape_mag,8.55,18.15,-18.3,10.0,0.0,0.0,0.0,10.0,0.0,0.0,0.0,10.0
1446038823416633944,108,1446038823408307075,robocape_mag,8.55,18.15,-18.3,10.0,0.0,0.0,0.0,10.0,0.0,0.0,0.0,10.0
1446038823446008235,109,1446038823441162109,robocape_mag,8.55,18.15,-18.3,10.0,0.0,0.0,0.0,10.0,0.0,0.0,0.0,10.0
1446038823478833402,110,1446038823473824024,robocape_mag,5.85,17.25,-17.4,10.0,0.0,0.0,0.0,10.0,0.0,0.0,0.0,10.0
1446038823511719319,111,1446038823506905078,robocape_mag,5.85,17.25,-17.4,10.0,0.0,0.0,0.0,10.0,0.0,0.0,0.0,10.0
1446038823545014444,112,1446038823540194988,robocape_mag,5.85,17.25,-17.4,10.0,0.0,0.0,0.0,10.0,0.0,0.0,0.0,10.0
1446038823578451027,113,1446038823573589086,robocape_mag,5.85,17.25,-17.4,10.0,0.0,0.0,0.0,10.0,0.0,0.0,0.0,10.0
1446038823611897569,114,1446038823607099056,robocape_mag,5.85,17.25,-17.4,10.0,0.0,0.0,0.0,10.0,0.0,0.0,0.0,10.0
1446038823645366444,115,1446038823640557050,robocape_mag,6.75,17.55,-17.7,10.0,0.0,0.0,0.0,10.0,0.0,0.0,0.0,10.0
1446038823678549444,116,1446038823673602104,robocape_mag,6.75,17.55,-17.7,10.0,0.0,0.0,0.0,10.0,0.0,0.0,0.0,10.0
1446038823711744319,117,1446038823706954002,robocape_mag,6.75,17.55,-17.7,10.0,0.0,0.0,0.0,10.0,0.0,0.0,0.0,10.0
1446038823745159819,118,1446038823740289926,robocape_mag,6.75,17.55,-17.7,10.0,0.0,0.0,0.0,10.0,0.0,0.0,0.0,10.0
1446038823778578527,119,1446038823773653030,robocape_mag,6.75,17.55,-17.7,10.0,0.0,0.0,0.0,10.0,0.0,0.0,0.0,10.0
1446038823811524235,120,1446038823806761980,robocape_mag,6.75,17.55,-18.9,10.0,0.0,0.0,0.0,10.0,0.0,0.0,0.0,10.0
1446038823845802777,121,1446038823840178966,robocape_mag,6.75,17.55,-18.9,10.0,0.0,0.0,0.0,10.0,0.0,0.0,0.0,10.0
1446038823878524027,122,1446038823873507976,robocape_mag,6.75,17.55,-18.9,10.0,0.0,0.0,0.0,10.0,0.0,0.0,0.0,10.0
1446038823912039236,123,1446038823907144069,robocape_mag,6.75,17.55,-18.9,10.0,0.0,0.0,0.0,10.0,0.0,0.0,0.0,10.0
1446038823945453402,124,1446038823940363883,robocape_mag,6.75,17.55,-18.9,10.0,0.0,0.0,0.0,10.0,0.0,0.0,0.0,10.0
1446038823979722069,125,1446038823974864959,robocape_mag,11.85,14.85,-18.6,10.0,0.0,0.0,0.0,10.0,0.0,0.0,0.0,10.0
1446038824012090986,126,1446038824007210969,robocape_mag,11.85,14.85,-18.6,10.0,0.0,0.0,0.0,10.0,0.0,0.0,0.0,10.0
1446038824045447527,127,1446038824040380954,robocape_mag,11.85,14.85,-18.6,10.0,0.0,0.0,0.0,10.0,0.0,0.0,0.0,10.0
1446038824079448361,128,1446038824073987007,robocape_mag,11.85,14.85,-18.6,10.0,0.0,0.0,0.0,10.0,0.0,0.0,0.0,10.0
1446038824112485152,129,1446038824107043027,robocape_mag,8.25,19.05,-17.4,10.0,0.0,0.0,0.0,10.0,0.0,0.0,0.0,10.0
1446038824146673694,130,1446038824140248060,robocape_mag,8.25,19.05,-17.4,10.0,0.0,0.0,0.0,10.0,0.0,0.0,0.0,10.0
1446038824181232277,131,1446038824175652027,robocape_mag,8.25,19.05,-17.4,10.0,0.0,0.0,0.0,10.0,0.0,0.0,0.0,10.0
1446038824213658152,132,1446038824208420991,robocape_mag,8.25,19.05,-17.4,10.0,0.0,0.0,0.0,10.0,0.0,0.0,0.0,10.0
1446038824246611694,133,1446038824240092992,robocape_mag,8.25,19.05,-17.4,10.0,0.0,0.0,0.0,10.0,0.0,0.0,0.0,10.0
1446038824278878069,134,1446038824273638010,robocape_mag,9.15,15.15,-12.3,10.0,0.0,0.0,0.0,10.0,0.0,0.0,0.0,10.0
1446038824312169986,135,1446038824306993007,robocape_mag,9.15,15.15,-12.3,10.0,0.0,0.0,0.0,10.0,0.0,0.0,0.0,10.0
1446038824345542694,136,1446038824340466022,robocape_mag,9.15,15.15,-12.3,10.0,0.0,0.0,0.0,10.0,0.0,0.0,0.0,10.0
1446038824378574736,137,1446038824373522996,robocape_mag,9.15,15.15,-12.3,10.0,0.0,0.0,0.0,10.0,0.0,0.0,0.0,10.0
1446038824412202361,138,1446038824407211065,robocape_mag,9.15,15.15,-12.3,10.0,0.0,0.0,0.0,10.0,0.0,0.0,0.0,10.0
1446038824445300861,139,1446038824440169095,robocape_mag,7.95,16.95,-17.1,10.0,0.0,0.0,0.0,10.0,0.0,0.0,0.0,10.0
1446038824478523069,140,1446038824473735094,robocape_mag,7.95,16.95,-17.1,10.0,0.0,0.0,0.0,10.0,0.0,0.0,0.0,10.0
1446038824511878111,141,1446038824507026910,robocape_mag,7.95,16.95,-17.1,10.0,0.0,0.0,0.0,10.0,0.0,0.0,0.0,10.0
1446038824545156444,142,1446038824540298938,robocape_mag,7.95,16.95,-17.1,10.0,0.0,0.0,0.0,10.0,0.0,0.0,0.0,10.0
1446038824579673861,143,1446038824574682950,robocape_mag,7.95,16.95,-17.1,10.0,0.0,0.0,0.0,10.0,0.0,0.0,0.0,10.0
1446038824612860194,144,1446038824608037948,robocape_mag,8.25,16.65,-13.8,10.0,0.0,0.0,0.0,10.0,0.0,0.0,0.0,10.0
1446038824646507444,145,1446038824641554117,robocape_mag,8.25,16.65,-13.8,10.0,0.0,0.0,0.0,10.0,0.0,0.0,0.0,10.0
1446038824680251694,146,1446038824675247907,robocape_mag,8.25,16.65,-13.8,10.0,0.0,0.0,0.0,10.0,0.0,0.0,0.0,10.0
1446038824711892194,147,1446038824707146883,robocape_mag,8.25,16.65,-13.8,10.0,0.0,0.0,0.0,10.0,0.0,0.0,0.0,10.0
1446038824746844944,148,1446038824741903066,robocape_mag,8.25,16.65,-13.8,10.0,0.0,0.0,0.0,10.0,0.0,0.0,0.0,10.0
1446038824780378111,149,1446038824775352954,robocape_mag,12.15,13.35,-17.1,10.0,0.0,0.0,0.0,10.0,0.0,0.0,0.0,10.0
1446038824816652278,150,1446038824811321973,robocape_mag,12.15,13.35,-17.1,10.0,0.0,0.0,0.0,10.0,0.0,0.0,0.0,10.0
1446038824845742736,151,1446038824840831041,robocape_mag,12.15,13.35,-17.1,10.0,0.0,0.0,0.0,10.0,0.0,0.0,0.0,10.0
1446038824880043361,152,1446038824875037908,robocape_mag,12.15,13.35,-17.1,10.0,0.0,0.0,0.0,10.0,0.0,0.0,0.0,10.0
1446038824913800236,153,1446038824908948898,robocape_mag,4.05,19.65,-14.4,10.0,0.0,0.0,0.0,10.0,0.0,0.0,0.0,10.0
1446038824948733403,154,1446038824943593978,robocape_mag,4.05,19.65,-14.4,10.0,0.0,0.0,0.0,10.0,0.0,0.0,0.0,10.0
1446038824986200486,155,1446038824976988077,robocape_mag,4.05,19.65,-14.4,10.0,0.0,0.0,0.0,10.0,0.0,0.0,0.0,10.0
1446038825014553319,156,1446038825009759902,robocape_mag,4.05,19.65,-14.4,10.0,0.0,0.0,0.0,10.0,0.0,0.0,0.0,10.0
1446038825050521278,157,1446038825045180082,robocape_mag,4.05,19.65,-14.4,10.0,0.0,0.0,0.0,10.0,0.0,0.0,0.0,10.0
1446038825083006403,158,1446038825077940940,robocape_mag,5.25,16.65,-16.8,10.0,0.0,0.0,0.0,10.0,0.0,0.0,0.0,10.0
1446038825119790194,159,1446038825110775947,robocape_mag,5.25,16.65,-16.8,10.0,0.0,0.0,0.0,10.0,0.0,0.0,0.0,10.0
1446038825150814861,160,1446038825144222974,robocape_mag,5.25,16.65,-16.8,10.0,0.0,0.0,0.0,10.0,0.0,0.0,0.0,10.0
1446038825185467861,161,1446038825180243015,robocape_mag,5.25,16.65,-16.8,10.0,0.0,0.0,0.0,10.0,0.0,0.0,0.0,10.0
1446038825217563069,162,1446038825210968017,robocape_mag,5.25,16.65,-16.8,10.0,0.0,0.0,0.0,10.0,0.0,0.0,0.0,10.0
1446038825248762111,163,1446038825243360996,robocape_mag,9.15,14.55,-20.7,10.0,0.0,0.0,0.0,10.0,0.0,0.0,0.0,10.0
1446038825282240361,164,1446038825277101039,robocape_mag,9.15,14.55,-20.7,10.0,0.0,0.0,0.0,10.0,0.0,0.0,0.0,10.0
1446038825315622070,165,1446038825310722112,robocape_mag,9.15,14.55,-20.7,10.0,0.0,0.0,0.0,10.0,0.0,0.0,0.0,10.0
1446038825348473278,166,1446038825343570947,robocape_mag,9.15,14.55,-20.7,10.0,0.0,0.0,0.0,10.0,0.0,0.0,0.0,10.0
1446038825385228153,167,1446038825376149892,robocape_mag,9.15,14.55,-20.7,10.0,0.0,0.0,0.0,10.0,0.0,0.0,0.0,10.0
1446038825415613820,168,1446038825410763025,robocape_mag,8.85,16.05,-21.0,10.0,0.0,0.0,0.0,10.0,0.0,0.0,0.0,10.0
1446038825447883986,169,1446038825443092107,robocape_mag,8.85,16.05,-21.0,10.0,0.0,0.0,0.0,10.0,0.0,0.0,0.0,10.0
1446038825480649611,170,1446038825475645065,robocape_mag,8.85,16.05,-21.0,10.0,0.0,0.0,0.0,10.0,0.0,0.0,0.0,10.0
1446038825514348861,171,1446038825509455919,robocape_mag,8.85,16.05,-21.0,10.0,0.0,0.0,0.0,10.0,0.0,0.0,0.0,10.0
1446038825547984986,172,1446038825543205022,robocape_mag,8.85,16.05,-21.0,10.0,0.0,0.0,0.0,10.0,0.0,0.0,0.0,10.0
1446038825580499111,173,1446038825575555086,robocape_mag,9.15,15.75,-19.5,10.0,0.0,0.0,0.0,10.0,0.0,0.0,0.0,10.0
1446038825613006695,174,1446038825608151912,robocape_mag,9.15,15.75,-19.5,10.0,0.0,0.0,0.0,10.0,0.0,0.0,0.0,10.0
1446038825646137195,175,1446038825641263961,robocape_mag,9.15,15.75,-19.5,10.0,0.0,0.0,0.0,10.0,0.0,0.0,0.0,10.0
1446038825679606903,176,1446038825674653053,robocape_mag,9.15,15.75,-19.5,10.0,0.0,0.0,0.0,10.0,0.0,0.0,0.0,10.0
1446038825713089403,177,1446038825708241939,robocape_mag,5.25,16.65,-20.4,10.0,0.0,0.0,0.0,10.0,0.0,0.0,0.0,10.0
1446038825745479611,178,1446038825740617990,robocape_mag,5.25,16.65,-20.4,10.0,0.0,0.0,0.0,10.0,0.0,0.0,0.0,10.0
1446038825778547486,179,1446038825773638963,robocape_mag,5.25,16.65,-20.4,10.0,0.0,0.0,0.0,10.0,0.0,0.0,0.0,10.0
1446038825816968986,180,1446038825807008981,robocape_mag,5.25,16.65,-20.4,10.0,0.0,0.0,0.0,10.0,0.0,0.0,0.0,10.0
1446038825845410903,181,1446038825840437889,robocape_mag,5.25,16.65,-20.4,10.0,0.0,0.0,0.0,10.0,0.0,0.0,0.0,10.0
1446038825878523695,182,1446038825873492002,robocape_mag,6.15,18.15,-21.9,10.0,0.0,0.0,0.0,10.0,0.0,0.0,0.0,10.0
1446038825912784653,183,1446038825907491922,robocape_mag,6.15,18.15,-21.9,10.0,0.0,0.0,0.0,10.0,0.0,0.0,0.0,10.0
1446038825945331153,184,1446038825940340995,robocape_mag,6.15,18.15,-21.9,10.0,0.0,0.0,0.0,10.0,0.0,0.0,0.0,10.0
1446038825978569070,185,1446038825973788976,robocape_mag,6.15,18.15,-21.9,10.0,0.0,0.0,0.0,10.0,0.0,0.0,0.0,10.0
1446038826012097945,186,1446038826006912946,robocape_mag,6.15,18.15,-21.9,10.0,0.0,0.0,0.0,10.0,0.0,0.0,0.0,10.0
1446038826045346028,187,1446038826040363073,robocape_mag,6.75,16.95,-23.7,10.0,0.0,0.0,0.0,10.0,0.0,0.0,0.0,10.0
1446038826078761945,188,1446038826073998928,robocape_mag,6.75,16.95,-23.7,10.0,0.0,0.0,0.0,10.0,0.0,0.0,0.0,10.0
1446038826115212362,189,1446038826107844114,robocape_mag,6.75,16.95,-23.7,10.0,0.0,0.0,0.0,10.0,0.0,0.0,0.0,10.0
1446038826145256237,190,1446038826140261888,robocape_mag,6.75,16.95,-23.7,10.0,0.0,0.0,0.0,10.0,0.0,0.0,0.0,10.0
1446038826178812487,191,1446038826173928976,robocape_mag,6.75,16.95,-23.7,10.0,0.0,0.0,0.0,10.0,0.0,0.0,0.0,10.0
1446038826214993945,192,1446038826207914113,robocape_mag,7.35,16.35,-24.9,10.0,0.0,0.0,0.0,10.0,0.0,0.0,0.0,10.0
1446038826248136528,193,1446038826240080118,robocape_mag,7.35,16.35,-24.9,10.0,0.0,0.0,0.0,10.0,0.0,0.0,0.0,10.0
1446038826278426278,194,1446038826273524045,robocape_mag,7.35,16.35,-24.9,10.0,0.0,0.0,0.0,10.0,0.0,0.0,0.0,10.0
1446038826311780028,195,1446038826307039022,robocape_mag,7.35,16.35,-24.9,10.0,0.0,0.0,0.0,10.0,0.0,0.0,0.0,10.0
1446038826345744903,196,1446038826339968919,robocape_mag,7.35,16.35,-24.9,10.0,0.0,0.0,0.0,10.0,0.0,0.0,0.0,10.0
1446038826378352487,197,1446038826373397111,robocape_mag,9.15,13.95,-23.7,10.0,0.0,0.0,0.0,10.0,0.0,0.0,0.0,10.0
1446038826414372862,198,1446038826407099008,robocape_mag,9.15,13.95,-23.7,10.0,0.0,0.0,0.0,10.0,0.0,0.0,0.0,10.0
1446038826446311528,199,1446038826441073894,robocape_mag,9.15,13.95,-23.7,10.0,0.0,0.0,0.0,10.0,0.0,0.0,0.0,10.0
1446038826478860195,200,1446038826473557949,robocape_mag,9.15,13.95,-23.7,10.0,0.0,0.0,0.0,10.0,0.0,0.0,0.0,10.0
1446038826511737403,201,1446038826506690025,robocape_mag,9.15,15.75,-26.7,10.0,0.0,0.0,0.0,10.0,0.0,0.0,0.0,10.0
1446038826545200403,202,1446038826539988040,robocape_mag,8.55,15.75,-26.7,10.0,0.0,0.0,0.0,10.0,0.0,0.0,0.0,10.0
1446038826578582653,203,1446038826573323011,robocape_mag,8.55,15.75,-26.7,10.0,0.0,0.0,0.0,10.0,0.0,0.0,0.0,10.0
1446038826611838862,204,1446038826606694936,robocape_mag,8.55,15.75,-26.7,10.0,0.0,0.0,0.0,10.0,0.0,0.0,0.0,10.0
1446038826645167862,205,1446038826640017032,robocape_mag,8.55,15.75,-26.7,10.0,0.0,0.0,0.0,10.0,0.0,0.0,0.0,10.0
1446038826678619820,206,1446038826673404932,robocape_mag,7.35,14.55,-26.1,10.0,0.0,0.0,0.0,10.0,0.0,0.0,0.0,10.0
1446038826711539945,207,1446038826706614017,robocape_mag,7.35,14.55,-26.1,10.0,0.0,0.0,0.0,10.0,0.0,0.0,0.0,10.0
1446038826745690070,208,1446038826740353107,robocape_mag,7.35,14.55,-26.1,10.0,0.0,0.0,0.0,10.0,0.0,0.0,0.0,10.0
1446038826778408570,209,1446038826773466110,robocape_mag,7.35,14.55,-26.1,10.0,0.0,0.0,0.0,10.0,0.0,0.0,0.0,10.0
1446038826811606654,210,1446038826806799888,robocape_mag,7.35,14.55,-26.1,10.0,0.0,0.0,0.0,10.0,0.0,0.0,0.0,10.0
1446038826845171862,211,1446038826840298891,robocape_mag,10.95,12.15,-29.1,10.0,0.0,0.0,0.0,10.0,0.0,0.0,0.0,10.0
1446038826879154029,212,1446038826873780965,robocape_mag,10.95,12.15,-29.1,10.0,0.0,0.0,0.0,10.0,0.0,0.0,0.0,10.0
1446038826912256487,213,1446038826907264947,robocape_mag,10.95,12.15,-29.1,10.0,0.0,0.0,0.0,10.0,0.0,0.0,0.0,10.0
1446038826948157362,214,1446038826941808938,robocape_mag,10.95,12.15,-29.1,10.0,0.0,0.0,0.0,10.0,0.0,0.0,0.0,10.0
1446038826979482070,215,1446038826974726915,robocape_mag,10.95,12.15,-29.1,10.0,0.0,0.0,0.0,10.0,0.0,0.0,0.0,10.0
1446038827012839737,216,1446038827008043050,robocape_mag,10.05,9.45,-24.0,10.0,0.0,0.0,0.0,10.0,0.0,0.0,0.0,10.0
1446038827046510070,217,1446038827041523933,robocape_mag,10.05,9.45,-24.0,10.0,0.0,0.0,0.0,10.0,0.0,0.0,0.0,10.0
1446038827080293737,218,1446038827075333118,robocape_mag,10.05,9.45,-24.0,10.0,0.0,0.0,0.0,10.0,0.0,0.0,0.0,10.0
1446038827113901320,219,1446038827108800888,robocape_mag,10.05,9.45,-24.0,10.0,0.0,0.0,0.0,10.0,0.0,0.0,0.0,10.0
1446038827146928654,220,1446038827141953945,robocape_mag,10.05,9.45,-24.0,10.0,0.0,0.0,0.0,10.0,0.0,0.0,0.0,10.0
1446038827185417779,221,1446038827178258895,robocape_mag,10.35,10.95,-24.3,10.0,0.0,0.0,0.0,10.0,0.0,0.0,0.0,10.0
1446038827213789654,222,1446038827208982944,robocape_mag,10.35,10.95,-24.3,10.0,0.0,0.0,0.0,10.0,0.0,0.0,0.0,10.0
1446038827249094362,223,1446038827243405103,robocape_mag,10.35,10.95,-24.3,10.0,0.0,0.0,0.0,10.0,0.0,0.0,0.0,10.0
1446038827287601112,224,1446038827277439117,robocape_mag,10.35,10.95,-24.3,10.0,0.0,0.0,0.0,10.0,0.0,0.0,0.0,10.0
1446038827321121612,225,1446038827310872077,robocape_mag,7.65,10.65,-27.6,10.0,0.0,0.0,0.0,10.0,0.0,0.0,0.0,10.0
1446038827349896946,226,1446038827342600107,robocape_mag,7.65,10.65,-27.6,10.0,0.0,0.0,0.0,10.0,0.0,0.0,0.0,10.0
1446038827387484696,227,1446038827377418041,robocape_mag,7.65,10.65,-27.6,10.0,0.0,0.0,0.0,10.0,0.0,0.0,0.0,10.0
1446038827418942029,228,1446038827410514116,robocape_mag,7.65,10.65,-27.6,10.0,0.0,0.0,0.0,10.0,0.0,0.0,0.0,10.0
1446038827449968737,229,1446038827444474935,robocape_mag,7.65,10.65,-27.6,10.0,0.0,0.0,0.0,10.0,0.0,0.0,0.0,10.0
1446038827485214737,230,1446038827476332902,robocape_mag,12.45,0.45,-27.0,10.0,0.0,0.0,0.0,10.0,0.0,0.0,0.0,10.0
1446038827516227779,231,1446038827511101961,robocape_mag,12.45,0.45,-27.0,10.0,0.0,0.0,0.0,10.0,0.0,0.0,0.0,10.0
1446038827552737029,232,1446038827542917013,robocape_mag,12.45,0.45,-27.0,10.0,0.0,0.0,0.0,10.0,0.0,0.0,0.0,10.0
1446038827583222029,233,1446038827578149080,robocape_mag,12.45,0.45,-27.0,10.0,0.0,0.0,0.0,10.0,0.0,0.0,0.0,10.0
1446038827616157279,234,1446038827611304044,robocape_mag,12.45,0.45,-27.0,10.0,0.0,0.0,0.0,10.0,0.0,0.0,0.0,10.0
1446038827652362196,235,1446038827643393039,robocape_mag,9.45,2.85,-28.8,10.0,0.0,0.0,0.0,10.0,0.0,0.0,0.0,10.0
1446038827685897446,236,1446038827676719903,robocape_mag,9.45,2.85,-28.8,10.0,0.0,0.0,0.0,10.0,0.0,0.0,0.0,10.0
1446038827714225321,237,1446038827709073066,robocape_mag,9.45,2.85,-28.8,10.0,0.0,0.0,0.0,10.0,0.0,0.0,0.0,10.0
1446038827748431946,238,1446038827743392944,robocape_mag,9.45,2.85,-28.8,10.0,0.0,0.0,0.0,10.0,0.0,0.0,0.0,10.0
1446038827781583779,239,1446038827776308059,robocape_mag,9.45,2.85,-28.8,10.0,0.0,0.0,0.0,10.0,0.0,0.0,0.0,10.0
1446038827815411279,240,1446038827810596942,robocape_mag,9.75,2.55,-29.7,10.0,0.0,0.0,0.0,10.0,0.0,0.0,0.0,10.0
1446038827847937821,241,1446038827843106985,robocape_mag,9.75,2.55,-29.7,10.0,0.0,0.0,0.0,10.0,0.0,0.0,0.0,10.0
1446038827881211529,242,1446038827876061916,robocape_mag,9.75,2.55,-29.7,10.0,0.0,0.0,0.0,10.0,0.0,0.0,0.0,10.0
1446038827914941404,243,1446038827909953117,robocape_mag,9.75,2.55,-29.7,10.0,0.0,0.0,0.0,10.0,0.0,0.0,0.0,10.0
1446038827947254154,244,1446038827942224979,robocape_mag,9.75,2.55,-29.7,10.0,0.0,0.0,0.0,10.0,0.0,0.0,0.0,10.0
1446038827981876196,245,1446038827977045059,robocape_mag,13.95,0.75,-27.3,10.0,0.0,0.0,0.0,10.0,0.0,0.0,0.0,10.0
1446038828012685862,246,1446038828007781028,robocape_mag,13.95,0.75,-27.3,10.0,0.0,0.0,0.0,10.0,0.0,0.0,0.0,10.0
1446038828046026279,247,1446038828041167974,robocape_mag,13.95,0.75,-27.3,10.0,0.0,0.0,0.0,10.0,0.0,0.0,0.0,10.0
1446038828079812363,248,1446038828074841976,robocape_mag,13.95,0.75,-27.3,10.0,0.0,0.0,0.0,10.0,0.0,0.0,0.0,10.0
1446038828112218613,249,1446038828107292890,robocape_mag,10.65,2.25,-29.4,10.0,0.0,0.0,0.0,10.0,0.0,0.0,0.0,10.0
1446038828145616738,250,1446038828140732049,robocape_mag,10.65,2.25,-29.4,10.0,0.0,0.0,0.0,10.0,0.0,0.0,0.0,10.0
1446038828178862446,251,1446038828174026012,robocape_mag,10.65,2.25,-29.4,10.0,0.0,0.0,0.0,10.0,0.0,0.0,0.0,10.0
1446038828215317363,252,1446038828210345983,robocape_mag,10.65,2.25,-29.4,10.0,0.0,0.0,0.0,10.0,0.0,0.0,0.0,10.0
1446038828246533446,253,1446038828240653991,robocape_mag,10.65,2.25,-29.4,10.0,0.0,0.0,0.0,10.0,0.0,0.0,0.0,10.0
1446038828278713321,254,1446038828273812055,robocape_mag,10.05,2.25,-29.4,10.0,0.0,0.0,0.0,10.0,0.0,0.0,0.0,10.0
1446038828312228738,255,1446038828307038068,robocape_mag,10.05,2.25,-29.4,10.0,0.0,0.0,0.0,10.0,0.0,0.0,0.0,10.0
1446038828345462529,256,1446038828340447902,robocape_mag,10.05,2.25,-29.4,10.0,0.0,0.0,0.0,10.0,0.0,0.0,0.0,10.0
1446038828378481154,257,1446038828373631954,robocape_mag,10.05,2.25,-29.4,10.0,0.0,0.0,0.0,10.0,0.0,0.0,0.0,10.0
1446038828413962279,258,1446038828406821966,robocape_mag,10.05,2.25,-29.4,10.0,0.0,0.0,0.0,10.0,0.0,0.0,0.0,10.0
1446038828449449988,259,1446038828440054893,robocape_mag,14.55,1.95,-29.7,10.0,0.0,0.0,0.0,10.0,0.0,0.0,0.0,10.0
1446038828478809029,260,1446038828474037885,robocape_mag,14.55,1.95,-29.7,10.0,0.0,0.0,0.0,10.0,0.0,0.0,0.0,10.0
1446038828512137613,261,1446038828506958961,robocape_mag,14.55,1.95,-29.7,10.0,0.0,0.0,0.0,10.0,0.0,0.0,0.0,10.0
1446038828548290571,262,1446038828540142059,robocape_mag,14.55,1.95,-29.7,10.0,0.0,0.0,0.0,10.0,0.0,0.0,0.0,10.0
1446038828578502696,263,1446038828573506116,robocape_mag,14.55,1.95,-29.7,10.0,0.0,0.0,0.0,10.0,0.0,0.0,0.0,10.0
1446038828612036404,264,1446038828607218027,robocape_mag,10.05,4.05,-29.4,10.0,0.0,0.0,0.0,10.0,0.0,0.0,0.0,10.0
1446038828647181071,265,1446038828640280008,robocape_mag,10.05,4.05,-29.4,10.0,0.0,0.0,0.0,10.0,0.0,0.0,0.0,10.0
1446038828678637988,266,1446038828673497915,robocape_mag,10.05,4.05,-29.4,10.0,0.0,0.0,0.0,10.0,0.0,0.0,0.0,10.0
1446038828711766738,267,1446038828706937074,robocape_mag,10.05,4.05,-29.4,10.0,0.0,0.0,0.0,10.0,0.0,0.0,0.0,10.0
1446038828744959113,268,1446038828740089893,robocape_mag,10.05,4.05,-29.4,10.0,0.0,0.0,0.0,10.0,0.0,0.0,0.0,10.0
1446038828779179696,269,1446038828773402929,robocape_mag,12.75,1.35,-27.3,10.0,0.0,0.0,0.0,10.0,0.0,0.0,0.0,10.0
1446038828812281613,270,1446038828807163953,robocape_mag,12.75,1.35,-27.3,10.0,0.0,0.0,0.0,10.0,0.0,0.0,0.0,10.0
1446038828845076321,271,1446038828840006113,robocape_mag,12.75,1.35,-27.3,10.0,0.0,0.0,0.0,10.0,0.0,0.0,0.0,10.0
1446038828878703155,272,1446038828873389005,robocape_mag,12.75,1.35,-27.3,10.0,0.0,0.0,0.0,10.0,0.0,0.0,0.0,10.0
1446038828914661821,273,1446038828906991958,robocape_mag,9.75,2.55,-29.7,10.0,0.0,0.0,0.0,10.0,0.0,0.0,0.0,10.0
1446038828945215488,274,1446038828939944982,robocape_mag,9.75,2.55,-29.7,10.0,0.0,0.0,0.0,10.0,0.0,0.0,0.0,10.0
1446038828980767363,275,1446038828973716974,robocape_mag,9.75,2.55,-29.7,10.0,0.0,0.0,0.0,10.0,0.0,0.0,0.0,10.0
1446038829011967696,276,1446038829006906986,robocape_mag,9.75,2.55,-29.7,10.0,0.0,0.0,0.0,10.0,0.0,0.0,0.0,10.0
1446038829048789280,277,1446038829040040016,robocape_mag,9.75,2.55,-29.7,10.0,0.0,0.0,0.0,10.0,0.0,0.0,0.0,10.0
1446038829078625946,278,1446038829073411941,robocape_mag,13.05,1.65,-27.6,10.0,0.0,0.0,0.0,10.0,0.0,0.0,0.0,10.0
1446038829111724905,279,1446038829106888055,robocape_mag,13.05,1.65,-27.6,10.0,0.0,0.0,0.0,10.0,0.0,0.0,0.0,10.0
1446038829144966530,280,1446038829140194892,robocape_mag,13.05,1.65,-27.6,10.0,0.0,0.0,0.0,10.0,0.0,0.0,0.0,10.0
1446038829178669446,281,1446038829173492908,robocape_mag,13.05,1.65,-27.6,10.0,0.0,0.0,0.0,10.0,0.0,0.0,0.0,10.0
1446038829212694113,282,1446038829207740068,robocape_mag,13.05,1.65,-27.6,10.0,0.0,0.0,0.0,10.0,0.0,0.0,0.0,10.0
1446038829245183821,283,1446038829240318059,robocape_mag,13.35,3.75,-28.5,10.0,0.0,0.0,0.0,10.0,0.0,0.0,0.0,10.0
1446038829279780946,284,1446038829274616003,robocape_mag,13.35,3.75,-28.5,10.0,0.0,0.0,0.0,10.0,0.0,0.0,0.0,10.0
1446038829315279696,285,1446038829308109045,robocape_mag,13.35,3.75,-28.5,10.0,0.0,0.0,0.0,10.0,0.0,0.0,0.0,10.0
1446038829346062571,286,1446038829341286897,robocape_mag,13.35,3.75,-28.5,10.0,0.0,0.0,0.0,10.0,0.0,0.0,0.0,10.0
1446038829380766780,287,1446038829375076055,robocape_mag,13.35,3.75,-28.5,10.0,0.0,0.0,0.0,10.0,0.0,0.0,0.0,10.0
1446038829413568155,288,1446038829407246112,robocape_mag,10.05,4.05,-29.4,10.0,0.0,0.0,0.0,10.0,0.0,0.0,0.0,10.0
1446038829447088947,289,1446038829441999912,robocape_mag,10.05,4.05,-29.4,10.0,0.0,0.0,0.0,10.0,0.0,0.0,0.0,10.0
1446038829480032030,290,1446038829474936962,robocape_mag,10.05,4.05,-29.4,10.0,0.0,0.0,0.0,10.0,0.0,0.0,0.0,10.0
1446038829521324488,291,1446038829515882015,robocape_mag,10.05,4.05,-29.4,10.0,0.0,0.0,0.0,10.0,0.0,0.0,0.0,10.0
1446038829548980238,292,1446038829543592929,robocape_mag,10.05,4.05,-29.4,10.0,0.0,0.0,0.0,10.0,0.0,0.0,0.0,10.0
1446038829582349947,293,1446038829577558040,robocape_mag,15.15,-1.05,-27.3,10.0,0.0,0.0,0.0,10.0,0.0,0.0,0.0,10.0
1446038829617454530,294,1446038829610496997,robocape_mag,15.15,-1.05,-27.3,10.0,0.0,0.0,0.0,10.0,0.0,0.0,0.0,10.0
1446038829650513947,295,1446038829643352985,robocape_mag,15.15,-1.05,-27.3,10.0,0.0,0.0,0.0,10.0,0.0,0.0,0.0,10.0
1446038829683015572,296,1446038829675573110,robocape_mag,15.15,-1.05,-27.3,10.0,0.0,0.0,0.0,10.0,0.0,0.0,0.0,10.0
1446038829719485238,297,1446038829709814071,robocape_mag,10.95,1.95,-28.5,10.0,0.0,0.0,0.0,10.0,0.0,0.0,0.0,10.0
1446038829749501280,298,1446038829744143009,robocape_mag,10.95,1.95,-28.5,10.0,0.0,0.0,0.0,10.0,0.0,0.0,0.0,10.0
1446038829782446155,299,1446038829775652885,robocape_mag,10.95,1.95,-28.5,10.0,0.0,0.0,0.0,10.0,0.0,0.0,0.0,10.0
1446038829816369155,300,1446038829811067104,robocape_mag,10.95,1.95,-28.5,10.0,0.0,0.0,0.0,10.0,0.0,0.0,0.0,10.0
1446038829852368197,301,1446038829844650983,robocape_mag,10.95,1.95,-28.5,10.0,0.0,0.0,0.0,10.0,0.0,0.0,0.0,10.0
1446038829887427572,302,1446038829877417087,robocape_mag,13.65,1.65,-26.4,10.0,0.0,0.0,0.0,10.0,0.0,0.0,0.0,10.0
1446038829920623197,303,1446038829910087108,robocape_mag,13.65,1.65,-26.4,10.0,0.0,0.0,0.0,10.0,0.0,0.0,0.0,10.0
1446038829949321197,304,1446038829943963050,robocape_mag,13.65,1.65,-26.4,10.0,0.0,0.0,0.0,10.0,0.0,0.0,0.0,10.0
1446038829981435072,305,1446038829976248025,robocape_mag,13.65,1.65,-26.4,10.0,0.0,0.0,0.0,10.0,0.0,0.0,0.0,10.0
1446038830015433363,306,1446038830010385990,robocape_mag,13.65,1.65,-26.4,10.0,0.0,0.0,0.0,10.0,0.0,0.0,0.0,10.0
1446038830048705405,307,1446038830043632030,robocape_mag,12.45,2.85,-30.6,10.0,0.0,0.0,0.0,10.0,0.0,0.0,0.0,10.0
1446038830081236530,308,1446038830076257944,robocape_mag,12.45,2.85,-30.6,10.0,0.0,0.0,0.0,10.0,0.0,0.0,0.0,10.0
1446038830114772197,309,1446038830109904050,robocape_mag,12.45,2.85,-30.6,10.0,0.0,0.0,0.0,10.0,0.0,0.0,0.0,10.0
1446038830148592197,310,1446038830143210887,robocape_mag,12.45,2.85,-30.6,10.0,0.0,0.0,0.0,10.0,0.0,0.0,0.0,10.0
1446038830181433197,311,1446038830176402091,robocape_mag,12.45,2.85,-30.6,10.0,0.0,0.0,0.0,10.0,0.0,0.0,0.0,10.0
1446038830213812197,312,1446038830208729028,robocape_mag,10.35,3.75,-29.1,10.0,0.0,0.0,0.0,10.0,0.0,0.0,0.0,10.0
1446038830250772697,313,1446038830242082118,robocape_mag,10.35,3.75,-29.1,10.0,0.0,0.0,0.0,10.0,0.0,0.0,0.0,10.0
1446038830279730739,314,1446038830274912118,robocape_mag,10.35,3.75,-29.1,10.0,0.0,0.0,0.0,10.0,0.0,0.0,0.0,10.0
1446038830313401322,315,1446038830308521032,robocape_mag,10.35,3.75,-29.1,10.0,0.0,0.0,0.0,10.0,0.0,0.0,0.0,10.0
1446038830346588655,316,1446038830341460943,robocape_mag,10.35,3.75,-29.1,10.0,0.0,0.0,0.0,10.0,0.0,0.0,0.0,10.0
1446038830379519655,317,1446038830374759912,robocape_mag,10.05,4.05,-29.4,10.0,0.0,0.0,0.0,10.0,0.0,0.0,0.0,10.0
1446038830412975322,318,1446038830407845973,robocape_mag,10.05,4.05,-29.4,10.0,0.0,0.0,0.0,10.0,0.0,0.0,0.0,10.0
1446038830445790072,319,1446038830440835952,robocape_mag,10.05,4.05,-29.4,10.0,0.0,0.0,0.0,10.0,0.0,0.0,0.0,10.0
1446038830478972697,320,1446038830473727941,robocape_mag,10.05,4.05,-29.4,10.0,0.0,0.0,0.0,10.0,0.0,0.0,0.0,10.0
1446038830512021614,321,1446038830507211923,robocape_mag,10.05,3.15,-29.7,10.0,0.0,0.0,0.0,10.0,0.0,0.0,0.0,10.0
1446038830545403697,322,1446038830540422916,robocape_mag,11.55,3.15,-29.7,10.0,0.0,0.0,0.0,10.0,0.0,0.0,0.0,10.0
1446038830578910989,323,1446038830573820114,robocape_mag,11.55,3.15,-29.7,10.0,0.0,0.0,0.0,10.0,0.0,0.0,0.0,10.0
1446038830611754072,324,1446038830606848955,robocape_mag,11.55,3.15,-29.7,10.0,0.0,0.0,0.0,10.0,0.0,0.0,0.0,10.0
1446038830648779447,325,1446038830640253067,robocape_mag,11.55,3.15,-29.7,10.0,0.0,0.0,0.0,10.0,0.0,0.0,0.0,10.0
1446038830678372072,326,1446038830673496007,robocape_mag,16.95,-0.45,-28.5,10.0,0.0,0.0,0.0,10.0,0.0,0.0,0.0,10.0
1446038830711887697,327,1446038830707019090,robocape_mag,16.95,-0.45,-28.5,10.0,0.0,0.0,0.0,10.0,0.0,0.0,0.0,10.0
1446038830750687530,328,1446038830740325927,robocape_mag,16.95,-0.45,-28.5,10.0,0.0,0.0,0.0,10.0,0.0,0.0,0.0,10.0
1446038830778749197,329,1446038830773785114,robocape_mag,16.95,-0.45,-28.5,10.0,0.0,0.0,0.0,10.0,0.0,0.0,0.0,10.0
1446038830811711822,330,1446038830806835889,robocape_mag,16.95,-0.45,-28.5,10.0,0.0,0.0,0.0,10.0,0.0,0.0,0.0,10.0
1446038830849097739,331,1446038830840379953,robocape_mag,10.65,3.45,-30.6,10.0,0.0,0.0,0.0,10.0,0.0,0.0,0.0,10.0
1446038830878723197,332,1446038830873671054,robocape_mag,10.65,3.45,-30.6,10.0,0.0,0.0,0.0,10.0,0.0,0.0,0.0,10.0
1446038830913839947,333,1446038830908309936,robocape_mag,10.65,3.45,-30.6,10.0,0.0,0.0,0.0,10.0,0.0,0.0,0.0,10.0
1446038830945217989,334,1446038830940247058,robocape_mag,10.65,3.45,-30.6,10.0,0.0,0.0,0.0,10.0,0.0,0.0,0.0,10.0
1446038830980290906,335,1446038830973603010,robocape_mag,10.65,3.45,-30.6,10.0,0.0,0.0,0.0,10.0,0.0,0.0,0.0,10.0
1446038831011854322,336,1446038831006711006,robocape_mag,9.75,4.35,-28.5,10.0,0.0,0.0,0.0,10.0,0.0,0.0,0.0,10.0
1446038831045249031,337,1446038831040214061,robocape_mag,9.75,4.35,-28.5,10.0,0.0,0.0,0.0,10.0,0.0,0.0,0.0,10.0
1446038831080599239,338,1446038831073813915,robocape_mag,9.75,4.35,-28.5,10.0,0.0,0.0,0.0,10.0,0.0,0.0,0.0,10.0
1446038831112507697,339,1446038831106889009,robocape_mag,9.75,4.35,-28.5,10.0,0.0,0.0,0.0,10.0,0.0,0.0,0.0,10.0
1446038831146270906,340,1446038831140141010,robocape_mag,9.75,4.35,-28.5,10.0,0.0,0.0,0.0,10.0,0.0,0.0,0.0,10.0
1446038831178539531,341,1446038831173449039,robocape_mag,12.75,0.75,-28.5,10.0,0.0,0.0,0.0,10.0,0.0,0.0,0.0,10.0
1446038831213093989,342,1446038831207643985,robocape_mag,12.75,0.75,-28.5,10.0,0.0,0.0,0.0,10.0,0.0,0.0,0.0,10.0
1446038831245716364,343,1446038831240298986,robocape_mag,12.75,0.75,-28.5,10.0,0.0,0.0,0.0,10.0,0.0,0.0,0.0,10.0
1446038831278556156,344,1446038831273386001,robocape_mag,12.75,0.75,-28.5,10.0,0.0,0.0,0.0,10.0,0.0,0.0,0.0,10.0
1446038831312501031,345,1446038831306721925,robocape_mag,12.75,4.65,-27.6,10.0,0.0,0.0,0.0,10.0,0.0,0.0,0.0,10.0
1446038831347088447,346,1446038831340147018,robocape_mag,11.25,4.65,-27.6,10.0,0.0,0.0,0.0,10.0,0.0,0.0,0.0,10.0
1446038831378351656,347,1446038831373369932,robocape_mag,11.25,4.65,-27.6,10.0,0.0,0.0,0.0,10.0,0.0,0.0,0.0,10.0
1446038831412016947,348,1446038831406641006,robocape_mag,11.25,4.65,-27.6,10.0,0.0,0.0,0.0,10.0,0.0,0.0,0.0,10.0
1446038831445498531,349,1446038831440210103,robocape_mag,11.25,4.65,-27.6,10.0,0.0,0.0,0.0,10.0,0.0,0.0,0.0,10.0
1446038831478383656,350,1446038831473541021,robocape_mag,13.65,-0.15,-25.8,10.0,0.0,0.0,0.0,10.0,0.0,0.0,0.0,10.0
1446038831515688197,351,1446038831507077932,robocape_mag,13.65,-0.15,-25.8,10.0,0.0,0.0,0.0,10.0,0.0,0.0,0.0,10.0
1446038831545474031,352,1446038831540251970,robocape_mag,13.65,-0.15,-25.8,10.0,0.0,0.0,0.0,10.0,0.0,0.0,0.0,10.0
1446038831578684698,353,1446038831573494911,robocape_mag,13.65,-0.15,-25.8,10.0,0.0,0.0,0.0,10.0,0.0,0.0,0.0,10.0
1446038831614700281,354,1446038831607172012,robocape_mag,13.65,-0.15,-25.8,10.0,0.0,0.0,0.0,10.0,0.0,0.0,0.0,10.0
1446038831647402239,355,1446038831641593933,robocape_mag,13.05,2.25,-29.4,10.0,0.0,0.0,0.0,10.0,0.0,0.0,0.0,10.0
1446038831679737114,356,1446038831674766063,robocape_mag,13.05,2.25,-29.4,10.0,0.0,0.0,0.0,10.0,0.0,0.0,0.0,10.0
1446038831713996531,357,1446038831708465099,robocape_mag,13.05,2.25,-29.4,10.0,0.0,0.0,0.0,10.0,0.0,0.0,0.0,10.0
1446038831747792531,358,1446038831742152929,robocape_mag,13.05,2.25,-29.4,10.0,0.0,0.0,0.0,10.0,0.0,0.0,0.0,10.0
1446038831778992073,359,1446038831774163007,robocape_mag,13.05,2.25,-29.4,10.0,0.0,0.0,0.0,10.0,0.0,0.0,0.0,10.0
1446038831811901906,360,1446038831806885004,robocape_mag,13.35,-0.45,-24.3,10.0,0.0,0.0,0.0,10.0,0.0,0.0,0.0,10.0
1446038831845659073,361,1446038831840342044,robocape_mag,13.35,-0.45,-24.3,10.0,0.0,0.0,0.0,10.0,0.0,0.0,0.0,10.0
1446038831878594198,362,1446038831873661994,robocape_mag,13.35,-0.45,-24.3,10.0,0.0,0.0,0.0,10.0,0.0,0.0,0.0,10.0
1446038831913913531,363,1446038831906711101,robocape_mag,13.35,-0.45,-24.3,10.0,0.0,0.0,0.0,10.0,0.0,0.0,0.0,10.0
1446038831975350989,364,1446038831940229892,robocape_mag,13.35,-0.45,-24.3,10.0,0.0,0.0,0.0,10.0,0.0,0.0,0.0,10.0
1446038831999960323,365,1446038831992852926,robocape_mag,11.85,2.25,-26.4,10.0,0.0,0.0,0.0,10.0,0.0,0.0,0.0,10.0
1446038832021446823,366,1446038832014810085,robocape_mag,11.85,2.25,-26.4,10.0,0.0,0.0,0.0,10.0,0.0,0.0,0.0,10.0
1446038832045411364,367,1446038832040463924,robocape_mag,11.85,2.25,-26.4,10.0,0.0,0.0,0.0,10.0,0.0,0.0,0.0,10.0
1446038832080554198,368,1446038832075148105,robocape_mag,11.85,2.25,-26.4,10.0,0.0,0.0,0.0,10.0,0.0,0.0,0.0,10.0
1446038832113430948,369,1446038832107177019,robocape_mag,11.25,3.45,-30.0,10.0,0.0,0.0,0.0,10.0,0.0,0.0,0.0,10.0
1446038832145050823,370,1446038832140124082,robocape_mag,11.25,3.45,-30.0,10.0,0.0,0.0,0.0,10.0,0.0,0.0,0.0,10.0
1446038832178367781,371,1446038832173342943,robocape_mag,11.25,3.45,-30.0,10.0,0.0,0.0,0.0,10.0,0.0,0.0,0.0,10.0
1446038832215399156,372,1446038832208182096,robocape_mag,11.25,3.45,-30.0,10.0,0.0,0.0,0.0,10.0,0.0,0.0,0.0,10.0
1446038832245113531,373,1446038832240199089,robocape_mag,11.25,3.45,-30.0,10.0,0.0,0.0,0.0,10.0,0.0,0.0,0.0,10.0
1446038832279344906,374,1446038832273333072,robocape_mag,9.15,4.95,-28.5,10.0,0.0,0.0,0.0,10.0,0.0,0.0,0.0,10.0
1446038832312357490,375,1446038832306668996,robocape_mag,9.15,4.95,-28.5,10.0,0.0,0.0,0.0,10.0,0.0,0.0,0.0,10.0
1446038832344985781,376,1446038832340023994,robocape_mag,9.15,4.95,-28.5,10.0,0.0,0.0,0.0,10.0,0.0,0.0,0.0,10.0
1446038832379140365,377,1446038832373843908,robocape_mag,9.15,4.95,-28.5,10.0,0.0,0.0,0.0,10.0,0.0,0.0,0.0,10.0
1446038832411875281,378,1446038832406583070,robocape_mag,9.15,4.95,-28.5,10.0,0.0,0.0,0.0,10.0,0.0,0.0,0.0,10.0
1446038832445827906,379,1446038832440686941,robocape_mag,10.65,2.85,-32.4,10.0,0.0,0.0,0.0,10.0,0.0,0.0,0.0,10.0
1446038832480200115,380,1446038832473448991,robocape_mag,10.65,2.85,-32.4,10.0,0.0,0.0,0.0,10.0,0.0,0.0,0.0,10.0
1446038832513831115,381,1446038832508800029,robocape_mag,10.65,2.85,-32.4,10.0,0.0,0.0,0.0,10.0,0.0,0.0,0.0,10.0
1446038832545184740,382,1446038832540168046,robocape_mag,10.65,2.85,-32.4,10.0,0.0,0.0,0.0,10.0,0.0,0.0,0.0,10.0
1446038832580569198,383,1446038832574131965,robocape_mag,10.65,2.85,-32.4,10.0,0.0,0.0,0.0,10.0,0.0,0.0,0.0,10.0
1446038832611631573,384,1446038832606789112,robocape_mag,11.55,2.55,-29.7,10.0,0.0,0.0,0.0,10.0,0.0,0.0,0.0,10.0
1446038832644937823,385,1446038832640187025,robocape_mag,11.55,2.55,-29.7,10.0,0.0,0.0,0.0,10.0,0.0,0.0,0.0,10.0
1446038832678443406,386,1446038832673564910,robocape_mag,11.55,2.55,-29.7,10.0,0.0,0.0,0.0,10.0,0.0,0.0,0.0,10.0
1446038832714858865,387,1446038832709667921,robocape_mag,11.55,2.55,-29.7,10.0,0.0,0.0,0.0,10.0,0.0,0.0,0.0,10.0
1446038832745120906,388,1446038832740186929,robocape_mag,11.55,2.55,-29.7,10.0,0.0,0.0,0.0,10.0,0.0,0.0,0.0,10.0
1446038832781137115,389,1446038832774812936,robocape_mag,12.15,2.55,-29.1,10.0,0.0,0.0,0.0,10.0,0.0,0.0,0.0,10.0
1446038832813187948,390,1446038832808193922,robocape_mag,12.15,2.55,-29.1,10.0,0.0,0.0,0.0,10.0,0.0,0.0,0.0,10.0
1446038832847214615,391,1446038832841962099,robocape_mag,12.15,2.55,-29.1,10.0,0.0,0.0,0.0,10.0,0.0,0.0,0.0,10.0
1446038832881538656,392,1446038832875127077,robocape_mag,12.15,2.55,-29.1,10.0,0.0,0.0,0.0,10.0,0.0,0.0,0.0,10.0
1446038832913310948,393,1446038832908268928,robocape_mag,12.15,2.55,-29.1,10.0,0.0,0.0,0.0,10.0,0.0,0.0,0.0,10.0
1446038832949664948,394,1446038832941850900,robocape_mag,10.95,2.55,-29.1,10.0,0.0,0.0,0.0,10.0,0.0,0.0,0.0,10.0
1446038832984856490,395,1446038832975359916,robocape_mag,10.95,2.55,-29.1,10.0,0.0,0.0,0.0,10.0,0.0,0.0,0.0,10.0
1446038833018282198,396,1446038833008550882,robocape_mag,10.95,2.55,-29.1,10.0,0.0,0.0,0.0,10.0,0.0,0.0,0.0,10.0
1446038833050503740,397,1446038833042196989,robocape_mag,10.95,2.55,-29.1,10.0,0.0,0.0,0.0,10.0,0.0,0.0,0.0,10.0
1446038833085822198,398,1446038833076483011,robocape_mag,10.95,3.15,-29.1,10.0,0.0,0.0,0.0,10.0,0.0,0.0,0.0,10.0
1446038833117050532,399,1446038833109920024,robocape_mag,10.95,3.15,-29.1,10.0,0.0,0.0,0.0,10.0,0.0,0.0,0.0,10.0
1446038833150223448,400,1446038833143074035,robocape_mag,10.95,3.15,-29.1,10.0,0.0,0.0,0.0,10.0,0.0,0.0,0.0,10.0
1446038833181792032,401,1446038833175652980,robocape_mag,10.95,3.15,-29.1,10.0,0.0,0.0,0.0,10.0,0.0,0.0,0.0,10.0
1446038833216420240,402,1446038833211210012,robocape_mag,10.95,3.15,-29.1,10.0,0.0,0.0,0.0,10.0,0.0,0.0,0.0,10.0
1446038833252633948,403,1446038833243678092,robocape_mag,4.05,23.25,-14.4,10.0,0.0,0.0,0.0,10.0,0.0,0.0,0.0,10.0
1446038833283069698,404,1446038833277673959,robocape_mag,4.05,23.25,-14.4,10.0,0.0,0.0,0.0,10.0,0.0,0.0,0.0,10.0
1446038833318969657,405,1446038833313642024,robocape_mag,4.05,23.25,-14.4,10.0,0.0,0.0,0.0,10.0,0.0,0.0,0.0,10.0
1446038833349483448,406,1446038833343961954,robocape_mag,4.05,23.25,-14.4,10.0,0.0,0.0,0.0,10.0,0.0,0.0,0.0,10.0
1446038833378322948,407,1446038833373390913,robocape_mag,4.05,23.25,-14.4,10.0,0.0,0.0,0.0,10.0,0.0,0.0,0.0,10.0
1446038833411390823,408,1446038833406579017,robocape_mag,4.05,23.85,-10.2,10.0,0.0,0.0,0.0,10.0,0.0,0.0,0.0,10.0
1446038833445086032,409,1446038833440069913,robocape_mag,4.05,23.85,-10.2,10.0,0.0,0.0,0.0,10.0,0.0,0.0,0.0,10.0
1446038833480209615,410,1446038833473397016,robocape_mag,4.05,23.85,-10.2,10.0,0.0,0.0,0.0,10.0,0.0,0.0,0.0,10.0
1446038833513543365,411,1446038833506742000,robocape_mag,4.05,23.85,-10.2,10.0,0.0,0.0,0.0,10.0,0.0,0.0,0.0,10.0
1446038833545058323,412,1446038833540106058,robocape_mag,4.05,23.85,-10.2,10.0,0.0,0.0,0.0,10.0,0.0,0.0,0.0,10.0
1446038833578775698,413,1446038833573748111,robocape_mag,13.95,-19.65,-18.9,10.0,0.0,0.0,0.0,10.0,0.0,0.0,0.0,10.0
1446038833611787240,414,1446038833606791973,robocape_mag,13.95,-19.65,-18.9,10.0,0.0,0.0,0.0,10.0,0.0,0.0,0.0,10.0
1446038833645141407,415,1446038833640091896,robocape_mag,13.95,-19.65,-18.9,10.0,0.0,0.0,0.0,10.0,0.0,0.0,0.0,10.0
1446038833678533032,416,1446038833673398971,robocape_mag,13.95,-19.65,-18.9,10.0,0.0,0.0,0.0,10.0,0.0,0.0,0.0,10.0
1446038833711536324,417,1446038833706602096,robocape_mag,13.95,-21.45,-17.7,10.0,0.0,0.0,0.0,10.0,0.0,0.0,0.0,10.0
1446038833746774240,418,1446038833739969968,robocape_mag,5.55,-21.45,-17.7,10.0,0.0,0.0,0.0,10.0,0.0,0.0,0.0,10.0
1446038833778342032,419,1446038833773384094,robocape_mag,5.55,-21.45,-17.7,10.0,0.0,0.0,0.0,10.0,0.0,0.0,0.0,10.0
1446038833811630615,420,1446038833806828022,robocape_mag,5.55,-21.45,-17.7,10.0,0.0,0.0,0.0,10.0,0.0,0.0,0.0,10.0
1446038833845146949,421,1446038833840111017,robocape_mag,5.55,-21.45,-17.7,10.0,0.0,0.0,0.0,10.0,0.0,0.0,0.0,10.0
1446038833878174282,422,1446038833873415946,robocape_mag,-14.25,-16.05,-18.3,10.0,0.0,0.0,0.0,10.0,0.0,0.0,0.0,10.0
1446038833912699949,423,1446038833907857894,robocape_mag,-14.25,-16.05,-18.3,10.0,0.0,0.0,0.0,10.0,0.0,0.0,0.0,10.0
1446038833946111449,424,1446038833941317081,robocape_mag,-14.25,-16.05,-18.3,10.0,0.0,0.0,0.0,10.0,0.0,0.0,0.0,10.0
1446038833978802240,425,1446038833974004030,robocape_mag,-14.25,-16.05,-18.3,10.0,0.0,0.0,0.0,10.0,0.0,0.0,0.0,10.0
1446038834011849615,426,1446038834006840944,robocape_mag,-14.25,-16.05,-18.3,10.0,0.0,0.0,0.0,10.0,0.0,0.0,0.0,10.0
1446038834045232115,427,1446038834040456056,robocape_mag,14.85,-6.15,-7.2,10.0,0.0,0.0,0.0,10.0,0.0,0.0,0.0,10.0
1446038834078626740,428,1446038834073610067,robocape_mag,14.85,-6.15,-7.2,10.0,0.0,0.0,0.0,10.0,0.0,0.0,0.0,10.0
1446038834111672407,429,1446038834106803894,robocape_mag,14.85,-6.15,-7.2,10.0,0.0,0.0,0.0,10.0,0.0,0.0,0.0,10.0
1446038834149005824,430,1446038834140307903,robocape_mag,14.85,-6.15,-7.2,10.0,0.0,0.0,0.0,10.0,0.0,0.0,0.0,10.0
1446038834178266240,431,1446038834173458099,robocape_mag,14.85,-6.15,-7.2,10.0,0.0,0.0,0.0,10.0,0.0,0.0,0.0,10.0
1446038834213190782,432,1446038834208177089,robocape_mag,-9.15,-4.95,-16.8,10.0,0.0,0.0,0.0,10.0,0.0,0.0,0.0,10.0
1446038834249477865,433,1446038834244460105,robocape_mag,-9.15,-4.95,-16.8,10.0,0.0,0.0,0.0,10.0,0.0,0.0,0.0,10.0
1446038834284024074,434,1446038834276233911,robocape_mag,-9.15,-4.95,-16.8,10.0,0.0,0.0,0.0,10.0,0.0,0.0,0.0,10.0
1446038834316196574,435,1446038834309587001,robocape_mag,-9.15,-4.95,-16.8,10.0,0.0,0.0,0.0,10.0,0.0,0.0,0.0,10.0
1446038834344829407,436,1446038834339940071,robocape_mag,-9.15,-4.95,-16.8,10.0,0.0,0.0,0.0,10.0,0.0,0.0,0.0,10.0
1446038834378398032,437,1446038834373550891,robocape_mag,15.15,-7.05,-6.3,10.0,0.0,0.0,0.0,10.0,0.0,0.0,0.0,10.0
1446038834414218407,438,1446038834409281015,robocape_mag,15.15,-7.05,-6.3,10.0,0.0,0.0,0.0,10.0,0.0,0.0,0.0,10.0
1446038834444937824,439,1446038834440110921,robocape_mag,15.15,-7.05,-6.3,10.0,0.0,0.0,0.0,10.0,0.0,0.0,0.0,10.0
1446038834478425282,440,1446038834473608970,robocape_mag,15.15,-7.05,-6.3,10.0,0.0,0.0,0.0,10.0,0.0,0.0,0.0,10.0
1446038834513757491,441,1446038834508146047,robocape_mag,-3.45,-8.25,-18.9,10.0,0.0,0.0,0.0,10.0,0.0,0.0,0.0,10.0
1446038834544875116,442,1446038834540122985,robocape_mag,-3.45,-8.25,-18.9,10.0,0.0,0.0,0.0,10.0,0.0,0.0,0.0,10.0
1446038834581990074,443,1446038834573610067,robocape_mag,-3.45,-8.25,-18.9,10.0,0.0,0.0,0.0,10.0,0.0,0.0,0.0,10.0
1446038834612296824,444,1446038834606697082,robocape_mag,-3.45,-8.25,-18.9,10.0,0.0,0.0,0.0,10.0,0.0,0.0,0.0,10.0
1446038834645591699,445,1446038834640321016,robocape_mag,-3.45,-8.25,-18.9,10.0,0.0,0.0,0.0,10.0,0.0,0.0,0.0,10.0
1446038834679265532,446,1446038834674228906,robocape_mag,16.65,-16.35,-16.2,10.0,0.0,0.0,0.0,10.0,0.0,0.0,0.0,10.0
1446038834711359616,447,1446038834706599950,robocape_mag,16.65,-16.35,-16.2,10.0,0.0,0.0,0.0,10.0,0.0,0.0,0.0,10.0
1446038834748122032,448,1446038834743227958,robocape_mag,16.65,-16.35,-16.2,10.0,0.0,0.0,0.0,10.0,0.0,0.0,0.0,10.0
1446038834781321907,449,1446038834776283979,robocape_mag,16.65,-16.35,-16.2,10.0,0.0,0.0,0.0,10.0,0.0,0.0,0.0,10.0
1446038834814516991,450,1446038834809722900,robocape_mag,16.65,-16.35,-16.2,10.0,0.0,0.0,0.0,10.0,0.0,0.0,0.0,10.0
1446038834847686866,451,1446038834842736959,robocape_mag,19.35,-15.45,-23.7,10.0,0.0,0.0,0.0,10.0,0.0,0.0,0.0,10.0
1446038834881112824,452,1446038834876077890,robocape_mag,19.35,-15.45,-23.7,10.0,0.0,0.0,0.0,10.0,0.0,0.0,0.0,10.0
1446038834913797574,453,1446038834908930063,robocape_mag,19.35,-15.45,-23.7,10.0,0.0,0.0,0.0,10.0,0.0,0.0,0.0,10.0
1446038834947041032,454,1446038834942226886,robocape_mag,19.35,-15.45,-23.7,10.0,0.0,0.0,0.0,10.0,0.0,0.0,0.0,10.0
1446038834979902949,455,1446038834975040912,robocape_mag,19.35,-15.45,-23.7,10.0,0.0,0.0,0.0,10.0,0.0,0.0,0.0,10.0
1446038835012224991,456,1446038835007457017,robocape_mag,17.25,-2.55,-16.2,10.0,0.0,0.0,0.0,10.0,0.0,0.0,0.0,10.0
1446038835045997074,457,1446038835041220903,robocape_mag,17.25,-2.55,-16.2,10.0,0.0,0.0,0.0,10.0,0.0,0.0,0.0,10.0
1446038835079793199,458,1446038835074606895,robocape_mag,17.25,-2.55,-16.2,10.0,0.0,0.0,0.0,10.0,0.0,0.0,0.0,10.0
1446038835111849699,459,1446038835107065916,robocape_mag,17.25,-2.55,-16.2,10.0,0.0,0.0,0.0,10.0,0.0,0.0,0.0,10.0
1446038835149015074,460,1446038835140499114,robocape_mag,17.25,-2.55,-16.2,10.0,0.0,0.0,0.0,10.0,0.0,0.0,0.0,10.0
1446038835179387033,461,1446038835174262046,robocape_mag,31.95,-6.45,-8.1,10.0,0.0,0.0,0.0,10.0,0.0,0.0,0.0,10.0
1446038835213608199,462,1446038835208714962,robocape_mag,31.95,-6.45,-8.1,10.0,0.0,0.0,0.0,10.0,0.0,0.0,0.0,10.0
1446038835250317116,463,1446038835241389989,robocape_mag,31.95,-6.45,-8.1,10.0,0.0,0.0,0.0,10.0,0.0,0.0,0.0,10.0
1446038835278373324,464,1446038835273551940,robocape_mag,31.95,-6.45,-8.1,10.0,0.0,0.0,0.0,10.0,0.0,0.0,0.0,10.0
1446038835311738991,465,1446038835306962966,robocape_mag,31.95,-10.35,-24.0,10.0,0.0,0.0,0.0,10.0,0.0,0.0,0.0,10.0
1446038835346795574,466,1446038835341808080,robocape_mag,20.25,-10.35,-24.0,10.0,0.0,0.0,0.0,10.0,0.0,0.0,0.0,10.0
1446038835382492741,467,1446038835377412080,robocape_mag,20.25,-10.35,-24.0,10.0,0.0,0.0,0.0,10.0,0.0,0.0,0.0,10.0
1446038835414774491,468,1446038835409661054,robocape_mag,20.25,-10.35,-24.0,10.0,0.0,0.0,0.0,10.0,0.0,0.0,0.0,10.0
1446038835448501199,469,1446038835443095922,robocape_mag,20.25,-10.35,-24.0,10.0,0.0,0.0,0.0,10.0,0.0,0.0,0.0,10.0
1446038835478376699,470,1446038835473489046,robocape_mag,35.55,-11.85,-15.9,10.0,0.0,0.0,0.0,10.0,0.0,0.0,0.0,10.0
1446038835511764241,471,1446038835506891012,robocape_mag,35.55,-11.85,-15.9,10.0,0.0,0.0,0.0,10.0,0.0,0.0,0.0,10.0
1446038835545138033,472,1446038835540380001,robocape_mag,35.55,-11.85,-15.9,10.0,0.0,0.0,0.0,10.0,0.0,0.0,0.0,10.0
1446038835579145033,473,1446038835574059009,robocape_mag,35.55,-11.85,-15.9,10.0,0.0,0.0,0.0,10.0,0.0,0.0,0.0,10.0
1446038835613277574,474,1446038835608459949,robocape_mag,35.55,-11.85,-15.9,10.0,0.0,0.0,0.0,10.0,0.0,0.0,0.0,10.0
1446038835645052991,475,1446038835640142917,robocape_mag,23.25,-3.15,-28.2,10.0,0.0,0.0,0.0,10.0,0.0,0.0,0.0,10.0
1446038835688075491,476,1446038835678740978,robocape_mag,23.25,-3.15,-28.2,10.0,0.0,0.0,0.0,10.0,0.0,0.0,0.0,10.0
1446038835717581824,477,1446038835710911035,robocape_mag,23.25,-3.15,-28.2,10.0,0.0,0.0,0.0,10.0,0.0,0.0,0.0,10.0
1446038835749070408,478,1446038835744251012,robocape_mag,23.25,-3.15,-28.2,10.0,0.0,0.0,0.0,10.0,0.0,0.0,0.0,10.0
1446038835779157825,479,1446038835773530960,robocape_mag,23.25,-3.15,-28.2,10.0,0.0,0.0,0.0,10.0,0.0,0.0,0.0,10.0
1446038835812411700,480,1446038835807051897,robocape_mag,30.45,-1.95,-15.6,10.0,0.0,0.0,0.0,10.0,0.0,0.0,0.0,10.0
1446038835848263866,481,1446038835843307971,robocape_mag,30.45,-1.95,-15.6,10.0,0.0,0.0,0.0,10.0,0.0,0.0,0.0,10.0
1446038835878450700,482,1446038835873495101,robocape_mag,30.45,-1.95,-15.6,10.0,0.0,0.0,0.0,10.0,0.0,0.0,0.0,10.0
1446038835911555366,483,1446038835906632900,robocape_mag,30.45,-1.95,-15.6,10.0,0.0,0.0,0.0,10.0,0.0,0.0,0.0,10.0
1446038835944824866,484,1446038835940013885,robocape_mag,30.45,-1.95,-15.6,10.0,0.0,0.0,0.0,10.0,0.0,0.0,0.0,10.0
1446038835978208325,485,1446038835973377943,robocape_mag,44.25,-6.15,-22.2,10.0,0.0,0.0,0.0,10.0,0.0,0.0,0.0,10.0
1446038836011942741,486,1446038836006638050,robocape_mag,44.25,-6.15,-22.2,10.0,0.0,0.0,0.0,10.0,0.0,0.0,0.0,10.0
1446038836046597158,487,1446038836041779994,robocape_mag,44.25,-6.15,-22.2,10.0,0.0,0.0,0.0,10.0,0.0,0.0,0.0,10.0
1446038836079861908,488,1446038836073652029,robocape_mag,44.25,-6.15,-22.2,10.0,0.0,0.0,0.0,10.0,0.0,0.0,0.0,10.0
1446038836111394616,489,1446038836106621026,robocape_mag,44.25,-0.75,-34.2,10.0,0.0,0.0,0.0,10.0,0.0,0.0,0.0,10.0
1446038836145254491,490,1446038836140345096,robocape_mag,30.45,-0.75,-34.2,10.0,0.0,0.0,0.0,10.0,0.0,0.0,0.0,10.0
1446038836178320158,491,1446038836173511981,robocape_mag,30.45,-0.75,-34.2,10.0,0.0,0.0,0.0,10.0,0.0,0.0,0.0,10.0
1446038836215215241,492,1446038836210417985,robocape_mag,30.45,-0.75,-34.2,10.0,0.0,0.0,0.0,10.0,0.0,0.0,0.0,10.0
1446038836246253450,493,1446038836241338014,robocape_mag,30.45,-0.75,-34.2,10.0,0.0,0.0,0.0,10.0,0.0,0.0,0.0,10.0
1446038836279145825,494,1446038836274269104,robocape_mag,32.55,2.55,-36.9,10.0,0.0,0.0,0.0,10.0,0.0,0.0,0.0,10.0
1446038836312443075,495,1446038836307575941,robocape_mag,32.55,2.55,-36.9,10.0,0.0,0.0,0.0,10.0,0.0,0.0,0.0,10.0
1446038836345401950,496,1446038836340418100,robocape_mag,32.55,2.55,-36.9,10.0,0.0,0.0,0.0,10.0,0.0,0.0,0.0,10.0
1446038836378576700,497,1446038836373686075,robocape_mag,32.55,2.55,-36.9,10.0,0.0,0.0,0.0,10.0,0.0,0.0,0.0,10.0
1446038836411333283,498,1446038836406644105,robocape_mag,32.55,2.55,-36.9,10.0,0.0,0.0,0.0,10.0,0.0,0.0,0.0,10.0
1446038836444852075,499,1446038836440067052,robocape_mag,38.25,6.45,-36.0,10.0,0.0,0.0,0.0,10.0,0.0,0.0,0.0,10.0
1446038836478275700,500,1446038836473434925,robocape_mag,38.25,6.45,-36.0,10.0,0.0,0.0,0.0,10.0,0.0,0.0,0.0,10.0
1446038836511420658,501,1446038836506661891,robocape_mag,38.25,6.45,-36.0,10.0,0.0,0.0,0.0,10.0,0.0,0.0,0.0,10.0
1446038836549048617,502,1446038836544308900,robocape_mag,38.25,6.45,-36.0,10.0,0.0,0.0,0.0,10.0,0.0,0.0,0.0,10.0
1446038836578478200,503,1446038836573386907,robocape_mag,38.25,6.45,-36.0,10.0,0.0,0.0,0.0,10.0,0.0,0.0,0.0,10.0
1446038836611635533,504,1446038836606774091,robocape_mag,35.55,9.75,-27.9,10.0,0.0,0.0,0.0,10.0,0.0,0.0,0.0,10.0
1446038836645263908,505,1446038836640261888,robocape_mag,35.55,9.75,-27.9,10.0,0.0,0.0,0.0,10.0,0.0,0.0,0.0,10.0
1446038836679201575,506,1446038836674293041,robocape_mag,35.55,9.75,-27.9,10.0,0.0,0.0,0.0,10.0,0.0,0.0,0.0,10.0
1446038836711417533,507,1446038836706685066,robocape_mag,35.55,9.75,-27.9,10.0,0.0,0.0,0.0,10.0,0.0,0.0,0.0,10.0
1446038836745091450,508,1446038836740173101,robocape_mag,35.55,9.75,-27.9,10.0,0.0,0.0,0.0,10.0,0.0,0.0,0.0,10.0
1446038836778853908,509,1446038836773668050,robocape_mag,33.45,10.65,-18.6,10.0,0.0,0.0,0.0,10.0,0.0,0.0,0.0,10.0
1446038836812580242,510,1446038836807727098,robocape_mag,33.45,10.65,-18.6,10.0,0.0,0.0,0.0,10.0,0.0,0.0,0.0,10.0
1446038836844851575,511,1446038836839930057,robocape_mag,33.45,10.65,-18.6,10.0,0.0,0.0,0.0,10.0,0.0,0.0,0.0,10.0
1446038836883640783,512,1446038836878591060,robocape_mag,33.45,10.65,-18.6,10.0,0.0,0.0,0.0,10.0,0.0,0.0,0.0,10.0
1446038836914511492,513,1446038836909733057,robocape_mag,27.75,11.55,-28.5,10.0,0.0,0.0,0.0,10.0,0.0,0.0,0.0,10.0
1446038836944883283,514,1446038836940033912,robocape_mag,27.75,11.55,-28.5,10.0,0.0,0.0,0.0,10.0,0.0,0.0,0.0,10.0
1446038836980574242,515,1446038836973259925,robocape_mag,27.75,11.55,-28.5,10.0,0.0,0.0,0.0,10.0,0.0,0.0,0.0,10.0
1446038837011541908,516,1446038837006671905,robocape_mag,27.75,11.55,-28.5,10.0,0.0,0.0,0.0,10.0,0.0,0.0,0.0,10.0
1446038837044895658,517,1446038837040113925,robocape_mag,27.75,11.55,-28.5,10.0,0.0,0.0,0.0,10.0,0.0,0.0,0.0,10.0
1446038837084034783,518,1446038837073411941,robocape_mag,27.45,9.45,-25.8,10.0,0.0,0.0,0.0,10.0,0.0,0.0,0.0,10.0
1446038837111531033,519,1446038837106779098,robocape_mag,27.45,9.45,-25.8,10.0,0.0,0.0,0.0,10.0,0.0,0.0,0.0,10.0
1446038837145112700,520,1446038837139985084,robocape_mag,27.45,9.45,-25.8,10.0,0.0,0.0,0.0,10.0,0.0,0.0,0.0,10.0
1446038837178790659,521,1446038837173465967,robocape_mag,27.45,9.45,-25.8,10.0,0.0,0.0,0.0,10.0,0.0,0.0,0.0,10.0
1446038837213094700,522,1446038837208132982,robocape_mag,27.45,9.45,-25.8,10.0,0.0,0.0,0.0,10.0,0.0,0.0,0.0,10.0
1446038837245100284,523,1446038837239967107,robocape_mag,25.05,14.25,-25.8,10.0,0.0,0.0,0.0,10.0,0.0,0.0,0.0,10.0
1446038837278328909,524,1446038837273351907,robocape_mag,25.05,14.25,-25.8,10.0,0.0,0.0,0.0,10.0,0.0,0.0,0.0,10.0
1446038837312845284,525,1446038837308034896,robocape_mag,25.05,14.25,-25.8,10.0,0.0,0.0,0.0,10.0,0.0,0.0,0.0,10.0
1446038837345858534,526,1446038837340959072,robocape_mag,25.05,14.25,-25.8,10.0,0.0,0.0,0.0,10.0,0.0,0.0,0.0,10.0
