%time,field.header.seq,field.header.stamp,field.header.frame_id,field.magnetic_field.x,field.magnetic_field.y,field.magnetic_field.z,field.magnetic_field_covariance0,field.magnetic_field_covariance1,field.magnetic_field_covariance2,field.magnetic_field_covariance3,field.magnetic_field_covariance4,field.magnetic_field_covariance5,field.magnetic_field_covariance6,field.magnetic_field_covariance7,field.magnetic_field_covariance8
1452009323070264099,1,1452009322656652927,robocape_mag,6.15,-14.1,-1.2,10.0,0.0,0.0,0.0,10.0,0.0,0.0,0.0,10.0
1452009323072385433,2,1452009322684426069,robocape_mag,6.15,-14.1,-1.2,10.0,0.0,0.0,0.0,10.0,0.0,0.0,0.0,10.0
1452009323074123058,3,1452009322716624021,robocape_mag,6.15,-14.1,-1.2,10.0,0.0,0.0,0.0,10.0,0.0,0.0,0.0,10.0
1452009323074186599,4,1452009322754743099,robocape_mag,6.45,-14.4,-2.7,10.0,0.0,0.0,0.0,10.0,0.0,0.0,0.0,10.0
1452009323074315808,5,1452009322800112009,robocape_mag,6.45,-14.4,-2.7,10.0,0.0,0.0,0.0,10.0,0.0,0.0,0.0,10.0
1452009323074355474,6,1452009322824503898,robocape_mag,6.45,-14.4,-2.7,10.0,0.0,0.0,0.0,10.0,0.0,0.0,0.0,10.0
1452009323074393808,7,1452009322850250005,robocape_mag,6.45,-14.4,-2.7,10.0,0.0,0.0,0.0,10.0,0.0,0.0,0.0,10.0
1452009323084523683,8,1452009322882014989,robocape_mag,6.45,-14.4,-2.7,10.0,0.0,0.0,0.0,10.0,0.0,0.0,0.0,10.0
1452009323086699766,9,1452009322919002056,robocape_mag,6.15,-14.7,-3.6,10.0,0.0,0.0,0.0,10.0,0.0,0.0,0.0,10.0
1452009323090820099,10,1452009322984436988,robocape_mag,6.15,-14.7,-3.6,10.0,0.0,0.0,0.0,10.0,0.0,0.0,0.0,10.0
1452009323090898558,11,1452009323013570070,robocape_mag,6.15,-14.7,-3.6,10.0,0.0,0.0,0.0,10.0,0.0,0.0,0.0,10.0
1452009323091080766,12,1452009323037194967,robocape_mag,6.15,-14.7,-3.6,10.0,0.0,0.0,0.0,10.0,0.0,0.0,0.0,10.0
1452009323101133766,13,1452009323059983015,robocape_mag,6.15,-14.7,-3.6,10.0,0.0,0.0,0.0,10.0,0.0,0.0,0.0,10.0
1452009323108399974,14,1452009323087198019,robocape_mag,6.15,-14.7,-1.8,10.0,0.0,0.0,0.0,10.0,0.0,0.0,0.0,10.0
1452009323132716891,15,1452009323122879981,robocape_mag,6.15,-14.7,-1.8,10.0,0.0,0.0,0.0,10.0,0.0,0.0,0.0,10.0
1452009323156331391,16,1452009323151248931,robocape_mag,6.15,-14.7,-1.8,10.0,0.0,0.0,0.0,10.0,0.0,0.0,0.0,10.0
1452009323191680183,17,1452009323184484004,robocape_mag,6.15,-14.7,-1.8,10.0,0.0,0.0,0.0,10.0,0.0,0.0,0.0,10.0
1452009323224073974,18,1452009323219101905,robocape_mag,6.15,-14.7,-1.8,10.0,0.0,0.0,0.0,10.0,0.0,0.0,0.0,10.0
1452009323257301141,19,1452009323252173900,robocape_mag,7.95,-12.9,-1.2,10.0,0.0,0.0,0.0,10.0,0.0,0.0,0.0,10.0
1452009323290796933,20,1452009323285440921,robocape_mag,7.95,-12.9,-1.2,10.0,0.0,0.0,0.0,10.0,0.0,0.0,0.0,10.0
1452009323324477224,21,1452009323319557905,robocape_mag,7.95,-12.9,-1.2,10.0,0.0,0.0,0.0,10.0,0.0,0.0,0.0,10.0
1452009323355960433,22,1452009323351073980,robocape_mag,7.95,-12.9,-1.2,10.0,0.0,0.0,0.0,10.0,0.0,0.0,0.0,10.0
1452009323389571474,23,1452009323383615016,robocape_mag,7.95,-12.9,-1.2,10.0,0.0,0.0,0.0,10.0,0.0,0.0,0.0,10.0
1452009323423100724,24,1452009323418020963,robocape_mag,5.55,-13.5,-2.4,10.0,0.0,0.0,0.0,10.0,0.0,0.0,0.0,10.0
1452009323456385724,25,1452009323451518058,robocape_mag,5.55,-13.5,-2.4,10.0,0.0,0.0,0.0,10.0,0.0,0.0,0.0,10.0
1452009323488749266,26,1452009323483659982,robocape_mag,5.55,-13.5,-2.4,10.0,0.0,0.0,0.0,10.0,0.0,0.0,0.0,10.0
1452009323523353016,27,1452009323518146038,robocape_mag,5.55,-13.5,-2.4,10.0,0.0,0.0,0.0,10.0,0.0,0.0,0.0,10.0
1452009323555683474,28,1452009323550929069,robocape_mag,5.85,-13.2,-2.7,10.0,0.0,0.0,0.0,10.0,0.0,0.0,0.0,10.0
1452009323589322266,29,1452009323584042072,robocape_mag,5.85,-13.2,-2.7,10.0,0.0,0.0,0.0,10.0,0.0,0.0,0.0,10.0
1452009323621845599,30,1452009323616647958,robocape_mag,5.85,-13.2,-2.7,10.0,0.0,0.0,0.0,10.0,0.0,0.0,0.0,10.0
1452009323653827766,31,1452009323648932933,robocape_mag,5.85,-13.2,-2.7,10.0,0.0,0.0,0.0,10.0,0.0,0.0,0.0,10.0
1452009323687712891,32,1452009323682934045,robocape_mag,5.85,-13.2,-2.7,10.0,0.0,0.0,0.0,10.0,0.0,0.0,0.0,10.0
1452009323721875141,33,1452009323716986894,robocape_mag,5.25,-15.0,-0.3,10.0,0.0,0.0,0.0,10.0,0.0,0.0,0.0,10.0
1452009323753349808,34,1452009323748291969,robocape_mag,5.25,-15.0,-0.3,10.0,0.0,0.0,0.0,10.0,0.0,0.0,0.0,10.0
1452009323786556891,35,1452009323781547069,robocape_mag,5.25,-15.0,-0.3,10.0,0.0,0.0,0.0,10.0,0.0,0.0,0.0,10.0
1452009323819857225,36,1452009323815026044,robocape_mag,5.25,-15.0,-0.3,10.0,0.0,0.0,0.0,10.0,0.0,0.0,0.0,10.0
1452009323852538600,37,1452009323847701072,robocape_mag,5.25,-15.0,-0.3,10.0,0.0,0.0,0.0,10.0,0.0,0.0,0.0,10.0
1452009323886023433,38,1452009323881017923,robocape_mag,5.55,-13.5,-2.4,10.0,0.0,0.0,0.0,10.0,0.0,0.0,0.0,10.0
1452009323919593558,39,1452009323914557933,robocape_mag,5.55,-13.5,-2.4,10.0,0.0,0.0,0.0,10.0,0.0,0.0,0.0,10.0
1452009323952609016,40,1452009323947767019,robocape_mag,5.55,-13.5,-2.4,10.0,0.0,0.0,0.0,10.0,0.0,0.0,0.0,10.0
1452009323985740016,41,1452009323980734109,robocape_mag,5.55,-13.5,-2.4,10.0,0.0,0.0,0.0,10.0,0.0,0.0,0.0,10.0
1452009324019360933,42,1452009324014247894,robocape_mag,5.55,-13.5,-2.4,10.0,0.0,0.0,0.0,10.0,0.0,0.0,0.0,10.0
1452009324060592183,43,1452009324047606945,robocape_mag,7.65,-15.0,-2.1,10.0,0.0,0.0,0.0,10.0,0.0,0.0,0.0,10.0
1452009324088327850,44,1452009324082582950,robocape_mag,7.65,-15.0,-2.1,10.0,0.0,0.0,0.0,10.0,0.0,0.0,0.0,10.0
1452009324119459850,45,1452009324114522933,robocape_mag,7.65,-15.0,-2.1,10.0,0.0,0.0,0.0,10.0,0.0,0.0,0.0,10.0
1452009324152486475,46,1452009324147722005,robocape_mag,7.65,-15.0,-2.1,10.0,0.0,0.0,0.0,10.0,0.0,0.0,0.0,10.0
1452009324185883266,47,1452009324180902957,robocape_mag,7.65,-15.0,-2.1,10.0,0.0,0.0,0.0,10.0,0.0,0.0,0.0,10.0
1452009324219563516,48,1452009324214718103,robocape_mag,6.45,-13.2,-1.5,10.0,0.0,0.0,0.0,10.0,0.0,0.0,0.0,10.0
1452009324252618725,49,1452009324247786998,robocape_mag,6.45,-13.2,-1.5,10.0,0.0,0.0,0.0,10.0,0.0,0.0,0.0,10.0
1452009324285982058,50,1452009324280944108,robocape_mag,6.45,-13.2,-1.5,10.0,0.0,0.0,0.0,10.0,0.0,0.0,0.0,10.0
1452009324321002350,51,1452009324315618991,robocape_mag,6.45,-13.2,-1.5,10.0,0.0,0.0,0.0,10.0,0.0,0.0,0.0,10.0
1452009324352448975,52,1452009324347594022,robocape_mag,6.45,-13.2,0.3,10.0,0.0,0.0,0.0,10.0,0.0,0.0,0.0,10.0
1452009324385642683,53,1452009324380671977,robocape_mag,9.45,-11.4,0.3,10.0,0.0,0.0,0.0,10.0,0.0,0.0,0.0,10.0
1452009324419637100,54,1452009324414293050,robocape_mag,9.45,-11.4,0.3,10.0,0.0,0.0,0.0,10.0,0.0,0.0,0.0,10.0
1452009324452507225,55,1452009324447455883,robocape_mag,9.45,-11.4,0.3,10.0,0.0,0.0,0.0,10.0,0.0,0.0,0.0,10.0
1452009324487735517,56,1452009324480679035,robocape_mag,9.45,-11.4,0.3,10.0,0.0,0.0,0.0,10.0,0.0,0.0,0.0,10.0
1452009324519752933,57,1452009324514389991,robocape_mag,7.35,-17.7,1.8,10.0,0.0,0.0,0.0,10.0,0.0,0.0,0.0,10.0
1452009324554349892,58,1452009324547497987,robocape_mag,7.35,-17.7,1.8,10.0,0.0,0.0,0.0,10.0,0.0,0.0,0.0,10.0
1452009324585949433,59,1452009324580696105,robocape_mag,7.35,-17.7,1.8,10.0,0.0,0.0,0.0,10.0,0.0,0.0,0.0,10.0
1452009324621514100,60,1452009324614470958,robocape_mag,7.35,-17.7,1.8,10.0,0.0,0.0,0.0,10.0,0.0,0.0,0.0,10.0
1452009324652665808,61,1452009324647464990,robocape_mag,7.35,-17.7,1.8,10.0,0.0,0.0,0.0,10.0,0.0,0.0,0.0,10.0
1452009324687375017,62,1452009324680809974,robocape_mag,6.15,-24.3,6.6,10.0,0.0,0.0,0.0,10.0,0.0,0.0,0.0,10.0
1452009324719735975,63,1452009324714133024,robocape_mag,6.15,-24.3,6.6,10.0,0.0,0.0,0.0,10.0,0.0,0.0,0.0,10.0
1452009324753418392,64,1452009324748318910,robocape_mag,6.15,-24.3,6.6,10.0,0.0,0.0,0.0,10.0,0.0,0.0,0.0,10.0
1452009324787059767,65,1452009324780766963,robocape_mag,6.15,-24.3,6.6,10.0,0.0,0.0,0.0,10.0,0.0,0.0,0.0,10.0
1452009324819914767,66,1452009324814461946,robocape_mag,6.15,-24.3,6.6,10.0,0.0,0.0,0.0,10.0,0.0,0.0,0.0,10.0
1452009324852621892,67,1452009324847642898,robocape_mag,6.15,-24.9,7.2,10.0,0.0,0.0,0.0,10.0,0.0,0.0,0.0,10.0
1452009324887384642,68,1452009324880892038,robocape_mag,6.15,-24.9,7.2,10.0,0.0,0.0,0.0,10.0,0.0,0.0,0.0,10.0
1452009324921131392,69,1452009324914185047,robocape_mag,6.15,-24.9,7.2,10.0,0.0,0.0,0.0,10.0,0.0,0.0,0.0,10.0
1452009324954001183,70,1452009324949240922,robocape_mag,6.15,-24.9,7.2,10.0,0.0,0.0,0.0,10.0,0.0,0.0,0.0,10.0
1452009324986788892,71,1452009324981873989,robocape_mag,6.15,-24.9,7.2,10.0,0.0,0.0,0.0,10.0,0.0,0.0,0.0,10.0
1452009325021102558,72,1452009325015526056,robocape_mag,7.05,-27.0,14.7,10.0,0.0,0.0,0.0,10.0,0.0,0.0,0.0,10.0
1452009325053805058,73,1452009325048938035,robocape_mag,7.05,-27.0,14.7,10.0,0.0,0.0,0.0,10.0,0.0,0.0,0.0,10.0
1452009325088365142,74,1452009325082369089,robocape_mag,7.05,-27.0,14.7,10.0,0.0,0.0,0.0,10.0,0.0,0.0,0.0,10.0
1452009325124671309,75,1452009325115663051,robocape_mag,7.05,-27.0,14.7,10.0,0.0,0.0,0.0,10.0,0.0,0.0,0.0,10.0
1452009325154718975,76,1452009325149925947,robocape_mag,5.85,-29.4,20.1,10.0,0.0,0.0,0.0,10.0,0.0,0.0,0.0,10.0
1452009325188365517,77,1452009325182935953,robocape_mag,5.85,-29.4,20.1,10.0,0.0,0.0,0.0,10.0,0.0,0.0,0.0,10.0
1452009325230599475,78,1452009325218830108,robocape_mag,5.85,-29.4,20.1,10.0,0.0,0.0,0.0,10.0,0.0,0.0,0.0,10.0
1452009325256243975,79,1452009325251355886,robocape_mag,5.85,-29.4,20.1,10.0,0.0,0.0,0.0,10.0,0.0,0.0,0.0,10.0
1452009325289713434,80,1452009325284718990,robocape_mag,5.85,-29.4,20.1,10.0,0.0,0.0,0.0,10.0,0.0,0.0,0.0,10.0
1452009325328635017,81,1452009325319622039,robocape_mag,4.95,-29.7,19.2,10.0,0.0,0.0,0.0,10.0,0.0,0.0,0.0,10.0
1452009325361789059,82,1452009325351444005,robocape_mag,4.95,-29.7,19.2,10.0,0.0,0.0,0.0,10.0,0.0,0.0,0.0,10.0
1452009325394484600,83,1452009325383857965,robocape_mag,4.95,-29.7,19.2,10.0,0.0,0.0,0.0,10.0,0.0,0.0,0.0,10.0
1452009325423994475,84,1452009325416471958,robocape_mag,4.95,-29.7,19.2,10.0,0.0,0.0,0.0,10.0,0.0,0.0,0.0,10.0
1452009325457735392,85,1452009325452547073,robocape_mag,4.95,-29.7,19.2,10.0,0.0,0.0,0.0,10.0,0.0,0.0,0.0,10.0
1452009325490696517,86,1452009325485306978,robocape_mag,4.35,-27.3,17.4,10.0,0.0,0.0,0.0,10.0,0.0,0.0,0.0,10.0
1452009325527814475,87,1452009325517401933,robocape_mag,4.35,-27.3,17.4,10.0,0.0,0.0,0.0,10.0,0.0,0.0,0.0,10.0
1452009325556004684,88,1452009325550832986,robocape_mag,4.35,-27.3,17.4,10.0,0.0,0.0,0.0,10.0,0.0,0.0,0.0,10.0
1452009325590554267,89,1452009325585347890,robocape_mag,4.35,-27.3,17.4,10.0,0.0,0.0,0.0,10.0,0.0,0.0,0.0,10.0
1452009325627339642,90,1452009325618556022,robocape_mag,4.35,-27.3,17.4,10.0,0.0,0.0,0.0,10.0,0.0,0.0,0.0,10.0
1452009325659873559,91,1452009325650964021,robocape_mag,3.15,-27.9,19.2,10.0,0.0,0.0,0.0,10.0,0.0,0.0,0.0,10.0
1452009325689485892,92,1452009325684350013,robocape_mag,3.15,-27.9,19.2,10.0,0.0,0.0,0.0,10.0,0.0,0.0,0.0,10.0
1452009325723341059,93,1452009325718024969,robocape_mag,3.15,-27.9,19.2,10.0,0.0,0.0,0.0,10.0,0.0,0.0,0.0,10.0
1452009325759738809,94,1452009325750967979,robocape_mag,3.15,-27.9,19.2,10.0,0.0,0.0,0.0,10.0,0.0,0.0,0.0,10.0
1452009325788472392,95,1452009325783533096,robocape_mag,3.15,-27.9,19.2,10.0,0.0,0.0,0.0,10.0,0.0,0.0,0.0,10.0
1452009325822768017,96,1452009325817270040,robocape_mag,4.05,-27.0,20.1,10.0,0.0,0.0,0.0,10.0,0.0,0.0,0.0,10.0
1452009325855293892,97,1452009325850419998,robocape_mag,4.05,-27.0,20.1,10.0,0.0,0.0,0.0,10.0,0.0,0.0,0.0,10.0
1452009325888854851,98,1452009325883801937,robocape_mag,4.05,-27.0,20.1,10.0,0.0,0.0,0.0,10.0,0.0,0.0,0.0,10.0
1452009325923236226,99,1452009325916934967,robocape_mag,4.05,-27.0,20.1,10.0,0.0,0.0,0.0,10.0,0.0,0.0,0.0,10.0
1452009325955626726,100,1452009325950195074,robocape_mag,3.15,-28.5,19.2,10.0,0.0,0.0,0.0,10.0,0.0,0.0,0.0,10.0
1452009325987520809,101,1452009325982407093,robocape_mag,3.15,-28.5,19.2,10.0,0.0,0.0,0.0,10.0,0.0,0.0,0.0,10.0
1452009326022433976,102,1452009326017069101,robocape_mag,3.15,-28.5,19.2,10.0,0.0,0.0,0.0,10.0,0.0,0.0,0.0,10.0
1452009326061759809,103,1452009326050532102,robocape_mag,3.15,-28.5,19.2,10.0,0.0,0.0,0.0,10.0,0.0,0.0,0.0,10.0
1452009326088648892,104,1452009326083082914,robocape_mag,3.15,-28.5,19.2,10.0,0.0,0.0,0.0,10.0,0.0,0.0,0.0,10.0
1452009326119910059,105,1452009326114965915,robocape_mag,4.95,-28.5,20.4,10.0,0.0,0.0,0.0,10.0,0.0,0.0,0.0,10.0
1452009326153116642,106,1452009326148123979,robocape_mag,4.95,-28.5,20.4,10.0,0.0,0.0,0.0,10.0,0.0,0.0,0.0,10.0
1452009326186056142,107,1452009326181212902,robocape_mag,4.95,-28.5,20.4,10.0,0.0,0.0,0.0,10.0,0.0,0.0,0.0,10.0
1452009326220340351,108,1452009326214834928,robocape_mag,4.95,-28.5,20.4,10.0,0.0,0.0,0.0,10.0,0.0,0.0,0.0,10.0
1452009326252546434,109,1452009326247550964,robocape_mag,4.95,-28.5,20.4,10.0,0.0,0.0,0.0,10.0,0.0,0.0,0.0,10.0
1452009326285987142,110,1452009326281044960,robocape_mag,7.35,-26.7,19.2,10.0,0.0,0.0,0.0,10.0,0.0,0.0,0.0,10.0
1452009326319103059,111,1452009326314148902,robocape_mag,7.35,-26.7,19.2,10.0,0.0,0.0,0.0,10.0,0.0,0.0,0.0,10.0
1452009326352318434,112,1452009326347388029,robocape_mag,7.35,-26.7,19.2,10.0,0.0,0.0,0.0,10.0,0.0,0.0,0.0,10.0
1452009326385732059,113,1452009326380924940,robocape_mag,7.35,-26.7,19.2,10.0,0.0,0.0,0.0,10.0,0.0,0.0,0.0,10.0
1452009326419195976,114,1452009326414237976,robocape_mag,7.35,-26.7,19.2,10.0,0.0,0.0,0.0,10.0,0.0,0.0,0.0,10.0
1452009326453147351,115,1452009326448136091,robocape_mag,5.25,-27.0,20.1,10.0,0.0,0.0,0.0,10.0,0.0,0.0,0.0,10.0
1452009326486029017,116,1452009326481116056,robocape_mag,5.25,-27.0,20.1,10.0,0.0,0.0,0.0,10.0,0.0,0.0,0.0,10.0
1452009326519043143,117,1452009326514189958,robocape_mag,5.25,-27.0,20.1,10.0,0.0,0.0,0.0,10.0,0.0,0.0,0.0,10.0
1452009326552692101,118,1452009326547580003,robocape_mag,5.25,-27.0,20.1,10.0,0.0,0.0,0.0,10.0,0.0,0.0,0.0,10.0
1452009326586048726,119,1452009326581083059,robocape_mag,5.25,-27.0,20.1,10.0,0.0,0.0,0.0,10.0,0.0,0.0,0.0,10.0
1452009326619774893,120,1452009326614778995,robocape_mag,4.05,-27.0,20.1,10.0,0.0,0.0,0.0,10.0,0.0,0.0,0.0,10.0
1452009326653787143,121,1452009326648669958,robocape_mag,4.05,-27.0,20.1,10.0,0.0,0.0,0.0,10.0,0.0,0.0,0.0,10.0
1452009326685942643,122,1452009326680865049,robocape_mag,4.05,-27.0,20.1,10.0,0.0,0.0,0.0,10.0,0.0,0.0,0.0,10.0
1452009326719172851,123,1452009326714303970,robocape_mag,4.05,-27.0,20.1,10.0,0.0,0.0,0.0,10.0,0.0,0.0,0.0,10.0
1452009326752261893,124,1452009326747442960,robocape_mag,4.05,-27.0,20.4,10.0,0.0,0.0,0.0,10.0,0.0,0.0,0.0,10.0
1452009326786710143,125,1452009326780936002,robocape_mag,5.55,-27.9,20.4,10.0,0.0,0.0,0.0,10.0,0.0,0.0,0.0,10.0
1452009326819909809,126,1452009326814273118,robocape_mag,5.55,-27.9,20.4,10.0,0.0,0.0,0.0,10.0,0.0,0.0,0.0,10.0
1452009326852822559,127,1452009326847338914,robocape_mag,5.55,-27.9,20.4,10.0,0.0,0.0,0.0,10.0,0.0,0.0,0.0,10.0
1452009326887567684,128,1452009326880726099,robocape_mag,5.55,-27.9,20.4,10.0,0.0,0.0,0.0,10.0,0.0,0.0,0.0,10.0
1452009326919266684,129,1452009326914158105,robocape_mag,11.85,-22.8,5.1,10.0,0.0,0.0,0.0,10.0,0.0,0.0,0.0,10.0
1452009326952996809,130,1452009326947438001,robocape_mag,11.85,-22.8,5.1,10.0,0.0,0.0,0.0,10.0,0.0,0.0,0.0,10.0
1452009326987851768,131,1452009326980945110,robocape_mag,11.85,-22.8,5.1,10.0,0.0,0.0,0.0,10.0,0.0,0.0,0.0,10.0
1452009327019460268,132,1452009327014095067,robocape_mag,11.85,-22.8,5.1,10.0,0.0,0.0,0.0,10.0,0.0,0.0,0.0,10.0
1452009327056484393,133,1452009327051326990,robocape_mag,11.85,-22.8,5.1,10.0,0.0,0.0,0.0,10.0,0.0,0.0,0.0,10.0
1452009327085996101,134,1452009327080754041,robocape_mag,-15.75,-10.2,42.3,10.0,0.0,0.0,0.0,10.0,0.0,0.0,0.0,10.0
1452009327119191351,135,1452009327114223957,robocape_mag,-15.75,-10.2,42.3,10.0,0.0,0.0,0.0,10.0,0.0,0.0,0.0,10.0
1452009327152268351,136,1452009327147373914,robocape_mag,-15.75,-10.2,42.3,10.0,0.0,0.0,0.0,10.0,0.0,0.0,0.0,10.0
1452009327185946101,137,1452009327181036949,robocape_mag,-15.75,-10.2,42.3,10.0,0.0,0.0,0.0,10.0,0.0,0.0,0.0,10.0
1452009327219268101,138,1452009327214329957,robocape_mag,-15.75,-10.2,42.3,10.0,0.0,0.0,0.0,10.0,0.0,0.0,0.0,10.0
1452009327256365226,139,1452009327249653100,robocape_mag,-16.35,-7.8,38.1,10.0,0.0,0.0,0.0,10.0,0.0,0.0,0.0,10.0
1452009327285629143,140,1452009327280832052,robocape_mag,-16.35,-7.8,38.1,10.0,0.0,0.0,0.0,10.0,0.0,0.0,0.0,10.0
1452009327322085351,141,1452009327315361022,robocape_mag,-16.35,-7.8,38.1,10.0,0.0,0.0,0.0,10.0,0.0,0.0,0.0,10.0
1452009327353596143,142,1452009327348721027,robocape_mag,-16.35,-7.8,38.1,10.0,0.0,0.0,0.0,10.0,0.0,0.0,0.0,10.0
1452009327387677726,143,1452009327382131099,robocape_mag,-16.35,-7.8,38.1,10.0,0.0,0.0,0.0,10.0,0.0,0.0,0.0,10.0
1452009327420802893,144,1452009327415626049,robocape_mag,-10.95,-7.2,31.5,10.0,0.0,0.0,0.0,10.0,0.0,0.0,0.0,10.0
1452009327454477018,145,1452009327449428081,robocape_mag,-10.95,-7.2,31.5,10.0,0.0,0.0,0.0,10.0,0.0,0.0,0.0,10.0
1452009327490153226,146,1452009327482567071,robocape_mag,-10.95,-7.2,31.5,10.0,0.0,0.0,0.0,10.0,0.0,0.0,0.0,10.0
1452009327530856351,147,1452009327518970966,robocape_mag,-10.95,-7.2,31.5,10.0,0.0,0.0,0.0,10.0,0.0,0.0,0.0,10.0
1452009327553271893,148,1452009327548434019,robocape_mag,-10.95,-7.2,20.1,10.0,0.0,0.0,0.0,10.0,0.0,0.0,0.0,10.0
1452009327586381518,149,1452009327581594944,robocape_mag,11.85,-1.8,20.1,10.0,0.0,0.0,0.0,10.0,0.0,0.0,0.0,10.0
1452009327629273935,150,1452009327618674993,robocape_mag,11.85,-1.8,20.1,10.0,0.0,0.0,0.0,10.0,0.0,0.0,0.0,10.0
1452009327657809643,151,1452009327649327993,robocape_mag,11.85,-1.8,20.1,10.0,0.0,0.0,0.0,10.0,0.0,0.0,0.0,10.0
1452009327690952226,152,1452009327685136079,robocape_mag,11.85,-1.8,20.1,10.0,0.0,0.0,0.0,10.0,0.0,0.0,0.0,10.0
1452009327724407976,153,1452009327719222068,robocape_mag,15.15,5.7,18.0,10.0,0.0,0.0,0.0,10.0,0.0,0.0,0.0,10.0
1452009327760287060,154,1452009327750762939,robocape_mag,15.15,5.7,18.0,10.0,0.0,0.0,0.0,10.0,0.0,0.0,0.0,10.0
1452009327791273768,155,1452009327785846948,robocape_mag,15.15,5.7,18.0,10.0,0.0,0.0,0.0,10.0,0.0,0.0,0.0,10.0
1452009327828566935,156,1452009327819299936,robocape_mag,15.15,5.7,18.0,10.0,0.0,0.0,0.0,10.0,0.0,0.0,0.0,10.0
1452009327859652310,157,1452009327850492000,robocape_mag,15.15,5.7,18.0,10.0,0.0,0.0,0.0,10.0,0.0,0.0,0.0,10.0
1452009327889255018,158,1452009327884058952,robocape_mag,34.05,3.0,15.3,10.0,0.0,0.0,0.0,10.0,0.0,0.0,0.0,10.0
1452009327928217268,159,1452009327918240070,robocape_mag,34.05,3.0,15.3,10.0,0.0,0.0,0.0,10.0,0.0,0.0,0.0,10.0
1452009327960837685,160,1452009327951698064,robocape_mag,34.05,3.0,15.3,10.0,0.0,0.0,0.0,10.0,0.0,0.0,0.0,10.0
1452009327990447018,161,1452009327983916997,robocape_mag,34.05,3.0,15.3,10.0,0.0,0.0,0.0,10.0,0.0,0.0,0.0,10.0
1452009328023257727,162,1452009328017889022,robocape_mag,34.05,3.0,15.3,10.0,0.0,0.0,0.0,10.0,0.0,0.0,0.0,10.0
1452009328055356185,163,1452009328050328016,robocape_mag,0.75,-2.1,23.4,10.0,0.0,0.0,0.0,10.0,0.0,0.0,0.0,10.0
1452009328089219310,164,1452009328084050893,robocape_mag,0.75,-2.1,23.4,10.0,0.0,0.0,0.0,10.0,0.0,0.0,0.0,10.0
1452009328121862393,165,1452009328116852998,robocape_mag,0.75,-2.1,23.4,10.0,0.0,0.0,0.0,10.0,0.0,0.0,0.0,10.0
1452009328154983560,166,1452009328150198936,robocape_mag,0.75,-2.1,23.4,10.0,0.0,0.0,0.0,10.0,0.0,0.0,0.0,10.0
1452009328188988227,167,1452009328183959960,robocape_mag,0.75,-2.1,23.4,10.0,0.0,0.0,0.0,10.0,0.0,0.0,0.0,10.0
1452009328222597435,168,1452009328217562913,robocape_mag,38.85,1.2,15.9,10.0,0.0,0.0,0.0,10.0,0.0,0.0,0.0,10.0
1452009328255262727,169,1452009328250358104,robocape_mag,38.85,1.2,15.9,10.0,0.0,0.0,0.0,10.0,0.0,0.0,0.0,10.0
1452009328287665977,170,1452009328282768011,robocape_mag,38.85,1.2,15.9,10.0,0.0,0.0,0.0,10.0,0.0,0.0,0.0,10.0
1452009328321765352,171,1452009328316894054,robocape_mag,38.85,1.2,15.9,10.0,0.0,0.0,0.0,10.0,0.0,0.0,0.0,10.0
1452009328353821602,172,1452009328348932027,robocape_mag,38.85,4.2,20.1,10.0,0.0,0.0,0.0,10.0,0.0,0.0,0.0,10.0
1452009328386150727,173,1452009328381295919,robocape_mag,38.85,4.2,20.1,10.0,0.0,0.0,0.0,10.0,0.0,0.0,0.0,10.0
1452009328420193560,174,1452009328415105104,robocape_mag,38.85,4.2,20.1,10.0,0.0,0.0,0.0,10.0,0.0,0.0,0.0,10.0
1452009328453228977,175,1452009328448153018,robocape_mag,38.85,4.2,20.1,10.0,0.0,0.0,0.0,10.0,0.0,0.0,0.0,10.0
1452009328486002393,176,1452009328481086969,robocape_mag,38.85,4.2,20.1,10.0,0.0,0.0,0.0,10.0,0.0,0.0,0.0,10.0
1452009328520701268,177,1452009328515561103,robocape_mag,23.85,-14.4,16.5,10.0,0.0,0.0,0.0,10.0,0.0,0.0,0.0,10.0
1452009328553135185,178,1452009328548379898,robocape_mag,23.85,-14.4,16.5,10.0,0.0,0.0,0.0,10.0,0.0,0.0,0.0,10.0
1452009328587092060,179,1452009328582190036,robocape_mag,23.85,-14.4,16.5,10.0,0.0,0.0,0.0,10.0,0.0,0.0,0.0,10.0
1452009328626345227,180,1452009328615964889,robocape_mag,23.85,-14.4,16.5,10.0,0.0,0.0,0.0,10.0,0.0,0.0,0.0,10.0
1452009328654374144,181,1452009328649504899,robocape_mag,23.85,-14.4,16.5,10.0,0.0,0.0,0.0,10.0,0.0,0.0,0.0,10.0
1452009328691064019,182,1452009328682419061,robocape_mag,31.65,23.4,11.7,10.0,0.0,0.0,0.0,10.0,0.0,0.0,0.0,10.0
1452009328720669769,183,1452009328715358018,robocape_mag,31.65,23.4,11.7,10.0,0.0,0.0,0.0,10.0,0.0,0.0,0.0,10.0
1452009328756400935,184,1452009328751568078,robocape_mag,31.65,23.4,11.7,10.0,0.0,0.0,0.0,10.0,0.0,0.0,0.0,10.0
1452009328790356185,185,1452009328783801078,robocape_mag,31.65,23.4,11.7,10.0,0.0,0.0,0.0,10.0,0.0,0.0,0.0,10.0
1452009328824656144,186,1452009328816276073,robocape_mag,31.65,23.4,11.7,10.0,0.0,0.0,0.0,10.0,0.0,0.0,0.0,10.0
1452009328858337977,187,1452009328851593017,robocape_mag,26.85,-13.8,20.1,10.0,0.0,0.0,0.0,10.0,0.0,0.0,0.0,10.0
1452009328887927060,188,1452009328883043050,robocape_mag,26.85,-13.8,20.1,10.0,0.0,0.0,0.0,10.0,0.0,0.0,0.0,10.0
1452009328923340019,189,1452009328916460990,robocape_mag,26.85,-13.8,20.1,10.0,0.0,0.0,0.0,10.0,0.0,0.0,0.0,10.0
1452009328956017185,190,1452009328950607061,robocape_mag,26.85,-13.8,20.1,10.0,0.0,0.0,0.0,10.0,0.0,0.0,0.0,10.0
1452009328989927519,191,1452009328984752893,robocape_mag,26.85,-13.8,20.1,10.0,0.0,0.0,0.0,10.0,0.0,0.0,0.0,10.0
1452009329023460269,192,1452009329017999887,robocape_mag,26.55,20.7,19.2,10.0,0.0,0.0,0.0,10.0,0.0,0.0,0.0,10.0
1452009329055228977,193,1452009329050126075,robocape_mag,26.55,20.7,19.2,10.0,0.0,0.0,0.0,10.0,0.0,0.0,0.0,10.0
1452009329090126685,194,1452009329085026979,robocape_mag,26.55,20.7,19.2,10.0,0.0,0.0,0.0,10.0,0.0,0.0,0.0,10.0
1452009329123042727,195,1452009329117744922,robocape_mag,26.55,20.7,19.2,10.0,0.0,0.0,0.0,10.0,0.0,0.0,0.0,10.0
1452009329159185435,196,1452009329151413917,robocape_mag,1.95,-14.1,22.8,10.0,0.0,0.0,0.0,10.0,0.0,0.0,0.0,10.0
1452009329188911519,197,1452009329183842897,robocape_mag,1.95,-14.1,22.8,10.0,0.0,0.0,0.0,10.0,0.0,0.0,0.0,10.0
1452009329223576935,198,1452009329217199087,robocape_mag,1.95,-14.1,22.8,10.0,0.0,0.0,0.0,10.0,0.0,0.0,0.0,10.0
1452009329255676852,199,1452009329250751018,robocape_mag,1.95,-14.1,22.8,10.0,0.0,0.0,0.0,10.0,0.0,0.0,0.0,10.0
1452009329287860394,200,1452009329282968044,robocape_mag,1.95,-14.1,22.8,10.0,0.0,0.0,0.0,10.0,0.0,0.0,0.0,10.0
1452009329321607852,201,1452009329316214084,robocape_mag,-4.65,11.7,20.4,10.0,0.0,0.0,0.0,10.0,0.0,0.0,0.0,10.0
1452009329352421852,202,1452009329347322940,robocape_mag,-4.65,11.7,20.4,10.0,0.0,0.0,0.0,10.0,0.0,0.0,0.0,10.0
1452009329385709811,203,1452009329380781888,robocape_mag,-4.65,11.7,20.4,10.0,0.0,0.0,0.0,10.0,0.0,0.0,0.0,10.0
1452009329421791561,204,1452009329414489030,robocape_mag,-4.65,11.7,20.4,10.0,0.0,0.0,0.0,10.0,0.0,0.0,0.0,10.0
1452009329452524519,205,1452009329447554111,robocape_mag,-4.65,11.7,20.4,10.0,0.0,0.0,0.0,10.0,0.0,0.0,0.0,10.0
1452009329485675561,206,1452009329480864048,robocape_mag,2.85,18.6,24.9,10.0,0.0,0.0,0.0,10.0,0.0,0.0,0.0,10.0
1452009329521383644,207,1452009329514276027,robocape_mag,2.85,18.6,24.9,10.0,0.0,0.0,0.0,10.0,0.0,0.0,0.0,10.0
1452009329552621686,208,1452009329547744989,robocape_mag,2.85,18.6,24.9,10.0,0.0,0.0,0.0,10.0,0.0,0.0,0.0,10.0
1452009329586908727,209,1452009329582134962,robocape_mag,2.85,18.6,24.9,10.0,0.0,0.0,0.0,10.0,0.0,0.0,0.0,10.0
1452009329620875436,210,1452009329615648984,robocape_mag,2.85,18.6,24.9,10.0,0.0,0.0,0.0,10.0,0.0,0.0,0.0,10.0
1452009329653783227,211,1452009329648936986,robocape_mag,21.15,25.5,18.0,10.0,0.0,0.0,0.0,10.0,0.0,0.0,0.0,10.0
1452009329686932352,212,1452009329682087898,robocape_mag,21.15,25.5,18.0,10.0,0.0,0.0,0.0,10.0,0.0,0.0,0.0,10.0
1452009329721466477,213,1452009329716008901,robocape_mag,21.15,25.5,18.0,10.0,0.0,0.0,0.0,10.0,0.0,0.0,0.0,10.0
1452009329754093394,214,1452009329749309062,robocape_mag,21.15,25.5,18.0,10.0,0.0,0.0,0.0,10.0,0.0,0.0,0.0,10.0
1452009329787175477,215,1452009329782299041,robocape_mag,21.15,25.5,18.0,10.0,0.0,0.0,0.0,10.0,0.0,0.0,0.0,10.0
1452009329821040936,216,1452009329816023111,robocape_mag,32.55,11.7,16.2,10.0,0.0,0.0,0.0,10.0,0.0,0.0,0.0,10.0
1452009329857595061,217,1452009329852792978,robocape_mag,32.55,11.7,16.2,10.0,0.0,0.0,0.0,10.0,0.0,0.0,0.0,10.0
1452009329889166686,218,1452009329882462024,robocape_mag,32.55,11.7,16.2,10.0,0.0,0.0,0.0,10.0,0.0,0.0,0.0,10.0
1452009329922674394,219,1452009329915297985,robocape_mag,32.55,11.7,16.2,10.0,0.0,0.0,0.0,10.0,0.0,0.0,0.0,10.0
1452009329955850977,220,1452009329950402975,robocape_mag,32.55,-14.1,25.2,10.0,0.0,0.0,0.0,10.0,0.0,0.0,0.0,10.0
1452009329988580769,221,1452009329983686923,robocape_mag,-4.05,-14.1,25.2,10.0,0.0,0.0,0.0,10.0,0.0,0.0,0.0,10.0
1452009330026307811,222,1452009330017903089,robocape_mag,-4.05,-14.1,25.2,10.0,0.0,0.0,0.0,10.0,0.0,0.0,0.0,10.0
1452009330054860811,223,1452009330050101041,robocape_mag,-4.05,-14.1,25.2,10.0,0.0,0.0,0.0,10.0,0.0,0.0,0.0,10.0
1452009330089826353,224,1452009330083971977,robocape_mag,-4.05,-14.1,25.2,10.0,0.0,0.0,0.0,10.0,0.0,0.0,0.0,10.0
1452009330122955436,225,1452009330116514921,robocape_mag,1.95,7.5,18.6,10.0,0.0,0.0,0.0,10.0,0.0,0.0,0.0,10.0
1452009330155984394,226,1452009330149935007,robocape_mag,1.95,7.5,18.6,10.0,0.0,0.0,0.0,10.0,0.0,0.0,0.0,10.0
1452009330189227603,227,1452009330183954954,robocape_mag,1.95,7.5,18.6,10.0,0.0,0.0,0.0,10.0,0.0,0.0,0.0,10.0
1452009330227029103,228,1452009330217850923,robocape_mag,1.95,7.5,18.6,10.0,0.0,0.0,0.0,10.0,0.0,0.0,0.0,10.0
1452009330257414353,229,1452009330252458095,robocape_mag,1.95,7.5,18.6,10.0,0.0,0.0,0.0,10.0,0.0,0.0,0.0,10.0
1452009330289787436,230,1452009330284749984,robocape_mag,4.95,-20.1,27.0,10.0,0.0,0.0,0.0,10.0,0.0,0.0,0.0,10.0
1452009330323266311,231,1452009330318005084,robocape_mag,4.95,-20.1,27.0,10.0,0.0,0.0,0.0,10.0,0.0,0.0,0.0,10.0
1452009330355571769,232,1452009330350518941,robocape_mag,4.95,-20.1,27.0,10.0,0.0,0.0,0.0,10.0,0.0,0.0,0.0,10.0
1452009330388158811,233,1452009330383138895,robocape_mag,4.95,-20.1,27.0,10.0,0.0,0.0,0.0,10.0,0.0,0.0,0.0,10.0
1452009330422575269,234,1452009330417049884,robocape_mag,4.95,-20.1,27.0,10.0,0.0,0.0,0.0,10.0,0.0,0.0,0.0,10.0
1452009330455547978,235,1452009330450727939,robocape_mag,9.15,-17.7,27.0,10.0,0.0,0.0,0.0,10.0,0.0,0.0,0.0,10.0
1452009330487828769,236,1452009330482908964,robocape_mag,9.15,-17.7,27.0,10.0,0.0,0.0,0.0,10.0,0.0,0.0,0.0,10.0
1452009330525211769,237,1452009330516830921,robocape_mag,9.15,-17.7,27.0,10.0,0.0,0.0,0.0,10.0,0.0,0.0,0.0,10.0
1452009330555289978,238,1452009330550482988,robocape_mag,9.15,-17.7,27.0,10.0,0.0,0.0,0.0,10.0,0.0,0.0,0.0,10.0
1452009330587568603,239,1452009330582740068,robocape_mag,9.15,-17.7,27.0,10.0,0.0,0.0,0.0,10.0,0.0,0.0,0.0,10.0
1452009330621353103,240,1452009330616223096,robocape_mag,31.05,9.0,20.1,10.0,0.0,0.0,0.0,10.0,0.0,0.0,0.0,10.0
1452009330653263561,241,1452009330648427009,robocape_mag,31.05,9.0,20.1,10.0,0.0,0.0,0.0,10.0,0.0,0.0,0.0,10.0
1452009330686191686,242,1452009330681387901,robocape_mag,31.05,9.0,20.1,10.0,0.0,0.0,0.0,10.0,0.0,0.0,0.0,10.0
1452009330720803228,243,1452009330715882062,robocape_mag,31.05,9.0,20.1,10.0,0.0,0.0,0.0,10.0,0.0,0.0,0.0,10.0
1452009330753302436,244,1452009330748078107,robocape_mag,31.05,17.1,19.2,10.0,0.0,0.0,0.0,10.0,0.0,0.0,0.0,10.0
1452009330785920395,245,1452009330781114101,robocape_mag,7.95,17.1,19.2,10.0,0.0,0.0,0.0,10.0,0.0,0.0,0.0,10.0
1452009330819175353,246,1452009330814295053,robocape_mag,7.95,17.1,19.2,10.0,0.0,0.0,0.0,10.0,0.0,0.0,0.0,10.0
1452009330853055645,247,1452009330847824096,robocape_mag,7.95,17.1,19.2,10.0,0.0,0.0,0.0,10.0,0.0,0.0,0.0,10.0
1452009330885669603,248,1452009330880781888,robocape_mag,7.95,17.1,19.2,10.0,0.0,0.0,0.0,10.0,0.0,0.0,0.0,10.0
1452009330919350728,249,1452009330914442062,robocape_mag,31.95,-0.9,18.0,10.0,0.0,0.0,0.0,10.0,0.0,0.0,0.0,10.0
1452009330956975145,250,1452009330947701930,robocape_mag,31.95,-0.9,18.0,10.0,0.0,0.0,0.0,10.0,0.0,0.0,0.0,10.0
1452009330985808103,251,1452009330980715036,robocape_mag,31.95,-0.9,18.0,10.0,0.0,0.0,0.0,10.0,0.0,0.0,0.0,10.0
1452009331019028686,252,1452009331013968944,robocape_mag,31.95,-0.9,18.0,10.0,0.0,0.0,0.0,10.0,0.0,0.0,0.0,10.0
1452009331054468395,253,1452009331048979997,robocape_mag,31.95,-0.9,18.0,10.0,0.0,0.0,0.0,10.0,0.0,0.0,0.0,10.0
1452009331085718686,254,1452009331080712080,robocape_mag,2.85,18.0,19.5,10.0,0.0,0.0,0.0,10.0,0.0,0.0,0.0,10.0
1452009331123015853,255,1452009331117379903,robocape_mag,2.85,18.0,19.5,10.0,0.0,0.0,0.0,10.0,0.0,0.0,0.0,10.0
1452009331152314520,256,1452009331147414922,robocape_mag,2.85,18.0,19.5,10.0,0.0,0.0,0.0,10.0,0.0,0.0,0.0,10.0
1452009331185890395,257,1452009331180809020,robocape_mag,2.85,18.0,19.5,10.0,0.0,0.0,0.0,10.0,0.0,0.0,0.0,10.0
1452009331219571186,258,1452009331214411020,robocape_mag,2.85,18.0,19.5,10.0,0.0,0.0,0.0,10.0,0.0,0.0,0.0,10.0
1452009331252530520,259,1452009331247765064,robocape_mag,9.75,0.9,25.8,10.0,0.0,0.0,0.0,10.0,0.0,0.0,0.0,10.0
1452009331285909270,260,1452009331281075954,robocape_mag,9.75,0.9,25.8,10.0,0.0,0.0,0.0,10.0,0.0,0.0,0.0,10.0
1452009331319324728,261,1452009331314296007,robocape_mag,9.75,0.9,25.8,10.0,0.0,0.0,0.0,10.0,0.0,0.0,0.0,10.0
1452009331352219978,262,1452009331347467899,robocape_mag,9.75,0.9,25.8,10.0,0.0,0.0,0.0,10.0,0.0,0.0,0.0,10.0
1452009331385574353,263,1452009331380805015,robocape_mag,9.75,0.9,25.8,10.0,0.0,0.0,0.0,10.0,0.0,0.0,0.0,10.0
1452009331427262437,264,1452009331418073892,robocape_mag,-29.85,-8.1,15.6,10.0,0.0,0.0,0.0,10.0,0.0,0.0,0.0,10.0
1452009331456237562,265,1452009331450618982,robocape_mag,-29.85,-8.1,15.6,10.0,0.0,0.0,0.0,10.0,0.0,0.0,0.0,10.0
1452009331489337228,266,1452009331484426021,robocape_mag,-29.85,-8.1,15.6,10.0,0.0,0.0,0.0,10.0,0.0,0.0,0.0,10.0
1452009331523402270,267,1452009331516454935,robocape_mag,-29.85,-8.1,15.6,10.0,0.0,0.0,0.0,10.0,0.0,0.0,0.0,10.0
1452009331554672978,268,1452009331549454927,robocape_mag,-23.55,19.8,22.5,10.0,0.0,0.0,0.0,10.0,0.0,0.0,0.0,10.0
1452009331588062853,269,1452009331583080053,robocape_mag,-23.55,19.8,22.5,10.0,0.0,0.0,0.0,10.0,0.0,0.0,0.0,10.0
1452009331623277187,270,1452009331616914987,robocape_mag,-23.55,19.8,22.5,10.0,0.0,0.0,0.0,10.0,0.0,0.0,0.0,10.0
1452009331655176395,271,1452009331650371074,robocape_mag,-23.55,19.8,22.5,10.0,0.0,0.0,0.0,10.0,0.0,0.0,0.0,10.0
1452009331688424645,272,1452009331683659076,robocape_mag,-23.55,19.8,22.5,10.0,0.0,0.0,0.0,10.0,0.0,0.0,0.0,10.0
1452009331721356187,273,1452009331716284990,robocape_mag,-13.05,23.1,25.8,10.0,0.0,0.0,0.0,10.0,0.0,0.0,0.0,10.0
1452009331754717353,274,1452009331749929904,robocape_mag,-13.05,23.1,25.8,10.0,0.0,0.0,0.0,10.0,0.0,0.0,0.0,10.0
1452009331787078520,275,1452009331782234907,robocape_mag,-13.05,23.1,25.8,10.0,0.0,0.0,0.0,10.0,0.0,0.0,0.0,10.0
1452009331820516437,276,1452009331815399885,robocape_mag,-13.05,23.1,25.8,10.0,0.0,0.0,0.0,10.0,0.0,0.0,0.0,10.0
1452009331853962228,277,1452009331849160909,robocape_mag,-13.05,23.1,25.8,10.0,0.0,0.0,0.0,10.0,0.0,0.0,0.0,10.0
1452009331890615978,278,1452009331881908893,robocape_mag,-12.15,20.4,27.3,10.0,0.0,0.0,0.0,10.0,0.0,0.0,0.0,10.0
1452009331923244353,279,1452009331914887905,robocape_mag,-12.15,20.4,27.3,10.0,0.0,0.0,0.0,10.0,0.0,0.0,0.0,10.0
1452009331953166395,280,1452009331948266983,robocape_mag,-12.15,20.4,27.3,10.0,0.0,0.0,0.0,10.0,0.0,0.0,0.0,10.0
1452009331986227103,281,1452009331981211900,robocape_mag,-12.15,20.4,27.3,10.0,0.0,0.0,0.0,10.0,0.0,0.0,0.0,10.0
1452009332019134312,282,1452009332014314889,robocape_mag,-12.15,20.4,27.3,10.0,0.0,0.0,0.0,10.0,0.0,0.0,0.0,10.0
1452009332053552020,283,1452009332048634052,robocape_mag,-6.75,-6.0,25.5,10.0,0.0,0.0,0.0,10.0,0.0,0.0,0.0,10.0
1452009332086703062,284,1452009332081743955,robocape_mag,-6.75,-6.0,25.5,10.0,0.0,0.0,0.0,10.0,0.0,0.0,0.0,10.0
1452009332119141145,285,1452009332114151000,robocape_mag,-6.75,-6.0,25.5,10.0,0.0,0.0,0.0,10.0,0.0,0.0,0.0,10.0
1452009332152240187,286,1452009332147408962,robocape_mag,-6.75,-6.0,25.5,10.0,0.0,0.0,0.0,10.0,0.0,0.0,0.0,10.0
1452009332185840645,287,1452009332180809020,robocape_mag,-6.75,-6.0,25.5,10.0,0.0,0.0,0.0,10.0,0.0,0.0,0.0,10.0
1452009332219278895,288,1452009332214322090,robocape_mag,-9.75,26.4,23.7,10.0,0.0,0.0,0.0,10.0,0.0,0.0,0.0,10.0
1452009332253163520,289,1452009332248208045,robocape_mag,-9.75,26.4,23.7,10.0,0.0,0.0,0.0,10.0,0.0,0.0,0.0,10.0
1452009332285745020,290,1452009332280997991,robocape_mag,-9.75,26.4,23.7,10.0,0.0,0.0,0.0,10.0,0.0,0.0,0.0,10.0
1452009332319209020,291,1452009332314326047,robocape_mag,-9.75,26.4,23.7,10.0,0.0,0.0,0.0,10.0,0.0,0.0,0.0,10.0
1452009332352212437,292,1452009332347431898,robocape_mag,-9.75,26.4,20.4,10.0,0.0,0.0,0.0,10.0,0.0,0.0,0.0,10.0
1452009332385958020,293,1452009332381102085,robocape_mag,-7.65,-3.9,20.4,10.0,0.0,0.0,0.0,10.0,0.0,0.0,0.0,10.0
1452009332419365479,294,1452009332414216041,robocape_mag,-7.65,-3.9,20.4,10.0,0.0,0.0,0.0,10.0,0.0,0.0,0.0,10.0
1452009332453240562,295,1452009332448426961,robocape_mag,-7.65,-3.9,20.4,10.0,0.0,0.0,0.0,10.0,0.0,0.0,0.0,10.0
1452009332485714520,296,1452009332480798959,robocape_mag,-7.65,-3.9,20.4,10.0,0.0,0.0,0.0,10.0,0.0,0.0,0.0,10.0
1452009332519221354,297,1452009332514276027,robocape_mag,0.75,8.1,26.4,10.0,0.0,0.0,0.0,10.0,0.0,0.0,0.0,10.0
1452009332552351812,298,1452009332547517061,robocape_mag,0.75,8.1,26.4,10.0,0.0,0.0,0.0,10.0,0.0,0.0,0.0,10.0
1452009332585820187,299,1452009332580836057,robocape_mag,0.75,8.1,26.4,10.0,0.0,0.0,0.0,10.0,0.0,0.0,0.0,10.0
1452009332619777479,300,1452009332614048004,robocape_mag,0.75,8.1,26.4,10.0,0.0,0.0,0.0,10.0,0.0,0.0,0.0,10.0
1452009332652812062,301,1452009332647365093,robocape_mag,0.75,8.1,26.4,10.0,0.0,0.0,0.0,10.0,0.0,0.0,0.0,10.0
1452009332687587437,302,1452009332680787086,robocape_mag,1.95,-11.1,27.0,10.0,0.0,0.0,0.0,10.0,0.0,0.0,0.0,10.0
1452009332719469145,303,1452009332714405059,robocape_mag,1.95,-11.1,27.0,10.0,0.0,0.0,0.0,10.0,0.0,0.0,0.0,10.0
1452009332752588979,304,1452009332747601985,robocape_mag,1.95,-11.1,27.0,10.0,0.0,0.0,0.0,10.0,0.0,0.0,0.0,10.0
1452009332786068729,305,1452009332780998945,robocape_mag,1.95,-11.1,27.0,10.0,0.0,0.0,0.0,10.0,0.0,0.0,0.0,10.0
1452009332820968646,306,1452009332814110040,robocape_mag,1.95,-11.1,27.0,10.0,0.0,0.0,0.0,10.0,0.0,0.0,0.0,10.0
1452009332852458354,307,1452009332847357988,robocape_mag,-14.85,-14.7,24.0,10.0,0.0,0.0,0.0,10.0,0.0,0.0,0.0,10.0
1452009332885730312,308,1452009332880686044,robocape_mag,-14.85,-14.7,24.0,10.0,0.0,0.0,0.0,10.0,0.0,0.0,0.0,10.0
1452009332921141229,309,1452009332914187908,robocape_mag,-14.85,-14.7,24.0,10.0,0.0,0.0,0.0,10.0,0.0,0.0,0.0,10.0
1452009332952722479,310,1452009332947499990,robocape_mag,-14.85,-14.7,24.0,10.0,0.0,0.0,0.0,10.0,0.0,0.0,0.0,10.0
1452009332985836687,311,1452009332980879068,robocape_mag,-14.85,-14.7,24.0,10.0,0.0,0.0,0.0,10.0,0.0,0.0,0.0,10.0
1452009333018901521,312,1452009333014070987,robocape_mag,-18.45,3.9,24.0,10.0,0.0,0.0,0.0,10.0,0.0,0.0,0.0,10.0
1452009333053439812,313,1452009333048580884,robocape_mag,-18.45,3.9,24.0,10.0,0.0,0.0,0.0,10.0,0.0,0.0,0.0,10.0
1452009333086255562,314,1452009333080857038,robocape_mag,-18.45,3.9,24.0,10.0,0.0,0.0,0.0,10.0,0.0,0.0,0.0,10.0
1452009333120057271,315,1452009333114298105,robocape_mag,-18.45,3.9,24.0,10.0,0.0,0.0,0.0,10.0,0.0,0.0,0.0,10.0
1452009333161128021,316,1452009333154659032,robocape_mag,12.75,12.9,28.2,10.0,0.0,0.0,0.0,10.0,0.0,0.0,0.0,10.0
1452009333187159646,317,1452009333181998014,robocape_mag,12.75,12.9,28.2,10.0,0.0,0.0,0.0,10.0,0.0,0.0,0.0,10.0
1452009333221183396,318,1452009333216216087,robocape_mag,12.75,12.9,28.2,10.0,0.0,0.0,0.0,10.0,0.0,0.0,0.0,10.0
1452009333252994104,319,1452009333248222112,robocape_mag,12.75,12.9,28.2,10.0,0.0,0.0,0.0,10.0,0.0,0.0,0.0,10.0
1452009333287208937,320,1452009333282262086,robocape_mag,12.75,12.9,28.2,10.0,0.0,0.0,0.0,10.0,0.0,0.0,0.0,10.0
1452009333325662646,321,1452009333317091941,robocape_mag,15.15,-11.7,24.6,10.0,0.0,0.0,0.0,10.0,0.0,0.0,0.0,10.0
1452009333353961229,322,1452009333349138975,robocape_mag,15.15,-11.7,24.6,10.0,0.0,0.0,0.0,10.0,0.0,0.0,0.0,10.0
1452009333390924687,323,1452009333385083913,robocape_mag,15.15,-11.7,24.6,10.0,0.0,0.0,0.0,10.0,0.0,0.0,0.0,10.0
1452009333422536604,324,1452009333415785074,robocape_mag,15.15,-11.7,24.6,10.0,0.0,0.0,0.0,10.0,0.0,0.0,0.0,10.0
1452009333458068646,325,1452009333449481010,robocape_mag,15.15,-11.7,24.6,10.0,0.0,0.0,0.0,10.0,0.0,0.0,0.0,10.0
1452009333494270896,326,1452009333484129905,robocape_mag,40.05,16.8,18.9,10.0,0.0,0.0,0.0,10.0,0.0,0.0,0.0,10.0
1452009333523848438,327,1452009333517855882,robocape_mag,40.05,16.8,18.9,10.0,0.0,0.0,0.0,10.0,0.0,0.0,0.0,10.0
1452009333556858771,328,1452009333550798892,robocape_mag,40.05,16.8,18.9,10.0,0.0,0.0,0.0,10.0,0.0,0.0,0.0,10.0
1452009333594166396,329,1452009333584405899,robocape_mag,40.05,16.8,18.9,10.0,0.0,0.0,0.0,10.0,0.0,0.0,0.0,10.0
1452009333623139229,330,1452009333617902040,robocape_mag,40.05,16.8,18.9,10.0,0.0,0.0,0.0,10.0,0.0,0.0,0.0,10.0
1452009333657122604,331,1452009333651962995,robocape_mag,34.65,12.0,24.3,10.0,0.0,0.0,0.0,10.0,0.0,0.0,0.0,10.0
1452009333689051729,332,1452009333683872938,robocape_mag,34.65,12.0,24.3,10.0,0.0,0.0,0.0,10.0,0.0,0.0,0.0,10.0
1452009333723106896,333,1452009333717844009,robocape_mag,34.65,12.0,24.3,10.0,0.0,0.0,0.0,10.0,0.0,0.0,0.0,10.0
1452009333756376021,334,1452009333751389980,robocape_mag,34.65,12.0,24.3,10.0,0.0,0.0,0.0,10.0,0.0,0.0,0.0,10.0
1452009333789279688,335,1452009333784097909,robocape_mag,34.65,12.0,24.3,10.0,0.0,0.0,0.0,10.0,0.0,0.0,0.0,10.0
1452009333823120688,336,1452009333818125963,robocape_mag,9.15,23.1,29.4,10.0,0.0,0.0,0.0,10.0,0.0,0.0,0.0,10.0
1452009333854534729,337,1452009333849392890,robocape_mag,9.15,23.1,29.4,10.0,0.0,0.0,0.0,10.0,0.0,0.0,0.0,10.0
1452009333888848563,338,1452009333883804082,robocape_mag,9.15,23.1,29.4,10.0,0.0,0.0,0.0,10.0,0.0,0.0,0.0,10.0
1452009333921907563,339,1452009333916919946,robocape_mag,9.15,23.1,29.4,10.0,0.0,0.0,0.0,10.0,0.0,0.0,0.0,10.0
1452009333955537729,340,1452009333950495958,robocape_mag,-7.95,21.6,26.1,10.0,0.0,0.0,0.0,10.0,0.0,0.0,0.0,10.0
1452009333988082104,341,1452009333982981920,robocape_mag,-7.95,21.6,26.1,10.0,0.0,0.0,0.0,10.0,0.0,0.0,0.0,10.0
1452009334021749813,342,1452009334016940116,robocape_mag,-7.95,21.6,26.1,10.0,0.0,0.0,0.0,10.0,0.0,0.0,0.0,10.0
1452009334055945063,343,1452009334050957918,robocape_mag,-7.95,21.6,26.1,10.0,0.0,0.0,0.0,10.0,0.0,0.0,0.0,10.0
1452009334088768854,344,1452009334083033084,robocape_mag,-7.95,21.6,26.1,10.0,0.0,0.0,0.0,10.0,0.0,0.0,0.0,10.0
1452009334120456771,345,1452009334115573883,robocape_mag,-9.15,-13.8,26.7,10.0,0.0,0.0,0.0,10.0,0.0,0.0,0.0,10.0
1452009334153767521,346,1452009334148688077,robocape_mag,-9.15,-13.8,26.7,10.0,0.0,0.0,0.0,10.0,0.0,0.0,0.0,10.0
1452009334186767230,347,1452009334181571006,robocape_mag,-9.15,-13.8,26.7,10.0,0.0,0.0,0.0,10.0,0.0,0.0,0.0,10.0
1452009334220588105,348,1452009334215586900,robocape_mag,-9.15,-13.8,26.7,10.0,0.0,0.0,0.0,10.0,0.0,0.0,0.0,10.0
1452009334252990521,349,1452009334248028993,robocape_mag,-9.15,-13.8,26.7,10.0,0.0,0.0,0.0,10.0,0.0,0.0,0.0,10.0
1452009334286094188,350,1452009334281307935,robocape_mag,-35.85,-3.9,18.6,10.0,0.0,0.0,0.0,10.0,0.0,0.0,0.0,10.0
1452009334319359438,351,1452009334314498901,robocape_mag,-35.85,-3.9,18.6,10.0,0.0,0.0,0.0,10.0,0.0,0.0,0.0,10.0
1452009334352520813,352,1452009334347599983,robocape_mag,-35.85,-3.9,18.6,10.0,0.0,0.0,0.0,10.0,0.0,0.0,0.0,10.0
1452009334386504480,353,1452009334381565093,robocape_mag,-35.85,-3.9,18.6,10.0,0.0,0.0,0.0,10.0,0.0,0.0,0.0,10.0
1452009334419128313,354,1452009334414237976,robocape_mag,-35.85,-3.9,18.6,10.0,0.0,0.0,0.0,10.0,0.0,0.0,0.0,10.0
1452009334452782230,355,1452009334447747945,robocape_mag,-1.05,-7.5,25.2,10.0,0.0,0.0,0.0,10.0,0.0,0.0,0.0,10.0
1452009334485712730,356,1452009334480729103,robocape_mag,-1.05,-7.5,25.2,10.0,0.0,0.0,0.0,10.0,0.0,0.0,0.0,10.0
1452009334518928521,357,1452009334514071941,robocape_mag,-1.05,-7.5,25.2,10.0,0.0,0.0,0.0,10.0,0.0,0.0,0.0,10.0
1452009334554557355,358,1452009334547792911,robocape_mag,-1.05,-7.5,25.2,10.0,0.0,0.0,0.0,10.0,0.0,0.0,0.0,10.0
1452009334585905980,359,1452009334580915927,robocape_mag,-1.05,-7.5,25.2,10.0,0.0,0.0,0.0,10.0,0.0,0.0,0.0,10.0
1452009334618948438,360,1452009334614141941,robocape_mag,-4.65,-9.3,23.4,10.0,0.0,0.0,0.0,10.0,0.0,0.0,0.0,10.0
1452009334656163980,361,1452009334647737026,robocape_mag,-4.65,-9.3,23.4,10.0,0.0,0.0,0.0,10.0,0.0,0.0,0.0,10.0
1452009334686319688,362,1452009334681262969,robocape_mag,-4.65,-9.3,23.4,10.0,0.0,0.0,0.0,10.0,0.0,0.0,0.0,10.0
1452009334753585188,363,1452009334715039968,robocape_mag,-4.65,-9.3,23.4,10.0,0.0,0.0,0.0,10.0,0.0,0.0,0.0,10.0
1452009334774756855,364,1452009334769117116,robocape_mag,-4.35,-20.4,25.5,10.0,0.0,0.0,0.0,10.0,0.0,0.0,0.0,10.0
1452009334794486271,365,1452009334789621114,robocape_mag,-4.35,-20.4,25.5,10.0,0.0,0.0,0.0,10.0,0.0,0.0,0.0,10.0
1452009334819266438,366,1452009334814471006,robocape_mag,-4.35,-20.4,25.5,10.0,0.0,0.0,0.0,10.0,0.0,0.0,0.0,10.0
1452009334855903730,367,1452009334848804950,robocape_mag,-4.35,-20.4,25.5,10.0,0.0,0.0,0.0,10.0,0.0,0.0,0.0,10.0
1452009334885653605,368,1452009334880728960,robocape_mag,-4.35,-20.4,25.5,10.0,0.0,0.0,0.0,10.0,0.0,0.0,0.0,10.0
1452009334918804438,369,1452009334914025068,robocape_mag,-6.45,8.7,24.6,10.0,0.0,0.0,0.0,10.0,0.0,0.0,0.0,10.0
1452009334953118022,370,1452009334947453022,robocape_mag,-6.45,8.7,24.6,10.0,0.0,0.0,0.0,10.0,0.0,0.0,0.0,10.0
1452009334986309980,371,1452009334980788946,robocape_mag,-6.45,8.7,24.6,10.0,0.0,0.0,0.0,10.0,0.0,0.0,0.0,10.0
1452009335019285480,372,1452009335014105081,robocape_mag,-6.45,8.7,24.6,10.0,0.0,0.0,0.0,10.0,0.0,0.0,0.0,10.0
1452009335054921188,373,1452009335048887014,robocape_mag,-6.45,8.7,24.6,10.0,0.0,0.0,0.0,10.0,0.0,0.0,0.0,10.0
1452009335085781980,374,1452009335080754041,robocape_mag,-11.55,8.4,23.1,10.0,0.0,0.0,0.0,10.0,0.0,0.0,0.0,10.0
1452009335121139938,375,1452009335116200923,robocape_mag,-11.55,8.4,23.1,10.0,0.0,0.0,0.0,10.0,0.0,0.0,0.0,10.0
1452009335152807355,376,1452009335147449970,robocape_mag,-11.55,8.4,23.1,10.0,0.0,0.0,0.0,10.0,0.0,0.0,0.0,10.0
1452009335186031855,377,1452009335180838108,robocape_mag,-11.55,8.4,23.1,10.0,0.0,0.0,0.0,10.0,0.0,0.0,0.0,10.0
1452009335219724147,378,1452009335214663028,robocape_mag,-11.55,8.4,23.1,10.0,0.0,0.0,0.0,10.0,0.0,0.0,0.0,10.0
1452009335252449355,379,1452009335247513055,robocape_mag,-9.15,7.8,24.3,10.0,0.0,0.0,0.0,10.0,0.0,0.0,0.0,10.0
1452009335285908355,380,1452009335280962944,robocape_mag,-9.15,7.8,24.3,10.0,0.0,0.0,0.0,10.0,0.0,0.0,0.0,10.0
1452009335319012188,381,1452009335314199924,robocape_mag,-9.15,7.8,24.3,10.0,0.0,0.0,0.0,10.0,0.0,0.0,0.0,10.0
1452009335352233272,382,1452009335347419977,robocape_mag,-9.15,7.8,24.3,10.0,0.0,0.0,0.0,10.0,0.0,0.0,0.0,10.0
1452009335385832522,383,1452009335380863904,robocape_mag,-9.15,7.8,24.3,10.0,0.0,0.0,0.0,10.0,0.0,0.0,0.0,10.0
1452009335419322022,384,1452009335414350032,robocape_mag,4.95,2.1,25.8,10.0,0.0,0.0,0.0,10.0,0.0,0.0,0.0,10.0
1452009335454501272,385,1452009335449614048,robocape_mag,4.95,2.1,25.8,10.0,0.0,0.0,0.0,10.0,0.0,0.0,0.0,10.0
1452009335486198813,386,1452009335481162071,robocape_mag,4.95,2.1,25.8,10.0,0.0,0.0,0.0,10.0,0.0,0.0,0.0,10.0
1452009335519327688,387,1452009335514210939,robocape_mag,4.95,2.1,25.8,10.0,0.0,0.0,0.0,10.0,0.0,0.0,0.0,10.0
1452009335552545355,388,1452009335547585010,robocape_mag,4.95,2.1,24.6,10.0,0.0,0.0,0.0,10.0,0.0,0.0,0.0,10.0
1452009335586282105,389,1452009335581238985,robocape_mag,3.75,-3.9,24.6,10.0,0.0,0.0,0.0,10.0,0.0,0.0,0.0,10.0
1452009335619113814,390,1452009335614299058,robocape_mag,3.75,-3.9,24.6,10.0,0.0,0.0,0.0,10.0,0.0,0.0,0.0,10.0
1452009335652450772,391,1452009335647377014,robocape_mag,3.75,-3.9,24.6,10.0,0.0,0.0,0.0,10.0,0.0,0.0,0.0,10.0
1452009335685915189,392,1452009335680948019,robocape_mag,3.75,-3.9,24.6,10.0,0.0,0.0,0.0,10.0,0.0,0.0,0.0,10.0
1452009335719895772,393,1452009335714677095,robocape_mag,-31.65,-12.9,16.2,10.0,0.0,0.0,0.0,10.0,0.0,0.0,0.0,10.0
1452009335752780605,394,1452009335747787952,robocape_mag,-31.65,-12.9,16.2,10.0,0.0,0.0,0.0,10.0,0.0,0.0,0.0,10.0
1452009335785863064,395,1452009335781028032,robocape_mag,-31.65,-12.9,16.2,10.0,0.0,0.0,0.0,10.0,0.0,0.0,0.0,10.0
1452009335819053772,396,1452009335814217090,robocape_mag,-31.65,-12.9,16.2,10.0,0.0,0.0,0.0,10.0,0.0,0.0,0.0,10.0
1452009335852726564,397,1452009335847570896,robocape_mag,-31.65,-12.9,16.2,10.0,0.0,0.0,0.0,10.0,0.0,0.0,0.0,10.0
1452009335886075689,398,1452009335881100893,robocape_mag,-25.95,-18.0,16.5,10.0,0.0,0.0,0.0,10.0,0.0,0.0,0.0,10.0
1452009335919028897,399,1452009335914252042,robocape_mag,-25.95,-18.0,16.5,10.0,0.0,0.0,0.0,10.0,0.0,0.0,0.0,10.0
1452009335952949897,400,1452009335947698116,robocape_mag,-25.95,-18.0,16.5,10.0,0.0,0.0,0.0,10.0,0.0,0.0,0.0,10.0
1452009335986007730,401,1452009335980808019,robocape_mag,-25.95,-18.0,16.5,10.0,0.0,0.0,0.0,10.0,0.0,0.0,0.0,10.0
1452009336018929314,402,1452009336014111042,robocape_mag,-25.95,-18.0,16.5,10.0,0.0,0.0,0.0,10.0,0.0,0.0,0.0,10.0
1452009336055937564,403,1452009336050276994,robocape_mag,-30.45,-24.9,13.8,10.0,0.0,0.0,0.0,10.0,0.0,0.0,0.0,10.0
1452009336086190272,404,1452009336080765962,robocape_mag,-30.45,-24.9,13.8,10.0,0.0,0.0,0.0,10.0,0.0,0.0,0.0,10.0
1452009336119845480,405,1452009336114173889,robocape_mag,-30.45,-24.9,13.8,10.0,0.0,0.0,0.0,10.0,0.0,0.0,0.0,10.0
1452009336154204980,406,1452009336147378921,robocape_mag,-30.45,-24.9,13.8,10.0,0.0,0.0,0.0,10.0,0.0,0.0,0.0,10.0
1452009336186064730,407,1452009336180881977,robocape_mag,-30.45,-24.9,13.8,10.0,0.0,0.0,0.0,10.0,0.0,0.0,0.0,10.0
1452009336219736147,408,1452009336214462041,robocape_mag,-9.15,-3.6,18.9,10.0,0.0,0.0,0.0,10.0,0.0,0.0,0.0,10.0
1452009336252574689,409,1452009336247381925,robocape_mag,-9.15,-3.6,18.9,10.0,0.0,0.0,0.0,10.0,0.0,0.0,0.0,10.0
1452009336287640856,410,1452009336280750036,robocape_mag,-9.15,-3.6,18.9,10.0,0.0,0.0,0.0,10.0,0.0,0.0,0.0,10.0
1452009336319265981,411,1452009336314169883,robocape_mag,-9.15,-3.6,18.9,10.0,0.0,0.0,0.0,10.0,0.0,0.0,0.0,10.0
1452009336352433106,412,1452009336347311973,robocape_mag,-9.15,-3.6,19.8,10.0,0.0,0.0,0.0,10.0,0.0,0.0,0.0,10.0
1452009336387905939,413,1452009336380738019,robocape_mag,-22.65,-17.1,19.8,10.0,0.0,0.0,0.0,10.0,0.0,0.0,0.0,10.0
1452009336419250814,414,1452009336414299011,robocape_mag,-22.65,-17.1,19.8,10.0,0.0,0.0,0.0,10.0,0.0,0.0,0.0,10.0
1452009336452431397,415,1452009336447459936,robocape_mag,-22.65,-17.1,19.8,10.0,0.0,0.0,0.0,10.0,0.0,0.0,0.0,10.0
1452009336488762856,416,1452009336480940103,robocape_mag,-22.65,-17.1,19.8,10.0,0.0,0.0,0.0,10.0,0.0,0.0,0.0,10.0
1452009336519848856,417,1452009336514218091,robocape_mag,-7.95,-2.4,22.5,10.0,0.0,0.0,0.0,10.0,0.0,0.0,0.0,10.0
1452009336552567356,418,1452009336547636032,robocape_mag,-7.95,-2.4,22.5,10.0,0.0,0.0,0.0,10.0,0.0,0.0,0.0,10.0
1452009336586949356,419,1452009336580876111,robocape_mag,-7.95,-2.4,22.5,10.0,0.0,0.0,0.0,10.0,0.0,0.0,0.0,10.0
1452009336620425731,420,1452009336615581035,robocape_mag,-7.95,-2.4,22.5,10.0,0.0,0.0,0.0,10.0,0.0,0.0,0.0,10.0
1452009336654072814,421,1452009336648631095,robocape_mag,-7.95,-2.4,22.5,10.0,0.0,0.0,0.0,10.0,0.0,0.0,0.0,10.0
1452009336690198106,422,1452009336682363986,robocape_mag,12.45,4.8,22.5,10.0,0.0,0.0,0.0,10.0,0.0,0.0,0.0,10.0
1452009336723381856,423,1452009336715531110,robocape_mag,12.45,4.8,22.5,10.0,0.0,0.0,0.0,10.0,0.0,0.0,0.0,10.0
1452009336754436606,424,1452009336749080896,robocape_mag,12.45,4.8,22.5,10.0,0.0,0.0,0.0,10.0,0.0,0.0,0.0,10.0
1452009336787778522,425,1452009336782275915,robocape_mag,12.45,4.8,22.5,10.0,0.0,0.0,0.0,10.0,0.0,0.0,0.0,10.0
1452009336820793772,426,1452009336815926074,robocape_mag,12.45,4.8,22.5,10.0,0.0,0.0,0.0,10.0,0.0,0.0,0.0,10.0
1452009336855971564,427,1452009336850068092,robocape_mag,37.35,-7.5,22.2,10.0,0.0,0.0,0.0,10.0,0.0,0.0,0.0,10.0
1452009336886381231,428,1452009336881503105,robocape_mag,37.35,-7.5,22.2,10.0,0.0,0.0,0.0,10.0,0.0,0.0,0.0,10.0
1452009336922312814,429,1452009336916975021,robocape_mag,37.35,-7.5,22.2,10.0,0.0,0.0,0.0,10.0,0.0,0.0,0.0,10.0
1452009336953335647,430,1452009336948425054,robocape_mag,37.35,-7.5,22.2,10.0,0.0,0.0,0.0,10.0,0.0,0.0,0.0,10.0
1452009336989018648,431,1452009336983795881,robocape_mag,37.35,-7.5,22.2,10.0,0.0,0.0,0.0,10.0,0.0,0.0,0.0,10.0
1452009337027487814,432,1452009337017939090,robocape_mag,9.75,-1.5,17.4,10.0,0.0,0.0,0.0,10.0,0.0,0.0,0.0,10.0
1452009337054913314,433,1452009337048583984,robocape_mag,9.75,-1.5,17.4,10.0,0.0,0.0,0.0,10.0,0.0,0.0,0.0,10.0
1452009337094180231,434,1452009337083812952,robocape_mag,9.75,-1.5,17.4,10.0,0.0,0.0,0.0,10.0,0.0,0.0,0.0,10.0
1452009337123097481,435,1452009337118078947,robocape_mag,9.75,-1.5,17.4,10.0,0.0,0.0,0.0,10.0,0.0,0.0,0.0,10.0
1452009337156232148,436,1452009337150971889,robocape_mag,84.45,-20.4,21.3,10.0,0.0,0.0,0.0,10.0,0.0,0.0,0.0,10.0
1452009337189556231,437,1452009337183936119,robocape_mag,7.65,-20.4,21.3,10.0,0.0,0.0,0.0,10.0,0.0,0.0,0.0,10.0
1452009337227108314,438,1452009337217406988,robocape_mag,7.65,-20.4,21.3,10.0,0.0,0.0,0.0,10.0,0.0,0.0,0.0,10.0
1452009337256293398,439,1452009337250850915,robocape_mag,7.65,-20.4,21.3,10.0,0.0,0.0,0.0,10.0,0.0,0.0,0.0,10.0
1452009337292868564,440,1452009337283829927,robocape_mag,7.65,-20.4,21.3,10.0,0.0,0.0,0.0,10.0,0.0,0.0,0.0,10.0
1452009337322922731,441,1452009337317945003,robocape_mag,-3.75,4.8,23.7,10.0,0.0,0.0,0.0,10.0,0.0,0.0,0.0,10.0
1452009337355791398,442,1452009337350866079,robocape_mag,-3.75,4.8,23.7,10.0,0.0,0.0,0.0,10.0,0.0,0.0,0.0,10.0
1452009337388510856,443,1452009337383485078,robocape_mag,-3.75,4.8,23.7,10.0,0.0,0.0,0.0,10.0,0.0,0.0,0.0,10.0
1452009337421867189,444,1452009337416917085,robocape_mag,-3.75,4.8,23.7,10.0,0.0,0.0,0.0,10.0,0.0,0.0,0.0,10.0
1452009337455577398,445,1452009337450720071,robocape_mag,-3.75,4.8,23.7,10.0,0.0,0.0,0.0,10.0,0.0,0.0,0.0,10.0
1452009337487939106,446,1452009337483112096,robocape_mag,-16.95,-30.6,15.9,10.0,0.0,0.0,0.0,10.0,0.0,0.0,0.0,10.0
1452009337521569939,447,1452009337516781091,robocape_mag,-16.95,-30.6,15.9,10.0,0.0,0.0,0.0,10.0,0.0,0.0,0.0,10.0
1452009337555061189,448,1452009337550163030,robocape_mag,-16.95,-30.6,15.9,10.0,0.0,0.0,0.0,10.0,0.0,0.0,0.0,10.0
1452009337587321814,449,1452009337582498073,robocape_mag,-16.95,-30.6,15.9,10.0,0.0,0.0,0.0,10.0,0.0,0.0,0.0,10.0
1452009337620486689,450,1452009337615607976,robocape_mag,-16.95,-30.6,15.9,10.0,0.0,0.0,0.0,10.0,0.0,0.0,0.0,10.0
1452009337653629106,451,1452009337648632049,robocape_mag,9.45,-26.4,23.1,10.0,0.0,0.0,0.0,10.0,0.0,0.0,0.0,10.0
1452009337686923606,452,1452009337682066917,robocape_mag,9.45,-26.4,23.1,10.0,0.0,0.0,0.0,10.0,0.0,0.0,0.0,10.0
1452009337720693398,453,1452009337715487957,robocape_mag,9.45,-26.4,23.1,10.0,0.0,0.0,0.0,10.0,0.0,0.0,0.0,10.0
1452009337753261981,454,1452009337748389005,robocape_mag,9.45,-26.4,23.1,10.0,0.0,0.0,0.0,10.0,0.0,0.0,0.0,10.0
1452009337785904398,455,1452009337781040906,robocape_mag,9.45,-26.4,23.1,10.0,0.0,0.0,0.0,10.0,0.0,0.0,0.0,10.0
1452009337819382148,456,1452009337814187049,robocape_mag,0.45,-12.0,18.9,10.0,0.0,0.0,0.0,10.0,0.0,0.0,0.0,10.0
1452009337852723815,457,1452009337847827911,robocape_mag,0.45,-12.0,18.9,10.0,0.0,0.0,0.0,10.0,0.0,0.0,0.0,10.0
1452009337885566690,458,1452009337880798101,robocape_mag,0.45,-12.0,18.9,10.0,0.0,0.0,0.0,10.0,0.0,0.0,0.0,10.0
1452009337919516940,459,1452009337914181947,robocape_mag,0.45,-12.0,18.9,10.0,0.0,0.0,0.0,10.0,0.0,0.0,0.0,10.0
1452009337952651606,460,1452009337947752952,robocape_mag,0.45,-12.0,18.9,10.0,0.0,0.0,0.0,10.0,0.0,0.0,0.0,10.0
1452009337985683315,461,1452009337980834007,robocape_mag,-0.15,-33.0,18.9,10.0,0.0,0.0,0.0,10.0,0.0,0.0,0.0,10.0
1452009338019289398,462,1452009338014072895,robocape_mag,-0.15,-33.0,18.9,10.0,0.0,0.0,0.0,10.0,0.0,0.0,0.0,10.0
1452009338053550231,463,1452009338048635005,robocape_mag,-0.15,-33.0,18.9,10.0,0.0,0.0,0.0,10.0,0.0,0.0,0.0,10.0
1452009338085851856,464,1452009338080871105,robocape_mag,-0.15,-33.0,18.9,10.0,0.0,0.0,0.0,10.0,0.0,0.0,0.0,10.0
1452009338121678731,465,1452009338116887092,robocape_mag,2.85,-25.8,17.7,10.0,0.0,0.0,0.0,10.0,0.0,0.0,0.0,10.0
1452009338154058231,466,1452009338149128913,robocape_mag,2.85,-25.8,17.7,10.0,0.0,0.0,0.0,10.0,0.0,0.0,0.0,10.0
1452009338186192398,467,1452009338181103944,robocape_mag,2.85,-25.8,17.7,10.0,0.0,0.0,0.0,10.0,0.0,0.0,0.0,10.0
1452009338219352940,468,1452009338214288949,robocape_mag,2.85,-25.8,17.7,10.0,0.0,0.0,0.0,10.0,0.0,0.0,0.0,10.0
1452009338252650315,469,1452009338247858047,robocape_mag,2.85,-25.8,17.7,10.0,0.0,0.0,0.0,10.0,0.0,0.0,0.0,10.0
1452009338285725190,470,1452009338280920028,robocape_mag,-4.95,-5.4,17.1,10.0,0.0,0.0,0.0,10.0,0.0,0.0,0.0,10.0
1452009338319406481,471,1452009338314261913,robocape_mag,-4.95,-5.4,17.1,10.0,0.0,0.0,0.0,10.0,0.0,0.0,0.0,10.0
1452009338352848731,472,1452009338347887039,robocape_mag,-4.95,-5.4,17.1,10.0,0.0,0.0,0.0,10.0,0.0,0.0,0.0,10.0
1452009338385458982,473,1452009338380672931,robocape_mag,-4.95,-5.4,17.1,10.0,0.0,0.0,0.0,10.0,0.0,0.0,0.0,10.0
1452009338419260148,474,1452009338413999080,robocape_mag,-4.95,-5.4,17.1,10.0,0.0,0.0,0.0,10.0,0.0,0.0,0.0,10.0
1452009338454536315,475,1452009338447621107,robocape_mag,4.65,-28.8,17.7,10.0,0.0,0.0,0.0,10.0,0.0,0.0,0.0,10.0
1452009338487599648,476,1452009338480726003,robocape_mag,4.65,-28.8,17.7,10.0,0.0,0.0,0.0,10.0,0.0,0.0,0.0,10.0
1452009338519381065,477,1452009338513974905,robocape_mag,4.65,-28.8,17.7,10.0,0.0,0.0,0.0,10.0,0.0,0.0,0.0,10.0
1452009338552796857,478,1452009338547774076,robocape_mag,4.65,-28.8,17.7,10.0,0.0,0.0,0.0,10.0,0.0,0.0,0.0,10.0
1452009338585740315,479,1452009338580643892,robocape_mag,4.65,-28.8,17.7,10.0,0.0,0.0,0.0,10.0,0.0,0.0,0.0,10.0
1452009338619525523,480,1452009338613950014,robocape_mag,-21.15,-10.2,6.3,10.0,0.0,0.0,0.0,10.0,0.0,0.0,0.0,10.0
1452009338652744898,481,1452009338647658109,robocape_mag,-21.15,-10.2,6.3,10.0,0.0,0.0,0.0,10.0,0.0,0.0,0.0,10.0
1452009338686029190,482,1452009338680963039,robocape_mag,-21.15,-10.2,6.3,10.0,0.0,0.0,0.0,10.0,0.0,0.0,0.0,10.0
1452009338719546065,483,1452009338714221954,robocape_mag,-21.15,-10.2,6.3,10.0,0.0,0.0,0.0,10.0,0.0,0.0,0.0,10.0
1452009338753225065,484,1452009338748204946,robocape_mag,-21.15,-10.2,8.1,10.0,0.0,0.0,0.0,10.0,0.0,0.0,0.0,10.0
1452009338785743482,485,1452009338780765056,robocape_mag,-21.15,-40.8,8.1,10.0,0.0,0.0,0.0,10.0,0.0,0.0,0.0,10.0
1452009338819679357,486,1452009338814091920,robocape_mag,-21.15,-40.8,8.1,10.0,0.0,0.0,0.0,10.0,0.0,0.0,0.0,10.0
1452009338852366523,487,1452009338847548007,robocape_mag,-21.15,-40.8,8.1,10.0,0.0,0.0,0.0,10.0,0.0,0.0,0.0,10.0
1452009338885970440,488,1452009338880827903,robocape_mag,-21.15,-40.8,8.1,10.0,0.0,0.0,0.0,10.0,0.0,0.0,0.0,10.0
1452009338920552690,489,1452009338914283990,robocape_mag,-5.85,-37.5,4.2,10.0,0.0,0.0,0.0,10.0,0.0,0.0,0.0,10.0
1452009338952674482,490,1452009338947765111,robocape_mag,-5.85,-37.5,4.2,10.0,0.0,0.0,0.0,10.0,0.0,0.0,0.0,10.0
1452009338986946898,491,1452009338982026100,robocape_mag,-5.85,-37.5,4.2,10.0,0.0,0.0,0.0,10.0,0.0,0.0,0.0,10.0
1452009339020884398,492,1452009339015527963,robocape_mag,-5.85,-37.5,4.2,10.0,0.0,0.0,0.0,10.0,0.0,0.0,0.0,10.0
1452009339053319107,493,1452009339048357963,robocape_mag,-5.85,-37.5,4.2,10.0,0.0,0.0,0.0,10.0,0.0,0.0,0.0,10.0
1452009339088224899,494,1452009339082479953,robocape_mag,-8.85,-18.3,4.2,10.0,0.0,0.0,0.0,10.0,0.0,0.0,0.0,10.0
1452009339120637065,495,1452009339114604949,robocape_mag,-8.85,-18.3,4.2,10.0,0.0,0.0,0.0,10.0,0.0,0.0,0.0,10.0
1452009339153216565,496,1452009339148204088,robocape_mag,-8.85,-18.3,4.2,10.0,0.0,0.0,0.0,10.0,0.0,0.0,0.0,10.0
1452009339186438107,497,1452009339181523084,robocape_mag,-8.85,-18.3,4.2,10.0,0.0,0.0,0.0,10.0,0.0,0.0,0.0,10.0
1452009339224443649,498,1452009339216912984,robocape_mag,-8.85,-18.3,4.2,10.0,0.0,0.0,0.0,10.0,0.0,0.0,0.0,10.0
1452009339256010149,499,1452009339250492095,robocape_mag,-11.85,-39.3,4.2,10.0,0.0,0.0,0.0,10.0,0.0,0.0,0.0,10.0
1452009339290330732,500,1452009339282459020,robocape_mag,-11.85,-39.3,4.2,10.0,0.0,0.0,0.0,10.0,0.0,0.0,0.0,10.0
1452009339321926357,501,1452009339316728115,robocape_mag,-11.85,-39.3,4.2,10.0,0.0,0.0,0.0,10.0,0.0,0.0,0.0,10.0
1452009339361448649,502,1452009339350939035,robocape_mag,-11.85,-39.3,4.2,10.0,0.0,0.0,0.0,10.0,0.0,0.0,0.0,10.0
1452009339394637857,503,1452009339384006977,robocape_mag,-11.85,-39.3,4.2,10.0,0.0,0.0,0.0,10.0,0.0,0.0,0.0,10.0
1452009339423094274,504,1452009339417507886,robocape_mag,-30.45,-41.7,-3.6,10.0,0.0,0.0,0.0,10.0,0.0,0.0,0.0,10.0
1452009339456727065,505,1452009339451517105,robocape_mag,-30.45,-41.7,-3.6,10.0,0.0,0.0,0.0,10.0,0.0,0.0,0.0,10.0
1452009339490045815,506,1452009339484776020,robocape_mag,-30.45,-41.7,-3.6,10.0,0.0,0.0,0.0,10.0,0.0,0.0,0.0,10.0
1452009339522823815,507,1452009339517385005,robocape_mag,-30.45,-41.7,-3.6,10.0,0.0,0.0,0.0,10.0,0.0,0.0,0.0,10.0
1452009339559090524,508,1452009339550646066,robocape_mag,-28.05,-39.9,-4.8,10.0,0.0,0.0,0.0,10.0,0.0,0.0,0.0,10.0
1452009339589591565,509,1452009339584284067,robocape_mag,-28.05,-39.9,-4.8,10.0,0.0,0.0,0.0,10.0,0.0,0.0,0.0,10.0
1452009339627321274,510,1452009339617460966,robocape_mag,-28.05,-39.9,-4.8,10.0,0.0,0.0,0.0,10.0,0.0,0.0,0.0,10.0
1452009339660555524,511,1452009339650707006,robocape_mag,-28.05,-39.9,-4.8,10.0,0.0,0.0,0.0,10.0,0.0,0.0,0.0,10.0
1452009339688888940,512,1452009339683662891,robocape_mag,-28.05,-39.9,-4.8,10.0,0.0,0.0,0.0,10.0,0.0,0.0,0.0,10.0
1452009339722116107,513,1452009339716790914,robocape_mag,-31.95,-40.8,-6.9,10.0,0.0,0.0,0.0,10.0,0.0,0.0,0.0,10.0
1452009339755123482,514,1452009339750128984,robocape_mag,-31.95,-40.8,-6.9,10.0,0.0,0.0,0.0,10.0,0.0,0.0,0.0,10.0
1452009339792911482,515,1452009339783601045,robocape_mag,-31.95,-40.8,-6.9,10.0,0.0,0.0,0.0,10.0,0.0,0.0,0.0,10.0
1452009339822756774,516,1452009339815916061,robocape_mag,-31.95,-40.8,-6.9,10.0,0.0,0.0,0.0,10.0,0.0,0.0,0.0,10.0
1452009339855252399,517,1452009339850316047,robocape_mag,-31.95,-40.8,-6.9,10.0,0.0,0.0,0.0,10.0,0.0,0.0,0.0,10.0
1452009339888178607,518,1452009339883233070,robocape_mag,-29.85,-33.9,-10.2,10.0,0.0,0.0,0.0,10.0,0.0,0.0,0.0,10.0
1452009339921387107,519,1452009339916357994,robocape_mag,-29.85,-33.9,-10.2,10.0,0.0,0.0,0.0,10.0,0.0,0.0,0.0,10.0
1452009339954711816,520,1452009339949429035,robocape_mag,-29.85,-33.9,-10.2,10.0,0.0,0.0,0.0,10.0,0.0,0.0,0.0,10.0
1452009339986906274,521,1452009339982031106,robocape_mag,-29.85,-33.9,-10.2,10.0,0.0,0.0,0.0,10.0,0.0,0.0,0.0,10.0
1452009340019701066,522,1452009340014913082,robocape_mag,-29.85,-33.9,-10.2,10.0,0.0,0.0,0.0,10.0,0.0,0.0,0.0,10.0
1452009340061046566,523,1452009340049731016,robocape_mag,-34.65,-0.3,6.6,10.0,0.0,0.0,0.0,10.0,0.0,0.0,0.0,10.0
1452009340088371357,524,1452009340082767009,robocape_mag,-34.65,-0.3,6.6,10.0,0.0,0.0,0.0,10.0,0.0,0.0,0.0,10.0
1452009340119650649,525,1452009340114770889,robocape_mag,-34.65,-0.3,6.6,10.0,0.0,0.0,0.0,10.0,0.0,0.0,0.0,10.0
1452009340152741941,526,1452009340147663116,robocape_mag,-34.65,-0.3,6.6,10.0,0.0,0.0,0.0,10.0,0.0,0.0,0.0,10.0
1452009340185723774,527,1452009340180942058,robocape_mag,-34.65,-0.3,6.6,10.0,0.0,0.0,0.0,10.0,0.0,0.0,0.0,10.0
1452009340219320232,528,1452009340214515924,robocape_mag,-31.95,-22.8,14.7,10.0,0.0,0.0,0.0,10.0,0.0,0.0,0.0,10.0
1452009340252805649,529,1452009340247900962,robocape_mag,-31.95,-22.8,14.7,10.0,0.0,0.0,0.0,10.0,0.0,0.0,0.0,10.0
1452009340285488316,530,1452009340280714988,robocape_mag,-31.95,-22.8,14.7,10.0,0.0,0.0,0.0,10.0,0.0,0.0,0.0,10.0
1452009340319008066,531,1452009340314165115,robocape_mag,-31.95,-22.8,14.7,10.0,0.0,0.0,0.0,10.0,0.0,0.0,0.0,10.0
1452009340352510649,532,1452009340347593069,robocape_mag,-31.95,-22.8,20.7,10.0,0.0,0.0,0.0,10.0,0.0,0.0,0.0,10.0
