%time,field.header.seq,field.header.stamp,field.header.frame_id,field.magnetic_field.x,field.magnetic_field.y,field.magnetic_field.z,field.magnetic_field_covariance0,field.magnetic_field_covariance1,field.magnetic_field_covariance2,field.magnetic_field_covariance3,field.magnetic_field_covariance4,field.magnetic_field_covariance5,field.magnetic_field_covariance6,field.magnetic_field_covariance7,field.magnetic_field_covariance8
1452008900905990356,1,1452008900583061933,robocape_mag,13.2,-2.7,-29.85,10.0,0.0,0.0,0.0,10.0,0.0,0.0,0.0,10.0
1452008900912871815,2,1452008900618457078,robocape_mag,13.2,-2.7,-29.85,10.0,0.0,0.0,0.0,10.0,0.0,0.0,0.0,10.0
1452008900918534815,3,1452008900650829076,robocape_mag,13.2,-2.7,-29.85,10.0,0.0,0.0,0.0,10.0,0.0,0.0,0.0,10.0
1452008900918989273,4,1452008900691704034,robocape_mag,13.2,-2.7,-29.85,10.0,0.0,0.0,0.0,10.0,0.0,0.0,0.0,10.0
1452008900919341981,5,1452008900719938993,robocape_mag,13.2,-2.7,-29.25,10.0,0.0,0.0,0.0,10.0,0.0,0.0,0.0,10.0
1452008900941600356,6,1452008900747421979,robocape_mag,13.2,-3.3,-29.25,10.0,0.0,0.0,0.0,10.0,0.0,0.0,0.0,10.0
1452008900947367523,7,1452008900782500028,robocape_mag,13.2,-3.3,-29.25,10.0,0.0,0.0,0.0,10.0,0.0,0.0,0.0,10.0
1452008900947645856,8,1452008900815054893,robocape_mag,13.2,-3.3,-29.25,10.0,0.0,0.0,0.0,10.0,0.0,0.0,0.0,10.0
1452008900947716148,9,1452008900848290920,robocape_mag,13.2,-3.3,-29.25,10.0,0.0,0.0,0.0,10.0,0.0,0.0,0.0,10.0
1452008900947783023,10,1452008900920485019,robocape_mag,12.9,-3.0,-28.95,10.0,0.0,0.0,0.0,10.0,0.0,0.0,0.0,10.0
1452008900950745440,11,1452008900942374944,robocape_mag,12.9,-3.0,-28.95,10.0,0.0,0.0,0.0,10.0,0.0,0.0,0.0,10.0
1452008900967542565,12,1452008900964431047,robocape_mag,12.9,-3.0,-28.95,10.0,0.0,0.0,0.0,10.0,0.0,0.0,0.0,10.0
1452008900988300773,13,1452008900985161066,robocape_mag,12.9,-3.0,-28.95,10.0,0.0,0.0,0.0,10.0,0.0,0.0,0.0,10.0
1452008901025856898,14,1452008901016381025,robocape_mag,12.9,-3.0,-28.95,10.0,0.0,0.0,0.0,10.0,0.0,0.0,0.0,10.0
1452008901060938690,15,1452008901051712036,robocape_mag,14.4,-2.7,-28.65,10.0,0.0,0.0,0.0,10.0,0.0,0.0,0.0,10.0
1452008901090561648,16,1452008901084212064,robocape_mag,14.4,-2.7,-28.65,10.0,0.0,0.0,0.0,10.0,0.0,0.0,0.0,10.0
1452008901125063565,17,1452008901116763114,robocape_mag,14.4,-2.7,-28.65,10.0,0.0,0.0,0.0,10.0,0.0,0.0,0.0,10.0
1452008901155651856,18,1452008901148864984,robocape_mag,14.4,-2.7,-28.65,10.0,0.0,0.0,0.0,10.0,0.0,0.0,0.0,10.0
1452008901193477023,19,1452008901183351993,robocape_mag,14.4,-2.7,-28.65,10.0,0.0,0.0,0.0,10.0,0.0,0.0,0.0,10.0
1452008901225356856,20,1452008901216682910,robocape_mag,12.6,-3.3,-28.05,10.0,0.0,0.0,0.0,10.0,0.0,0.0,0.0,10.0
1452008901255802773,21,1452008901250612974,robocape_mag,12.6,-3.3,-28.05,10.0,0.0,0.0,0.0,10.0,0.0,0.0,0.0,10.0
1452008901290965065,22,1452008901283876895,robocape_mag,12.6,-3.3,-28.05,10.0,0.0,0.0,0.0,10.0,0.0,0.0,0.0,10.0
1452008901323090190,23,1452008901317859888,robocape_mag,12.6,-3.3,-28.05,10.0,0.0,0.0,0.0,10.0,0.0,0.0,0.0,10.0
1452008901355467065,24,1452008901350441932,robocape_mag,12.6,-3.3,-28.05,10.0,0.0,0.0,0.0,10.0,0.0,0.0,0.0,10.0
1452008901390402815,25,1452008901383822917,robocape_mag,12.9,-3.0,-28.35,10.0,0.0,0.0,0.0,10.0,0.0,0.0,0.0,10.0
1452008901421335398,26,1452008901415903091,robocape_mag,12.9,-3.0,-28.35,10.0,0.0,0.0,0.0,10.0,0.0,0.0,0.0,10.0
1452008901454554898,27,1452008901449609041,robocape_mag,12.9,-3.0,-28.35,10.0,0.0,0.0,0.0,10.0,0.0,0.0,0.0,10.0
1452008901488792232,28,1452008901483592033,robocape_mag,12.9,-3.0,-28.35,10.0,0.0,0.0,0.0,10.0,0.0,0.0,0.0,10.0
1452008901521005565,29,1452008901516146898,robocape_mag,12.9,-3.0,-28.35,10.0,0.0,0.0,0.0,10.0,0.0,0.0,0.0,10.0
1452008901554624482,30,1452008901549706935,robocape_mag,12.9,-3.0,-29.55,10.0,0.0,0.0,0.0,10.0,0.0,0.0,0.0,10.0
1452008901588321065,31,1452008901583040952,robocape_mag,12.9,-3.0,-29.55,10.0,0.0,0.0,0.0,10.0,0.0,0.0,0.0,10.0
1452008901620638190,32,1452008901615777015,robocape_mag,12.9,-3.0,-29.55,10.0,0.0,0.0,0.0,10.0,0.0,0.0,0.0,10.0
1452008901658587023,33,1452008901648701906,robocape_mag,12.9,-3.0,-29.55,10.0,0.0,0.0,0.0,10.0,0.0,0.0,0.0,10.0
1452008901687098607,34,1452008901681672096,robocape_mag,12.3,-4.2,-28.35,10.0,0.0,0.0,0.0,10.0,0.0,0.0,0.0,10.0
1452008901720035565,35,1452008901715178012,robocape_mag,12.3,-4.2,-28.35,10.0,0.0,0.0,0.0,10.0,0.0,0.0,0.0,10.0
1452008901752622023,36,1452008901747425079,robocape_mag,12.3,-4.2,-28.35,10.0,0.0,0.0,0.0,10.0,0.0,0.0,0.0,10.0
1452008901785783773,37,1452008901780590057,robocape_mag,12.3,-4.2,-28.35,10.0,0.0,0.0,0.0,10.0,0.0,0.0,0.0,10.0
1452008901819668732,38,1452008901814265966,robocape_mag,12.3,-4.2,-28.35,10.0,0.0,0.0,0.0,10.0,0.0,0.0,0.0,10.0
1452008901852413273,39,1452008901847446918,robocape_mag,12.3,-3.6,-30.15,10.0,0.0,0.0,0.0,10.0,0.0,0.0,0.0,10.0
1452008901886289482,40,1452008901880906105,robocape_mag,12.3,-3.6,-30.15,10.0,0.0,0.0,0.0,10.0,0.0,0.0,0.0,10.0
1452008901921260482,41,1452008901916306018,robocape_mag,12.3,-3.6,-30.15,10.0,0.0,0.0,0.0,10.0,0.0,0.0,0.0,10.0
1452008901952239773,42,1452008901947421073,robocape_mag,12.3,-3.6,-30.15,10.0,0.0,0.0,0.0,10.0,0.0,0.0,0.0,10.0
1452008901985220648,43,1452008901980144977,robocape_mag,12.3,-3.6,-30.15,10.0,0.0,0.0,0.0,10.0,0.0,0.0,0.0,10.0
1452008902023862982,44,1452008902013122081,robocape_mag,12.9,-4.8,-28.95,10.0,0.0,0.0,0.0,10.0,0.0,0.0,0.0,10.0
1452008902051640690,45,1452008902046757936,robocape_mag,12.9,-4.8,-28.95,10.0,0.0,0.0,0.0,10.0,0.0,0.0,0.0,10.0
1452008902084458898,46,1452008902079699039,robocape_mag,12.9,-4.8,-28.95,10.0,0.0,0.0,0.0,10.0,0.0,0.0,0.0,10.0
1452008902121941690,47,1452008902113864898,robocape_mag,12.9,-4.8,-28.95,10.0,0.0,0.0,0.0,10.0,0.0,0.0,0.0,10.0
1452008902162446107,48,1452008902150710105,robocape_mag,12.9,-4.8,-28.95,10.0,0.0,0.0,0.0,10.0,0.0,0.0,0.0,10.0
1452008902191081899,49,1452008902183700084,robocape_mag,13.5,-4.2,-30.15,10.0,0.0,0.0,0.0,10.0,0.0,0.0,0.0,10.0
1452008902225831274,50,1452008902220777988,robocape_mag,13.5,-4.2,-30.15,10.0,0.0,0.0,0.0,10.0,0.0,0.0,0.0,10.0
1452008902256277107,51,1452008902249625921,robocape_mag,13.5,-4.2,-30.15,10.0,0.0,0.0,0.0,10.0,0.0,0.0,0.0,10.0
1452008902289254524,52,1452008902283034086,robocape_mag,13.5,-4.2,-30.15,10.0,0.0,0.0,0.0,10.0,0.0,0.0,0.0,10.0
1452008902322633774,53,1452008902317339897,robocape_mag,13.5,-4.2,-30.15,10.0,0.0,0.0,0.0,10.0,0.0,0.0,0.0,10.0
1452008902355565440,54,1452008902350281000,robocape_mag,11.7,-4.8,-28.35,10.0,0.0,0.0,0.0,10.0,0.0,0.0,0.0,10.0
1452008902390175357,55,1452008902384401082,robocape_mag,11.7,-4.8,-28.35,10.0,0.0,0.0,0.0,10.0,0.0,0.0,0.0,10.0
1452008902423197607,56,1452008902418137073,robocape_mag,11.7,-4.8,-28.35,10.0,0.0,0.0,0.0,10.0,0.0,0.0,0.0,10.0
1452008902456645024,57,1452008902451316118,robocape_mag,11.7,-4.8,-28.35,10.0,0.0,0.0,0.0,10.0,0.0,0.0,0.0,10.0
1452008902490207774,58,1452008902484832048,robocape_mag,13.5,-3.0,-28.95,10.0,0.0,0.0,0.0,10.0,0.0,0.0,0.0,10.0
1452008902521681149,59,1452008902516460895,robocape_mag,13.5,-3.0,-28.95,10.0,0.0,0.0,0.0,10.0,0.0,0.0,0.0,10.0
1452008902556124982,60,1452008902550842046,robocape_mag,13.5,-3.0,-28.95,10.0,0.0,0.0,0.0,10.0,0.0,0.0,0.0,10.0
1452008902588380690,61,1452008902583342075,robocape_mag,13.5,-3.0,-28.95,10.0,0.0,0.0,0.0,10.0,0.0,0.0,0.0,10.0
1452008902620700024,62,1452008902615644931,robocape_mag,13.5,-3.0,-28.95,10.0,0.0,0.0,0.0,10.0,0.0,0.0,0.0,10.0
1452008902654677190,63,1452008902649729013,robocape_mag,13.8,-3.9,-28.65,10.0,0.0,0.0,0.0,10.0,0.0,0.0,0.0,10.0
1452008902687876982,64,1452008902682750940,robocape_mag,13.8,-3.9,-28.65,10.0,0.0,0.0,0.0,10.0,0.0,0.0,0.0,10.0
1452008902720381857,65,1452008902715449094,robocape_mag,13.8,-3.9,-28.65,10.0,0.0,0.0,0.0,10.0,0.0,0.0,0.0,10.0
1452008902753674107,66,1452008902748620033,robocape_mag,13.8,-3.9,-28.65,10.0,0.0,0.0,0.0,10.0,0.0,0.0,0.0,10.0
1452008902787409440,67,1452008902782438993,robocape_mag,13.8,-3.9,-28.65,10.0,0.0,0.0,0.0,10.0,0.0,0.0,0.0,10.0
1452008902820447857,68,1452008902815362930,robocape_mag,14.4,-3.9,-29.25,10.0,0.0,0.0,0.0,10.0,0.0,0.0,0.0,10.0
1452008902853198149,69,1452008902848360061,robocape_mag,14.4,-3.9,-29.25,10.0,0.0,0.0,0.0,10.0,0.0,0.0,0.0,10.0
1452008902886653732,70,1452008902881413936,robocape_mag,14.4,-3.9,-29.25,10.0,0.0,0.0,0.0,10.0,0.0,0.0,0.0,10.0
1452008902921342482,71,1452008902916467905,robocape_mag,14.4,-3.9,-29.25,10.0,0.0,0.0,0.0,10.0,0.0,0.0,0.0,10.0
1452008902952198607,72,1452008902947266101,robocape_mag,14.4,-3.9,-29.25,10.0,0.0,0.0,0.0,10.0,0.0,0.0,0.0,10.0
1452008902985386316,73,1452008902980324029,robocape_mag,14.4,-3.9,-31.05,10.0,0.0,0.0,0.0,10.0,0.0,0.0,0.0,10.0
1452008903018601816,74,1452008903013849973,robocape_mag,14.4,-3.9,-31.05,10.0,0.0,0.0,0.0,10.0,0.0,0.0,0.0,10.0
1452008903052739524,75,1452008903047739982,robocape_mag,14.4,-3.9,-31.05,10.0,0.0,0.0,0.0,10.0,0.0,0.0,0.0,10.0
1452008903085138732,76,1452008903080254077,robocape_mag,14.4,-3.9,-31.05,10.0,0.0,0.0,0.0,10.0,0.0,0.0,0.0,10.0
1452008903119238482,77,1452008903114427089,robocape_mag,14.4,-3.9,-31.05,10.0,0.0,0.0,0.0,10.0,0.0,0.0,0.0,10.0
1452008903151935024,78,1452008903146765947,robocape_mag,13.2,-3.3,-29.85,10.0,0.0,0.0,0.0,10.0,0.0,0.0,0.0,10.0
1452008903184804941,79,1452008903179935932,robocape_mag,13.2,-3.3,-29.85,10.0,0.0,0.0,0.0,10.0,0.0,0.0,0.0,10.0
1452008903218381774,80,1452008903213526010,robocape_mag,13.2,-3.3,-29.85,10.0,0.0,0.0,0.0,10.0,0.0,0.0,0.0,10.0
1452008903251749399,81,1452008903246762990,robocape_mag,13.2,-3.3,-29.85,10.0,0.0,0.0,0.0,10.0,0.0,0.0,0.0,10.0
1452008903284821024,82,1452008903280018091,robocape_mag,13.2,-4.5,-30.45,10.0,0.0,0.0,0.0,10.0,0.0,0.0,0.0,10.0
1452008903318028982,83,1452008903313221931,robocape_mag,15.0,-4.5,-30.45,10.0,0.0,0.0,0.0,10.0,0.0,0.0,0.0,10.0
1452008903351704066,84,1452008903346657991,robocape_mag,15.0,-4.5,-30.45,10.0,0.0,0.0,0.0,10.0,0.0,0.0,0.0,10.0
1452008903389590107,85,1452008903380125045,robocape_mag,15.0,-4.5,-30.45,10.0,0.0,0.0,0.0,10.0,0.0,0.0,0.0,10.0
1452008903418169899,86,1452008903413256883,robocape_mag,15.0,-4.5,-30.45,10.0,0.0,0.0,0.0,10.0,0.0,0.0,0.0,10.0
1452008903451760024,87,1452008903446691989,robocape_mag,14.7,-3.6,-28.95,10.0,0.0,0.0,0.0,10.0,0.0,0.0,0.0,10.0
1452008903484953107,88,1452008903480161905,robocape_mag,14.7,-3.6,-28.95,10.0,0.0,0.0,0.0,10.0,0.0,0.0,0.0,10.0
1452008903518049899,89,1452008903513286113,robocape_mag,14.7,-3.6,-28.95,10.0,0.0,0.0,0.0,10.0,0.0,0.0,0.0,10.0
1452008903551963774,90,1452008903546794891,robocape_mag,14.7,-3.6,-28.95,10.0,0.0,0.0,0.0,10.0,0.0,0.0,0.0,10.0
1452008903584581774,91,1452008903579766988,robocape_mag,14.7,-3.6,-28.95,10.0,0.0,0.0,0.0,10.0,0.0,0.0,0.0,10.0
1452008903617857691,92,1452008903613086938,robocape_mag,14.4,-3.3,-29.85,10.0,0.0,0.0,0.0,10.0,0.0,0.0,0.0,10.0
1452008903651596274,93,1452008903646441936,robocape_mag,14.4,-3.3,-29.85,10.0,0.0,0.0,0.0,10.0,0.0,0.0,0.0,10.0
1452008903686757108,94,1452008903679886102,robocape_mag,14.4,-3.3,-29.85,10.0,0.0,0.0,0.0,10.0,0.0,0.0,0.0,10.0
1452008903720028233,95,1452008903713229894,robocape_mag,14.4,-3.3,-29.85,10.0,0.0,0.0,0.0,10.0,0.0,0.0,0.0,10.0
1452008903752881774,96,1452008903746637105,robocape_mag,14.4,-3.3,-29.85,10.0,0.0,0.0,0.0,10.0,0.0,0.0,0.0,10.0
1452008903784939399,97,1452008903779951095,robocape_mag,12.6,-3.3,-28.65,10.0,0.0,0.0,0.0,10.0,0.0,0.0,0.0,10.0
1452008903818977483,98,1452008903813178062,robocape_mag,12.6,-3.3,-28.65,10.0,0.0,0.0,0.0,10.0,0.0,0.0,0.0,10.0
1452008903853956274,99,1452008903847053050,robocape_mag,12.6,-3.3,-28.65,10.0,0.0,0.0,0.0,10.0,0.0,0.0,0.0,10.0
1452008903887114108,100,1452008903879818916,robocape_mag,12.6,-3.3,-28.65,10.0,0.0,0.0,0.0,10.0,0.0,0.0,0.0,10.0
1452008903920283149,101,1452008903915313005,robocape_mag,12.6,-3.3,-28.65,10.0,0.0,0.0,0.0,10.0,0.0,0.0,0.0,10.0
1452008903951685149,102,1452008903946453094,robocape_mag,13.2,-3.9,-29.25,10.0,0.0,0.0,0.0,10.0,0.0,0.0,0.0,10.0
1452008903984927441,103,1452008903980037927,robocape_mag,13.2,-3.9,-29.25,10.0,0.0,0.0,0.0,10.0,0.0,0.0,0.0,10.0
1452008904018165108,104,1452008904013334989,robocape_mag,13.2,-3.9,-29.25,10.0,0.0,0.0,0.0,10.0,0.0,0.0,0.0,10.0
1452008904051557941,105,1452008904046591043,robocape_mag,13.2,-3.9,-29.25,10.0,0.0,0.0,0.0,10.0,0.0,0.0,0.0,10.0
1452008904084733149,106,1452008904079905986,robocape_mag,13.2,-3.9,-29.85,10.0,0.0,0.0,0.0,10.0,0.0,0.0,0.0,10.0
1452008904119695941,107,1452008904114144086,robocape_mag,13.2,-3.9,-29.85,10.0,0.0,0.0,0.0,10.0,0.0,0.0,0.0,10.0
1452008904151560024,108,1452008904146528959,robocape_mag,13.2,-3.9,-29.85,10.0,0.0,0.0,0.0,10.0,0.0,0.0,0.0,10.0
1452008904185700566,109,1452008904180519104,robocape_mag,13.2,-3.9,-29.85,10.0,0.0,0.0,0.0,10.0,0.0,0.0,0.0,10.0
1452008904219055983,110,1452008904214273929,robocape_mag,13.2,-3.9,-29.85,10.0,0.0,0.0,0.0,10.0,0.0,0.0,0.0,10.0
1452008904253295774,111,1452008904247874975,robocape_mag,12.6,-3.3,-28.65,10.0,0.0,0.0,0.0,10.0,0.0,0.0,0.0,10.0
1452008904285384733,112,1452008904280627965,robocape_mag,12.6,-3.3,-28.65,10.0,0.0,0.0,0.0,10.0,0.0,0.0,0.0,10.0
1452008904319314275,113,1452008904314029932,robocape_mag,12.6,-3.3,-28.65,10.0,0.0,0.0,0.0,10.0,0.0,0.0,0.0,10.0
1452008904354364358,114,1452008904348108053,robocape_mag,12.6,-3.3,-28.65,10.0,0.0,0.0,0.0,10.0,0.0,0.0,0.0,10.0
1452008904393927775,115,1452008904386085987,robocape_mag,12.6,-3.3,-28.65,10.0,0.0,0.0,0.0,10.0,0.0,0.0,0.0,10.0
1452008904420235858,116,1452008904415016889,robocape_mag,14.7,-4.2,-28.95,10.0,0.0,0.0,0.0,10.0,0.0,0.0,0.0,10.0
1452008904457754358,117,1452008904449579000,robocape_mag,14.7,-4.2,-28.95,10.0,0.0,0.0,0.0,10.0,0.0,0.0,0.0,10.0
1452008904490821775,118,1452008904481623888,robocape_mag,14.7,-4.2,-28.95,10.0,0.0,0.0,0.0,10.0,0.0,0.0,0.0,10.0
1452008904525087316,119,1452008904515760898,robocape_mag,14.7,-4.2,-28.95,10.0,0.0,0.0,0.0,10.0,0.0,0.0,0.0,10.0
1452008904558509941,120,1452008904551194906,robocape_mag,14.7,-4.2,-28.95,10.0,0.0,0.0,0.0,10.0,0.0,0.0,0.0,10.0
1452008904588147400,121,1452008904583259105,robocape_mag,15.0,-2.7,-30.45,10.0,0.0,0.0,0.0,10.0,0.0,0.0,0.0,10.0
1452008904622542983,122,1452008904616509914,robocape_mag,15.0,-2.7,-30.45,10.0,0.0,0.0,0.0,10.0,0.0,0.0,0.0,10.0
1452008904656143275,123,1452008904650747060,robocape_mag,15.0,-2.7,-30.45,10.0,0.0,0.0,0.0,10.0,0.0,0.0,0.0,10.0
1452008904689169275,124,1452008904684051990,robocape_mag,15.0,-2.7,-30.45,10.0,0.0,0.0,0.0,10.0,0.0,0.0,0.0,10.0
1452008904725279441,125,1452008904716388940,robocape_mag,15.0,-2.7,-30.45,10.0,0.0,0.0,0.0,10.0,0.0,0.0,0.0,10.0
1452008904760189108,126,1452008904750842094,robocape_mag,15.0,-3.3,-29.85,10.0,0.0,0.0,0.0,10.0,0.0,0.0,0.0,10.0
1452008904787907733,127,1452008904782819032,robocape_mag,15.0,-3.3,-29.85,10.0,0.0,0.0,0.0,10.0,0.0,0.0,0.0,10.0
1452008904822733816,128,1452008904817791938,robocape_mag,15.0,-3.3,-29.85,10.0,0.0,0.0,0.0,10.0,0.0,0.0,0.0,10.0
1452008904855831650,129,1452008904850652933,robocape_mag,15.0,-3.3,-29.85,10.0,0.0,0.0,0.0,10.0,0.0,0.0,0.0,10.0
1452008904893194858,130,1452008904883650064,robocape_mag,15.6,-3.3,-28.65,10.0,0.0,0.0,0.0,10.0,0.0,0.0,0.0,10.0
1452008904927811400,131,1452008904916625976,robocape_mag,15.6,-3.3,-28.65,10.0,0.0,0.0,0.0,10.0,0.0,0.0,0.0,10.0
1452008904955564275,132,1452008904950647115,robocape_mag,15.6,-3.3,-28.65,10.0,0.0,0.0,0.0,10.0,0.0,0.0,0.0,10.0
1452008904987916400,133,1452008904983040094,robocape_mag,15.6,-3.3,-28.65,10.0,0.0,0.0,0.0,10.0,0.0,0.0,0.0,10.0
1452008905021939233,134,1452008905016968965,robocape_mag,15.6,-3.3,-28.65,10.0,0.0,0.0,0.0,10.0,0.0,0.0,0.0,10.0
1452008905054845442,135,1452008905049841880,robocape_mag,13.2,-3.9,-29.25,10.0,0.0,0.0,0.0,10.0,0.0,0.0,0.0,10.0
1452008905086513025,136,1452008905081661939,robocape_mag,13.2,-3.9,-29.25,10.0,0.0,0.0,0.0,10.0,0.0,0.0,0.0,10.0
1452008905121803692,137,1452008905116990089,robocape_mag,13.2,-3.9,-29.25,10.0,0.0,0.0,0.0,10.0,0.0,0.0,0.0,10.0
1452008905154337192,138,1452008905149324893,robocape_mag,13.2,-3.9,-29.25,10.0,0.0,0.0,0.0,10.0,0.0,0.0,0.0,10.0
1452008905187032692,139,1452008905182142972,robocape_mag,13.2,-3.9,-29.25,10.0,0.0,0.0,0.0,10.0,0.0,0.0,0.0,10.0
1452008905221137733,140,1452008905216353893,robocape_mag,14.1,-3.6,-28.95,10.0,0.0,0.0,0.0,10.0,0.0,0.0,0.0,10.0
1452008905252365817,141,1452008905247301101,robocape_mag,14.1,-3.6,-28.95,10.0,0.0,0.0,0.0,10.0,0.0,0.0,0.0,10.0
1452008905285442400,142,1452008905280642032,robocape_mag,14.1,-3.6,-28.95,10.0,0.0,0.0,0.0,10.0,0.0,0.0,0.0,10.0
1452008905318773317,143,1452008905313811063,robocape_mag,14.1,-3.6,-28.95,10.0,0.0,0.0,0.0,10.0,0.0,0.0,0.0,10.0
1452008905352086608,144,1452008905347213983,robocape_mag,14.1,-3.6,-28.95,10.0,0.0,0.0,0.0,10.0,0.0,0.0,0.0,10.0
1452008905385487942,145,1452008905380390882,robocape_mag,14.4,-3.3,-28.65,10.0,0.0,0.0,0.0,10.0,0.0,0.0,0.0,10.0
1452008905418927400,146,1452008905414089918,robocape_mag,14.4,-3.3,-28.65,10.0,0.0,0.0,0.0,10.0,0.0,0.0,0.0,10.0
1452008905451872858,147,1452008905447048902,robocape_mag,14.4,-3.3,-28.65,10.0,0.0,0.0,0.0,10.0,0.0,0.0,0.0,10.0
1452008905485155775,148,1452008905480159044,robocape_mag,14.4,-3.3,-28.65,10.0,0.0,0.0,0.0,10.0,0.0,0.0,0.0,10.0
1452008905518418317,149,1452008905513637065,robocape_mag,14.4,-3.3,-28.65,10.0,0.0,0.0,0.0,10.0,0.0,0.0,0.0,10.0
1452008905551546233,150,1452008905546627044,robocape_mag,14.4,-4.5,-30.45,10.0,0.0,0.0,0.0,10.0,0.0,0.0,0.0,10.0
1452008905584561192,151,1452008905579787015,robocape_mag,14.4,-4.5,-30.45,10.0,0.0,0.0,0.0,10.0,0.0,0.0,0.0,10.0
1452008905618401608,152,1452008905613548994,robocape_mag,14.4,-4.5,-30.45,10.0,0.0,0.0,0.0,10.0,0.0,0.0,0.0,10.0
1452008905654723983,153,1452008905646722078,robocape_mag,14.4,-4.5,-30.45,10.0,0.0,0.0,0.0,10.0,0.0,0.0,0.0,10.0
1452008905684593025,154,1452008905679826974,robocape_mag,14.4,-2.4,-28.95,10.0,0.0,0.0,0.0,10.0,0.0,0.0,0.0,10.0
1452008905718591275,155,1452008905713707923,robocape_mag,11.7,-2.4,-28.95,10.0,0.0,0.0,0.0,10.0,0.0,0.0,0.0,10.0
1452008905752097942,156,1452008905747065067,robocape_mag,11.7,-2.4,-28.95,10.0,0.0,0.0,0.0,10.0,0.0,0.0,0.0,10.0
1452008905784761150,157,1452008905779947042,robocape_mag,11.7,-2.4,-28.95,10.0,0.0,0.0,0.0,10.0,0.0,0.0,0.0,10.0
1452008905821785567,158,1452008905813538074,robocape_mag,11.7,-2.4,-28.95,10.0,0.0,0.0,0.0,10.0,0.0,0.0,0.0,10.0
1452008905851483984,159,1452008905846569061,robocape_mag,14.4,-3.9,-30.45,10.0,0.0,0.0,0.0,10.0,0.0,0.0,0.0,10.0
1452008905885204109,160,1452008905880312919,robocape_mag,14.4,-3.9,-30.45,10.0,0.0,0.0,0.0,10.0,0.0,0.0,0.0,10.0
1452008905920884734,161,1452008905915910959,robocape_mag,14.4,-3.9,-30.45,10.0,0.0,0.0,0.0,10.0,0.0,0.0,0.0,10.0
1452008905951596234,162,1452008905946759939,robocape_mag,14.4,-3.9,-30.45,10.0,0.0,0.0,0.0,10.0,0.0,0.0,0.0,10.0
1452008905984844484,163,1452008905979775905,robocape_mag,14.4,-3.9,-30.45,10.0,0.0,0.0,0.0,10.0,0.0,0.0,0.0,10.0
1452008906020391234,164,1452008906013294935,robocape_mag,14.4,-4.5,-28.65,10.0,0.0,0.0,0.0,10.0,0.0,0.0,0.0,10.0
1452008906052842067,165,1452008906046392917,robocape_mag,14.4,-4.5,-28.65,10.0,0.0,0.0,0.0,10.0,0.0,0.0,0.0,10.0
1452008906085160650,166,1452008906079991102,robocape_mag,14.4,-4.5,-28.65,10.0,0.0,0.0,0.0,10.0,0.0,0.0,0.0,10.0
1452008906119322609,167,1452008906114168882,robocape_mag,14.4,-4.5,-28.65,10.0,0.0,0.0,0.0,10.0,0.0,0.0,0.0,10.0
1452008906151445609,168,1452008906146457910,robocape_mag,14.4,-4.5,-28.65,10.0,0.0,0.0,0.0,10.0,0.0,0.0,0.0,10.0
1452008906185006609,169,1452008906179759979,robocape_mag,12.0,-5.1,-29.85,10.0,0.0,0.0,0.0,10.0,0.0,0.0,0.0,10.0
1452008906220091900,170,1452008906213150978,robocape_mag,12.0,-5.1,-29.85,10.0,0.0,0.0,0.0,10.0,0.0,0.0,0.0,10.0
1452008906252493942,171,1452008906246495008,robocape_mag,12.0,-5.1,-29.85,10.0,0.0,0.0,0.0,10.0,0.0,0.0,0.0,10.0
1452008906284772400,172,1452008906279652118,robocape_mag,12.0,-5.1,-29.85,10.0,0.0,0.0,0.0,10.0,0.0,0.0,0.0,10.0
1452008906320185859,173,1452008906313205003,robocape_mag,12.0,-5.1,-29.85,10.0,0.0,0.0,0.0,10.0,0.0,0.0,0.0,10.0
1452008906351562734,174,1452008906346652030,robocape_mag,14.1,-3.6,-30.15,10.0,0.0,0.0,0.0,10.0,0.0,0.0,0.0,10.0
1452008906384824026,175,1452008906379823923,robocape_mag,14.1,-3.6,-30.15,10.0,0.0,0.0,0.0,10.0,0.0,0.0,0.0,10.0
1452008906418514942,176,1452008906413691043,robocape_mag,14.1,-3.6,-30.15,10.0,0.0,0.0,0.0,10.0,0.0,0.0,0.0,10.0
1452008906451451817,177,1452008906446641921,robocape_mag,14.1,-3.6,-30.15,10.0,0.0,0.0,0.0,10.0,0.0,0.0,0.0,10.0
1452008906486046234,178,1452008906479840040,robocape_mag,14.1,-3.6,-28.35,10.0,0.0,0.0,0.0,10.0,0.0,0.0,0.0,10.0
1452008906519695734,179,1452008906514651060,robocape_mag,11.7,-3.6,-28.35,10.0,0.0,0.0,0.0,10.0,0.0,0.0,0.0,10.0
1452008906554116609,180,1452008906547781944,robocape_mag,11.7,-3.6,-28.35,10.0,0.0,0.0,0.0,10.0,0.0,0.0,0.0,10.0
1452008906586932651,181,1452008906580085992,robocape_mag,11.7,-3.6,-28.35,10.0,0.0,0.0,0.0,10.0,0.0,0.0,0.0,10.0
1452008906619043692,182,1452008906613792896,robocape_mag,11.7,-3.6,-28.35,10.0,0.0,0.0,0.0,10.0,0.0,0.0,0.0,10.0
1452008906651583067,183,1452008906646773099,robocape_mag,13.5,-3.0,-29.55,10.0,0.0,0.0,0.0,10.0,0.0,0.0,0.0,10.0
1452008906689989859,184,1452008906682030916,robocape_mag,13.5,-3.0,-29.55,10.0,0.0,0.0,0.0,10.0,0.0,0.0,0.0,10.0
1452008906719456067,185,1452008906714050054,robocape_mag,13.5,-3.0,-29.55,10.0,0.0,0.0,0.0,10.0,0.0,0.0,0.0,10.0
1452008906752368776,186,1452008906747459888,robocape_mag,13.5,-3.0,-29.55,10.0,0.0,0.0,0.0,10.0,0.0,0.0,0.0,10.0
1452008906786091567,187,1452008906780886888,robocape_mag,13.5,-3.0,-29.55,10.0,0.0,0.0,0.0,10.0,0.0,0.0,0.0,10.0
1452008906828868442,188,1452008906817166090,robocape_mag,3.9,-9.0,-5.55,10.0,0.0,0.0,0.0,10.0,0.0,0.0,0.0,10.0
1452008906856882567,189,1452008906849482059,robocape_mag,3.9,-9.0,-5.55,10.0,0.0,0.0,0.0,10.0,0.0,0.0,0.0,10.0
1452008906890215151,190,1452008906882859945,robocape_mag,3.9,-9.0,-5.55,10.0,0.0,0.0,0.0,10.0,0.0,0.0,0.0,10.0
1452008906921840151,191,1452008906916171073,robocape_mag,3.9,-9.0,-5.55,10.0,0.0,0.0,0.0,10.0,0.0,0.0,0.0,10.0
1452008906956460776,192,1452008906950258016,robocape_mag,3.9,-9.0,-5.55,10.0,0.0,0.0,0.0,10.0,0.0,0.0,0.0,10.0
1452008906989435817,193,1452008906984019994,robocape_mag,6.9,-32.4,-3.15,10.0,0.0,0.0,0.0,10.0,0.0,0.0,0.0,10.0
1452008907027873359,194,1452008907017752885,robocape_mag,6.9,-32.4,-3.15,10.0,0.0,0.0,0.0,10.0,0.0,0.0,0.0,10.0
1452008907056380942,195,1452008907051071882,robocape_mag,6.9,-32.4,-3.15,10.0,0.0,0.0,0.0,10.0,0.0,0.0,0.0,10.0
1452008907088926943,196,1452008907082986116,robocape_mag,6.9,-32.4,-3.15,10.0,0.0,0.0,0.0,10.0,0.0,0.0,0.0,10.0
1452008907126214109,197,1452008907117645025,robocape_mag,6.9,-32.4,-3.15,10.0,0.0,0.0,0.0,10.0,0.0,0.0,0.0,10.0
1452008907159876651,198,1452008907151053905,robocape_mag,11.7,-2.4,-22.95,10.0,0.0,0.0,0.0,10.0,0.0,0.0,0.0,10.0
1452008907188891484,199,1452008907183336019,robocape_mag,11.7,-2.4,-22.95,10.0,0.0,0.0,0.0,10.0,0.0,0.0,0.0,10.0
1452008907227020984,200,1452008907216706037,robocape_mag,11.7,-2.4,-22.95,10.0,0.0,0.0,0.0,10.0,0.0,0.0,0.0,10.0
1452008907254238776,201,1452008907249193906,robocape_mag,11.7,-2.4,-22.95,10.0,0.0,0.0,0.0,10.0,0.0,0.0,0.0,10.0
1452008907291323693,202,1452008907282206058,robocape_mag,4.5,-36.6,-20.55,10.0,0.0,0.0,0.0,10.0,0.0,0.0,0.0,10.0
1452008907322837734,203,1452008907316771984,robocape_mag,4.5,-36.6,-20.55,10.0,0.0,0.0,0.0,10.0,0.0,0.0,0.0,10.0
1452008907354363609,204,1452008907349497079,robocape_mag,4.5,-36.6,-20.55,10.0,0.0,0.0,0.0,10.0,0.0,0.0,0.0,10.0
1452008907388149026,205,1452008907382603883,robocape_mag,4.5,-36.6,-20.55,10.0,0.0,0.0,0.0,10.0,0.0,0.0,0.0,10.0
1452008907421223401,206,1452008907416330099,robocape_mag,4.5,-36.6,-20.55,10.0,0.0,0.0,0.0,10.0,0.0,0.0,0.0,10.0
1452008907454306943,207,1452008907449444055,robocape_mag,-0.6,-1.5,-23.25,10.0,0.0,0.0,0.0,10.0,0.0,0.0,0.0,10.0
1452008907486897109,208,1452008907481899976,robocape_mag,-0.6,-1.5,-23.25,10.0,0.0,0.0,0.0,10.0,0.0,0.0,0.0,10.0
1452008907520523318,209,1452008907515383958,robocape_mag,-0.6,-1.5,-23.25,10.0,0.0,0.0,0.0,10.0,0.0,0.0,0.0,10.0
1452008907552711359,210,1452008907547889947,robocape_mag,-0.6,-1.5,-23.25,10.0,0.0,0.0,0.0,10.0,0.0,0.0,0.0,10.0
1452008907586012401,211,1452008907580980062,robocape_mag,-0.6,-1.5,-23.25,10.0,0.0,0.0,0.0,10.0,0.0,0.0,0.0,10.0
1452008907622763651,212,1452008907613807916,robocape_mag,17.1,3.6,-16.95,10.0,0.0,0.0,0.0,10.0,0.0,0.0,0.0,10.0
1452008907652155359,213,1452008907647286891,robocape_mag,17.1,3.6,-16.95,10.0,0.0,0.0,0.0,10.0,0.0,0.0,0.0,10.0
1452008907685178693,214,1452008907680363893,robocape_mag,17.1,3.6,-16.95,10.0,0.0,0.0,0.0,10.0,0.0,0.0,0.0,10.0
1452008907722461401,215,1452008907713939905,robocape_mag,17.1,3.6,-16.95,10.0,0.0,0.0,0.0,10.0,0.0,0.0,0.0,10.0
1452008907751791193,216,1452008907746875047,robocape_mag,17.1,3.6,-16.95,10.0,0.0,0.0,0.0,10.0,0.0,0.0,0.0,10.0
1452008907784975776,217,1452008907780177116,robocape_mag,28.5,3.6,-19.95,10.0,0.0,0.0,0.0,10.0,0.0,0.0,0.0,10.0
1452008907818801318,218,1452008907813498973,robocape_mag,28.5,3.6,-19.95,10.0,0.0,0.0,0.0,10.0,0.0,0.0,0.0,10.0
1452008907851507985,219,1452008907846657037,robocape_mag,28.5,3.6,-19.95,10.0,0.0,0.0,0.0,10.0,0.0,0.0,0.0,10.0
1452008907884853360,220,1452008907879847049,robocape_mag,28.5,3.6,-19.95,10.0,0.0,0.0,0.0,10.0,0.0,0.0,0.0,10.0
1452008907920949151,221,1452008907916095972,robocape_mag,28.5,3.6,-19.95,10.0,0.0,0.0,0.0,10.0,0.0,0.0,0.0,10.0
1452008907952733276,222,1452008907947804927,robocape_mag,2.7,-25.8,-10.95,10.0,0.0,0.0,0.0,10.0,0.0,0.0,0.0,10.0
1452008907984919151,223,1452008907980144023,robocape_mag,2.7,-25.8,-10.95,10.0,0.0,0.0,0.0,10.0,0.0,0.0,0.0,10.0
1452008908018230360,224,1452008908013313055,robocape_mag,2.7,-25.8,-10.95,10.0,0.0,0.0,0.0,10.0,0.0,0.0,0.0,10.0
1452008908051604776,225,1452008908046552896,robocape_mag,2.7,-25.8,-10.95,10.0,0.0,0.0,0.0,10.0,0.0,0.0,0.0,10.0
1452008908084820360,226,1452008908079982995,robocape_mag,2.7,-21.0,-25.95,10.0,0.0,0.0,0.0,10.0,0.0,0.0,0.0,10.0
1452008908122381401,227,1452008908114012956,robocape_mag,14.1,-21.0,-25.95,10.0,0.0,0.0,0.0,10.0,0.0,0.0,0.0,10.0
1452008908151449276,228,1452008908146401882,robocape_mag,14.1,-21.0,-25.95,10.0,0.0,0.0,0.0,10.0,0.0,0.0,0.0,10.0
1452008908184620485,229,1452008908179864883,robocape_mag,14.1,-21.0,-25.95,10.0,0.0,0.0,0.0,10.0,0.0,0.0,0.0,10.0
1452008908218553901,230,1452008908213375091,robocape_mag,14.1,-21.0,-25.95,10.0,0.0,0.0,0.0,10.0,0.0,0.0,0.0,10.0
1452008908251518901,231,1452008908246408939,robocape_mag,-14.4,-11.7,-31.05,10.0,0.0,0.0,0.0,10.0,0.0,0.0,0.0,10.0
1452008908284715443,232,1452008908279928922,robocape_mag,-14.4,-11.7,-31.05,10.0,0.0,0.0,0.0,10.0,0.0,0.0,0.0,10.0
1452008908318505318,233,1452008908313237905,robocape_mag,-14.4,-11.7,-31.05,10.0,0.0,0.0,0.0,10.0,0.0,0.0,0.0,10.0
1452008908352265776,234,1452008908346324920,robocape_mag,-14.4,-11.7,-31.05,10.0,0.0,0.0,0.0,10.0,0.0,0.0,0.0,10.0
1452008908385142901,235,1452008908379695892,robocape_mag,-14.4,-11.7,-31.05,10.0,0.0,0.0,0.0,10.0,0.0,0.0,0.0,10.0
1452008908418475485,236,1452008908413403987,robocape_mag,-19.8,-15.9,-25.05,10.0,0.0,0.0,0.0,10.0,0.0,0.0,0.0,10.0
1452008908451943485,237,1452008908446382999,robocape_mag,-19.8,-15.9,-25.05,10.0,0.0,0.0,0.0,10.0,0.0,0.0,0.0,10.0
1452008908484698860,238,1452008908479784011,robocape_mag,-19.8,-15.9,-25.05,10.0,0.0,0.0,0.0,10.0,0.0,0.0,0.0,10.0
1452008908518789485,239,1452008908513497114,robocape_mag,-19.8,-15.9,-25.05,10.0,0.0,0.0,0.0,10.0,0.0,0.0,0.0,10.0
1452008908551737610,240,1452008908546402931,robocape_mag,-19.8,-15.9,-25.05,10.0,0.0,0.0,0.0,10.0,0.0,0.0,0.0,10.0
1452008908584834193,241,1452008908579737901,robocape_mag,16.8,-29.7,-25.05,10.0,0.0,0.0,0.0,10.0,0.0,0.0,0.0,10.0
1452008908620205860,242,1452008908613521099,robocape_mag,16.8,-29.7,-25.05,10.0,0.0,0.0,0.0,10.0,0.0,0.0,0.0,10.0
1452008908651667902,243,1452008908646343946,robocape_mag,16.8,-29.7,-25.05,10.0,0.0,0.0,0.0,10.0,0.0,0.0,0.0,10.0
1452008908684800818,244,1452008908679882049,robocape_mag,16.8,-29.7,-25.05,10.0,0.0,0.0,0.0,10.0,0.0,0.0,0.0,10.0
1452008908721014235,245,1452008908713444948,robocape_mag,16.8,-29.7,-25.05,10.0,0.0,0.0,0.0,10.0,0.0,0.0,0.0,10.0
1452008908751739985,246,1452008908746507883,robocape_mag,21.0,5.1,-17.85,10.0,0.0,0.0,0.0,10.0,0.0,0.0,0.0,10.0
1452008908785025443,247,1452008908780062913,robocape_mag,21.0,5.1,-17.85,10.0,0.0,0.0,0.0,10.0,0.0,0.0,0.0,10.0
1452008908820004902,248,1452008908813376903,robocape_mag,21.0,5.1,-17.85,10.0,0.0,0.0,0.0,10.0,0.0,0.0,0.0,10.0
1452008908852563068,249,1452008908847506046,robocape_mag,21.0,5.1,-17.85,10.0,0.0,0.0,0.0,10.0,0.0,0.0,0.0,10.0
1452008908885425902,250,1452008908879957914,robocape_mag,21.0,5.1,-20.55,10.0,0.0,0.0,0.0,10.0,0.0,0.0,0.0,10.0
1452008908921294068,251,1452008908916142940,robocape_mag,36.9,-23.4,-20.55,10.0,0.0,0.0,0.0,10.0,0.0,0.0,0.0,10.0
1452008908954618568,252,1452008908949351072,robocape_mag,36.9,-23.4,-20.55,10.0,0.0,0.0,0.0,10.0,0.0,0.0,0.0,10.0
1452008908987381277,253,1452008908982570886,robocape_mag,36.9,-23.4,-20.55,10.0,0.0,0.0,0.0,10.0,0.0,0.0,0.0,10.0
1452008909019990902,254,1452008909014944076,robocape_mag,36.9,-23.4,-20.55,10.0,0.0,0.0,0.0,10.0,0.0,0.0,0.0,10.0
1452008909052624818,255,1452008909047261953,robocape_mag,0.0,-32.7,-13.05,10.0,0.0,0.0,0.0,10.0,0.0,0.0,0.0,10.0
1452008909086544360,256,1452008909081676006,robocape_mag,0.0,-32.7,-13.05,10.0,0.0,0.0,0.0,10.0,0.0,0.0,0.0,10.0
1452008909122409527,257,1452008909114087104,robocape_mag,0.0,-32.7,-13.05,10.0,0.0,0.0,0.0,10.0,0.0,0.0,0.0,10.0
1452008909161758693,258,1452008909150202035,robocape_mag,0.0,-32.7,-13.05,10.0,0.0,0.0,0.0,10.0,0.0,0.0,0.0,10.0
1452008909190255444,259,1452008909182887077,robocape_mag,0.0,-32.7,-13.05,10.0,0.0,0.0,0.0,10.0,0.0,0.0,0.0,10.0
1452008909225501360,260,1452008909215717077,robocape_mag,9.3,-16.8,-33.15,10.0,0.0,0.0,0.0,10.0,0.0,0.0,0.0,10.0
1452008909256273610,261,1452008909249840974,robocape_mag,9.3,-16.8,-33.15,10.0,0.0,0.0,0.0,10.0,0.0,0.0,0.0,10.0
1452008909293370110,262,1452008909282938003,robocape_mag,9.3,-16.8,-33.15,10.0,0.0,0.0,0.0,10.0,0.0,0.0,0.0,10.0
1452008909326673360,263,1452008909316019058,robocape_mag,9.3,-16.8,-33.15,10.0,0.0,0.0,0.0,10.0,0.0,0.0,0.0,10.0
1452008909356149735,264,1452008909350642919,robocape_mag,9.3,-16.8,-33.15,10.0,0.0,0.0,0.0,10.0,0.0,0.0,0.0,10.0
1452008909388076485,265,1452008909382425069,robocape_mag,9.3,-30.6,-35.55,10.0,0.0,0.0,0.0,10.0,0.0,0.0,0.0,10.0
1452008909426247069,266,1452008909416806936,robocape_mag,9.3,-30.6,-35.55,10.0,0.0,0.0,0.0,10.0,0.0,0.0,0.0,10.0
1452008909456112069,267,1452008909450721979,robocape_mag,9.3,-30.6,-35.55,10.0,0.0,0.0,0.0,10.0,0.0,0.0,0.0,10.0
1452008909489204319,268,1452008909484262943,robocape_mag,9.3,-30.6,-35.55,10.0,0.0,0.0,0.0,10.0,0.0,0.0,0.0,10.0
1452008909524770402,269,1452008909517328023,robocape_mag,9.3,-30.6,-35.55,10.0,0.0,0.0,0.0,10.0,0.0,0.0,0.0,10.0
1452008909554868652,270,1452008909549457073,robocape_mag,9.6,-37.5,-14.25,10.0,0.0,0.0,0.0,10.0,0.0,0.0,0.0,10.0
1452008909591825235,271,1452008909582922935,robocape_mag,9.6,-37.5,-14.25,10.0,0.0,0.0,0.0,10.0,0.0,0.0,0.0,10.0
1452008909621409985,272,1452008909616146087,robocape_mag,9.6,-37.5,-14.25,10.0,0.0,0.0,0.0,10.0,0.0,0.0,0.0,10.0
1452008909654407985,273,1452008909648519039,robocape_mag,9.6,-37.5,-14.25,10.0,0.0,0.0,0.0,10.0,0.0,0.0,0.0,10.0
1452008909686834235,274,1452008909681885004,robocape_mag,8.4,-21.9,-9.45,10.0,0.0,0.0,0.0,10.0,0.0,0.0,0.0,10.0
1452008909721858610,275,1452008909715977907,robocape_mag,8.4,-21.9,-9.45,10.0,0.0,0.0,0.0,10.0,0.0,0.0,0.0,10.0
1452008909754621860,276,1452008909748864889,robocape_mag,8.4,-21.9,-9.45,10.0,0.0,0.0,0.0,10.0,0.0,0.0,0.0,10.0
1452008909787425360,277,1452008909782680034,robocape_mag,8.4,-21.9,-9.45,10.0,0.0,0.0,0.0,10.0,0.0,0.0,0.0,10.0
1452008909820078444,278,1452008909814908027,robocape_mag,8.4,-21.9,-9.45,10.0,0.0,0.0,0.0,10.0,0.0,0.0,0.0,10.0
1452008909853429652,279,1452008909848570108,robocape_mag,14.4,-29.1,-11.25,10.0,0.0,0.0,0.0,10.0,0.0,0.0,0.0,10.0
1452008909885759027,280,1452008909880935907,robocape_mag,14.4,-29.1,-11.25,10.0,0.0,0.0,0.0,10.0,0.0,0.0,0.0,10.0
1452008909926232944,281,1452008909916644096,robocape_mag,14.4,-29.1,-11.25,10.0,0.0,0.0,0.0,10.0,0.0,0.0,0.0,10.0
1452008909953566402,282,1452008909948780059,robocape_mag,14.4,-29.1,-11.25,10.0,0.0,0.0,0.0,10.0,0.0,0.0,0.0,10.0
1452008909985260194,283,1452008909980458021,robocape_mag,14.4,-29.1,-11.25,10.0,0.0,0.0,0.0,10.0,0.0,0.0,0.0,10.0
1452008910018547527,284,1452008910013545989,robocape_mag,25.2,-29.7,-12.45,10.0,0.0,0.0,0.0,10.0,0.0,0.0,0.0,10.0
1452008910051380986,285,1452008910046601057,robocape_mag,25.2,-29.7,-12.45,10.0,0.0,0.0,0.0,10.0,0.0,0.0,0.0,10.0
1452008910085186986,286,1452008910080311059,robocape_mag,25.2,-29.7,-12.45,10.0,0.0,0.0,0.0,10.0,0.0,0.0,0.0,10.0
1452008910121864402,287,1452008910113828897,robocape_mag,25.2,-29.7,-12.45,10.0,0.0,0.0,0.0,10.0,0.0,0.0,0.0,10.0
1452008910151565152,288,1452008910146630048,robocape_mag,25.2,-29.7,-12.45,10.0,0.0,0.0,0.0,10.0,0.0,0.0,0.0,10.0
1452008910184732944,289,1452008910179873943,robocape_mag,43.2,0.9,-23.85,10.0,0.0,0.0,0.0,10.0,0.0,0.0,0.0,10.0
1452008910218123652,290,1452008910213090896,robocape_mag,43.2,0.9,-23.85,10.0,0.0,0.0,0.0,10.0,0.0,0.0,0.0,10.0
1452008910251416319,291,1452008910246541976,robocape_mag,43.2,0.9,-23.85,10.0,0.0,0.0,0.0,10.0,0.0,0.0,0.0,10.0
1452008910284801319,292,1452008910279737949,robocape_mag,43.2,0.9,-23.85,10.0,0.0,0.0,0.0,10.0,0.0,0.0,0.0,10.0
1452008910318306652,293,1452008910313224077,robocape_mag,43.2,0.9,-23.85,10.0,0.0,0.0,0.0,10.0,0.0,0.0,0.0,10.0
1452008910355460652,294,1452008910346859931,robocape_mag,50.7,-14.4,-24.75,10.0,0.0,0.0,0.0,10.0,0.0,0.0,0.0,10.0
1452008910384584319,295,1452008910379779100,robocape_mag,50.7,-14.4,-24.75,10.0,0.0,0.0,0.0,10.0,0.0,0.0,0.0,10.0
1452008910418474861,296,1452008910413523912,robocape_mag,50.7,-14.4,-24.75,10.0,0.0,0.0,0.0,10.0,0.0,0.0,0.0,10.0
1452008910451538944,297,1452008910446757078,robocape_mag,50.7,-14.4,-24.75,10.0,0.0,0.0,0.0,10.0,0.0,0.0,0.0,10.0
1452008910484686319,298,1452008910479922056,robocape_mag,50.7,2.1,-13.05,10.0,0.0,0.0,0.0,10.0,0.0,0.0,0.0,10.0
1452008910518372319,299,1452008910513447046,robocape_mag,21.0,2.1,-13.05,10.0,0.0,0.0,0.0,10.0,0.0,0.0,0.0,10.0
1452008910552365652,300,1452008910547523021,robocape_mag,21.0,2.1,-13.05,10.0,0.0,0.0,0.0,10.0,0.0,0.0,0.0,10.0
1452008910584536694,301,1452008910579767942,robocape_mag,21.0,2.1,-13.05,10.0,0.0,0.0,0.0,10.0,0.0,0.0,0.0,10.0
1452008910621530944,302,1452008910614450931,robocape_mag,21.0,2.1,-13.05,10.0,0.0,0.0,0.0,10.0,0.0,0.0,0.0,10.0
1452008910651206819,303,1452008910646404981,robocape_mag,44.4,3.9,-19.65,10.0,0.0,0.0,0.0,10.0,0.0,0.0,0.0,10.0
1452008910686698278,304,1452008910679878950,robocape_mag,44.4,3.9,-19.65,10.0,0.0,0.0,0.0,10.0,0.0,0.0,0.0,10.0
1452008910720041111,305,1452008910713095903,robocape_mag,44.4,3.9,-19.65,10.0,0.0,0.0,0.0,10.0,0.0,0.0,0.0,10.0
1452008910753243736,306,1452008910746503114,robocape_mag,44.4,3.9,-19.65,10.0,0.0,0.0,0.0,10.0,0.0,0.0,0.0,10.0
1452008910784959403,307,1452008910779716014,robocape_mag,44.4,3.9,-19.65,10.0,0.0,0.0,0.0,10.0,0.0,0.0,0.0,10.0
1452008910818473361,308,1452008910813143014,robocape_mag,19.8,-29.1,-11.25,10.0,0.0,0.0,0.0,10.0,0.0,0.0,0.0,10.0
1452008910851678361,309,1452008910846436977,robocape_mag,19.8,-29.1,-11.25,10.0,0.0,0.0,0.0,10.0,0.0,0.0,0.0,10.0
1452008910884969611,310,1452008910879841089,robocape_mag,19.8,-29.1,-11.25,10.0,0.0,0.0,0.0,10.0,0.0,0.0,0.0,10.0
1452008910923944194,311,1452008910915282011,robocape_mag,19.8,-29.1,-11.25,10.0,0.0,0.0,0.0,10.0,0.0,0.0,0.0,10.0
1452008910953829111,312,1452008910949033021,robocape_mag,19.8,-29.1,-11.25,10.0,0.0,0.0,0.0,10.0,0.0,0.0,0.0,10.0
1452008910984911528,313,1452008910979878902,robocape_mag,12.9,-10.2,-21.75,10.0,0.0,0.0,0.0,10.0,0.0,0.0,0.0,10.0
1452008911018339361,314,1452008911013211965,robocape_mag,12.9,-10.2,-21.75,10.0,0.0,0.0,0.0,10.0,0.0,0.0,0.0,10.0
1452008911051420194,315,1452008911046622991,robocape_mag,12.9,-10.2,-21.75,10.0,0.0,0.0,0.0,10.0,0.0,0.0,0.0,10.0
1452008911084712736,316,1452008911079932928,robocape_mag,12.9,-10.2,-21.75,10.0,0.0,0.0,0.0,10.0,0.0,0.0,0.0,10.0
1452008911120319778,317,1452008911113110065,robocape_mag,12.9,-10.2,-21.75,10.0,0.0,0.0,0.0,10.0,0.0,0.0,0.0,10.0
1452008911151345444,318,1452008911146553993,robocape_mag,15.0,-3.9,-20.25,10.0,0.0,0.0,0.0,10.0,0.0,0.0,0.0,10.0
1452008911184858028,319,1452008911180001974,robocape_mag,15.0,-3.9,-20.25,10.0,0.0,0.0,0.0,10.0,0.0,0.0,0.0,10.0
1452008911219434278,320,1452008911214432001,robocape_mag,15.0,-3.9,-20.25,10.0,0.0,0.0,0.0,10.0,0.0,0.0,0.0,10.0
1452008911252765778,321,1452008911247981071,robocape_mag,15.0,-3.9,-20.25,10.0,0.0,0.0,0.0,10.0,0.0,0.0,0.0,10.0
1452008911286337528,322,1452008911281316995,robocape_mag,15.0,-15.6,-12.75,10.0,0.0,0.0,0.0,10.0,0.0,0.0,0.0,10.0
1452008911319658570,323,1452008911314357042,robocape_mag,8.1,-15.6,-12.75,10.0,0.0,0.0,0.0,10.0,0.0,0.0,0.0,10.0
1452008911352848195,324,1452008911347958087,robocape_mag,8.1,-15.6,-12.75,10.0,0.0,0.0,0.0,10.0,0.0,0.0,0.0,10.0
1452008911386262111,325,1452008911381360054,robocape_mag,8.1,-15.6,-12.75,10.0,0.0,0.0,0.0,10.0,0.0,0.0,0.0,10.0
1452008911420212028,326,1452008911415338993,robocape_mag,8.1,-15.6,-12.75,10.0,0.0,0.0,0.0,10.0,0.0,0.0,0.0,10.0
1452008911452956695,327,1452008911448087930,robocape_mag,37.2,-23.7,-17.25,10.0,0.0,0.0,0.0,10.0,0.0,0.0,0.0,10.0
1452008911488034070,328,1452008911482808113,robocape_mag,37.2,-23.7,-17.25,10.0,0.0,0.0,0.0,10.0,0.0,0.0,0.0,10.0
1452008911522831070,329,1452008911514358997,robocape_mag,37.2,-23.7,-17.25,10.0,0.0,0.0,0.0,10.0,0.0,0.0,0.0,10.0
1452008911554266028,330,1452008911548960924,robocape_mag,37.2,-23.7,-17.25,10.0,0.0,0.0,0.0,10.0,0.0,0.0,0.0,10.0
1452008911589404695,331,1452008911582998991,robocape_mag,37.2,-23.7,-17.25,10.0,0.0,0.0,0.0,10.0,0.0,0.0,0.0,10.0
1452008911622939361,332,1452008911617517948,robocape_mag,21.0,11.1,-13.05,10.0,0.0,0.0,0.0,10.0,0.0,0.0,0.0,10.0
1452008911658599278,333,1452008911650213003,robocape_mag,21.0,11.1,-13.05,10.0,0.0,0.0,0.0,10.0,0.0,0.0,0.0,10.0
1452008911688379361,334,1452008911683182001,robocape_mag,21.0,11.1,-13.05,10.0,0.0,0.0,0.0,10.0,0.0,0.0,0.0,10.0
1452008911721461070,335,1452008911715266942,robocape_mag,21.0,11.1,-13.05,10.0,0.0,0.0,0.0,10.0,0.0,0.0,0.0,10.0
1452008911756138445,336,1452008911750936031,robocape_mag,21.0,11.1,-13.05,10.0,0.0,0.0,0.0,10.0,0.0,0.0,0.0,10.0
1452008911791475903,337,1452008911783020973,robocape_mag,1.5,-4.8,-10.95,10.0,0.0,0.0,0.0,10.0,0.0,0.0,0.0,10.0
1452008911822604778,338,1452008911817064046,robocape_mag,1.5,-4.8,-10.95,10.0,0.0,0.0,0.0,10.0,0.0,0.0,0.0,10.0
1452008911855519028,339,1452008911850462913,robocape_mag,1.5,-4.8,-10.95,10.0,0.0,0.0,0.0,10.0,0.0,0.0,0.0,10.0
1452008911887543986,340,1452008911882411003,robocape_mag,1.5,-4.8,-10.95,10.0,0.0,0.0,0.0,10.0,0.0,0.0,0.0,10.0
1452008911958017236,341,1452008911916122913,robocape_mag,1.5,-4.8,-10.95,10.0,0.0,0.0,0.0,10.0,0.0,0.0,0.0,10.0
1452008911975863237,342,1452008911970877885,robocape_mag,12.0,-29.7,-16.65,10.0,0.0,0.0,0.0,10.0,0.0,0.0,0.0,10.0
1452008911996893403,343,1452008911992109060,robocape_mag,12.0,-29.7,-16.65,10.0,0.0,0.0,0.0,10.0,0.0,0.0,0.0,10.0
1452008912020770070,344,1452008912015841007,robocape_mag,12.0,-29.7,-16.65,10.0,0.0,0.0,0.0,10.0,0.0,0.0,0.0,10.0
1452008912053953945,345,1452008912048628091,robocape_mag,12.0,-29.7,-16.65,10.0,0.0,0.0,0.0,10.0,0.0,0.0,0.0,10.0
1452008912087990445,346,1452008912082319021,robocape_mag,-15.0,-16.5,-20.85,10.0,0.0,0.0,0.0,10.0,0.0,0.0,0.0,10.0
1452008912120493737,347,1452008912115473985,robocape_mag,-15.0,-16.5,-20.85,10.0,0.0,0.0,0.0,10.0,0.0,0.0,0.0,10.0
1452008912154050320,348,1452008912148761987,robocape_mag,-15.0,-16.5,-20.85,10.0,0.0,0.0,0.0,10.0,0.0,0.0,0.0,10.0
1452008912185904820,349,1452008912180990934,robocape_mag,-15.0,-16.5,-20.85,10.0,0.0,0.0,0.0,10.0,0.0,0.0,0.0,10.0
1452008912219217237,350,1452008912214205026,robocape_mag,-15.0,-16.5,-20.85,10.0,0.0,0.0,0.0,10.0,0.0,0.0,0.0,10.0
1452008912252721320,351,1452008912247920036,robocape_mag,-0.6,-33.3,-20.25,10.0,0.0,0.0,0.0,10.0,0.0,0.0,0.0,10.0
1452008912285509778,352,1452008912280510902,robocape_mag,-0.6,-33.3,-20.25,10.0,0.0,0.0,0.0,10.0,0.0,0.0,0.0,10.0
1452008912318754695,353,1452008912313797950,robocape_mag,-0.6,-33.3,-20.25,10.0,0.0,0.0,0.0,10.0,0.0,0.0,0.0,10.0
1452008912351791862,354,1452008912346887111,robocape_mag,-0.6,-33.3,-20.25,10.0,0.0,0.0,0.0,10.0,0.0,0.0,0.0,10.0
1452008912387617737,355,1452008912380065917,robocape_mag,-0.6,-33.3,-20.25,10.0,0.0,0.0,0.0,10.0,0.0,0.0,0.0,10.0
1452008912418732653,356,1452008912413687944,robocape_mag,4.2,-31.5,-17.25,10.0,0.0,0.0,0.0,10.0,0.0,0.0,0.0,10.0
1452008912451457237,357,1452008912446670055,robocape_mag,4.2,-31.5,-17.25,10.0,0.0,0.0,0.0,10.0,0.0,0.0,0.0,10.0
1452008912484807528,358,1452008912479922056,robocape_mag,4.2,-31.5,-17.25,10.0,0.0,0.0,0.0,10.0,0.0,0.0,0.0,10.0
1452008912518207112,359,1452008912513355016,robocape_mag,4.2,-31.5,-17.25,10.0,0.0,0.0,0.0,10.0,0.0,0.0,0.0,10.0
1452008912551317987,360,1452008912546551942,robocape_mag,4.2,-31.5,-17.25,10.0,0.0,0.0,0.0,10.0,0.0,0.0,0.0,10.0
1452008912584620237,361,1452008912579833030,robocape_mag,11.1,-12.6,-23.55,10.0,0.0,0.0,0.0,10.0,0.0,0.0,0.0,10.0
1452008912618031112,362,1452008912613126039,robocape_mag,11.1,-12.6,-23.55,10.0,0.0,0.0,0.0,10.0,0.0,0.0,0.0,10.0
1452008912651407403,363,1452008912646642923,robocape_mag,11.1,-12.6,-23.55,10.0,0.0,0.0,0.0,10.0,0.0,0.0,0.0,10.0
1452008912685671154,364,1452008912680630922,robocape_mag,11.1,-12.6,-23.55,10.0,0.0,0.0,0.0,10.0,0.0,0.0,0.0,10.0
1452008912718243279,365,1452008912713255882,robocape_mag,11.1,-12.6,-23.55,10.0,0.0,0.0,0.0,10.0,0.0,0.0,0.0,10.0
1452008912751553945,366,1452008912746696949,robocape_mag,16.8,-34.5,-16.65,10.0,0.0,0.0,0.0,10.0,0.0,0.0,0.0,10.0
1452008912785089112,367,1452008912780224084,robocape_mag,16.8,-34.5,-16.65,10.0,0.0,0.0,0.0,10.0,0.0,0.0,0.0,10.0
1452008912818282320,368,1452008912813342094,robocape_mag,16.8,-34.5,-16.65,10.0,0.0,0.0,0.0,10.0,0.0,0.0,0.0,10.0
1452008912851628570,369,1452008912846822977,robocape_mag,16.8,-34.5,-16.65,10.0,0.0,0.0,0.0,10.0,0.0,0.0,0.0,10.0
1452008912888930362,370,1452008912881719112,robocape_mag,22.8,-33.9,-15.45,10.0,0.0,0.0,0.0,10.0,0.0,0.0,0.0,10.0
1452008912921267195,371,1452008912915999889,robocape_mag,22.8,-33.9,-15.45,10.0,0.0,0.0,0.0,10.0,0.0,0.0,0.0,10.0
1452008912952444695,372,1452008912947407007,robocape_mag,22.8,-33.9,-15.45,10.0,0.0,0.0,0.0,10.0,0.0,0.0,0.0,10.0
1452008912984444612,373,1452008912979695081,robocape_mag,22.8,-33.9,-15.45,10.0,0.0,0.0,0.0,10.0,0.0,0.0,0.0,10.0
1452008913018884154,374,1452008913013070106,robocape_mag,22.8,-33.9,-15.45,10.0,0.0,0.0,0.0,10.0,0.0,0.0,0.0,10.0
1452008913051960195,375,1452008913046495914,robocape_mag,33.0,2.1,-11.25,10.0,0.0,0.0,0.0,10.0,0.0,0.0,0.0,10.0
1452008913086532570,376,1452008913079766988,robocape_mag,33.0,2.1,-11.25,10.0,0.0,0.0,0.0,10.0,0.0,0.0,0.0,10.0
1452008913118344612,377,1452008913113100051,robocape_mag,33.0,2.1,-11.25,10.0,0.0,0.0,0.0,10.0,0.0,0.0,0.0,10.0
1452008913151301820,378,1452008913146344900,robocape_mag,33.0,2.1,-11.25,10.0,0.0,0.0,0.0,10.0,0.0,0.0,0.0,10.0
1452008913185005779,379,1452008913179786920,robocape_mag,33.0,2.1,-11.25,10.0,0.0,0.0,0.0,10.0,0.0,0.0,0.0,10.0
1452008913218407612,380,1452008913213053941,robocape_mag,25.2,-26.1,-17.85,10.0,0.0,0.0,0.0,10.0,0.0,0.0,0.0,10.0
1452008913253708654,381,1452008913246448040,robocape_mag,25.2,-26.1,-17.85,10.0,0.0,0.0,0.0,10.0,0.0,0.0,0.0,10.0
1452008913284754570,382,1452008913279752969,robocape_mag,25.2,-26.1,-17.85,10.0,0.0,0.0,0.0,10.0,0.0,0.0,0.0,10.0
1452008913320762820,383,1452008913313209056,robocape_mag,25.2,-26.1,-17.85,10.0,0.0,0.0,0.0,10.0,0.0,0.0,0.0,10.0
1452008913352753362,384,1452008913346899986,robocape_mag,25.2,-26.1,-17.85,10.0,0.0,0.0,0.0,10.0,0.0,0.0,0.0,10.0
1452008913384687362,385,1452008913379849910,robocape_mag,47.1,-16.2,-11.55,10.0,0.0,0.0,0.0,10.0,0.0,0.0,0.0,10.0
1452008913418392654,386,1452008913413364887,robocape_mag,47.1,-16.2,-11.55,10.0,0.0,0.0,0.0,10.0,0.0,0.0,0.0,10.0
1452008913451432196,387,1452008913446624994,robocape_mag,47.1,-16.2,-11.55,10.0,0.0,0.0,0.0,10.0,0.0,0.0,0.0,10.0
1452008913484647071,388,1452008913479876041,robocape_mag,47.1,-16.2,-11.55,10.0,0.0,0.0,0.0,10.0,0.0,0.0,0.0,10.0
1452008913519296071,389,1452008913514365911,robocape_mag,47.1,-16.2,-11.55,10.0,0.0,0.0,0.0,10.0,0.0,0.0,0.0,10.0
1452008913552667279,390,1452008913547844886,robocape_mag,12.0,-18.3,-19.05,10.0,0.0,0.0,0.0,10.0,0.0,0.0,0.0,10.0
1452008913586046987,391,1452008913581144094,robocape_mag,12.0,-18.3,-19.05,10.0,0.0,0.0,0.0,10.0,0.0,0.0,0.0,10.0
1452008913618492529,392,1452008913613480091,robocape_mag,12.0,-18.3,-19.05,10.0,0.0,0.0,0.0,10.0,0.0,0.0,0.0,10.0
1452008913651915904,393,1452008913647074937,robocape_mag,12.0,-18.3,-19.05,10.0,0.0,0.0,0.0,10.0,0.0,0.0,0.0,10.0
1452008913684956904,394,1452008913679858922,robocape_mag,12.0,-18.3,-16.65,10.0,0.0,0.0,0.0,10.0,0.0,0.0,0.0,10.0
1452008913718375487,395,1452008913713329076,robocape_mag,15.0,-18.3,-16.65,10.0,0.0,0.0,0.0,10.0,0.0,0.0,0.0,10.0
1452008913752354696,396,1452008913747350931,robocape_mag,15.0,-18.3,-16.65,10.0,0.0,0.0,0.0,10.0,0.0,0.0,0.0,10.0
1452008913784810404,397,1452008913779993057,robocape_mag,15.0,-18.3,-16.65,10.0,0.0,0.0,0.0,10.0,0.0,0.0,0.0,10.0
1452008913818612154,398,1452008913813620090,robocape_mag,15.0,-18.3,-16.65,10.0,0.0,0.0,0.0,10.0,0.0,0.0,0.0,10.0
1452008913851891862,399,1452008913847043037,robocape_mag,12.9,-3.0,-17.55,10.0,0.0,0.0,0.0,10.0,0.0,0.0,0.0,10.0
1452008913884742237,400,1452008913879822969,robocape_mag,12.9,-3.0,-17.55,10.0,0.0,0.0,0.0,10.0,0.0,0.0,0.0,10.0
1452008913920355279,401,1452008913915318965,robocape_mag,12.9,-3.0,-17.55,10.0,0.0,0.0,0.0,10.0,0.0,0.0,0.0,10.0
1452008913951321737,402,1452008913946511983,robocape_mag,12.9,-3.0,-17.55,10.0,0.0,0.0,0.0,10.0,0.0,0.0,0.0,10.0
1452008913984718154,403,1452008913979917049,robocape_mag,12.9,-3.0,-17.55,10.0,0.0,0.0,0.0,10.0,0.0,0.0,0.0,10.0
1452008914021094529,404,1452008914013330936,robocape_mag,23.1,-9.0,-13.35,10.0,0.0,0.0,0.0,10.0,0.0,0.0,0.0,10.0
1452008914051302987,405,1452008914046503067,robocape_mag,23.1,-9.0,-13.35,10.0,0.0,0.0,0.0,10.0,0.0,0.0,0.0,10.0
1452008914086198279,406,1452008914081363916,robocape_mag,23.1,-9.0,-13.35,10.0,0.0,0.0,0.0,10.0,0.0,0.0,0.0,10.0
1452008914124590696,407,1452008914116293907,robocape_mag,23.1,-9.0,-13.35,10.0,0.0,0.0,0.0,10.0,0.0,0.0,0.0,10.0
1452008914155284946,408,1452008914150300025,robocape_mag,23.1,-9.0,-13.35,10.0,0.0,0.0,0.0,10.0,0.0,0.0,0.0,10.0
1452008914188054571,409,1452008914183001041,robocape_mag,29.7,-22.2,-13.35,10.0,0.0,0.0,0.0,10.0,0.0,0.0,0.0,10.0
1452008914224729363,410,1452008914216120004,robocape_mag,29.7,-22.2,-13.35,10.0,0.0,0.0,0.0,10.0,0.0,0.0,0.0,10.0
1452008914254672154,411,1452008914249716043,robocape_mag,29.7,-22.2,-13.35,10.0,0.0,0.0,0.0,10.0,0.0,0.0,0.0,10.0
1452008914287256571,412,1452008914282223939,robocape_mag,29.7,-22.2,-13.35,10.0,0.0,0.0,0.0,10.0,0.0,0.0,0.0,10.0
1452008914321271363,413,1452008914316145896,robocape_mag,29.7,-22.2,-13.35,10.0,0.0,0.0,0.0,10.0,0.0,0.0,0.0,10.0
1452008914354247238,414,1452008914349349975,robocape_mag,0.6,-36.3,-20.25,10.0,0.0,0.0,0.0,10.0,0.0,0.0,0.0,10.0
1452008914386477696,415,1452008914381563901,robocape_mag,0.6,-36.3,-20.25,10.0,0.0,0.0,0.0,10.0,0.0,0.0,0.0,10.0
1452008914420936654,416,1452008914415956974,robocape_mag,0.6,-36.3,-20.25,10.0,0.0,0.0,0.0,10.0,0.0,0.0,0.0,10.0
1452008914453556571,417,1452008914448713064,robocape_mag,0.6,-36.3,-20.25,10.0,0.0,0.0,0.0,10.0,0.0,0.0,0.0,10.0
1452008914486883613,418,1452008914482125997,robocape_mag,27.0,-17.7,-17.25,10.0,0.0,0.0,0.0,10.0,0.0,0.0,0.0,10.0
1452008914523465613,419,1452008914513966083,robocape_mag,27.0,-17.7,-17.25,10.0,0.0,0.0,0.0,10.0,0.0,0.0,0.0,10.0
1452008914553639279,420,1452008914548823118,robocape_mag,27.0,-17.7,-17.25,10.0,0.0,0.0,0.0,10.0,0.0,0.0,0.0,10.0
1452008914586153904,421,1452008914581105947,robocape_mag,27.0,-17.7,-17.25,10.0,0.0,0.0,0.0,10.0,0.0,0.0,0.0,10.0
1452008914618836279,422,1452008914613738059,robocape_mag,27.0,-17.7,-17.25,10.0,0.0,0.0,0.0,10.0,0.0,0.0,0.0,10.0
1452008914651976696,423,1452008914647150039,robocape_mag,12.0,-9.3,-20.25,10.0,0.0,0.0,0.0,10.0,0.0,0.0,0.0,10.0
1452008914685536321,424,1452008914680671930,robocape_mag,12.0,-9.3,-20.25,10.0,0.0,0.0,0.0,10.0,0.0,0.0,0.0,10.0
1452008914718386404,425,1452008914713382959,robocape_mag,12.0,-9.3,-20.25,10.0,0.0,0.0,0.0,10.0,0.0,0.0,0.0,10.0
1452008914751705654,426,1452008914746881961,robocape_mag,12.0,-9.3,-20.25,10.0,0.0,0.0,0.0,10.0,0.0,0.0,0.0,10.0
1452008914784944238,427,1452008914780026912,robocape_mag,12.0,-9.3,-20.25,10.0,0.0,0.0,0.0,10.0,0.0,0.0,0.0,10.0
1452008914818944446,428,1452008914813932895,robocape_mag,12.3,-5.4,-19.95,10.0,0.0,0.0,0.0,10.0,0.0,0.0,0.0,10.0
1452008914851566405,429,1452008914846585988,robocape_mag,12.3,-5.4,-19.95,10.0,0.0,0.0,0.0,10.0,0.0,0.0,0.0,10.0
1452008914884945446,430,1452008914880086898,robocape_mag,12.3,-5.4,-19.95,10.0,0.0,0.0,0.0,10.0,0.0,0.0,0.0,10.0
1452008914921117196,431,1452008914916032075,robocape_mag,12.3,-5.4,-19.95,10.0,0.0,0.0,0.0,10.0,0.0,0.0,0.0,10.0
1452008914951746946,432,1452008914946932077,robocape_mag,12.3,-5.4,-19.95,10.0,0.0,0.0,0.0,10.0,0.0,0.0,0.0,10.0
1452008914984827405,433,1452008914979953050,robocape_mag,20.7,-22.8,-21.75,10.0,0.0,0.0,0.0,10.0,0.0,0.0,0.0,10.0
1452008915018246946,434,1452008915013358116,robocape_mag,20.7,-22.8,-21.75,10.0,0.0,0.0,0.0,10.0,0.0,0.0,0.0,10.0
1452008915051325196,435,1452008915046396017,robocape_mag,20.7,-22.8,-21.75,10.0,0.0,0.0,0.0,10.0,0.0,0.0,0.0,10.0
1452008915084892946,436,1452008915080008029,robocape_mag,20.7,-22.8,-21.75,10.0,0.0,0.0,0.0,10.0,0.0,0.0,0.0,10.0
1452008915118641821,437,1452008915113730907,robocape_mag,20.7,-22.8,-21.75,10.0,0.0,0.0,0.0,10.0,0.0,0.0,0.0,10.0
1452008915151669738,438,1452008915146640062,robocape_mag,18.3,-33.6,-16.35,10.0,0.0,0.0,0.0,10.0,0.0,0.0,0.0,10.0
1452008915185027530,439,1452008915180058956,robocape_mag,18.3,-33.6,-16.35,10.0,0.0,0.0,0.0,10.0,0.0,0.0,0.0,10.0
1452008915218154196,440,1452008915213264942,robocape_mag,18.3,-33.6,-16.35,10.0,0.0,0.0,0.0,10.0,0.0,0.0,0.0,10.0
1452008915251695738,441,1452008915246699094,robocape_mag,18.3,-33.6,-16.35,10.0,0.0,0.0,0.0,10.0,0.0,0.0,0.0,10.0
1452008915285334363,442,1452008915280045032,robocape_mag,18.3,-32.4,-14.55,10.0,0.0,0.0,0.0,10.0,0.0,0.0,0.0,10.0
1452008915318297696,443,1452008915313134908,robocape_mag,26.7,-32.4,-14.55,10.0,0.0,0.0,0.0,10.0,0.0,0.0,0.0,10.0
1452008915352828863,444,1452008915346648931,robocape_mag,26.7,-32.4,-14.55,10.0,0.0,0.0,0.0,10.0,0.0,0.0,0.0,10.0
1452008915386726363,445,1452008915379880905,robocape_mag,26.7,-32.4,-14.55,10.0,0.0,0.0,0.0,10.0,0.0,0.0,0.0,10.0
1452008915418352405,446,1452008915413105010,robocape_mag,26.7,-32.4,-14.55,10.0,0.0,0.0,0.0,10.0,0.0,0.0,0.0,10.0
1452008915451644780,447,1452008915446487903,robocape_mag,24.6,3.3,-16.65,10.0,0.0,0.0,0.0,10.0,0.0,0.0,0.0,10.0
1452008915486816738,448,1452008915480094909,robocape_mag,24.6,3.3,-16.65,10.0,0.0,0.0,0.0,10.0,0.0,0.0,0.0,10.0
1452008915518327072,449,1452008915513030052,robocape_mag,24.6,3.3,-16.65,10.0,0.0,0.0,0.0,10.0,0.0,0.0,0.0,10.0
1452008915553246113,450,1452008915546391963,robocape_mag,24.6,3.3,-16.65,10.0,0.0,0.0,0.0,10.0,0.0,0.0,0.0,10.0
1452008915585046738,451,1452008915579962968,robocape_mag,24.6,3.3,-16.65,10.0,0.0,0.0,0.0,10.0,0.0,0.0,0.0,10.0
1452008915618156822,452,1452008915612966060,robocape_mag,13.2,-33.9,-16.05,10.0,0.0,0.0,0.0,10.0,0.0,0.0,0.0,10.0
1452008915653016988,453,1452008915646356105,robocape_mag,13.2,-33.9,-16.05,10.0,0.0,0.0,0.0,10.0,0.0,0.0,0.0,10.0
1452008915685055363,454,1452008915679883003,robocape_mag,13.2,-33.9,-16.05,10.0,0.0,0.0,0.0,10.0,0.0,0.0,0.0,10.0
1452008915718366447,455,1452008915713187932,robocape_mag,13.2,-33.9,-16.05,10.0,0.0,0.0,0.0,10.0,0.0,0.0,0.0,10.0
1452008915751552197,456,1452008915746500968,robocape_mag,13.2,-33.9,-16.05,10.0,0.0,0.0,0.0,10.0,0.0,0.0,0.0,10.0
1452008915784880655,457,1452008915779927015,robocape_mag,20.7,-9.0,-17.55,10.0,0.0,0.0,0.0,10.0,0.0,0.0,0.0,10.0
1452008915818241572,458,1452008915813138008,robocape_mag,20.7,-9.0,-17.55,10.0,0.0,0.0,0.0,10.0,0.0,0.0,0.0,10.0
1452008915851506238,459,1452008915846507072,robocape_mag,20.7,-9.0,-17.55,10.0,0.0,0.0,0.0,10.0,0.0,0.0,0.0,10.0
1452008915885982155,460,1452008915880189895,robocape_mag,20.7,-9.0,-17.55,10.0,0.0,0.0,0.0,10.0,0.0,0.0,0.0,10.0
1452008915925571988,461,1452008915916415929,robocape_mag,20.7,-9.0,-17.55,10.0,0.0,0.0,0.0,10.0,0.0,0.0,0.0,10.0
1452008915952947280,462,1452008915947603940,robocape_mag,0.0,-26.1,-16.65,10.0,0.0,0.0,0.0,10.0,0.0,0.0,0.0,10.0
1452008915985234113,463,1452008915980257034,robocape_mag,0.0,-26.1,-16.65,10.0,0.0,0.0,0.0,10.0,0.0,0.0,0.0,10.0
1452008916017888947,464,1452008916013128995,robocape_mag,0.0,-26.1,-16.65,10.0,0.0,0.0,0.0,10.0,0.0,0.0,0.0,10.0
1452008916051395280,465,1452008916046605110,robocape_mag,0.0,-26.1,-16.65,10.0,0.0,0.0,0.0,10.0,0.0,0.0,0.0,10.0
1452008916087243405,466,1452008916079968929,robocape_mag,0.0,-26.1,-19.05,10.0,0.0,0.0,0.0,10.0,0.0,0.0,0.0,10.0
1452008916117879697,467,1452008916113135099,robocape_mag,27.6,5.1,-19.05,10.0,0.0,0.0,0.0,10.0,0.0,0.0,0.0,10.0
1452008916151223405,468,1452008916146425008,robocape_mag,27.6,5.1,-19.05,10.0,0.0,0.0,0.0,10.0,0.0,0.0,0.0,10.0
1452008916187814447,469,1452008916180160999,robocape_mag,27.6,5.1,-19.05,10.0,0.0,0.0,0.0,10.0,0.0,0.0,0.0,10.0
1452008916218098155,470,1452008916213285923,robocape_mag,27.6,5.1,-19.05,10.0,0.0,0.0,0.0,10.0,0.0,0.0,0.0,10.0
1452008916251373614,471,1452008916246448993,robocape_mag,21.6,-23.7,-18.45,10.0,0.0,0.0,0.0,10.0,0.0,0.0,0.0,10.0
1452008916287716947,472,1452008916279951095,robocape_mag,21.6,-23.7,-18.45,10.0,0.0,0.0,0.0,10.0,0.0,0.0,0.0,10.0
1452008916317921280,473,1452008916313126087,robocape_mag,21.6,-23.7,-18.45,10.0,0.0,0.0,0.0,10.0,0.0,0.0,0.0,10.0
1452008916351678530,474,1452008916346894025,robocape_mag,21.6,-23.7,-18.45,10.0,0.0,0.0,0.0,10.0,0.0,0.0,0.0,10.0
1452008916388166822,475,1452008916381685972,robocape_mag,21.6,-23.7,-18.45,10.0,0.0,0.0,0.0,10.0,0.0,0.0,0.0,10.0
1452008916418302864,476,1452008916413523912,robocape_mag,34.8,-24.3,-19.05,10.0,0.0,0.0,0.0,10.0,0.0,0.0,0.0,10.0
1452008916451335030,477,1452008916446559906,robocape_mag,34.8,-24.3,-19.05,10.0,0.0,0.0,0.0,10.0,0.0,0.0,0.0,10.0
1452008916484878197,478,1452008916479995965,robocape_mag,34.8,-24.3,-19.05,10.0,0.0,0.0,0.0,10.0,0.0,0.0,0.0,10.0
1452008916518126739,479,1452008916513067007,robocape_mag,34.8,-24.3,-19.05,10.0,0.0,0.0,0.0,10.0,0.0,0.0,0.0,10.0
1452008916552057364,480,1452008916546575069,robocape_mag,34.8,-24.3,-19.05,10.0,0.0,0.0,0.0,10.0,0.0,0.0,0.0,10.0
1452008916585212072,481,1452008916580099105,robocape_mag,27.3,-15.0,-19.95,10.0,0.0,0.0,0.0,10.0,0.0,0.0,0.0,10.0
1452008916618083864,482,1452008916613130092,robocape_mag,27.3,-15.0,-19.95,10.0,0.0,0.0,0.0,10.0,0.0,0.0,0.0,10.0
1452008916651344364,483,1452008916646415948,robocape_mag,27.3,-15.0,-19.95,10.0,0.0,0.0,0.0,10.0,0.0,0.0,0.0,10.0
1452008916685281280,484,1452008916680097103,robocape_mag,27.3,-15.0,-19.95,10.0,0.0,0.0,0.0,10.0,0.0,0.0,0.0,10.0
1452008916718178780,485,1452008916713035106,robocape_mag,27.3,-15.0,-19.95,10.0,0.0,0.0,0.0,10.0,0.0,0.0,0.0,10.0
1452008916751649155,486,1452008916746470928,robocape_mag,37.8,-20.1,-20.25,10.0,0.0,0.0,0.0,10.0,0.0,0.0,0.0,10.0
1452008916785000905,487,1452008916779910087,robocape_mag,37.8,-20.1,-20.25,10.0,0.0,0.0,0.0,10.0,0.0,0.0,0.0,10.0
1452008916817977489,488,1452008916813056945,robocape_mag,37.8,-20.1,-20.25,10.0,0.0,0.0,0.0,10.0,0.0,0.0,0.0,10.0
1452008916851652031,489,1452008916846664905,robocape_mag,37.8,-20.1,-20.25,10.0,0.0,0.0,0.0,10.0,0.0,0.0,0.0,10.0
1452008916885154156,490,1452008916880212068,robocape_mag,37.8,3.0,-19.35,10.0,0.0,0.0,0.0,10.0,0.0,0.0,0.0,10.0
1452008916920852072,491,1452008916915908098,robocape_mag,55.5,3.0,-19.35,10.0,0.0,0.0,0.0,10.0,0.0,0.0,0.0,10.0
1452008916951683531,492,1452008916946580886,robocape_mag,55.5,3.0,-19.35,10.0,0.0,0.0,0.0,10.0,0.0,0.0,0.0,10.0
1452008916986300322,493,1452008916981517076,robocape_mag,55.5,3.0,-19.35,10.0,0.0,0.0,0.0,10.0,0.0,0.0,0.0,10.0
1452008917021285989,494,1452008917014638900,robocape_mag,55.5,3.0,-19.35,10.0,0.0,0.0,0.0,10.0,0.0,0.0,0.0,10.0
1452008917052920989,495,1452008917047753095,robocape_mag,26.4,3.3,-23.25,10.0,0.0,0.0,0.0,10.0,0.0,0.0,0.0,10.0
1452008917085768864,496,1452008917080143928,robocape_mag,26.4,3.3,-23.25,10.0,0.0,0.0,0.0,10.0,0.0,0.0,0.0,10.0
1452008917121065406,497,1452008917116089105,robocape_mag,26.4,3.3,-23.25,10.0,0.0,0.0,0.0,10.0,0.0,0.0,0.0,10.0
1452008917160021281,498,1452008917153845071,robocape_mag,26.4,3.3,-23.25,10.0,0.0,0.0,0.0,10.0,0.0,0.0,0.0,10.0
1452008917186452989,499,1452008917181579113,robocape_mag,26.4,3.3,-23.25,10.0,0.0,0.0,0.0,10.0,0.0,0.0,0.0,10.0
1452008917219687447,500,1452008917214782953,robocape_mag,40.2,20.7,-19.05,10.0,0.0,0.0,0.0,10.0,0.0,0.0,0.0,10.0
1452008917260245364,501,1452008917254964113,robocape_mag,40.2,20.7,-19.05,10.0,0.0,0.0,0.0,10.0,0.0,0.0,0.0,10.0
1452008917287045572,502,1452008917281645059,robocape_mag,40.2,20.7,-19.05,10.0,0.0,0.0,0.0,10.0,0.0,0.0,0.0,10.0
1452008917318803906,503,1452008917313882112,robocape_mag,40.2,20.7,-19.05,10.0,0.0,0.0,0.0,10.0,0.0,0.0,0.0,10.0
1452008917358669531,504,1452008917353342056,robocape_mag,40.2,20.7,-19.05,10.0,0.0,0.0,0.0,10.0,0.0,0.0,0.0,10.0
1452008917390001656,505,1452008917383061885,robocape_mag,48.0,0.3,-14.25,10.0,0.0,0.0,0.0,10.0,0.0,0.0,0.0,10.0
1452008917424517906,506,1452008917415848970,robocape_mag,48.0,0.3,-14.25,10.0,0.0,0.0,0.0,10.0,0.0,0.0,0.0,10.0
1452008917455809906,507,1452008917450556039,robocape_mag,48.0,0.3,-14.25,10.0,0.0,0.0,0.0,10.0,0.0,0.0,0.0,10.0
1452008917489110656,508,1452008917483275890,robocape_mag,48.0,0.3,-14.25,10.0,0.0,0.0,0.0,10.0,0.0,0.0,0.0,10.0
1452008917521676864,509,1452008917516613006,robocape_mag,48.0,0.3,-14.25,10.0,0.0,0.0,0.0,10.0,0.0,0.0,0.0,10.0
1452008917555453281,510,1452008917550182104,robocape_mag,6.0,-2.1,-13.05,10.0,0.0,0.0,0.0,10.0,0.0,0.0,0.0,10.0
1452008917589207781,511,1452008917583431005,robocape_mag,6.0,-2.1,-13.05,10.0,0.0,0.0,0.0,10.0,0.0,0.0,0.0,10.0
1452008917625238448,512,1452008917614963054,robocape_mag,6.0,-2.1,-13.05,10.0,0.0,0.0,0.0,10.0,0.0,0.0,0.0,10.0
1452008917655611198,513,1452008917650283098,robocape_mag,6.0,-2.1,-13.05,10.0,0.0,0.0,0.0,10.0,0.0,0.0,0.0,10.0
1452008917693380864,514,1452008917683752059,robocape_mag,-7.2,-1.5,-13.65,10.0,0.0,0.0,0.0,10.0,0.0,0.0,0.0,10.0
1452008917721277198,515,1452008917716300010,robocape_mag,-7.2,-1.5,-13.65,10.0,0.0,0.0,0.0,10.0,0.0,0.0,0.0,10.0
1452008917755582364,516,1452008917749182939,robocape_mag,-7.2,-1.5,-13.65,10.0,0.0,0.0,0.0,10.0,0.0,0.0,0.0,10.0
1452008917788089698,517,1452008917783041954,robocape_mag,-7.2,-1.5,-13.65,10.0,0.0,0.0,0.0,10.0,0.0,0.0,0.0,10.0
1452008917820707323,518,1452008917815800905,robocape_mag,-7.2,-1.5,-13.65,10.0,0.0,0.0,0.0,10.0,0.0,0.0,0.0,10.0
1452008917853776448,519,1452008917848679065,robocape_mag,9.9,12.6,-10.95,10.0,0.0,0.0,0.0,10.0,0.0,0.0,0.0,10.0
1452008917887251948,520,1452008917881783962,robocape_mag,9.9,12.6,-10.95,10.0,0.0,0.0,0.0,10.0,0.0,0.0,0.0,10.0
1452008917928212989,521,1452008917918430089,robocape_mag,9.9,12.6,-10.95,10.0,0.0,0.0,0.0,10.0,0.0,0.0,0.0,10.0
1452008917954044489,522,1452008917949233055,robocape_mag,9.9,12.6,-10.95,10.0,0.0,0.0,0.0,10.0,0.0,0.0,0.0,10.0
1452008917987169489,523,1452008917981923103,robocape_mag,9.9,12.6,-10.95,10.0,0.0,0.0,0.0,10.0,0.0,0.0,0.0,10.0
1452008918019464573,524,1452008918014612913,robocape_mag,12.6,11.7,-10.65,10.0,0.0,0.0,0.0,10.0,0.0,0.0,0.0,10.0
1452008918052499989,525,1452008918047683954,robocape_mag,12.6,11.7,-10.65,10.0,0.0,0.0,0.0,10.0,0.0,0.0,0.0,10.0
1452008918086726989,526,1452008918081260919,robocape_mag,12.6,11.7,-10.65,10.0,0.0,0.0,0.0,10.0,0.0,0.0,0.0,10.0
1452008918118912073,527,1452008918113925933,robocape_mag,12.6,11.7,-10.65,10.0,0.0,0.0,0.0,10.0,0.0,0.0,0.0,10.0
