%time,field.header.seq,field.header.stamp,field.header.frame_id,field.orientation.x,field.orientation.y,field.orientation.z,field.orientation.w,field.orientation_covariance0,field.orientation_covariance1,field.orientation_covariance2,field.orientation_covariance3,field.orientation_covariance4,field.orientation_covariance5,field.orientation_covariance6,field.orientation_covariance7,field.orientation_covariance8,field.angular_velocity.x,field.angular_velocity.y,field.angular_velocity.z,field.angular_velocity_covariance0,field.angular_velocity_covariance1,field.angular_velocity_covariance2,field.angular_velocity_covariance3,field.angular_velocity_covariance4,field.angular_velocity_covariance5,field.angular_velocity_covariance6,field.angular_velocity_covariance7,field.angular_velocity_covariance8,field.linear_acceleration.x,field.linear_acceleration.y,field.linear_acceleration.z,field.linear_acceleration_covariance0,field.linear_acceleration_covariance1,field.linear_acceleration_covariance2,field.linear_acceleration_covariance3,field.linear_acceleration_covariance4,field.linear_acceleration_covariance5,field.linear_acceleration_covariance6,field.linear_acceleration_covariance7,field.linear_acceleration_covariance8
1446038820279668984,1,1446038820276031017,robocape,4.93461191142,5.39315803666,30.2344072914,0.0,10.0,0.0,0.0,0.0,10.0,0.0,0.0,0.0,10.0,0.0366184649886,0.017177389031,0.016112124595,1.0,0.0,0.0,0.0,1.0,0.0,0.0,0.0,1.0,-0.0634680175781,0.36404296875,10.0219592285,0.1,0.0,0.0,0.0,0.1,0.0,0.0,0.0,0.1
1446038820309971317,2,1446038820306720972,robocape,5.04167331067,5.4124610684,30.1684640835,0.0,10.0,0.0,0.0,0.0,10.0,0.0,0.0,0.0,10.0,0.0640490242164,0.0159789665405,0.00532632218016,1.0,0.0,0.0,0.0,1.0,0.0,0.0,0.0,1.0,-0.0538879394531,0.720900878906,9.98363891602,0.1,0.0,0.0,0.0,0.1,0.0,0.0,0.0,0.1
1446038820352999859,3,1446038820341866016,robocape,5.12205303647,5.43391872733,30.1019811756,0.0,10.0,0.0,0.0,0.0,10.0,0.0,0.0,0.0,10.0,0.050200586548,0.0170442309765,0.00466053190764,1.0,0.0,0.0,0.0,1.0,0.0,0.0,0.0,1.0,-0.01916015625,0.851429443359,10.0495019531,0.1,0.0,0.0,0.0,0.1,0.0,0.0,0.0,0.1
1446038820378459151,4,1446038820375453948,robocape,5.1244497089,5.45673704206,30.0357953331,0.0,10.0,0.0,0.0,0.0,10.0,0.0,0.0,0.0,10.0,0.00932106381528,0.017710021249,0.00426105774413,1.0,0.0,0.0,0.0,1.0,0.0,0.0,0.0,1.0,-0.0443078613281,0.893342285156,10.0147741699,0.1,0.0,0.0,0.0,0.1,0.0,0.0,0.0,0.1
1446038820409926276,5,1446038820406806945,robocape,5.05885224911,5.48026791402,29.9805264041,0.0,10.0,0.0,0.0,0.0,10.0,0.0,0.0,0.0,10.0,-0.0268979270098,0.0186421276306,0.00985369603329,1.0,0.0,0.0,0.0,1.0,0.0,0.0,0.0,1.0,-0.0143701171875,0.910107421875,9.98124389648,0.1,0.0,0.0,0.0,0.1,0.0,0.0,0.0,0.1
1446038820443174026,6,1446038820440221071,robocape,4.98126225642,5.50575810016,29.9109110822,0.0,10.0,0.0,0.0,0.0,10.0,0.0,0.0,0.0,10.0,-0.0326237233535,0.0189084437396,0.00159789665405,1.0,0.0,0.0,0.0,1.0,0.0,0.0,0.0,1.0,-0.0526904296875,0.525706787109,10.0363293457,0.1,0.0,0.0,0.0,0.1,0.0,0.0,0.0,0.1
1446038820476669734,7,1446038820473700046,robocape,4.97334990266,5.54089263744,29.7729249019,0.0,10.0,0.0,0.0,0.0,10.0,0.0,0.0,0.0,10.0,0.00705737688871,0.0203731823391,-0.0367516230431,1.0,0.0,0.0,0.0,1.0,0.0,0.0,0.0,1.0,-0.102985839844,0.835861816406,10.0530944824,0.1,0.0,0.0,0.0,0.1,0.0,0.0,0.0,0.1
1446038820509675526,8,1446038820506673097,robocape,4.89779735464,5.56917311707,29.7326067259,0.0,10.0,0.0,0.0,0.0,10.0,0.0,0.0,0.0,10.0,-0.033023197517,0.0219710789932,0.0173105470855,1.0,0.0,0.0,0.0,1.0,0.0,0.0,0.0,1.0,-0.0119750976563,0.286204833984,10.1333276367,0.1,0.0,0.0,0.0,0.1,0.0,0.0,0.0,0.1
1446038820543050692,9,1446038820540083885,robocape,4.86254638292,5.59438557066,29.6787741582,0.0,10.0,0.0,0.0,0.0,10.0,0.0,0.0,0.0,10.0,-0.0113184346328,0.0197073920666,0.0099868540878,1.0,0.0,0.0,0.0,1.0,0.0,0.0,0.0,1.0,-0.0730480957031,0.411943359375,9.94531860352,0.1,0.0,0.0,0.0,0.1,0.0,0.0,0.0,0.1
1446038820576424067,10,1446038820573424100,robocape,4.89886878962,5.62269226247,29.5827765832,0.0,10.0,0.0,0.0,0.0,10.0,0.0,0.0,0.0,10.0,0.0282295075548,0.0191747598486,-0.0134489635049,1.0,0.0,0.0,0.0,1.0,0.0,0.0,0.0,1.0,-0.05748046875,0.338895263672,9.95729370117,0.1,0.0,0.0,0.0,0.1,0.0,0.0,0.0,0.1
1446038820609644692,11,1446038820606704950,robocape,4.95136513905,5.64698385798,29.5013951696,0.0,10.0,0.0,0.0,0.0,10.0,0.0,0.0,0.0,10.0,0.0360858327706,0.0178431793035,-0.00532632218016,1.0,0.0,0.0,0.0,1.0,0.0,0.0,0.0,1.0,-0.0694555664063,0.647852783203,9.97765136719,0.1,0.0,0.0,0.0,0.1,0.0,0.0,0.0,0.1
1446038820643028817,12,1446038820640014886,robocape,4.95766734651,5.66965332336,29.4292108728,0.0,10.0,0.0,0.0,0.0,10.0,0.0,0.0,0.0,10.0,0.0114515926873,0.01744370514,-0.000532632218016,1.0,0.0,0.0,0.0,1.0,0.0,0.0,0.0,1.0,-0.0682580566406,0.975970458984,9.98244140625,0.1,0.0,0.0,0.0,0.1,0.0,0.0,0.0,0.1
1446038820677129484,13,1446038820673631906,robocape,4.80139391296,5.68899407645,29.3894292154,0.0,10.0,0.0,0.0,0.0,10.0,0.0,0.0,0.0,10.0,-0.0755006169037,0.0173105470855,0.0167779148675,1.0,0.0,0.0,0.0,1.0,0.0,0.0,0.0,1.0,0.0550854492188,1.51365234375,10.0087866211,0.1,0.0,0.0,0.0,0.1,0.0,0.0,0.0,0.1
1446038820709731401,14,1446038820706646919,robocape,4.39890271774,5.72028860368,29.3340412795,0.0,10.0,0.0,0.0,0.0,10.0,0.0,0.0,0.0,10.0,-0.204264455609,0.0226368692657,0.0066579027252,1.0,0.0,0.0,0.0,1.0,0.0,0.0,0.0,1.0,0.102985839844,1.43461669922,10.0255517578,0.1,0.0,0.0,0.0,0.1,0.0,0.0,0.0,0.1
1446038820743290901,15,1446038820740072965,robocape,3.87547202032,5.74240335673,29.3065972769,0.0,10.0,0.0,0.0,0.0,10.0,0.0,0.0,0.0,10.0,-0.269645060371,0.0191747598486,0.0222373951022,1.0,0.0,0.0,0.0,1.0,0.0,0.0,0.0,1.0,0.125738525391,0.635877685547,10.0111816406,0.1,0.0,0.0,0.0,0.1,0.0,0.0,0.0,0.1
1446038820777164276,16,1446038820773701906,robocape,3.4029040119,5.76300303986,29.2837201093,0.0,10.0,0.0,0.0,0.0,10.0,0.0,0.0,0.0,10.0,-0.243812397797,0.0186421276306,0.0253000303558,1.0,0.0,0.0,0.0,1.0,0.0,0.0,0.0,1.0,-0.160466308594,-0.152083740234,9.91897338867,0.1,0.0,0.0,0.0,0.1,0.0,0.0,0.0,0.1
1446038820812231442,17,1446038820808765888,robocape,3.04484529549,5.76663074373,29.3340077398,0.0,10.0,0.0,0.0,0.0,10.0,0.0,0.0,0.0,10.0,-0.18801917296,0.0125168571234,0.0669785014155,1.0,0.0,0.0,0.0,1.0,0.0,0.0,0.0,1.0,-0.279019775391,-0.486188964844,10.0339343262,0.1,0.0,0.0,0.0,0.1,0.0,0.0,0.0,0.1
1446038820848629109,18,1446038820845350027,robocape,2.99899473939,5.79652161624,29.255139955,0.0,10.0,0.0,0.0,0.0,10.0,0.0,0.0,0.0,10.0,-0.017976337358,0.0217047628841,-0.00466053190764,1.0,0.0,0.0,0.0,1.0,0.0,0.0,0.0,1.0,-0.0730480957031,-0.743653564453,9.96447875977,0.1,0.0,0.0,0.0,0.1,0.0,0.0,0.0,0.1
1446038820879640192,19,1446038820876585006,robocape,3.14608767339,5.82175081271,29.195204167,0.0,10.0,0.0,0.0,0.0,10.0,0.0,0.0,0.0,10.0,0.0822916776834,0.0199737081756,0.00612527050718,1.0,0.0,0.0,0.0,1.0,0.0,0.0,0.0,1.0,-0.0694555664063,-0.0802331542969,9.99202148437,0.1,0.0,0.0,0.0,0.1,0.0,0.0,0.0,0.1
1446038820912437442,20,1446038820909106969,robocape,3.2862458467,5.84517851325,29.1251941878,0.0,10.0,0.0,0.0,0.0,10.0,0.0,0.0,0.0,10.0,0.0793622004844,0.0186421276306,0.000399474163512,1.0,0.0,0.0,0.0,1.0,0.0,0.0,0.0,1.0,0.174836425781,0.744851074219,10.0063916016,0.1,0.0,0.0,0.0,0.1,0.0,0.0,0.0,0.1
1446038820945494317,21,1446038820942224025,robocape,3.41421983616,5.88351980113,28.9318975309,0.0,10.0,0.0,0.0,0.0,10.0,0.0,0.0,0.0,10.0,0.0794953585389,0.0217047628841,-0.068709556124,1.0,0.0,0.0,0.0,1.0,0.0,0.0,0.0,1.0,0.117355957031,0.408350830078,10.0926123047,0.1,0.0,0.0,0.0,0.1,0.0,0.0,0.0,0.1
1446038820977919151,22,1446038820974795103,robocape,3.46699980413,5.9100227694,28.8805249175,0.0,10.0,0.0,0.0,0.0,10.0,0.0,0.0,0.0,10.0,0.0328900394625,0.0209058145571,0.00985369603329,1.0,0.0,0.0,0.0,1.0,0.0,0.0,0.0,1.0,0.0431103515625,0.234711914063,9.95729370117,0.1,0.0,0.0,0.0,0.1,0.0,0.0,0.0,0.1
1446038821011291651,23,1446038821008033037,robocape,3.58832619858,5.94135804887,28.7849890278,0.0,10.0,0.0,0.0,0.0,10.0,0.0,0.0,0.0,10.0,0.0712395591596,0.0217047628841,-0.0147805440499,1.0,0.0,0.0,0.0,1.0,0.0,0.0,0.0,1.0,0.0742456054688,0.414338378906,9.96567626953,0.1,0.0,0.0,0.0,0.1,0.0,0.0,0.0,0.1
1446038821043742442,24,1446038821040702104,robocape,3.60509293207,5.97974343563,28.7177472128,0.0,10.0,0.0,0.0,0.0,10.0,0.0,0.0,0.0,10.0,0.0150468601589,0.0264984528463,0.000266316109008,1.0,0.0,0.0,0.0,1.0,0.0,0.0,0.0,1.0,-0.118553466797,0.832269287109,10.1189575195,0.1,0.0,0.0,0.0,0.1,0.0,0.0,0.0,0.1
1446038821077182818,25,1446038821074136018,robocape,3.54528108605,6.01038595292,28.6029558614,0.0,10.0,0.0,0.0,0.0,10.0,0.0,0.0,0.0,10.0,-0.0226368692657,0.0205063403936,-0.0262321367373,1.0,0.0,0.0,0.0,1.0,0.0,0.0,0.0,1.0,-0.207169189453,0.596359863281,9.99920654297,0.1,0.0,0.0,0.0,0.1,0.0,0.0,0.0,0.1
1446038821110295484,26,1446038821107103109,robocape,3.50040409179,6.03996058911,28.4743095809,0.0,10.0,0.0,0.0,0.0,10.0,0.0,0.0,0.0,10.0,-0.0141147537774,0.0194410759576,-0.034088461953,1.0,0.0,0.0,0.0,1.0,0.0,0.0,0.0,1.0,-0.0299377441406,0.0802331542969,10.0974023437,0.1,0.0,0.0,0.0,0.1,0.0,0.0,0.0,0.1
1446038821143533026,27,1446038821140497922,robocape,3.50787590317,6.06894017669,28.285821696,0.0,10.0,0.0,0.0,0.0,10.0,0.0,0.0,0.0,10.0,0.0165115987585,0.0167779148675,-0.067377975579,1.0,0.0,0.0,0.0,1.0,0.0,0.0,0.0,1.0,-0.0407153320313,0.640667724609,10.0590820312,0.1,0.0,0.0,0.0,0.1,0.0,0.0,0.0,0.1
1446038821177210943,28,1446038821173820018,robocape,3.53788021119,6.10681487059,28.0081037891,0.0,10.0,0.0,0.0,0.0,10.0,0.0,0.0,0.0,10.0,0.0331563555715,0.0178431793035,-0.117312246018,1.0,0.0,0.0,0.0,1.0,0.0,0.0,0.0,1.0,-0.0323327636719,0.443078613281,10.039921875,0.1,0.0,0.0,0.0,0.1,0.0,0.0,0.0,0.1
1446038821214329568,29,1446038821210944890,robocape,3.58101548665,6.1637498437,27.6234110494,0.0,10.0,0.0,0.0,0.0,10.0,0.0,0.0,0.0,10.0,0.0459395288039,0.0234358175927,-0.177366528599,1.0,0.0,0.0,0.0,1.0,0.0,0.0,0.0,1.0,-0.076640625,0.502954101562,10.0830322266,0.1,0.0,0.0,0.0,0.1,0.0,0.0,0.0,0.1
1446038821243337026,30,1446038821240317106,robocape,3.5225648626,6.20671734448,27.1901760837,0.0,10.0,0.0,0.0,0.0,10.0,0.0,0.0,0.0,10.0,-0.00452737385313,0.0141147537774,-0.204530771718,1.0,0.0,0.0,0.0,1.0,0.0,0.0,0.0,1.0,0.0467028808594,0.880169677734,9.98004638672,0.1,0.0,0.0,0.0,0.1,0.0,0.0,0.0,0.1
1446038821276507651,31,1446038821273391008,robocape,3.36231086912,6.25047918486,26.9047985446,0.0,10.0,0.0,0.0,0.0,10.0,0.0,0.0,0.0,10.0,-0.0659132369795,0.0206394984481,-0.123970148743,1.0,0.0,0.0,0.0,1.0,0.0,0.0,0.0,1.0,0.0299377441406,0.106578369141,9.96088623047,0.1,0.0,0.0,0.0,0.1,0.0,0.0,0.0,0.1
1446038821310158484,32,1446038821307028055,robocape,3.35252703746,6.31224434651,26.6093041573,0.0,10.0,0.0,0.0,0.0,10.0,0.0,0.0,0.0,10.0,0.0135821215594,0.0299605622634,-0.13009541925,1.0,0.0,0.0,0.0,1.0,0.0,0.0,0.0,1.0,-0.358055419922,-0.0311352539063,10.0997973633,0.1,0.0,0.0,0.0,0.1,0.0,0.0,0.0,0.1
1446038821343185276,33,1446038821340102910,robocape,3.44986799993,6.36862056132,26.1541564386,0.0,10.0,0.0,0.0,0.0,10.0,0.0,0.0,0.0,10.0,0.0788295682663,0.0209058145571,-0.217846577168,1.0,0.0,0.0,0.0,1.0,0.0,0.0,0.0,1.0,0.13412109375,0.176033935547,9.97884887695,0.1,0.0,0.0,0.0,0.1,0.0,0.0,0.0,0.1
1446038821376848401,34,1446038821373675107,robocape,3.36616962782,6.37638735057,25.7944423268,0.0,10.0,0.0,0.0,0.0,10.0,0.0,0.0,0.0,10.0,-0.0213052887206,-0.00106526443603,-0.165249145639,1.0,0.0,0.0,0.0,1.0,0.0,0.0,0.0,1.0,-0.0922082519531,1.22026245117,10.0506994629,0.1,0.0,0.0,0.0,0.1,0.0,0.0,0.0,0.1
1446038821409849068,35,1446038821406709909,robocape,3.09989324207,6.38709703798,25.4758961625,0.0,10.0,0.0,0.0,0.0,10.0,0.0,0.0,0.0,10.0,-0.11944277489,0.00239684498107,-0.14367754081,1.0,0.0,0.0,0.0,1.0,0.0,0.0,0.0,1.0,0.0263452148438,0.718505859375,9.92017089844,0.1,0.0,0.0,0.0,0.1,0.0,0.0,0.0,0.1
1446038821443114193,36,1446038821440025091,robocape,2.91290915796,6.38828487036,25.2459204624,0.0,10.0,0.0,0.0,0.0,10.0,0.0,0.0,0.0,10.0,-0.0830906260105,0.00106526443603,-0.0953411670248,1.0,0.0,0.0,0.0,1.0,0.0,0.0,0.0,1.0,-0.132923583984,-0.7280859375,10.0471069336,0.1,0.0,0.0,0.0,0.1,0.0,0.0,0.0,0.1
1446038821476835109,37,1446038821473683118,robocape,2.93308670048,6.39961872287,25.0183716369,0.0,10.0,0.0,0.0,0.0,10.0,0.0,0.0,0.0,10.0,0.0253000303558,0.0066579027252,-0.0942759025888,1.0,0.0,0.0,0.0,1.0,0.0,0.0,0.0,1.0,-0.0598754882813,-0.009580078125,10.0530944824,0.1,0.0,0.0,0.0,0.1,0.0,0.0,0.0,0.1
1446038821509922234,38,1446038821506845951,robocape,2.95914281221,6.39732071014,24.9297301686,0.0,10.0,0.0,0.0,0.0,10.0,0.0,0.0,0.0,10.0,0.0205063403936,0.00412789968962,-0.0185089695761,1.0,0.0,0.0,0.0,1.0,0.0,0.0,0.0,1.0,0.0550854492188,0.407153320313,10.0087866211,0.1,0.0,0.0,0.0,0.1,0.0,0.0,0.0,0.1
1446038821543310151,39,1446038821540271043,robocape,2.95980750527,6.39502924315,24.8578136848,0.0,10.0,0.0,0.0,0.0,10.0,0.0,0.0,0.0,10.0,0.00625842856169,0.00466053190764,-0.00958737992429,1.0,0.0,0.0,0.0,1.0,0.0,0.0,0.0,1.0,-0.0802331542969,0.457448730469,10.0387243652,0.1,0.0,0.0,0.0,0.1,0.0,0.0,0.0,0.1
1446038821577170359,40,1446038821574064970,robocape,2.89176661536,6.43345014769,24.7286280232,0.0,10.0,0.0,0.0,0.0,10.0,0.0,0.0,0.0,10.0,-0.0264984528463,0.0241016078652,-0.0419447871687,1.0,0.0,0.0,0.0,1.0,0.0,0.0,0.0,1.0,0.102985839844,0.866997070313,10.1465002441,0.1,0.0,0.0,0.0,0.1,0.0,0.0,0.0,0.1
1446038821611325109,41,1446038821608258962,robocape,2.65699240034,6.4805939646,24.7096224457,0.0,10.0,0.0,0.0,0.0,10.0,0.0,0.0,0.0,10.0,-0.120374881272,0.0323574072445,0.0175768631945,1.0,0.0,0.0,0.0,1.0,0.0,0.0,0.0,1.0,-0.086220703125,0.706530761719,9.93214599609,0.1,0.0,0.0,0.0,0.1,0.0,0.0,0.0,0.1
1446038821643093776,42,1446038821640098094,robocape,2.3806711287,6.53788336336,24.7776187853,0.0,10.0,0.0,0.0,0.0,10.0,0.0,0.0,0.0,10.0,-0.14753912439,0.0403468905147,0.0649811305979,1.0,0.0,0.0,0.0,1.0,0.0,0.0,0.0,1.0,-0.116158447266,-0.462238769531,10.0207617188,0.1,0.0,0.0,0.0,0.1,0.0,0.0,0.0,0.1
1446038821676822193,43,1446038821673729896,robocape,2.36096353299,6.56387799688,24.7317055147,0.0,10.0,0.0,0.0,0.0,10.0,0.0,0.0,0.0,10.0,-0.00652474467069,0.0206394984481,0.00386158358061,1.0,0.0,0.0,0.0,1.0,0.0,0.0,0.0,1.0,0.0395178222656,-0.429906005859,9.96447875977,0.1,0.0,0.0,0.0,0.1,0.0,0.0,0.0,0.1
1446038821709589068,44,1446038821706598997,robocape,2.44527203604,6.57271731209,24.6423357501,0.0,10.0,0.0,0.0,0.0,10.0,0.0,0.0,0.0,10.0,0.0506000607115,0.0103863282513,-0.0195742340121,1.0,0.0,0.0,0.0,1.0,0.0,0.0,0.0,1.0,-0.0131726074219,0.669407958984,10.096204834,0.1,0.0,0.0,0.0,0.1,0.0,0.0,0.0,0.1
1446038821743196609,45,1446038821740181922,robocape,2.38492634886,6.60381377372,24.6784255779,0.0,10.0,0.0,0.0,0.0,10.0,0.0,0.0,0.0,10.0,-0.0326237233535,0.0256995045193,0.0482032157304,1.0,0.0,0.0,0.0,1.0,0.0,0.0,0.0,1.0,-0.0562829589844,0.314945068359,9.92975097656,0.1,0.0,0.0,0.0,0.1,0.0,0.0,0.0,0.1
1446038821776499985,46,1446038821773464918,robocape,2.37066053164,6.64008622558,24.5445183636,0.0,10.0,0.0,0.0,0.0,10.0,0.0,0.0,0.0,10.0,0.00159789665405,0.0235689756472,-0.0444747902043,1.0,0.0,0.0,0.0,1.0,0.0,0.0,0.0,1.0,-0.180823974609,0.477806396484,10.0183666992,0.1,0.0,0.0,0.0,0.1,0.0,0.0,0.0,0.1
1446038821809693318,47,1446038821806680917,robocape,2.32319269543,6.63024562271,24.3350033714,0.0,10.0,0.0,0.0,0.0,10.0,0.0,0.0,0.0,10.0,-0.0113184346328,-0.00279631914458,-0.0852211548825,1.0,0.0,0.0,0.0,1.0,0.0,0.0,0.0,1.0,-0.180823974609,0.717308349609,9.86628295898,0.1,0.0,0.0,0.0,0.1,0.0,0.0,0.0,0.1
1446038821843375735,48,1446038821840210914,robocape,2.26852074686,6.63630268183,24.0727718248,0.0,10.0,0.0,0.0,0.0,10.0,0.0,0.0,0.0,10.0,-0.0119842249054,0.00412789968962,-0.114515926873,1.0,0.0,0.0,0.0,1.0,0.0,0.0,0.0,1.0,-0.0047900390625,0.220341796875,9.84592529297,0.1,0.0,0.0,0.0,0.1,0.0,0.0,0.0,0.1
1446038821877017485,49,1446038821873581886,robocape,2.20107297065,6.68635278392,23.9012942549,0.0,10.0,0.0,0.0,0.0,10.0,0.0,0.0,0.0,10.0,-0.0241016078652,0.0298274042089,-0.0661795530885,1.0,0.0,0.0,0.0,1.0,0.0,0.0,0.0,1.0,-0.282612304688,0.171243896484,10.096204834,0.1,0.0,0.0,0.0,0.1,0.0,0.0,0.0,0.1
1446038821910081110,50,1446038821906826972,robocape,2.13530476259,6.7186957371,23.7354250758,0.0,10.0,0.0,0.0,0.0,10.0,0.0,0.0,0.0,10.0,-0.0235689756472,0.0207726565026,-0.0631169178349,1.0,0.0,0.0,0.0,1.0,0.0,0.0,0.0,1.0,-0.0359252929688,0.393980712891,10.0698596191,0.1,0.0,0.0,0.0,0.1,0.0,0.0,0.0,0.1
1446038821943541360,51,1446038821940177917,robocape,2.07065214854,6.7547551026,23.6139508736,0.0,10.0,0.0,0.0,0.0,10.0,0.0,0.0,0.0,10.0,-0.0256995045193,0.0239684498107,-0.0392816260787,1.0,0.0,0.0,0.0,1.0,0.0,0.0,0.0,1.0,0.0526904296875,-0.149688720703,10.0734521484,0.1,0.0,0.0,0.0,0.1,0.0,0.0,0.0,0.1
1446038821976780568,52,1446038821973361968,robocape,2.10588544737,6.80490567264,23.4825073167,0.0,10.0,0.0,0.0,0.0,10.0,0.0,0.0,0.0,10.0,0.0272974011733,0.0311589847539,-0.0450074224223,1.0,0.0,0.0,0.0,1.0,0.0,0.0,0.0,1.0,-0.189206542969,0.197589111328,10.080637207,0.1,0.0,0.0,0.0,0.1,0.0,0.0,0.0,0.1
1446038822010095985,53,1446038822006674051,robocape,2.17021467334,6.84204175647,23.2932262939,0.0,10.0,0.0,0.0,0.0,10.0,0.0,0.0,0.0,10.0,0.0462058449129,0.0227700273202,-0.0764327232853,1.0,0.0,0.0,0.0,1.0,0.0,0.0,0.0,1.0,-0.0850231933594,0.531694335938,10.254276123,0.1,0.0,0.0,0.0,0.1,0.0,0.0,0.0,0.1
1446038822043252985,54,1446038822040031909,robocape,2.08484485427,6.93538131343,23.0326051172,0.0,10.0,0.0,0.0,0.0,10.0,0.0,0.0,0.0,10.0,-0.0276968753368,0.050466902657,-0.116246981582,1.0,0.0,0.0,0.0,1.0,0.0,0.0,0.0,1.0,0.0658630371094,1.16637451172,10.1081799316,0.1,0.0,0.0,0.0,0.1,0.0,0.0,0.0,0.1
1446038822076514401,55,1446038822073295116,robocape,1.87078551096,6.97867341408,22.7986702822,0.0,10.0,0.0,0.0,0.0,10.0,0.0,0.0,0.0,10.0,-0.0968059056244,0.0251668723012,-0.101466437532,1.0,0.0,0.0,0.0,1.0,0.0,0.0,0.0,1.0,-0.378413085938,0.397573242188,9.80520996094,0.1,0.0,0.0,0.0,0.1,0.0,0.0,0.0,0.1
1446038822109949610,56,1446038822106864929,robocape,1.78563064642,6.73061084855,22.5293423359,0.0,10.0,0.0,0.0,0.0,10.0,0.0,0.0,0.0,10.0,-0.0274305592278,-0.128630680651,-0.117711720182,1.0,0.0,0.0,0.0,1.0,0.0,0.0,0.0,1.0,-0.765208740234,0.275427246094,9.44356201172,0.1,0.0,0.0,0.0,0.1,0.0,0.0,0.0,0.1
1446038822143126568,57,1446038822140073060,robocape,1.42792694175,6.61394333988,22.9099358174,0.0,10.0,0.0,0.0,0.0,10.0,0.0,0.0,0.0,10.0,-0.210389726116,-0.0456732126949,0.232094489,1.0,0.0,0.0,0.0,1.0,0.0,0.0,0.0,1.0,-0.168848876953,-0.993933105469,10.7404650879,0.1,0.0,0.0,0.0,0.1,0.0,0.0,0.0,0.1
1446038822176568026,58,1446038822173542022,robocape,1.13781272282,6.57847790959,23.6303649296,0.0,10.0,0.0,0.0,0.0,10.0,0.0,0.0,0.0,10.0,-0.195742340121,0.00199737081756,0.417184184761,1.0,0.0,0.0,0.0,1.0,0.0,0.0,0.0,1.0,-0.201181640625,-1.53880004883,10.1441052246,0.1,0.0,0.0,0.0,0.1,0.0,0.0,0.0,0.1
1446038822210476568,59,1446038822207330942,robocape,1.37815332183,6.60472613994,24.0170946763,0.0,10.0,0.0,0.0,0.0,10.0,0.0,0.0,0.0,10.0,0.102531701968,0.0284958236638,0.237420811181,1.0,0.0,0.0,0.0,1.0,0.0,0.0,0.0,1.0,0.047900390625,-0.622705078125,10.0902172852,0.1,0.0,0.0,0.0,0.1,0.0,0.0,0.0,0.1
1446038822243408401,60,1446038822240339994,robocape,1.67181218816,6.59376872145,24.3074239607,0.0,10.0,0.0,0.0,0.0,10.0,0.0,0.0,0.0,10.0,0.136620163921,0.00812264132474,0.186154960197,1.0,0.0,0.0,0.0,1.0,0.0,0.0,0.0,1.0,0.373623046875,0.221539306641,10.0997973633,0.1,0.0,0.0,0.0,0.1,0.0,0.0,0.0,0.1
1446038822276530651,61,1446038822273488998,robocape,1.94104633553,6.57522191791,24.5175334158,0.0,10.0,0.0,0.0,0.0,10.0,0.0,0.0,0.0,10.0,0.129030154814,0.0031957933081,0.143278066646,1.0,0.0,0.0,0.0,1.0,0.0,0.0,0.0,1.0,0.379610595703,0.807121582031,9.86149291992,0.1,0.0,0.0,0.0,0.1,0.0,0.0,0.0,0.1
1446038822310995568,62,1446038822307985067,robocape,1.98864859698,6.59304247839,24.8302262922,0.0,10.0,0.0,0.0,0.0,10.0,0.0,0.0,0.0,10.0,0.00692421883421,0.0253000303558,0.199337607592,1.0,0.0,0.0,0.0,1.0,0.0,0.0,0.0,1.0,0.101788330078,0.682580566406,9.85550537109,0.1,0.0,0.0,0.0,0.1,0.0,0.0,0.0,0.1
1446038822345196776,63,1446038822341576099,robocape,2.03697507903,6.63126507865,24.8974740069,0.0,10.0,0.0,0.0,0.0,10.0,0.0,0.0,0.0,10.0,0.0219710789932,0.0300937203179,0.065780078925,1.0,0.0,0.0,0.0,1.0,0.0,0.0,0.0,1.0,0.0754431152344,0.330512695313,10.1213525391,0.1,0.0,0.0,0.0,0.1,0.0,0.0,0.0,0.1
1446038822378411276,64,1446038822375237941,robocape,2.09004163853,6.64259679991,24.8846232985,0.0,10.0,0.0,0.0,0.0,10.0,0.0,0.0,0.0,10.0,0.0292947719909,0.0139815957229,0.0225037112112,1.0,0.0,0.0,0.0,1.0,0.0,0.0,0.0,1.0,-0.269439697266,0.300574951172,10.0147741699,0.1,0.0,0.0,0.0,0.1,0.0,0.0,0.0,0.1
1446038822411663651,65,1446038822408535003,robocape,2.16432378114,6.66993913609,24.8144043277,0.0,10.0,0.0,0.0,0.0,10.0,0.0,0.0,0.0,10.0,0.0439421579863,0.0209058145571,-0.00905474770627,1.0,0.0,0.0,0.0,1.0,0.0,0.0,0.0,1.0,-0.282612304688,0.173638916016,9.97405883789,0.1,0.0,0.0,0.0,0.1,0.0,0.0,0.0,0.1
1446038822445119485,66,1446038822441975116,robocape,2.24538332228,6.726170662,24.6902855254,0.0,10.0,0.0,0.0,0.0,10.0,0.0,0.0,0.0,10.0,0.0508663768205,0.034621094171,-0.0390153099697,1.0,0.0,0.0,0.0,1.0,0.0,0.0,0.0,1.0,-0.136516113281,0.384400634766,9.96926879883,0.1,0.0,0.0,0.0,0.1,0.0,0.0,0.0,0.1
1446038822478264402,67,1446038822475126028,robocape,2.1697295221,6.79608822044,24.7550543773,0.0,10.0,0.0,0.0,0.0,10.0,0.0,0.0,0.0,10.0,-0.0427437354958,0.0470047932399,0.0635163919984,1.0,0.0,0.0,0.0,1.0,0.0,0.0,0.0,1.0,-0.0275427246094,0.514929199219,10.0363293457,0.1,0.0,0.0,0.0,0.1,0.0,0.0,0.0,0.1
1446038822514075860,68,1446038822509788990,robocape,2.02238052463,6.85529504974,25.0225843619,0.0,10.0,0.0,0.0,0.0,10.0,0.0,0.0,0.0,10.0,-0.0930774800983,0.0467384771309,0.174570209455,1.0,0.0,0.0,0.0,1.0,0.0,0.0,0.0,1.0,-0.028740234375,-0.129331054688,10.1500927734,0.1,0.0,0.0,0.0,0.1,0.0,0.0,0.0,0.1
1446038822546576777,69,1446038822541523933,robocape,1.96273623701,6.88197290416,25.2135380459,0.0,10.0,0.0,0.0,0.0,10.0,0.0,0.0,0.0,10.0,-0.0426105774413,0.0275637172823,0.133957002831,1.0,0.0,0.0,0.0,1.0,0.0,0.0,0.0,1.0,-0.0742456054688,-0.135318603516,9.96807128906,0.1,0.0,0.0,0.0,0.1,0.0,0.0,0.0,0.1
1446038822579909527,70,1446038822575082063,robocape,2.23312602038,6.95409542632,25.0441821972,0.0,10.0,0.0,0.0,0.0,10.0,0.0,0.0,0.0,10.0,0.152998604625,0.0422111032778,-0.0629837597804,1.0,0.0,0.0,0.0,1.0,0.0,0.0,0.0,1.0,-0.116158447266,-0.638272705078,9.98842895508,0.1,0.0,0.0,0.0,0.1,0.0,0.0,0.0,0.1
1446038822612649277,71,1446038822609484910,robocape,2.57702313498,7.01087211756,25.0518713751,0.0,10.0,0.0,0.0,0.0,10.0,0.0,0.0,0.0,10.0,0.180828638016,0.0390153099697,0.033555829735,1.0,0.0,0.0,0.0,1.0,0.0,0.0,0.0,1.0,0.0742456054688,0.0874182128906,9.99441650391,0.1,0.0,0.0,0.0,0.1,0.0,0.0,0.0,0.1
1446038822645961818,72,1446038822641859054,robocape,3.04587267924,7.07233100377,24.8976227997,0.0,10.0,0.0,0.0,0.0,10.0,0.0,0.0,0.0,10.0,0.256995045193,0.0363521488796,-0.0548611184556,1.0,0.0,0.0,0.0,1.0,0.0,0.0,0.0,1.0,0.047900390625,0.547261962891,10.1237475586,0.1,0.0,0.0,0.0,0.1,0.0,0.0,0.0,0.1
1446038822680615402,73,1446038822676536083,robocape,3.32445042255,7.10161016444,24.8814990237,0.0,10.0,0.0,0.0,0.0,10.0,0.0,0.0,0.0,10.0,0.14900386299,0.0241016078652,0.0206394984481,1.0,0.0,0.0,0.0,1.0,0.0,0.0,0.0,1.0,-0.0443078613281,0.646655273438,10.0506994629,0.1,0.0,0.0,0.0,0.1,0.0,0.0,0.0,0.1
1446038822713483568,74,1446038822710086107,robocape,3.53301021137,7.13106660595,24.7967272279,0.0,10.0,0.0,0.0,0.0,10.0,0.0,0.0,0.0,10.0,0.116912771854,0.0215716048296,-0.016911072922,1.0,0.0,0.0,0.0,1.0,0.0,0.0,0.0,1.0,-0.028740234375,0.904119873047,10.039921875,0.1,0.0,0.0,0.0,0.1,0.0,0.0,0.0,0.1
1446038822746500443,75,1446038822743119955,robocape,3.61840594431,7.15234313808,24.6958815128,0.0,10.0,0.0,0.0,0.0,10.0,0.0,0.0,0.0,10.0,0.0535295379106,0.0165115987585,-0.0258326625738,1.0,0.0,0.0,0.0,1.0,0.0,0.0,0.0,1.0,-0.102985839844,1.22505249023,10.0363293457,0.1,0.0,0.0,0.0,0.1,0.0,0.0,0.0,0.1
1446038822780629110,76,1446038822777302980,robocape,3.44354448888,7.16360048257,24.722811197,0.0,10.0,0.0,0.0,0.0,10.0,0.0,0.0,0.0,10.0,-0.0910801092807,0.0162452826495,0.0432763677138,1.0,0.0,0.0,0.0,1.0,0.0,0.0,0.0,1.0,0.0562829589844,1.15080688477,10.019564209,0.1,0.0,0.0,0.0,0.1,0.0,0.0,0.0,0.1
1446038822813574110,77,1446038822810313940,robocape,3.08409888295,7.16905030908,24.8574549937,0.0,10.0,0.0,0.0,0.0,10.0,0.0,0.0,0.0,10.0,-0.195076549848,0.0170442309765,0.101865911696,1.0,0.0,0.0,0.0,1.0,0.0,0.0,0.0,1.0,0.0514929199219,0.348475341797,10.0662670898,0.1,0.0,0.0,0.0,0.1,0.0,0.0,0.0,0.1
1446038822846629777,78,1446038822843157052,robocape,2.95838916982,7.1882437878,24.7514125164,0.0,10.0,0.0,0.0,0.0,10.0,0.0,0.0,0.0,10.0,-0.0573911214912,0.015579492377,-0.0287621397729,1.0,0.0,0.0,0.0,1.0,0.0,0.0,0.0,1.0,-0.330512695313,0.262254638672,9.95489868164,0.1,0.0,0.0,0.0,0.1,0.0,0.0,0.0,0.1
1446038822881391318,79,1446038822878030061,robocape,2.82081119167,7.20673709118,24.7121585371,0.0,10.0,0.0,0.0,0.0,10.0,0.0,0.0,0.0,10.0,-0.0680437658515,0.0175768631945,0.00745685105222,1.0,0.0,0.0,0.0,1.0,0.0,0.0,0.0,1.0,-0.0335302734375,-0.238304443359,10.0471069336,0.1,0.0,0.0,0.0,0.1,0.0,0.0,0.0,0.1
1446038822913849318,80,1446038822910392999,robocape,2.91715117675,7.23721169927,24.5159097577,0.0,10.0,0.0,0.0,0.0,10.0,0.0,0.0,0.0,10.0,0.0647148144889,0.0186421276306,-0.0780306199393,1.0,0.0,0.0,0.0,1.0,0.0,0.0,0.0,1.0,0.0490979003906,-0.0155676269531,10.0686621094,0.1,0.0,0.0,0.0,0.1,0.0,0.0,0.0,0.1
1446038822948290652,81,1446038822945231914,robocape,2.98473458322,7.26292755774,24.3808552209,0.0,10.0,0.0,0.0,0.0,10.0,0.0,0.0,0.0,10.0,0.0458063707494,0.0181094954125,-0.0450074224223,1.0,0.0,0.0,0.0,1.0,0.0,0.0,0.0,1.0,-0.09580078125,0.608334960938,10.0099841309,0.1,0.0,0.0,0.0,0.1,0.0,0.0,0.0,0.1
1446038822980069943,82,1446038822976789951,robocape,2.93762496415,7.2829568757,24.3373936738,0.0,10.0,0.0,0.0,0.0,10.0,0.0,0.0,0.0,10.0,-0.0202400242846,0.018242653467,0.00452737385313,1.0,0.0,0.0,0.0,1.0,0.0,0.0,0.0,1.0,-0.0526904296875,0.446671142578,10.0171691895,0.1,0.0,0.0,0.0,0.1,0.0,0.0,0.0,0.1
1446038823013046860,83,1446038823009776115,robocape,2.8743871424,7.29910583221,24.3103587468,0.0,10.0,0.0,0.0,0.0,10.0,0.0,0.0,0.0,10.0,-0.0298274042089,0.0167779148675,0.0134489635049,1.0,0.0,0.0,0.0,1.0,0.0,0.0,0.0,1.0,-0.0215551757813,0.373623046875,10.0435144043,0.1,0.0,0.0,0.0,0.1,0.0,0.0,0.0,0.1
1446038823045835443,84,1446038823042642116,robocape,2.66110113945,7.30616307291,24.4944008185,0.0,10.0,0.0,0.0,0.0,10.0,0.0,0.0,0.0,10.0,-0.122505410144,0.0189084437396,0.128231206487,1.0,0.0,0.0,0.0,1.0,0.0,0.0,0.0,1.0,-0.106578369141,-0.147293701172,10.0530944824,0.1,0.0,0.0,0.0,0.1,0.0,0.0,0.0,0.1
1446038823079662943,85,1446038823076247930,robocape,2.65865674354,7.31904017698,24.5892303955,0.0,10.0,0.0,0.0,0.0,10.0,0.0,0.0,0.0,10.0,-0.00625842856169,0.0190416017941,0.0802943068659,1.0,0.0,0.0,0.0,1.0,0.0,0.0,0.0,1.0,0.0251477050781,-0.645457763672,10.0183666992,0.1,0.0,0.0,0.0,0.1,0.0,0.0,0.0,0.1
1446038823112558735,86,1446038823109515905,robocape,2.88853009229,7.34385685122,24.5516039335,0.0,10.0,0.0,0.0,0.0,10.0,0.0,0.0,0.0,10.0,0.124369622907,0.0211721306661,0.00838895743375,1.0,0.0,0.0,0.0,1.0,0.0,0.0,0.0,1.0,0.0742456054688,0.0299377441406,10.0207617188,0.1,0.0,0.0,0.0,0.1,0.0,0.0,0.0,0.1
1446038823146847194,87,1446038823143773078,robocape,3.18184259192,7.37049713036,24.4898236685,0.0,10.0,0.0,0.0,0.0,10.0,0.0,0.0,0.0,10.0,0.159523349296,0.0213052887206,-0.00479368996214,1.0,0.0,0.0,0.0,1.0,0.0,0.0,0.0,1.0,-0.124541015625,0.183218994141,10.0267492676,0.1,0.0,0.0,0.0,0.1,0.0,0.0,0.0,0.1
1446038823180219985,88,1446038823176388978,robocape,3.45507959198,7.39582832762,24.3985904277,0.0,10.0,0.0,0.0,0.0,10.0,0.0,0.0,0.0,10.0,0.151267549917,0.0194410759576,-0.0209058145571,1.0,0.0,0.0,0.0,1.0,0.0,0.0,0.0,1.0,-0.150886230469,0.543669433594,10.0351318359,0.1,0.0,0.0,0.0,0.1,0.0,0.0,0.0,0.1
1446038823211985277,89,1446038823208949089,robocape,3.63069260954,7.41914555658,24.3208255444,0.0,10.0,0.0,0.0,0.0,10.0,0.0,0.0,0.0,10.0,0.0994690667145,0.0187752856851,-0.0138484376684,1.0,0.0,0.0,0.0,1.0,0.0,0.0,0.0,1.0,-0.067060546875,1.15799194336,9.92376342773,0.1,0.0,0.0,0.0,0.1,0.0,0.0,0.0,0.1
1446038823246256235,90,1446038823243166923,robocape,3.68346296398,7.43493246091,24.3125150916,0.0,10.0,0.0,0.0,0.0,10.0,0.0,0.0,0.0,10.0,0.0306263525359,0.0175768631945,0.0237021337017,1.0,0.0,0.0,0.0,1.0,0.0,0.0,0.0,1.0,0.0311352539063,0.55564453125,10.019564209,0.1,0.0,0.0,0.0,0.1,0.0,0.0,0.0,0.1
1446038823278817027,91,1446038823275315999,robocape,3.73279572711,7.45632673505,24.2616257973,0.0,10.0,0.0,0.0,0.0,10.0,0.0,0.0,0.0,10.0,0.0316916169719,0.0187752856851,0.000399474163512,1.0,0.0,0.0,0.0,1.0,0.0,0.0,0.0,1.0,-0.124541015625,0.783171386719,10.0518969727,0.1,0.0,0.0,0.0,0.1,0.0,0.0,0.0,0.1
1446038823311738485,92,1446038823308706045,robocape,3.73212028734,7.47200733492,24.2193961882,0.0,10.0,0.0,0.0,0.0,10.0,0.0,0.0,0.0,10.0,0.00492684801665,0.016112124595,0.00506000607115,1.0,0.0,0.0,0.0,1.0,0.0,0.0,0.0,1.0,-0.0263452148438,0.734073486328,10.0722546387,0.1,0.0,0.0,0.0,0.1,0.0,0.0,0.0,0.1
1446038823344404194,93,1446038823341075897,robocape,3.63035789277,7.48455534781,24.2565090281,0.0,10.0,0.0,0.0,0.0,10.0,0.0,0.0,0.0,10.0,-0.0533963798561,0.017710021249,0.0479368996214,1.0,0.0,0.0,0.0,1.0,0.0,0.0,0.0,1.0,-0.028740234375,0.596359863281,10.0495019531,0.1,0.0,0.0,0.0,0.1,0.0,0.0,0.0,0.1
1446038823377675694,94,1446038823374587059,robocape,3.623473651,7.50409498033,24.2156980975,0.0,10.0,0.0,0.0,0.0,10.0,0.0,0.0,0.0,10.0,0.00146473859954,0.018242653467,0.00572579634367,1.0,0.0,0.0,0.0,1.0,0.0,0.0,0.0,1.0,-0.0790356445313,-0.00119750976563,10.0830322266,0.1,0.0,0.0,0.0,0.1,0.0,0.0,0.0,0.1
1446038823411783694,95,1446038823408307075,robocape,3.7070591289,7.52990095821,24.1421480851,0.0,10.0,0.0,0.0,0.0,10.0,0.0,0.0,0.0,10.0,0.0511326929295,0.0202400242846,-0.0121173829599,1.0,0.0,0.0,0.0,1.0,0.0,0.0,0.0,1.0,-0.0802331542969,-0.140108642578,10.0542919922,0.1,0.0,0.0,0.0,0.1,0.0,0.0,0.0,0.1
1446038823444209610,96,1446038823441162109,robocape,3.77061505677,7.55002851671,24.0801765848,0.0,10.0,0.0,0.0,0.0,10.0,0.0,0.0,0.0,10.0,0.0399474163512,0.017710021249,-0.00585895439817,1.0,0.0,0.0,0.0,1.0,0.0,0.0,0.0,1.0,-0.0155676269531,0.831071777344,9.87825805664,0.1,0.0,0.0,0.0,0.1,0.0,0.0,0.0,0.1
1446038823477077110,97,1446038823473824024,robocape,3.74536393742,7.5627531603,24.0927565328,0.0,10.0,0.0,0.0,0.0,10.0,0.0,0.0,0.0,10.0,-0.0115847507418,0.016911072922,0.0344879361165,1.0,0.0,0.0,0.0,1.0,0.0,0.0,0.0,1.0,0.0155676269531,0.635877685547,9.98244140625,0.1,0.0,0.0,0.0,0.1,0.0,0.0,0.0,0.1
1446038823509961027,98,1446038823506905078,robocape,3.71374165919,7.57853053318,24.1145372206,0.0,10.0,0.0,0.0,0.0,10.0,0.0,0.0,0.0,10.0,-0.015579492377,0.0189084437396,0.0394147841332,1.0,0.0,0.0,0.0,1.0,0.0,0.0,0.0,1.0,-0.0981958007813,0.40236328125,10.1033898926,0.1,0.0,0.0,0.0,0.1,0.0,0.0,0.0,0.1
1446038823543266735,99,1446038823540194988,robocape,3.73608528216,7.60202787391,24.0698968236,0.0,10.0,0.0,0.0,0.0,10.0,0.0,0.0,0.0,10.0,0.017177389031,0.0202400242846,0.0033289513626,1.0,0.0,0.0,0.0,1.0,0.0,0.0,0.0,1.0,-0.0778381347656,0.336500244141,10.0794396973,0.1,0.0,0.0,0.0,0.1,0.0,0.0,0.0,0.1
1446038823576704735,100,1446038823573589086,robocape,3.77907755636,7.62484538142,24.0363529085,0.0,10.0,0.0,0.0,0.0,10.0,0.0,0.0,0.0,10.0,0.0272974011733,0.0203731823391,0.00932106381528,1.0,0.0,0.0,0.0,1.0,0.0,0.0,0.0,1.0,-0.0275427246094,0.416733398438,9.97884887695,0.1,0.0,0.0,0.0,0.1,0.0,0.0,0.0,0.1
1446038823610131944,101,1446038823607099056,robocape,3.84361486282,7.64401607929,24.0034004183,0.0,10.0,0.0,0.0,0.0,10.0,0.0,0.0,0.0,10.0,0.0386158358061,0.0185089695761,0.00972053797879,1.0,0.0,0.0,0.0,1.0,0.0,0.0,0.0,1.0,-0.0419128417969,0.405955810547,9.99561401367,0.1,0.0,0.0,0.0,0.1,0.0,0.0,0.0,0.1
1446038823643591027,102,1446038823640557050,robocape,3.89209923922,7.66121727098,24.0004954396,0.0,10.0,0.0,0.0,0.0,10.0,0.0,0.0,0.0,10.0,0.0282295075548,0.0187752856851,0.0259658206283,1.0,0.0,0.0,0.0,1.0,0.0,0.0,0.0,1.0,-0.0610729980469,0.398770751953,10.0303417969,0.1,0.0,0.0,0.0,0.1,0.0,0.0,0.0,0.1
1446038823676815027,103,1446038823673602104,robocape,3.96967511483,7.67959316794,23.9761832395,0.0,10.0,0.0,0.0,0.0,10.0,0.0,0.0,0.0,10.0,0.0450074224223,0.0185089695761,0.0143810698864,1.0,0.0,0.0,0.0,1.0,0.0,0.0,0.0,1.0,-0.0455053710938,0.403560791016,10.039921875,0.1,0.0,0.0,0.0,0.1,0.0,0.0,0.0,0.1
1446038823709983777,104,1446038823706954002,robocape,4.04605747803,7.70087056798,23.9381222485,0.0,10.0,0.0,0.0,0.0,10.0,0.0,0.0,0.0,10.0,0.0454068965859,0.0194410759576,0.0067910607797,1.0,0.0,0.0,0.0,1.0,0.0,0.0,0.0,1.0,-0.0455053710938,0.620310058594,10.019564209,0.1,0.0,0.0,0.0,0.1,0.0,0.0,0.0,0.1
1446038823743517027,105,1446038823740289926,robocape,4.08773070631,7.72009009831,23.8977696613,0.0,10.0,0.0,0.0,0.0,10.0,0.0,0.0,0.0,10.0,0.0274305592278,0.018242653467,0.00545948023466,1.0,0.0,0.0,0.0,1.0,0.0,0.0,0.0,1.0,-0.0455053710938,0.627495117188,10.0315393066,0.1,0.0,0.0,0.0,0.1,0.0,0.0,0.0,0.1
1446038823776922444,106,1446038823773653030,robocape,4.07406749415,7.74017255214,23.8598078795,0.0,10.0,0.0,0.0,0.0,10.0,0.0,0.0,0.0,10.0,-0.00173105470855,0.0187752856851,0.00652474467069,1.0,0.0,0.0,0.0,1.0,0.0,0.0,0.0,1.0,-0.047900390625,0.586779785156,10.0147741699,0.1,0.0,0.0,0.0,0.1,0.0,0.0,0.0,0.1
1446038823809786694,107,1446038823806761980,robocape,4.02139891652,7.76016855711,23.8201565863,0.0,10.0,0.0,0.0,0.0,10.0,0.0,0.0,0.0,10.0,-0.0221042370477,0.0186421276306,0.00545948023466,1.0,0.0,0.0,0.0,1.0,0.0,0.0,0.0,1.0,-0.0610729980469,0.547261962891,10.0626745605,0.1,0.0,0.0,0.0,0.1,0.0,0.0,0.0,0.1
1446038823843996402,108,1446038823840178966,robocape,3.95633224937,7.77818425386,23.7857216143,0.0,10.0,0.0,0.0,0.0,10.0,0.0,0.0,0.0,10.0,-0.0290284558819,0.0178431793035,0.00825579937925,1.0,0.0,0.0,0.0,1.0,0.0,0.0,0.0,1.0,-0.0419128417969,0.486188964844,9.9980090332,0.1,0.0,0.0,0.0,0.1,0.0,0.0,0.0,0.1
1446038823876784986,109,1446038823873507976,robocape,3.92604861249,7.7951376968,23.7388820935,0.0,10.0,0.0,0.0,0.0,10.0,0.0,0.0,0.0,10.0,-0.0099868540878,0.0167779148675,0.00159789665405,1.0,0.0,0.0,0.0,1.0,0.0,0.0,0.0,1.0,-0.0467028808594,0.244291992188,10.0099841309,0.1,0.0,0.0,0.0,0.1,0.0,0.0,0.0,0.1
1446038823910293527,110,1446038823907144069,robocape,3.94407297907,7.81494959067,23.6963395835,0.0,10.0,0.0,0.0,0.0,10.0,0.0,0.0,0.0,10.0,0.0150468601589,0.0185089695761,0.00386158358061,1.0,0.0,0.0,0.0,1.0,0.0,0.0,0.0,1.0,-0.0407153320313,0.352067871094,10.0016015625,0.1,0.0,0.0,0.0,0.1,0.0,0.0,0.0,0.1
1446038823943550069,111,1446038823940363883,robocape,4.00896467098,7.83502539464,23.6498374462,0.0,10.0,0.0,0.0,0.0,10.0,0.0,0.0,0.0,10.0,0.0399474163512,0.0185089695761,0.00173105470855,1.0,0.0,0.0,0.0,1.0,0.0,0.0,0.0,1.0,-0.0694555664063,0.384400634766,10.0279467773,0.1,0.0,0.0,0.0,0.1,0.0,0.0,0.0,0.1
1446038823977987444,112,1446038823974864959,robocape,4.1263478668,7.85880773448,23.5505688508,0.0,10.0,0.0,0.0,0.0,10.0,0.0,0.0,0.0,10.0,0.0712395591596,0.0181094954125,-0.0268979270098,1.0,0.0,0.0,0.0,1.0,0.0,0.0,0.0,1.0,-0.0658630371094,0.439486083984,10.060279541,0.1,0.0,0.0,0.0,0.1,0.0,0.0,0.0,0.1
1446038824010224152,113,1446038824007210969,robocape,4.15191101889,7.88295737837,23.4611401247,0.0,10.0,0.0,0.0,0.0,10.0,0.0,0.0,0.0,10.0,0.0225037112112,0.0186421276306,-0.0219710789932,1.0,0.0,0.0,0.0,1.0,0.0,0.0,0.0,1.0,-0.0538879394531,1.03345092773,10.0123791504,0.1,0.0,0.0,0.0,0.1,0.0,0.0,0.0,0.1
1446038824043434902,114,1446038824040380954,robocape,4.02565433767,7.90041790738,23.4247409478,0.0,10.0,0.0,0.0,0.0,10.0,0.0,0.0,0.0,10.0,-0.0608532309083,0.01744370514,0.00639158661619,1.0,0.0,0.0,0.0,1.0,0.0,0.0,0.0,1.0,-0.0263452148438,0.781973876953,10.0159716797,0.1,0.0,0.0,0.0,0.1,0.0,0.0,0.0,0.1
1446038824076981944,115,1446038824073987007,robocape,3.91988263595,7.96489013322,23.4906758564,0.0,10.0,0.0,0.0,0.0,10.0,0.0,0.0,0.0,10.0,-0.0573911214912,0.0467384771309,0.0603205986903,1.0,0.0,0.0,0.0,1.0,0.0,0.0,0.0,1.0,-0.152083740234,-0.683778076172,9.76928466797,0.1,0.0,0.0,0.0,0.1,0.0,0.0,0.0,0.1
1446038824110083527,116,1446038824107043027,robocape,4.11827404038,8.07538930299,23.4421971169,0.0,10.0,0.0,0.0,0.0,10.0,0.0,0.0,0.0,10.0,0.110254869129,0.0661795530885,-0.00213052887206,1.0,0.0,0.0,0.0,1.0,0.0,0.0,0.0,1.0,-0.313747558594,0.0323327636719,10.438692627,0.1,0.0,0.0,0.0,0.1,0.0,0.0,0.0,0.1
1446038824143282527,117,1446038824140248060,robocape,4.43514829582,8.14023983082,23.3261408111,0.0,10.0,0.0,0.0,0.0,10.0,0.0,0.0,0.0,10.0,0.177499686654,0.0391484680242,-0.0371510972066,1.0,0.0,0.0,0.0,1.0,0.0,0.0,0.0,1.0,-0.135318603516,1.07536376953,10.2027832031,0.1,0.0,0.0,0.0,0.1,0.0,0.0,0.0,0.1
1446038824179418027,118,1446038824175652027,robocape,4.49592340063,8.16819490876,23.2806331135,0.0,10.0,0.0,0.0,0.0,10.0,0.0,0.0,0.0,10.0,0.0383495196971,0.0229031853747,0.00133158054504,1.0,0.0,0.0,0.0,1.0,0.0,0.0,0.0,1.0,0.314945068359,1.4980847168,9.99681152344,0.1,0.0,0.0,0.0,0.1,0.0,0.0,0.0,0.1
1446038824211825402,119,1446038824208420991,robocape,4.36113382234,8.16733445306,23.2430280057,0.0,10.0,0.0,0.0,0.0,10.0,0.0,0.0,0.0,10.0,-0.0648479725434,0.00798948327024,0.00599211245268,1.0,0.0,0.0,0.0,1.0,0.0,0.0,0.0,1.0,0.504151611328,1.08614135742,9.93693603516,0.1,0.0,0.0,0.0,0.1,0.0,0.0,0.0,0.1
1446038824243354027,120,1446038824240092992,robocape,4.27161572475,8.17067118549,23.239392645,0.0,10.0,0.0,0.0,0.0,10.0,0.0,0.0,0.0,10.0,-0.0436758418773,0.0118510668509,0.0242347659197,1.0,0.0,0.0,0.0,1.0,0.0,0.0,0.0,1.0,-0.467028808594,-0.484991455078,10.1644628906,0.1,0.0,0.0,0.0,0.1,0.0,0.0,0.0,0.1
1446038824277049236,121,1446038824273638010,robocape,4.48481056917,8.20836793945,23.1785239224,0.0,10.0,0.0,0.0,0.0,10.0,0.0,0.0,0.0,10.0,0.119309616836,0.0274305592278,-0.00705737688871,1.0,0.0,0.0,0.0,1.0,0.0,0.0,0.0,1.0,-0.179626464844,-0.373623046875,10.1201550293,0.1,0.0,0.0,0.0,0.1,0.0,0.0,0.0,0.1
1446038824310420861,122,1446038824306993007,robocape,4.82083693321,8.23237416157,23.1401363451,0.0,10.0,0.0,0.0,0.0,10.0,0.0,0.0,0.0,10.0,0.18242653467,0.0214384467751,0.00572579634367,1.0,0.0,0.0,0.0,1.0,0.0,0.0,0.0,1.0,0.298179931641,0.578397216797,10.0590820312,0.1,0.0,0.0,0.0,0.1,0.0,0.0,0.0,0.1
1446038824343691527,123,1446038824340466022,robocape,5.0536174568,8.24358465913,23.1068521875,0.0,10.0,0.0,0.0,0.0,10.0,0.0,0.0,0.0,10.0,0.128231206487,0.0149137021044,0.00865527354276,1.0,0.0,0.0,0.0,1.0,0.0,0.0,0.0,1.0,-0.342487792969,1.39030883789,9.94292358398,0.1,0.0,0.0,0.0,0.1,0.0,0.0,0.0,0.1
1446038824376834652,124,1446038824373522996,robocape,5.09739715145,8.26150567463,23.0563843928,0.0,10.0,0.0,0.0,0.0,10.0,0.0,0.0,0.0,10.0,0.0304931944814,0.0173105470855,-0.00146473859954,1.0,0.0,0.0,0.0,1.0,0.0,0.0,0.0,1.0,0.111368408203,1.39390136719,9.98244140625,0.1,0.0,0.0,0.0,0.1,0.0,0.0,0.0,0.1
1446038824410435944,125,1446038824407211065,robocape,4.79273069271,8.2670265219,23.1199489427,0.0,10.0,0.0,0.0,0.0,10.0,0.0,0.0,0.0,10.0,-0.160721771786,0.0165115987585,0.0592553342543,1.0,0.0,0.0,0.0,1.0,0.0,0.0,0.0,1.0,-0.0467028808594,1.609453125,9.81958007812,0.1,0.0,0.0,0.0,0.1,0.0,0.0,0.0,0.1
1446038824443290194,126,1446038824440169095,robocape,4.57237887655,8.29707236119,23.0337477375,0.0,10.0,0.0,0.0,0.0,10.0,0.0,0.0,0.0,10.0,-0.105860653331,0.0217047628841,-0.0218379209386,1.0,0.0,0.0,0.0,1.0,0.0,0.0,0.0,1.0,-0.259859619141,0.899329833984,10.1069824219,0.1,0.0,0.0,0.0,0.1,0.0,0.0,0.0,0.1
1446038824476791486,127,1446038824473735094,robocape,4.31342625186,8.32957137097,23.0169452245,0.0,10.0,0.0,0.0,0.0,10.0,0.0,0.0,0.0,10.0,-0.131426999795,0.0264984528463,0.015313176268,1.0,0.0,0.0,0.0,1.0,0.0,0.0,0.0,1.0,0.0886157226563,0.17244140625,10.1309326172,0.1,0.0,0.0,0.0,0.1,0.0,0.0,0.0,0.1
1446038824510095277,128,1446038824507026910,robocape,4.19346794211,8.36680138654,22.9494629514,0.0,10.0,0.0,0.0,0.0,10.0,0.0,0.0,0.0,10.0,-0.0549942765101,0.0267647689553,-0.0117179087963,1.0,0.0,0.0,0.0,1.0,0.0,0.0,0.0,1.0,-0.310155029297,-0.294587402344,9.99920654297,0.1,0.0,0.0,0.0,0.1,0.0,0.0,0.0,0.1
1446038824543373028,129,1446038824540298938,robocape,4.24794256109,8.36534389236,22.9404276119,0.0,10.0,0.0,0.0,0.0,10.0,0.0,0.0,0.0,10.0,0.0320910911355,0.00932106381528,0.0213052887206,1.0,0.0,0.0,0.0,1.0,0.0,0.0,0.0,1.0,0.0658630371094,0.24908203125,10.193203125,0.1,0.0,0.0,0.0,0.1,0.0,0.0,0.0,0.1
1446038824577814694,130,1446038824574682950,robocape,4.37705691592,8.37740751414,22.945506614,0.0,10.0,0.0,0.0,0.0,10.0,0.0,0.0,0.0,10.0,0.0703074527781,0.017177389031,0.0286289817184,1.0,0.0,0.0,0.0,1.0,0.0,0.0,0.0,1.0,-0.0490979003906,-0.123343505859,10.2482885742,0.1,0.0,0.0,0.0,0.1,0.0,0.0,0.0,0.1
1446038824611166653,131,1446038824608037948,robocape,4.70225437137,8.40457287894,22.8792035755,0.0,10.0,0.0,0.0,0.0,10.0,0.0,0.0,0.0,10.0,0.178698109144,0.0218379209386,-0.00985369603329,1.0,0.0,0.0,0.0,1.0,0.0,0.0,0.0,1.0,-0.349672851562,0.170046386719,9.98244140625,0.1,0.0,0.0,0.0,0.1,0.0,0.0,0.0,0.1
1446038824644663278,132,1446038824641554117,robocape,4.98756449603,8.4212580297,22.8842804799,0.0,10.0,0.0,0.0,0.0,10.0,0.0,0.0,0.0,10.0,0.152865446571,0.0199737081756,0.0287621397729,1.0,0.0,0.0,0.0,1.0,0.0,0.0,0.0,1.0,0.154478759766,0.534089355469,9.93933105469,0.1,0.0,0.0,0.0,0.1,0.0,0.0,0.0,0.1
1446038824678287194,133,1446038824675247907,robocape,5.28176070305,8.44028921137,22.8255224741,0.0,10.0,0.0,0.0,0.0,10.0,0.0,0.0,0.0,10.0,0.162585984549,0.0178431793035,-0.00559263828917,1.0,0.0,0.0,0.0,1.0,0.0,0.0,0.0,1.0,-0.275427246094,1.25139770508,10.0123791504,0.1,0.0,0.0,0.0,0.1,0.0,0.0,0.0,0.1
1446038824710204361,134,1446038824707146883,robocape,5.33285713499,8.45200726612,22.856427962,0.0,10.0,0.0,0.0,0.0,10.0,0.0,0.0,0.0,10.0,0.0286289817184,0.0187752856851,0.0420779452233,1.0,0.0,0.0,0.0,1.0,0.0,0.0,0.0,1.0,0.199984130859,1.85015258789,9.91059082031,0.1,0.0,0.0,0.0,0.1,0.0,0.0,0.0,0.1
1446038824744974153,135,1446038824741903066,robocape,5.19070115375,8.48503616325,22.8464266438,0.0,10.0,0.0,0.0,0.0,10.0,0.0,0.0,0.0,10.0,-0.0697748205601,0.0274305592278,0.0186421276306,1.0,0.0,0.0,0.0,1.0,0.0,0.0,0.0,1.0,-0.264649658203,1.59747802734,10.172845459,0.1,0.0,0.0,0.0,0.1,0.0,0.0,0.0,0.1
1446038824778418736,136,1446038824775352954,robocape,4.955063868,8.5171461178,22.8348115448,0.0,10.0,0.0,0.0,0.0,10.0,0.0,0.0,0.0,10.0,-0.118910142672,0.0267647689553,0.0175768631945,1.0,0.0,0.0,0.0,1.0,0.0,0.0,0.0,1.0,0.0395178222656,0.359252929688,10.0051940918,0.1,0.0,0.0,0.0,0.1,0.0,0.0,0.0,0.1
1446038824815026778,137,1446038824811321973,robocape,4.82095490664,8.55640389324,22.8098593658,0.0,10.0,0.0,0.0,0.0,10.0,0.0,0.0,0.0,10.0,-0.0648479725434,0.0299605622634,0.0105194863058,1.0,0.0,0.0,0.0,1.0,0.0,0.0,0.0,1.0,-0.0586779785156,0.55564453125,10.0087866211,0.1,0.0,0.0,0.0,0.1,0.0,0.0,0.0,0.1
1446038824843965694,138,1446038824840831041,robocape,4.65111303605,8.60342780821,22.7726813374,0.0,10.0,0.0,0.0,0.0,10.0,0.0,0.0,0.0,10.0,-0.0828243099015,0.0334226716805,0.00359526747161,1.0,0.0,0.0,0.0,1.0,0.0,0.0,0.0,1.0,-0.118553466797,0.767603759766,10.0375268555,0.1,0.0,0.0,0.0,0.1,0.0,0.0,0.0,0.1
1446038824878100236,139,1446038824875037908,robocape,4.5108112258,8.6474224353,22.7811576925,0.0,10.0,0.0,0.0,0.0,10.0,0.0,0.0,0.0,10.0,-0.0709732430506,0.0342216200075,0.0283626656093,1.0,0.0,0.0,0.0,1.0,0.0,0.0,0.0,1.0,0.108973388672,0.245489501953,9.9249609375,0.1,0.0,0.0,0.0,0.1,0.0,0.0,0.0,0.1
1446038824912037278,140,1446038824908948898,robocape,4.42558896139,8.75395516378,22.7416344524,0.0,10.0,0.0,0.0,0.0,10.0,0.0,0.0,0.0,10.0,-0.0384826777516,0.0648479725434,0.00066579027252,1.0,0.0,0.0,0.0,1.0,0.0,0.0,0.0,1.0,0.144898681641,0.405955810547,9.81,0.1,0.0,0.0,0.0,0.1,0.0,0.0,0.0,0.1
1446038824946774403,141,1446038824943593978,robocape,4.46344847065,8.94548997289,22.6295645484,0.0,10.0,0.0,0.0,0.0,10.0,0.0,0.0,0.0,10.0,0.0318247750264,0.106260127494,-0.0408795227327,1.0,0.0,0.0,0.0,1.0,0.0,0.0,0.0,1.0,-0.293389892578,0.225131835938,10.0327368164,0.1,0.0,0.0,0.0,0.1,0.0,0.0,0.0,0.1
1446038824981532944,142,1446038824976988077,robocape,4.5020886437,9.12330101889,22.5682606249,0.0,10.0,0.0,0.0,0.0,10.0,0.0,0.0,0.0,10.0,0.0283626656093,0.101732753641,-0.0133158054504,1.0,0.0,0.0,0.0,1.0,0.0,0.0,0.0,1.0,-0.310155029297,0.907712402344,10.1632653809,0.1,0.0,0.0,0.0,0.1,0.0,0.0,0.0,0.1
1446038825012852528,143,1446038825009759902,robocape,4.42486139006,9.29040668247,22.4839679947,0.0,10.0,0.0,0.0,0.0,10.0,0.0,0.0,0.0,10.0,-0.0304931944814,0.0950748509158,-0.0255663464648,1.0,0.0,0.0,0.0,1.0,0.0,0.0,0.0,1.0,-0.238304443359,0.680185546875,9.88424560547,0.1,0.0,0.0,0.0,0.1,0.0,0.0,0.0,0.1
1446038825048652694,144,1446038825045180082,robocape,4.32378373377,9.49397535669,22.3779975498,0.0,10.0,0.0,0.0,0.0,10.0,0.0,0.0,0.0,10.0,-0.0411458388417,0.113450662437,-0.0383495196971,1.0,0.0,0.0,0.0,1.0,0.0,0.0,0.0,1.0,-0.0119750976563,0.625100097656,10.0411193848,0.1,0.0,0.0,0.0,0.1,0.0,0.0,0.0,0.1
1446038825081279694,145,1446038825077940940,robocape,4.17473480008,9.66240143478,22.3188210676,0.0,10.0,0.0,0.0,0.0,10.0,0.0,0.0,0.0,10.0,-0.0703074527781,0.0974716958969,-0.0121173829599,1.0,0.0,0.0,0.0,1.0,0.0,0.0,0.0,1.0,-0.317340087891,0.634680175781,10.1476977539,0.1,0.0,0.0,0.0,0.1,0.0,0.0,0.0,0.1
1446038825114355486,146,1446038825110775947,robocape,4.01552017479,9.79243331376,22.2394695029,0.0,10.0,0.0,0.0,0.0,10.0,0.0,0.0,0.0,10.0,-0.0740358783042,0.0765658813398,-0.0215716048296,1.0,0.0,0.0,0.0,1.0,0.0,0.0,0.0,1.0,-0.0622705078125,0.443078613281,10.0327368164,0.1,0.0,0.0,0.0,0.1,0.0,0.0,0.0,0.1
1446038825147581736,147,1446038825144222974,robocape,3.8855268579,9.90417188993,22.143905828,0.0,10.0,0.0,0.0,0.0,10.0,0.0,0.0,0.0,10.0,-0.0573911214912,0.0664458691975,-0.0295610880999,1.0,0.0,0.0,0.0,1.0,0.0,0.0,0.0,1.0,-0.366437988281,0.205971679688,10.1488952637,0.1,0.0,0.0,0.0,0.1,0.0,0.0,0.0,0.1
1446038825183419153,148,1446038825180243015,robocape,3.84787981277,9.95814142363,22.0963861101,0.0,10.0,0.0,0.0,0.0,10.0,0.0,0.0,0.0,10.0,-0.0133158054504,0.0383495196971,-0.00213052887206,1.0,0.0,0.0,0.0,1.0,0.0,0.0,0.0,1.0,-0.669407958984,0.320932617188,10.0878222656,0.1,0.0,0.0,0.0,0.1,0.0,0.0,0.0,0.1
1446038825214455153,149,1446038825210968017,robocape,3.86411545396,9.95985122859,22.0859769134,0.0,10.0,0.0,0.0,0.0,10.0,0.0,0.0,0.0,10.0,0.0115847507418,0.0125168571234,0.0191747598486,1.0,0.0,0.0,0.0,1.0,0.0,0.0,0.0,1.0,-0.384400634766,0.263452148438,10.1453027344,0.1,0.0,0.0,0.0,0.1,0.0,0.0,0.0,0.1
1446038825246828945,150,1446038825243360996,robocape,3.89371425368,9.96118655368,22.0827603874,0.0,10.0,0.0,0.0,0.0,10.0,0.0,0.0,0.0,10.0,0.017976337358,0.0126500151779,0.0230363434292,1.0,0.0,0.0,0.0,1.0,0.0,0.0,0.0,1.0,-0.0922082519531,0.434696044922,10.0255517578,0.1,0.0,0.0,0.0,0.1,0.0,0.0,0.0,0.1
1446038825280513820,151,1446038825277101039,robocape,3.93666967227,9.96415674435,22.0390225275,0.0,10.0,0.0,0.0,0.0,10.0,0.0,0.0,0.0,10.0,0.0286289817184,0.0117179087963,0.00133158054504,1.0,0.0,0.0,0.0,1.0,0.0,0.0,0.0,1.0,-0.451461181641,0.469423828125,10.0219592285,0.1,0.0,0.0,0.0,0.1,0.0,0.0,0.0,0.1
1446038825313932070,152,1446038825310722112,robocape,3.97273116048,9.93066132293,22.0206727598,0.0,10.0,0.0,0.0,0.0,10.0,0.0,0.0,0.0,10.0,0.0227700273202,-0.00639158661619,0.015845808486,1.0,0.0,0.0,0.0,1.0,0.0,0.0,0.0,1.0,-0.501756591797,0.822689208984,10.1141674805,0.1,0.0,0.0,0.0,0.1,0.0,0.0,0.0,0.1
1446038825346689153,153,1446038825343570947,robocape,3.91487137586,9.81205653529,22.0288797782,0.0,10.0,0.0,0.0,0.0,10.0,0.0,0.0,0.0,10.0,-0.0288952978274,-0.050200586548,0.03222424919,1.0,0.0,0.0,0.0,1.0,0.0,0.0,0.0,1.0,-0.506546630859,0.506546630859,10.213560791,0.1,0.0,0.0,0.0,0.1,0.0,0.0,0.0,0.1
1446038825379394153,154,1446038825376149892,robocape,3.9103549944,9.66299125433,21.9664543538,0.0,10.0,0.0,0.0,0.0,10.0,0.0,0.0,0.0,10.0,0.00519316412565,-0.0695085044511,-0.00466053190764,1.0,0.0,0.0,0.0,1.0,0.0,0.0,0.0,1.0,-0.154478759766,0.123343505859,10.249486084,0.1,0.0,0.0,0.0,0.1,0.0,0.0,0.0,0.1
1446038825413861236,155,1446038825410763025,robocape,3.91033696332,9.55063942469,21.8800604664,0.0,10.0,0.0,0.0,0.0,10.0,0.0,0.0,0.0,10.0,0.00958737992429,-0.0513990090385,-0.0186421276306,1.0,0.0,0.0,0.0,1.0,0.0,0.0,0.0,1.0,-0.0898132324219,0.455053710938,9.74533447266,0.1,0.0,0.0,0.0,0.1,0.0,0.0,0.0,0.1
1446038825446128528,156,1446038825443092107,robocape,3.92019165596,9.54594347165,21.8207468015,0.0,10.0,0.0,0.0,0.0,10.0,0.0,0.0,0.0,10.0,0.0125168571234,0.00639158661619,-0.00732369299772,1.0,0.0,0.0,0.0,1.0,0.0,0.0,0.0,1.0,-0.239501953125,0.128133544922,10.0459094238,0.1,0.0,0.0,0.0,0.1,0.0,0.0,0.0,0.1
1446038825478879903,157,1446038825475645065,robocape,3.9678610319,9.54665835816,21.7304197889,0.0,10.0,0.0,0.0,0.0,10.0,0.0,0.0,0.0,10.0,0.0350205683345,0.00785632521573,-0.0241016078652,1.0,0.0,0.0,0.0,1.0,0.0,0.0,0.0,1.0,-0.282612304688,0.686173095703,9.93334350586,0.1,0.0,0.0,0.0,0.1,0.0,0.0,0.0,0.1
1446038825512517903,158,1446038825509455919,robocape,4.03850894608,9.58317493639,21.7482836434,0.0,10.0,0.0,0.0,0.0,10.0,0.0,0.0,0.0,10.0,0.0379500455336,0.0315584589174,0.0326237233535,1.0,0.0,0.0,0.0,1.0,0.0,0.0,0.0,1.0,0.138911132813,-0.275427246094,10.1165625,0.1,0.0,0.0,0.0,0.1,0.0,0.0,0.0,0.1
1446038825546322278,159,1446038825543205022,robocape,4.18063571211,9.59942434465,21.7259064694,0.0,10.0,0.0,0.0,0.0,10.0,0.0,0.0,0.0,10.0,0.0789627263208,0.0191747598486,0.0118510668509,1.0,0.0,0.0,0.0,1.0,0.0,0.0,0.0,1.0,-0.531694335938,0.827479248047,9.99681152344,0.1,0.0,0.0,0.0,0.1,0.0,0.0,0.0,0.1
1446038825578728195,160,1446038825575555086,robocape,4.22852946539,9.60554161725,21.69365057,0.0,10.0,0.0,0.0,0.0,10.0,0.0,0.0,0.0,10.0,0.0304931944814,0.0133158054504,0.0066579027252,1.0,0.0,0.0,0.0,1.0,0.0,0.0,0.0,1.0,-0.0682580566406,0.783171386719,10.1237475586,0.1,0.0,0.0,0.0,0.1,0.0,0.0,0.0,0.1
1446038825611246070,161,1446038825608151912,robocape,4.29945645262,9.58180955003,21.7034990675,0.0,10.0,0.0,0.0,0.0,10.0,0.0,0.0,0.0,10.0,0.0390153099697,-0.000399474163512,0.0300937203179,1.0,0.0,0.0,0.0,1.0,0.0,0.0,0.0,1.0,-0.00718505859375,0.380808105469,10.1141674805,0.1,0.0,0.0,0.0,0.1,0.0,0.0,0.0,0.1
1446038825644373361,162,1446038825641263961,robocape,4.41745193352,9.55106621337,21.730851339,0.0,10.0,0.0,0.0,0.0,10.0,0.0,0.0,0.0,10.0,0.0623179695079,-0.0031957933081,0.0398142582967,1.0,0.0,0.0,0.0,1.0,0.0,0.0,0.0,1.0,-0.422720947266,0.3065625,10.0207617188,0.1,0.0,0.0,0.0,0.1,0.0,0.0,0.0,0.1
1446038825677881861,163,1446038825674653053,robocape,4.52681936917,9.54250080716,21.7664396732,0.0,10.0,0.0,0.0,0.0,10.0,0.0,0.0,0.0,10.0,0.0572579634367,0.00892158965177,0.0435426838228,1.0,0.0,0.0,0.0,1.0,0.0,0.0,0.0,1.0,-0.101788330078,0.896934814453,9.99561401367,0.1,0.0,0.0,0.0,0.1,0.0,0.0,0.0,0.1
1446038825711324611,164,1446038825708241939,robocape,4.52328532432,9.56288177437,21.7140347648,0.0,10.0,0.0,0.0,0.0,10.0,0.0,0.0,0.0,10.0,0.00559263828917,0.0197073920666,-0.00466053190764,1.0,0.0,0.0,0.0,1.0,0.0,0.0,0.0,1.0,-0.140108642578,0.9580078125,10.0339343262,0.1,0.0,0.0,0.0,0.1,0.0,0.0,0.0,0.1
1446038825743743695,165,1446038825740617990,robocape,4.39568782079,9.58542960364,21.6756438825,0.0,10.0,0.0,0.0,0.0,10.0,0.0,0.0,0.0,10.0,-0.0607200728538,0.0214384467751,0.00239684498107,1.0,0.0,0.0,0.0,1.0,0.0,0.0,0.0,1.0,-0.265847167969,1.05500610352,9.97884887695,0.1,0.0,0.0,0.0,0.1,0.0,0.0,0.0,0.1
1446038825776863861,166,1446038825773638963,robocape,4.17276744272,9.61797403288,21.6003790705,0.0,10.0,0.0,0.0,0.0,10.0,0.0,0.0,0.0,10.0,-0.107724866094,0.0249005561922,-0.0178431793035,1.0,0.0,0.0,0.0,1.0,0.0,0.0,0.0,1.0,-0.289797363281,0.591569824219,10.1057849121,0.1,0.0,0.0,0.0,0.1,0.0,0.0,0.0,0.1
1446038825810772195,167,1446038825807008981,robocape,3.98764973188,9.65631308992,21.5537325155,0.0,10.0,0.0,0.0,0.0,10.0,0.0,0.0,0.0,10.0,-0.0905474770627,0.0294279300454,-0.00266316109008,1.0,0.0,0.0,0.0,1.0,0.0,0.0,0.0,1.0,-0.150886230469,0.379610595703,9.90580078125,0.1,0.0,0.0,0.0,0.1,0.0,0.0,0.0,0.1
1446038825843650570,168,1446038825840437889,robocape,3.74662272846,9.74068373106,21.5325174472,0.0,10.0,0.0,0.0,0.0,10.0,0.0,0.0,0.0,10.0,-0.122239094035,0.0548611184556,0.00958737992429,1.0,0.0,0.0,0.0,1.0,0.0,0.0,0.0,1.0,0.107775878906,0.774788818359,9.86867797852,0.1,0.0,0.0,0.0,0.1,0.0,0.0,0.0,0.1
1446038825876603445,169,1446038825873492002,robocape,3.47697255596,9.82155406436,21.4858381368,0.0,10.0,0.0,0.0,0.0,10.0,0.0,0.0,0.0,10.0,-0.135288583376,0.052064799311,-0.00372842552611,1.0,0.0,0.0,0.0,1.0,0.0,0.0,0.0,1.0,-0.119750976563,0.32572265625,10.132130127,0.1,0.0,0.0,0.0,0.1,0.0,0.0,0.0,0.1
1446038825910605361,170,1446038825907491922,robocape,3.30357132424,9.88913087852,21.4290150396,0.0,10.0,0.0,0.0,0.0,10.0,0.0,0.0,0.0,10.0,-0.0841558904465,0.0448742643678,-0.00852211548825,1.0,0.0,0.0,0.0,1.0,0.0,0.0,0.0,1.0,-0.583187255859,-0.3065625,10.0315393066,0.1,0.0,0.0,0.0,0.1,0.0,0.0,0.0,0.1
1446038825943589403,171,1446038825940340995,robocape,3.26153632284,9.96617521299,21.3864386721,0.0,10.0,0.0,0.0,0.0,10.0,0.0,0.0,0.0,10.0,-0.016644756813,0.0506000607115,-0.000932106381528,1.0,0.0,0.0,0.0,1.0,0.0,0.0,0.0,1.0,-0.379610595703,0.228724365234,10.0950073242,0.1,0.0,0.0,0.0,0.1,0.0,0.0,0.0,0.1
1446038825976830612,172,1446038825973788976,robocape,3.25351808389,10.0303128096,21.2931826527,0.0,10.0,0.0,0.0,0.0,10.0,0.0,0.0,0.0,10.0,0.00572579634367,0.0419447871687,-0.0276968753368,1.0,0.0,0.0,0.0,1.0,0.0,0.0,0.0,1.0,-0.217946777344,0.546064453125,10.0614770508,0.1,0.0,0.0,0.0,0.1,0.0,0.0,0.0,0.1
1446038826009969528,173,1446038826006912946,robocape,3.26474582897,10.1190543951,21.2415375009,0.0,10.0,0.0,0.0,0.0,10.0,0.0,0.0,0.0,10.0,0.0121173829599,0.0565921731642,-0.00612527050718,1.0,0.0,0.0,0.0,1.0,0.0,0.0,0.0,1.0,-0.215551757813,-0.01916015625,10.003996582,0.1,0.0,0.0,0.0,0.1,0.0,0.0,0.0,0.1
1446038826043463028,174,1446038826040363073,robocape,3.26989213095,10.2288208691,21.2138377366,0.0,10.0,0.0,0.0,0.0,10.0,0.0,0.0,0.0,10.0,0.0067910607797,0.068709556124,0.00612527050718,1.0,0.0,0.0,0.0,1.0,0.0,0.0,0.0,1.0,-0.190404052734,0.581989746094,10.0506994629,0.1,0.0,0.0,0.0,0.1,0.0,0.0,0.0,0.1
1446038826077018403,175,1446038826073998928,robocape,3.16231576883,10.3129830724,21.1857704916,0.0,10.0,0.0,0.0,0.0,10.0,0.0,0.0,0.0,10.0,-0.0523311154201,0.0552605926191,0.00639158661619,1.0,0.0,0.0,0.0,1.0,0.0,0.0,0.0,1.0,-0.390388183594,0.675395507813,10.100994873,0.1,0.0,0.0,0.0,0.1,0.0,0.0,0.0,0.1
1446038826110929070,176,1446038826107844114,robocape,3.01845003343,10.3564908455,21.206254528,0.0,10.0,0.0,0.0,0.0,10.0,0.0,0.0,0.0,10.0,-0.0760332491218,0.0356863586071,0.0331563555715,1.0,0.0,0.0,0.0,1.0,0.0,0.0,0.0,1.0,-0.124541015625,0.160466308594,10.1213525391,0.1,0.0,0.0,0.0,0.1,0.0,0.0,0.0,0.1
1446038826143269612,177,1446038826140261888,robocape,2.90707521521,10.4076011613,21.1325721171,0.0,10.0,0.0,0.0,0.0,10.0,0.0,0.0,0.0,10.0,-0.0503337446025,0.0363521488796,-0.0170442309765,1.0,0.0,0.0,0.0,1.0,0.0,0.0,0.0,1.0,-0.799936523438,0.0610729980469,10.1153649902,0.1,0.0,0.0,0.0,0.1,0.0,0.0,0.0,0.1
1446038826177127737,178,1446038826173928976,robocape,2.77589329003,10.4657982528,21.0861830892,0.0,10.0,0.0,0.0,0.0,10.0,0.0,0.0,0.0,10.0,-0.0633832339439,0.0411458388417,-0.00266316109008,1.0,0.0,0.0,0.0,1.0,0.0,0.0,0.0,1.0,-0.125738525391,0.504151611328,10.1033898926,0.1,0.0,0.0,0.0,0.1,0.0,0.0,0.0,0.1
1446038826211042737,179,1446038826207914113,robocape,2.72903062319,10.5553518483,20.980177195,0.0,10.0,0.0,0.0,0.0,10.0,0.0,0.0,0.0,10.0,-0.0135821215594,0.0557932248372,-0.03488741028,1.0,0.0,0.0,0.0,1.0,0.0,0.0,0.0,1.0,-0.366437988281,-0.0311352539063,10.0363293457,0.1,0.0,0.0,0.0,0.1,0.0,0.0,0.0,0.1
1446038826243261278,180,1446038826240080118,robocape,2.70021299428,10.6497460691,20.9329653231,0.0,10.0,0.0,0.0,0.0,10.0,0.0,0.0,0.0,10.0,-0.00972053797879,0.0604537567448,-0.00372842552611,1.0,0.0,0.0,0.0,1.0,0.0,0.0,0.0,1.0,-0.15328125,-0.159268798828,10.1165625,0.1,0.0,0.0,0.0,0.1,0.0,0.0,0.0,0.1
1446038826276758570,181,1446038826273524045,robocape,2.70548274029,10.7256056004,20.9122090666,0.0,10.0,0.0,0.0,0.0,10.0,0.0,0.0,0.0,10.0,0.00559263828917,0.0516653251475,0.0106526443603,1.0,0.0,0.0,0.0,1.0,0.0,0.0,0.0,1.0,-0.637075195313,0.17244140625,10.0351318359,0.1,0.0,0.0,0.0,0.1,0.0,0.0,0.0,0.1
1446038826310127987,182,1446038826307039022,robocape,2.69464177665,10.7765364326,20.8729660797,0.0,10.0,0.0,0.0,0.0,10.0,0.0,0.0,0.0,10.0,-0.00106526443603,0.0379500455336,0.00119842249054,1.0,0.0,0.0,0.0,1.0,0.0,0.0,0.0,1.0,-0.263452148438,0.464633789063,10.1979931641,0.1,0.0,0.0,0.0,0.1,0.0,0.0,0.0,0.1
1446038826343004112,183,1446038826339968919,robocape,2.65963253746,10.8135950365,20.8524179252,0.0,10.0,0.0,0.0,0.0,10.0,0.0,0.0,0.0,10.0,-0.015579492377,0.0312921428084,0.0113184346328,1.0,0.0,0.0,0.0,1.0,0.0,0.0,0.0,1.0,-0.382005615234,0.261057128906,9.90101074219,0.1,0.0,0.0,0.0,0.1,0.0,0.0,0.0,0.1
1446038826376620403,184,1446038826373397111,robocape,2.65379763125,10.9204764169,20.8411790996,0.0,10.0,0.0,0.0,0.0,10.0,0.0,0.0,0.0,10.0,-0.00119842249054,0.0685763980695,0.0151800182135,1.0,0.0,0.0,0.0,1.0,0.0,0.0,0.0,1.0,-0.0934057617188,-0.130528564453,10.100994873,0.1,0.0,0.0,0.0,0.1,0.0,0.0,0.0,0.1
1446038826410317695,185,1446038826407099008,robocape,2.74079235427,10.9857420096,20.8146118041,0.0,10.0,0.0,0.0,0.0,10.0,0.0,0.0,0.0,10.0,0.0490021640575,0.0462058449129,0.00772316716123,1.0,0.0,0.0,0.0,1.0,0.0,0.0,0.0,1.0,-1.46814697266,0.167651367188,10.0530944824,0.1,0.0,0.0,0.0,0.1,0.0,0.0,0.0,0.1
1446038826444189403,186,1446038826441073894,robocape,2.78459768828,11.0507883327,20.7353507572,0.0,10.0,0.0,0.0,0.0,10.0,0.0,0.0,0.0,10.0,0.0316916169719,0.0443416321498,-0.0203731823391,1.0,0.0,0.0,0.0,1.0,0.0,0.0,0.0,1.0,-0.474213867188,0.3448828125,10.0818347168,0.1,0.0,0.0,0.0,0.1,0.0,0.0,0.0,0.1
1446038826476605028,187,1446038826473557949,robocape,2.82413489023,11.1083654436,20.6691221387,0.0,10.0,0.0,0.0,0.0,10.0,0.0,0.0,0.0,10.0,0.0282295075548,0.0408795227327,-0.0134489635049,1.0,0.0,0.0,0.0,1.0,0.0,0.0,0.0,1.0,-0.546064453125,0.213156738281,10.0794396973,0.1,0.0,0.0,0.0,0.1,0.0,0.0,0.0,0.1
1446038826509760820,188,1446038826506690025,robocape,2.8509686661,11.1486443757,20.6576958164,0.0,10.0,0.0,0.0,0.0,10.0,0.0,0.0,0.0,10.0,0.016112124595,0.0336889877895,0.015845808486,1.0,0.0,0.0,0.0,1.0,0.0,0.0,0.0,1.0,-0.299377441406,0.275427246094,10.0734521484,0.1,0.0,0.0,0.0,0.1,0.0,0.0,0.0,0.1
1446038826543139487,189,1446038826539988040,robocape,2.86911833771,11.2121331215,20.6252569758,0.0,10.0,0.0,0.0,0.0,10.0,0.0,0.0,0.0,10.0,0.0137152796139,0.0452737385313,0.00426105774413,1.0,0.0,0.0,0.0,1.0,0.0,0.0,0.0,1.0,-0.372425537109,0.274229736328,9.96567626953,0.1,0.0,0.0,0.0,0.1,0.0,0.0,0.0,0.1
1446038826576801695,190,1446038826573323011,robocape,2.80968138583,11.2839945522,20.5751624045,0.0,10.0,0.0,0.0,0.0,10.0,0.0,0.0,0.0,10.0,-0.0251668723012,0.049135322112,-0.00532632218016,1.0,0.0,0.0,0.0,1.0,0.0,0.0,0.0,1.0,-0.223934326172,0.662222900391,10.0087866211,0.1,0.0,0.0,0.0,0.1,0.0,0.0,0.0,0.1
1446038826610068570,191,1446038826606694936,robocape,2.69758468581,11.3787409979,20.4994600011,0.0,10.0,0.0,0.0,0.0,10.0,0.0,0.0,0.0,10.0,-0.050200586548,0.0604537567448,-0.0193079179031,1.0,0.0,0.0,0.0,1.0,0.0,0.0,0.0,1.0,-0.665815429688,0.379610595703,10.0950073242,0.1,0.0,0.0,0.0,0.1,0.0,0.0,0.0,0.1
1446038826643356654,192,1446038826640017032,robocape,2.59081812856,11.4356605734,20.4203353596,0.0,10.0,0.0,0.0,0.0,10.0,0.0,0.0,0.0,10.0,-0.0471379512944,0.0404800485692,-0.0205063403936,1.0,0.0,0.0,0.0,1.0,0.0,0.0,0.0,1.0,-0.417930908203,0.305364990234,10.0770446777,0.1,0.0,0.0,0.0,0.1,0.0,0.0,0.0,0.1
1446038826676875404,193,1446038826673404932,robocape,2.51593696383,11.4978910895,20.3823322127,0.0,10.0,0.0,0.0,0.0,10.0,0.0,0.0,0.0,10.0,-0.0347542522255,0.0447411063133,0.00119842249054,1.0,0.0,0.0,0.0,1.0,0.0,0.0,0.0,1.0,-0.635877685547,0.111368408203,10.0051940918,0.1,0.0,0.0,0.0,0.1,0.0,0.0,0.0,0.1
