%time,field.header.seq,field.header.stamp,field.header.frame_id,field.magnetic_field.x,field.magnetic_field.y,field.magnetic_field.z,field.magnetic_field_covariance0,field.magnetic_field_covariance1,field.magnetic_field_covariance2,field.magnetic_field_covariance3,field.magnetic_field_covariance4,field.magnetic_field_covariance5,field.magnetic_field_covariance6,field.magnetic_field_covariance7,field.magnetic_field_covariance8
1446038486875790908,1,1446038486732985019,robocape_mag,11.55,-12.0,16.05,10.0,0.0,0.0,0.0,10.0,0.0,0.0,0.0,10.0
1446038486876671491,2,1446038486762110948,robocape_mag,11.85,-12.9,16.95,10.0,0.0,0.0,0.0,10.0,0.0,0.0,0.0,10.0
1446038486876990075,3,1446038486800982952,robocape_mag,11.85,-12.9,16.95,10.0,0.0,0.0,0.0,10.0,0.0,0.0,0.0,10.0
1446038486877381866,4,1446038486841396093,robocape_mag,11.85,-12.9,16.95,10.0,0.0,0.0,0.0,10.0,0.0,0.0,0.0,10.0
1446038486877602158,5,1446038486865214109,robocape_mag,11.85,-12.9,16.95,10.0,0.0,0.0,0.0,10.0,0.0,0.0,0.0,10.0
1446038486896852658,6,1446038486893877029,robocape_mag,11.85,-12.9,16.95,10.0,0.0,0.0,0.0,10.0,0.0,0.0,0.0,10.0
1446038486930122742,7,1446038486926938056,robocape_mag,9.45,-9.9,17.55,10.0,0.0,0.0,0.0,10.0,0.0,0.0,0.0,10.0
1446038486974064408,8,1446038486965204954,robocape_mag,9.45,-9.9,17.55,10.0,0.0,0.0,0.0,10.0,0.0,0.0,0.0,10.0
1446038486999155200,9,1446038486993773937,robocape_mag,9.45,-9.9,17.55,10.0,0.0,0.0,0.0,10.0,0.0,0.0,0.0,10.0
1446038487032889533,10,1446038487027781963,robocape_mag,9.45,-9.9,17.55,10.0,0.0,0.0,0.0,10.0,0.0,0.0,0.0,10.0
1446038487070348492,11,1446038487065344095,robocape_mag,9.45,-9.9,17.55,10.0,0.0,0.0,0.0,10.0,0.0,0.0,0.0,10.0
1446038487098989908,12,1446038487093907117,robocape_mag,8.85,-9.9,16.95,10.0,0.0,0.0,0.0,10.0,0.0,0.0,0.0,10.0
1446038487138117867,13,1446038487133356094,robocape_mag,8.85,-9.9,16.95,10.0,0.0,0.0,0.0,10.0,0.0,0.0,0.0,10.0
1446038487170474658,14,1446038487165435075,robocape_mag,8.85,-9.9,16.95,10.0,0.0,0.0,0.0,10.0,0.0,0.0,0.0,10.0
1446038487200036533,15,1446038487195045948,robocape_mag,8.85,-9.9,16.95,10.0,0.0,0.0,0.0,10.0,0.0,0.0,0.0,10.0
1446038487233126575,16,1446038487228290081,robocape_mag,8.85,-9.9,16.95,10.0,0.0,0.0,0.0,10.0,0.0,0.0,0.0,10.0
1446038487266642658,17,1446038487261457920,robocape_mag,9.75,-11.4,17.85,10.0,0.0,0.0,0.0,10.0,0.0,0.0,0.0,10.0
1446038487305507117,18,1446038487294848918,robocape_mag,9.75,-11.4,17.85,10.0,0.0,0.0,0.0,10.0,0.0,0.0,0.0,10.0
1446038487332264867,19,1446038487327320098,robocape_mag,9.75,-11.4,17.85,10.0,0.0,0.0,0.0,10.0,0.0,0.0,0.0,10.0
1446038487365962367,20,1446038487360671997,robocape_mag,9.75,-11.4,17.85,10.0,0.0,0.0,0.0,10.0,0.0,0.0,0.0,10.0
1446038487398898658,21,1446038487393870115,robocape_mag,10.35,-10.2,17.85,10.0,0.0,0.0,0.0,10.0,0.0,0.0,0.0,10.0
1446038487431702200,22,1446038487426889896,robocape_mag,10.35,-10.2,17.85,10.0,0.0,0.0,0.0,10.0,0.0,0.0,0.0,10.0
1446038487465686742,23,1446038487460514068,robocape_mag,10.35,-10.2,17.85,10.0,0.0,0.0,0.0,10.0,0.0,0.0,0.0,10.0
1446038487498501492,24,1446038487493748903,robocape_mag,10.35,-10.2,17.85,10.0,0.0,0.0,0.0,10.0,0.0,0.0,0.0,10.0
1446038487531509783,25,1446038487526859998,robocape_mag,10.35,-10.2,17.85,10.0,0.0,0.0,0.0,10.0,0.0,0.0,0.0,10.0
1446038487566095867,26,1446038487560858011,robocape_mag,9.15,-10.8,17.85,10.0,0.0,0.0,0.0,10.0,0.0,0.0,0.0,10.0
1446038487598587158,27,1446038487593955039,robocape_mag,9.15,-10.8,17.85,10.0,0.0,0.0,0.0,10.0,0.0,0.0,0.0,10.0
1446038487631460617,28,1446038487626817941,robocape_mag,9.15,-10.8,17.85,10.0,0.0,0.0,0.0,10.0,0.0,0.0,0.0,10.0
1446038487666233867,29,1446038487660830974,robocape_mag,9.15,-10.8,17.85,10.0,0.0,0.0,0.0,10.0,0.0,0.0,0.0,10.0
1446038487698508700,30,1446038487693885087,robocape_mag,9.15,-10.8,17.85,10.0,0.0,0.0,0.0,10.0,0.0,0.0,0.0,10.0
1446038487731450450,31,1446038487726861000,robocape_mag,11.25,-11.1,16.95,10.0,0.0,0.0,0.0,10.0,0.0,0.0,0.0,10.0
1446038487766304450,32,1446038487760984897,robocape_mag,11.25,-11.1,16.95,10.0,0.0,0.0,0.0,10.0,0.0,0.0,0.0,10.0
1446038487798638784,33,1446038487793651103,robocape_mag,11.25,-11.1,16.95,10.0,0.0,0.0,0.0,10.0,0.0,0.0,0.0,10.0
1446038487831573992,34,1446038487826893091,robocape_mag,11.25,-11.1,16.95,10.0,0.0,0.0,0.0,10.0,0.0,0.0,0.0,10.0
1446038487868709867,35,1446038487863145112,robocape_mag,11.25,-11.1,16.95,10.0,0.0,0.0,0.0,10.0,0.0,0.0,0.0,10.0
1446038487898756159,36,1446038487893780946,robocape_mag,9.45,-11.1,18.15,10.0,0.0,0.0,0.0,10.0,0.0,0.0,0.0,10.0
1446038487931719992,37,1446038487927119970,robocape_mag,9.45,-11.1,18.15,10.0,0.0,0.0,0.0,10.0,0.0,0.0,0.0,10.0
1446038487965620950,38,1446038487960621118,robocape_mag,9.45,-11.1,18.15,10.0,0.0,0.0,0.0,10.0,0.0,0.0,0.0,10.0
1446038487998564367,39,1446038487993690967,robocape_mag,9.45,-11.1,18.15,10.0,0.0,0.0,0.0,10.0,0.0,0.0,0.0,10.0
1446038488031492325,40,1446038488026909112,robocape_mag,9.45,-11.1,18.15,10.0,0.0,0.0,0.0,10.0,0.0,0.0,0.0,10.0
1446038488065571492,41,1446038488060621976,robocape_mag,10.05,-12.3,18.15,10.0,0.0,0.0,0.0,10.0,0.0,0.0,0.0,10.0
1446038488098551867,42,1446038488093849897,robocape_mag,10.05,-12.3,18.15,10.0,0.0,0.0,0.0,10.0,0.0,0.0,0.0,10.0
1446038488131472909,43,1446038488126817941,robocape_mag,10.05,-12.3,18.15,10.0,0.0,0.0,0.0,10.0,0.0,0.0,0.0,10.0
1446038488165602617,44,1446038488160535097,robocape_mag,10.05,-12.3,18.15,10.0,0.0,0.0,0.0,10.0,0.0,0.0,0.0,10.0
1446038488198924242,45,1446038488194175958,robocape_mag,10.95,-11.4,17.85,10.0,0.0,0.0,0.0,10.0,0.0,0.0,0.0,10.0
1446038488231444534,46,1446038488226855993,robocape_mag,10.95,-11.4,17.85,10.0,0.0,0.0,0.0,10.0,0.0,0.0,0.0,10.0
1446038488265784867,47,1446038488260797977,robocape_mag,10.95,-11.4,17.85,10.0,0.0,0.0,0.0,10.0,0.0,0.0,0.0,10.0
1446038488299374492,48,1446038488294238090,robocape_mag,10.95,-11.4,17.85,10.0,0.0,0.0,0.0,10.0,0.0,0.0,0.0,10.0
1446038488331705576,49,1446038488326981067,robocape_mag,10.95,-11.4,17.85,10.0,0.0,0.0,0.0,10.0,0.0,0.0,0.0,10.0
1446038488365680201,50,1446038488360759019,robocape_mag,10.95,-11.4,17.25,10.0,0.0,0.0,0.0,10.0,0.0,0.0,0.0,10.0
1446038488398820409,51,1446038488393866062,robocape_mag,10.95,-11.4,17.25,10.0,0.0,0.0,0.0,10.0,0.0,0.0,0.0,10.0
1446038488431733076,52,1446038488426945924,robocape_mag,10.95,-11.4,17.25,10.0,0.0,0.0,0.0,10.0,0.0,0.0,0.0,10.0
1446038488466955492,53,1446038488461837053,robocape_mag,10.95,-11.4,17.25,10.0,0.0,0.0,0.0,10.0,0.0,0.0,0.0,10.0
1446038488498641242,54,1446038488493689060,robocape_mag,10.95,-11.4,17.25,10.0,0.0,0.0,0.0,10.0,0.0,0.0,0.0,10.0
1446038488531632909,55,1446038488527056932,robocape_mag,9.45,-9.9,17.55,10.0,0.0,0.0,0.0,10.0,0.0,0.0,0.0,10.0
1446038488565560617,56,1446038488560544013,robocape_mag,9.45,-9.9,17.55,10.0,0.0,0.0,0.0,10.0,0.0,0.0,0.0,10.0
1446038488598747117,57,1446038488593935966,robocape_mag,9.45,-9.9,17.55,10.0,0.0,0.0,0.0,10.0,0.0,0.0,0.0,10.0
1446038488631701742,58,1446038488627012014,robocape_mag,9.45,-9.9,17.55,10.0,0.0,0.0,0.0,10.0,0.0,0.0,0.0,10.0
1446038488665696659,59,1446038488660562992,robocape_mag,9.45,-9.9,17.55,10.0,0.0,0.0,0.0,10.0,0.0,0.0,0.0,10.0
1446038488698484367,60,1446038488693713903,robocape_mag,9.15,-10.8,18.45,10.0,0.0,0.0,0.0,10.0,0.0,0.0,0.0,10.0
1446038488731478784,61,1446038488726847887,robocape_mag,9.15,-10.8,18.45,10.0,0.0,0.0,0.0,10.0,0.0,0.0,0.0,10.0
1446038488765811492,62,1446038488760767936,robocape_mag,9.15,-10.8,18.45,10.0,0.0,0.0,0.0,10.0,0.0,0.0,0.0,10.0
1446038488798510492,63,1446038488793742895,robocape_mag,9.15,-10.8,18.45,10.0,0.0,0.0,0.0,10.0,0.0,0.0,0.0,10.0
1446038488831553617,64,1446038488826837062,robocape_mag,9.15,-10.8,18.45,10.0,0.0,0.0,0.0,10.0,0.0,0.0,0.0,10.0
1446038488868385284,65,1446038488863194942,robocape_mag,9.45,-11.7,16.35,10.0,0.0,0.0,0.0,10.0,0.0,0.0,0.0,10.0
1446038488898598826,66,1446038488893719911,robocape_mag,9.45,-11.7,16.35,10.0,0.0,0.0,0.0,10.0,0.0,0.0,0.0,10.0
1446038488931884909,67,1446038488926985025,robocape_mag,9.45,-11.7,16.35,10.0,0.0,0.0,0.0,10.0,0.0,0.0,0.0,10.0
1446038488966583409,68,1446038488960949897,robocape_mag,9.45,-11.7,16.35,10.0,0.0,0.0,0.0,10.0,0.0,0.0,0.0,10.0
1446038488999413826,69,1446038488994431972,robocape_mag,10.05,-11.1,17.55,10.0,0.0,0.0,0.0,10.0,0.0,0.0,0.0,10.0
1446038489031588534,70,1446038489026842117,robocape_mag,10.05,-11.1,17.55,10.0,0.0,0.0,0.0,10.0,0.0,0.0,0.0,10.0
1446038489065481451,71,1446038489060477018,robocape_mag,10.05,-11.1,17.55,10.0,0.0,0.0,0.0,10.0,0.0,0.0,0.0,10.0
1446038489098859409,72,1446038489093934059,robocape_mag,10.05,-11.1,17.55,10.0,0.0,0.0,0.0,10.0,0.0,0.0,0.0,10.0
1446038489131527118,73,1446038489126810073,robocape_mag,10.05,-11.1,17.55,10.0,0.0,0.0,0.0,10.0,0.0,0.0,0.0,10.0
1446038489165667201,74,1446038489160665988,robocape_mag,8.55,-9.6,16.65,10.0,0.0,0.0,0.0,10.0,0.0,0.0,0.0,10.0
1446038489205071409,75,1446038489199970006,robocape_mag,8.55,-9.6,16.65,10.0,0.0,0.0,0.0,10.0,0.0,0.0,0.0,10.0
1446038489231521243,76,1446038489226866006,robocape_mag,8.55,-9.6,16.65,10.0,0.0,0.0,0.0,10.0,0.0,0.0,0.0,10.0
1446038489265315701,77,1446038489260433912,robocape_mag,8.55,-9.6,16.65,10.0,0.0,0.0,0.0,10.0,0.0,0.0,0.0,10.0
1446038489298610951,78,1446038489293643951,robocape_mag,8.55,-9.6,16.65,10.0,0.0,0.0,0.0,10.0,0.0,0.0,0.0,10.0
1446038489331697159,79,1446038489326888084,robocape_mag,10.05,-12.3,16.95,10.0,0.0,0.0,0.0,10.0,0.0,0.0,0.0,10.0
1446038489365475534,80,1446038489360693931,robocape_mag,10.05,-12.3,16.95,10.0,0.0,0.0,0.0,10.0,0.0,0.0,0.0,10.0
1446038489398774118,81,1446038489393770933,robocape_mag,10.05,-12.3,16.95,10.0,0.0,0.0,0.0,10.0,0.0,0.0,0.0,10.0
1446038489432063284,82,1446038489427000045,robocape_mag,10.05,-12.3,16.95,10.0,0.0,0.0,0.0,10.0,0.0,0.0,0.0,10.0
1446038489465795534,83,1446038489460830926,robocape_mag,10.05,-12.3,16.95,10.0,0.0,0.0,0.0,10.0,0.0,0.0,0.0,10.0
1446038489498857034,84,1446038489493860006,robocape_mag,10.65,-12.3,17.55,10.0,0.0,0.0,0.0,10.0,0.0,0.0,0.0,10.0
1446038489531558368,85,1446038489526786088,robocape_mag,10.65,-12.3,17.55,10.0,0.0,0.0,0.0,10.0,0.0,0.0,0.0,10.0
1446038489565608576,86,1446038489560559034,robocape_mag,10.65,-12.3,17.55,10.0,0.0,0.0,0.0,10.0,0.0,0.0,0.0,10.0
1446038489598607701,87,1446038489593825101,robocape_mag,10.65,-12.3,17.55,10.0,0.0,0.0,0.0,10.0,0.0,0.0,0.0,10.0
1446038489631798659,88,1446038489626979112,robocape_mag,10.65,-12.3,17.55,10.0,0.0,0.0,0.0,10.0,0.0,0.0,0.0,10.0
1446038489665692826,89,1446038489660546064,robocape_mag,9.15,-10.8,17.25,10.0,0.0,0.0,0.0,10.0,0.0,0.0,0.0,10.0
1446038489698814701,90,1446038489693963050,robocape_mag,9.15,-10.8,17.25,10.0,0.0,0.0,0.0,10.0,0.0,0.0,0.0,10.0
1446038489731907701,91,1446038489727077007,robocape_mag,9.15,-10.8,17.25,10.0,0.0,0.0,0.0,10.0,0.0,0.0,0.0,10.0
1446038489765540451,92,1446038489760435104,robocape_mag,9.15,-10.8,17.25,10.0,0.0,0.0,0.0,10.0,0.0,0.0,0.0,10.0
1446038489798598493,93,1446038489793694019,robocape_mag,11.25,-10.5,18.15,10.0,0.0,0.0,0.0,10.0,0.0,0.0,0.0,10.0
1446038489831838701,94,1446038489826945066,robocape_mag,11.25,-10.5,18.15,10.0,0.0,0.0,0.0,10.0,0.0,0.0,0.0,10.0
1446038489865551160,95,1446038489860394954,robocape_mag,11.25,-10.5,18.15,10.0,0.0,0.0,0.0,10.0,0.0,0.0,0.0,10.0
1446038489899124910,96,1446038489894046068,robocape_mag,11.25,-10.5,18.15,10.0,0.0,0.0,0.0,10.0,0.0,0.0,0.0,10.0
1446038489932009743,97,1446038489927189111,robocape_mag,11.25,-10.5,18.15,10.0,0.0,0.0,0.0,10.0,0.0,0.0,0.0,10.0
1446038489965675201,98,1446038489960303068,robocape_mag,10.65,-10.5,16.95,10.0,0.0,0.0,0.0,10.0,0.0,0.0,0.0,10.0
1446038489998516410,99,1446038489993693113,robocape_mag,10.65,-10.5,16.95,10.0,0.0,0.0,0.0,10.0,0.0,0.0,0.0,10.0
1446038490032358743,100,1446038490027570009,robocape_mag,10.65,-10.5,16.95,10.0,0.0,0.0,0.0,10.0,0.0,0.0,0.0,10.0
1446038490065500868,101,1446038490060218095,robocape_mag,10.65,-10.5,16.95,10.0,0.0,0.0,0.0,10.0,0.0,0.0,0.0,10.0
1446038490099035410,102,1446038490094082117,robocape_mag,10.65,-10.5,16.95,10.0,0.0,0.0,0.0,10.0,0.0,0.0,0.0,10.0
1446038490131887368,103,1446038490127018928,robocape_mag,10.65,-10.5,18.15,10.0,0.0,0.0,0.0,10.0,0.0,0.0,0.0,10.0
1446038490165590160,104,1446038490160176992,robocape_mag,10.65,-10.5,18.15,10.0,0.0,0.0,0.0,10.0,0.0,0.0,0.0,10.0
1446038490198721618,105,1446038490193782091,robocape_mag,10.65,-10.5,18.15,10.0,0.0,0.0,0.0,10.0,0.0,0.0,0.0,10.0
1446038490231831493,106,1446038490226902961,robocape_mag,10.65,-10.5,18.15,10.0,0.0,0.0,0.0,10.0,0.0,0.0,0.0,10.0
1446038490269354368,107,1446038490264132022,robocape_mag,10.65,-10.5,18.15,10.0,0.0,0.0,0.0,10.0,0.0,0.0,0.0,10.0
1446038490298690785,108,1446038490293848037,robocape_mag,9.75,-10.2,19.65,10.0,0.0,0.0,0.0,10.0,0.0,0.0,0.0,10.0
1446038490331823493,109,1446038490326951026,robocape_mag,9.75,-10.2,19.65,10.0,0.0,0.0,0.0,10.0,0.0,0.0,0.0,10.0
1446038490365472493,110,1446038490360168933,robocape_mag,9.75,-10.2,19.65,10.0,0.0,0.0,0.0,10.0,0.0,0.0,0.0,10.0
1446038490398917785,111,1446038490393995046,robocape_mag,9.75,-10.2,19.65,10.0,0.0,0.0,0.0,10.0,0.0,0.0,0.0,10.0
1446038490431764868,112,1446038490426934003,robocape_mag,9.75,-10.2,19.65,10.0,0.0,0.0,0.0,10.0,0.0,0.0,0.0,10.0
1446038490466916243,113,1446038490460218906,robocape_mag,9.45,-10.5,17.55,10.0,0.0,0.0,0.0,10.0,0.0,0.0,0.0,10.0
1446038490498517368,114,1446038490493655920,robocape_mag,9.45,-10.5,17.55,10.0,0.0,0.0,0.0,10.0,0.0,0.0,0.0,10.0
1446038490531873743,115,1446038490527000904,robocape_mag,9.45,-10.5,17.55,10.0,0.0,0.0,0.0,10.0,0.0,0.0,0.0,10.0
1446038490565360743,116,1446038490560211896,robocape_mag,9.45,-10.5,17.55,10.0,0.0,0.0,0.0,10.0,0.0,0.0,0.0,10.0
1446038490598673618,117,1446038490593957901,robocape_mag,10.35,-10.2,17.25,10.0,0.0,0.0,0.0,10.0,0.0,0.0,0.0,10.0
1446038490631784077,118,1446038490626909971,robocape_mag,10.35,-10.2,17.25,10.0,0.0,0.0,0.0,10.0,0.0,0.0,0.0,10.0
1446038490665510535,119,1446038490660182952,robocape_mag,10.35,-10.2,17.25,10.0,0.0,0.0,0.0,10.0,0.0,0.0,0.0,10.0
1446038490698632077,120,1446038490693835020,robocape_mag,10.35,-10.2,17.25,10.0,0.0,0.0,0.0,10.0,0.0,0.0,0.0,10.0
1446038490731489618,121,1446038490726932048,robocape_mag,10.35,-10.2,17.25,10.0,0.0,0.0,0.0,10.0,0.0,0.0,0.0,10.0
1446038490764736618,122,1446038490760153055,robocape_mag,11.85,-11.7,16.95,10.0,0.0,0.0,0.0,10.0,0.0,0.0,0.0,10.0
1446038490798468035,123,1446038490793752908,robocape_mag,11.85,-11.7,16.95,10.0,0.0,0.0,0.0,10.0,0.0,0.0,0.0,10.0
1446038490831575285,124,1446038490826951026,robocape_mag,11.85,-11.7,16.95,10.0,0.0,0.0,0.0,10.0,0.0,0.0,0.0,10.0
1446038490864862952,125,1446038490860157966,robocape_mag,11.85,-11.7,16.95,10.0,0.0,0.0,0.0,10.0,0.0,0.0,0.0,10.0
1446038490899267243,126,1446038490894403934,robocape_mag,11.85,-11.7,16.95,10.0,0.0,0.0,0.0,10.0,0.0,0.0,0.0,10.0
1446038490931820118,127,1446038490927048921,robocape_mag,9.45,-10.5,18.15,10.0,0.0,0.0,0.0,10.0,0.0,0.0,0.0,10.0
1446038490964960993,128,1446038490960297107,robocape_mag,9.45,-10.5,18.15,10.0,0.0,0.0,0.0,10.0,0.0,0.0,0.0,10.0
1446038490999118535,129,1446038490994260072,robocape_mag,9.45,-10.5,18.15,10.0,0.0,0.0,0.0,10.0,0.0,0.0,0.0,10.0
1446038491031506618,130,1446038491026921033,robocape_mag,9.45,-10.5,18.15,10.0,0.0,0.0,0.0,10.0,0.0,0.0,0.0,10.0
1446038491065222577,131,1446038491060555934,robocape_mag,9.45,-10.5,18.15,10.0,0.0,0.0,0.0,10.0,0.0,0.0,0.0,10.0
1446038491099736827,132,1446038491094805002,robocape_mag,11.25,-11.7,17.55,10.0,0.0,0.0,0.0,10.0,0.0,0.0,0.0,10.0
1446038491131514660,133,1446038491126928091,robocape_mag,11.25,-11.7,17.55,10.0,0.0,0.0,0.0,10.0,0.0,0.0,0.0,10.0
1446038491165103452,134,1446038491160442113,robocape_mag,11.25,-11.7,17.55,10.0,0.0,0.0,0.0,10.0,0.0,0.0,0.0,10.0
1446038491199206619,135,1446038491194257974,robocape_mag,11.25,-11.7,17.55,10.0,0.0,0.0,0.0,10.0,0.0,0.0,0.0,10.0
1446038491231602785,136,1446038491226933956,robocape_mag,11.25,-11.7,17.55,10.0,0.0,0.0,0.0,10.0,0.0,0.0,0.0,10.0
1446038491264999077,137,1446038491260214090,robocape_mag,9.45,-11.1,18.15,10.0,0.0,0.0,0.0,10.0,0.0,0.0,0.0,10.0
1446038491298871702,138,1446038491293723106,robocape_mag,9.45,-11.1,18.15,10.0,0.0,0.0,0.0,10.0,0.0,0.0,0.0,10.0
1446038491331606869,139,1446038491326968908,robocape_mag,9.45,-11.1,18.15,10.0,0.0,0.0,0.0,10.0,0.0,0.0,0.0,10.0
1446038491364981202,140,1446038491360161066,robocape_mag,9.45,-11.1,18.15,10.0,0.0,0.0,0.0,10.0,0.0,0.0,0.0,10.0
1446038491398886452,141,1446038491393671035,robocape_mag,10.05,-11.1,17.55,10.0,0.0,0.0,0.0,10.0,0.0,0.0,0.0,10.0
1446038491431701119,142,1446038491427105903,robocape_mag,10.05,-11.1,17.55,10.0,0.0,0.0,0.0,10.0,0.0,0.0,0.0,10.0
1446038491465108785,143,1446038491460268974,robocape_mag,10.05,-11.1,17.55,10.0,0.0,0.0,0.0,10.0,0.0,0.0,0.0,10.0
1446038491498871785,144,1446038491493693113,robocape_mag,10.05,-11.1,17.55,10.0,0.0,0.0,0.0,10.0,0.0,0.0,0.0,10.0
1446038491531489577,145,1446038491526864051,robocape_mag,10.05,-11.1,17.55,10.0,0.0,0.0,0.0,10.0,0.0,0.0,0.0,10.0
1446038491564984535,146,1446038491560269117,robocape_mag,9.45,-10.5,17.55,10.0,0.0,0.0,0.0,10.0,0.0,0.0,0.0,10.0
1446038491599280327,147,1446038491594074964,robocape_mag,9.45,-10.5,17.55,10.0,0.0,0.0,0.0,10.0,0.0,0.0,0.0,10.0
1446038491631426619,148,1446038491626838922,robocape_mag,9.45,-10.5,17.55,10.0,0.0,0.0,0.0,10.0,0.0,0.0,0.0,10.0
1446038491664809035,149,1446038491660195112,robocape_mag,9.45,-10.5,17.55,10.0,0.0,0.0,0.0,10.0,0.0,0.0,0.0,10.0
1446038491698833577,150,1446038491693675994,robocape_mag,9.45,-10.5,17.55,10.0,0.0,0.0,0.0,10.0,0.0,0.0,0.0,10.0
1446038491732433535,151,1446038491726924896,robocape_mag,8.55,-10.2,17.25,10.0,0.0,0.0,0.0,10.0,0.0,0.0,0.0,10.0
1446038491764809577,152,1446038491760217905,robocape_mag,8.55,-10.2,17.25,10.0,0.0,0.0,0.0,10.0,0.0,0.0,0.0,10.0
1446038491798888952,153,1446038491793664932,robocape_mag,8.55,-10.2,17.25,10.0,0.0,0.0,0.0,10.0,0.0,0.0,0.0,10.0
1446038491831613077,154,1446038491826941013,robocape_mag,8.55,-10.2,17.25,10.0,0.0,0.0,0.0,10.0,0.0,0.0,0.0,10.0
1446038491865230077,155,1446038491860438108,robocape_mag,8.55,-10.2,17.25,10.0,0.0,0.0,0.0,10.0,0.0,0.0,0.0,10.0
1446038491898984036,156,1446038491893866062,robocape_mag,11.55,-12.0,17.85,10.0,0.0,0.0,0.0,10.0,0.0,0.0,0.0,10.0
1446038491931668036,157,1446038491927011966,robocape_mag,11.55,-12.0,17.85,10.0,0.0,0.0,0.0,10.0,0.0,0.0,0.0,10.0
1446038491965095577,158,1446038491960453033,robocape_mag,11.55,-12.0,17.85,10.0,0.0,0.0,0.0,10.0,0.0,0.0,0.0,10.0
1446038491998875577,159,1446038491993766069,robocape_mag,11.55,-12.0,17.85,10.0,0.0,0.0,0.0,10.0,0.0,0.0,0.0,10.0
1446038492031800411,160,1446038492027188062,robocape_mag,11.55,-12.0,17.85,10.0,0.0,0.0,0.0,10.0,0.0,0.0,0.0,10.0
1446038492065062327,161,1446038492060446023,robocape_mag,9.15,-12.0,17.85,10.0,0.0,0.0,0.0,10.0,0.0,0.0,0.0,10.0
1446038492098821327,162,1446038492093779087,robocape_mag,9.15,-12.0,17.85,10.0,0.0,0.0,0.0,10.0,0.0,0.0,0.0,10.0
1446038492131631702,163,1446038492127032041,robocape_mag,9.15,-12.0,17.85,10.0,0.0,0.0,0.0,10.0,0.0,0.0,0.0,10.0
1446038492165623661,164,1446038492160845994,robocape_mag,9.15,-12.0,17.85,10.0,0.0,0.0,0.0,10.0,0.0,0.0,0.0,10.0
1446038492198756827,165,1446038492193794965,robocape_mag,10.35,-10.2,18.45,10.0,0.0,0.0,0.0,10.0,0.0,0.0,0.0,10.0
1446038492231905744,166,1446038492227149009,robocape_mag,10.35,-10.2,18.45,10.0,0.0,0.0,0.0,10.0,0.0,0.0,0.0,10.0
1446038492265173411,167,1446038492260220050,robocape_mag,10.35,-10.2,18.45,10.0,0.0,0.0,0.0,10.0,0.0,0.0,0.0,10.0
1446038492298835077,168,1446038492293869972,robocape_mag,10.35,-10.2,18.45,10.0,0.0,0.0,0.0,10.0,0.0,0.0,0.0,10.0
1446038492331635411,169,1446038492326961040,robocape_mag,10.35,-10.2,18.45,10.0,0.0,0.0,0.0,10.0,0.0,0.0,0.0,10.0
1446038492365489702,170,1446038492360214948,robocape_mag,10.05,-9.3,18.75,10.0,0.0,0.0,0.0,10.0,0.0,0.0,0.0,10.0
1446038492398868619,171,1446038492393888950,robocape_mag,10.05,-9.3,18.75,10.0,0.0,0.0,0.0,10.0,0.0,0.0,0.0,10.0
1446038492433012286,172,1446038492428127050,robocape_mag,10.05,-9.3,18.75,10.0,0.0,0.0,0.0,10.0,0.0,0.0,0.0,10.0
1446038492465155619,173,1446038492460225105,robocape_mag,10.05,-9.3,18.75,10.0,0.0,0.0,0.0,10.0,0.0,0.0,0.0,10.0
1446038492498912286,174,1446038492493751049,robocape_mag,10.05,-9.3,18.75,10.0,0.0,0.0,0.0,10.0,0.0,0.0,0.0,10.0
1446038492531669869,175,1446038492526968955,robocape_mag,9.15,-10.8,16.65,10.0,0.0,0.0,0.0,10.0,0.0,0.0,0.0,10.0
1446038492564973703,176,1446038492560245037,robocape_mag,9.15,-10.8,16.65,10.0,0.0,0.0,0.0,10.0,0.0,0.0,0.0,10.0
1446038492598714994,177,1446038492593745946,robocape_mag,9.15,-10.8,16.65,10.0,0.0,0.0,0.0,10.0,0.0,0.0,0.0,10.0
1446038492631538703,178,1446038492626925945,robocape_mag,9.15,-10.8,16.65,10.0,0.0,0.0,0.0,10.0,0.0,0.0,0.0,10.0
1446038492664874536,179,1446038492660161972,robocape_mag,9.15,-10.8,16.65,10.0,0.0,0.0,0.0,10.0,0.0,0.0,0.0,10.0
1446038492698866953,180,1446038492693840026,robocape_mag,10.65,-12.3,17.55,10.0,0.0,0.0,0.0,10.0,0.0,0.0,0.0,10.0
1446038492731577703,181,1446038492726948022,robocape_mag,10.65,-12.3,17.55,10.0,0.0,0.0,0.0,10.0,0.0,0.0,0.0,10.0
1446038492764862036,182,1446038492760155916,robocape_mag,10.65,-12.3,17.55,10.0,0.0,0.0,0.0,10.0,0.0,0.0,0.0,10.0
1446038492798853536,183,1446038492793776035,robocape_mag,10.65,-12.3,17.55,10.0,0.0,0.0,0.0,10.0,0.0,0.0,0.0,10.0
1446038492831618911,184,1446038492826961994,robocape_mag,10.65,-12.3,17.55,10.0,0.0,0.0,0.0,10.0,0.0,0.0,0.0,10.0
1446038492864803078,185,1446038492860147953,robocape_mag,9.45,-11.7,17.55,10.0,0.0,0.0,0.0,10.0,0.0,0.0,0.0,10.0
1446038492898937578,186,1446038492893876075,robocape_mag,9.45,-11.7,17.55,10.0,0.0,0.0,0.0,10.0,0.0,0.0,0.0,10.0
1446038492931707786,187,1446038492927077054,robocape_mag,9.45,-11.7,17.55,10.0,0.0,0.0,0.0,10.0,0.0,0.0,0.0,10.0
1446038492965206161,188,1446038492960323095,robocape_mag,9.45,-11.7,17.55,10.0,0.0,0.0,0.0,10.0,0.0,0.0,0.0,10.0
1446038492999089286,189,1446038492993961095,robocape_mag,11.55,-12.6,16.05,10.0,0.0,0.0,0.0,10.0,0.0,0.0,0.0,10.0
1446038493031674369,190,1446038493027035951,robocape_mag,11.55,-12.6,16.05,10.0,0.0,0.0,0.0,10.0,0.0,0.0,0.0,10.0
1446038493065071453,191,1446038493060369014,robocape_mag,11.55,-12.6,16.05,10.0,0.0,0.0,0.0,10.0,0.0,0.0,0.0,10.0
1446038493098698369,192,1446038493093749046,robocape_mag,11.55,-12.6,16.05,10.0,0.0,0.0,0.0,10.0,0.0,0.0,0.0,10.0
1446038493131399536,193,1446038493126794099,robocape_mag,11.55,-12.6,16.05,10.0,0.0,0.0,0.0,10.0,0.0,0.0,0.0,10.0
1446038493164929994,194,1446038493160182952,robocape_mag,8.55,-10.8,17.85,10.0,0.0,0.0,0.0,10.0,0.0,0.0,0.0,10.0
1446038493198741828,195,1446038493193696022,robocape_mag,8.55,-10.8,17.85,10.0,0.0,0.0,0.0,10.0,0.0,0.0,0.0,10.0
1446038493232481036,196,1446038493226886034,robocape_mag,8.55,-10.8,17.85,10.0,0.0,0.0,0.0,10.0,0.0,0.0,0.0,10.0
1446038493265094203,197,1446038493260216951,robocape_mag,8.55,-10.8,17.85,10.0,0.0,0.0,0.0,10.0,0.0,0.0,0.0,10.0
1446038493299161078,198,1446038493293787002,robocape_mag,8.55,-10.8,17.85,10.0,0.0,0.0,0.0,10.0,0.0,0.0,0.0,10.0
1446038493339859453,199,1446038493335135936,robocape_mag,9.15,-11.4,16.65,10.0,0.0,0.0,0.0,10.0,0.0,0.0,0.0,10.0
1446038493364767786,200,1446038493360155105,robocape_mag,9.15,-11.4,16.65,10.0,0.0,0.0,0.0,10.0,0.0,0.0,0.0,10.0
1446038493398638370,201,1446038493393666982,robocape_mag,9.15,-11.4,16.65,10.0,0.0,0.0,0.0,10.0,0.0,0.0,0.0,10.0
1446038493431690953,202,1446038493426970005,robocape_mag,9.15,-11.4,16.65,10.0,0.0,0.0,0.0,10.0,0.0,0.0,0.0,10.0
1446038493465190328,203,1446038493460222959,robocape_mag,9.15,-11.4,16.65,10.0,0.0,0.0,0.0,10.0,0.0,0.0,0.0,10.0
1446038493498961703,204,1446038493493921995,robocape_mag,10.35,-12.6,16.65,10.0,0.0,0.0,0.0,10.0,0.0,0.0,0.0,10.0
1446038493531558703,205,1446038493526968955,robocape_mag,10.35,-12.6,16.65,10.0,0.0,0.0,0.0,10.0,0.0,0.0,0.0,10.0
1446038493576008120,206,1446038493571402072,robocape_mag,10.35,-12.6,16.65,10.0,0.0,0.0,0.0,10.0,0.0,0.0,0.0,10.0
1446038493599198703,207,1446038493594013929,robocape_mag,10.35,-12.6,16.65,10.0,0.0,0.0,0.0,10.0,0.0,0.0,0.0,10.0
1446038493631539328,208,1446038493626951932,robocape_mag,10.35,-12.6,16.65,10.0,0.0,0.0,0.0,10.0,0.0,0.0,0.0,10.0
1446038493664771453,209,1446038493660168886,robocape_mag,10.35,-10.8,17.25,10.0,0.0,0.0,0.0,10.0,0.0,0.0,0.0,10.0
1446038493698789328,210,1446038493693619012,robocape_mag,10.35,-10.8,17.25,10.0,0.0,0.0,0.0,10.0,0.0,0.0,0.0,10.0
1446038493731562036,211,1446038493726963996,robocape_mag,10.35,-10.8,17.25,10.0,0.0,0.0,0.0,10.0,0.0,0.0,0.0,10.0
1446038493764850745,212,1446038493760159969,robocape_mag,10.35,-10.8,17.25,10.0,0.0,0.0,0.0,10.0,0.0,0.0,0.0,10.0
1446038493805582286,213,1446038493793751955,robocape_mag,9.45,-11.1,18.15,10.0,0.0,0.0,0.0,10.0,0.0,0.0,0.0,10.0
1446038493833552120,214,1446038493828608036,robocape_mag,9.45,-11.1,18.15,10.0,0.0,0.0,0.0,10.0,0.0,0.0,0.0,10.0
1446038493867056036,215,1446038493861876964,robocape_mag,9.45,-11.1,18.15,10.0,0.0,0.0,0.0,10.0,0.0,0.0,0.0,10.0
1446038493900485120,216,1446038493895076990,robocape_mag,9.45,-11.1,18.15,10.0,0.0,0.0,0.0,10.0,0.0,0.0,0.0,10.0
1446038493933234787,217,1446038493928308963,robocape_mag,9.45,-11.1,18.15,10.0,0.0,0.0,0.0,10.0,0.0,0.0,0.0,10.0
1446038493966694078,218,1446038493961544990,robocape_mag,9.45,-10.5,16.95,10.0,0.0,0.0,0.0,10.0,0.0,0.0,0.0,10.0
1446038494001844287,219,1446038493994900941,robocape_mag,9.45,-10.5,16.95,10.0,0.0,0.0,0.0,10.0,0.0,0.0,0.0,10.0
1446038494032683912,220,1446038494027755975,robocape_mag,9.45,-10.5,16.95,10.0,0.0,0.0,0.0,10.0,0.0,0.0,0.0,10.0
1446038494066467620,221,1446038494061408996,robocape_mag,9.45,-10.5,16.95,10.0,0.0,0.0,0.0,10.0,0.0,0.0,0.0,10.0
1446038494102049578,222,1446038494094907999,robocape_mag,9.45,-10.5,16.95,10.0,0.0,0.0,0.0,10.0,0.0,0.0,0.0,10.0
1446038494133105537,223,1446038494127999067,robocape_mag,9.75,-11.4,18.45,10.0,0.0,0.0,0.0,10.0,0.0,0.0,0.0,10.0
1446038494165902995,224,1446038494161066055,robocape_mag,9.75,-11.4,18.45,10.0,0.0,0.0,0.0,10.0,0.0,0.0,0.0,10.0
1446038494200315578,225,1446038494195103883,robocape_mag,9.75,-11.4,18.45,10.0,0.0,0.0,0.0,10.0,0.0,0.0,0.0,10.0
1446038494234325537,226,1446038494227334976,robocape_mag,9.75,-11.4,18.45,10.0,0.0,0.0,0.0,10.0,0.0,0.0,0.0,10.0
1446038494265723703,227,1446038494260787010,robocape_mag,9.75,-11.4,18.45,10.0,0.0,0.0,0.0,10.0,0.0,0.0,0.0,10.0
1446038494302089078,228,1446038494294317960,robocape_mag,9.75,-12.0,19.05,10.0,0.0,0.0,0.0,10.0,0.0,0.0,0.0,10.0
1446038494334507537,229,1446038494327531099,robocape_mag,9.75,-12.0,19.05,10.0,0.0,0.0,0.0,10.0,0.0,0.0,0.0,10.0
1446038494366125745,230,1446038494361221075,robocape_mag,9.75,-12.0,19.05,10.0,0.0,0.0,0.0,10.0,0.0,0.0,0.0,10.0
1446038494399980828,231,1446038494394650936,robocape_mag,9.75,-12.0,19.05,10.0,0.0,0.0,0.0,10.0,0.0,0.0,0.0,10.0
1446038494433496870,232,1446038494428231954,robocape_mag,9.75,-12.0,19.05,10.0,0.0,0.0,0.0,10.0,0.0,0.0,0.0,10.0
1446038494467205203,233,1446038494462045907,robocape_mag,8.85,-11.7,18.15,10.0,0.0,0.0,0.0,10.0,0.0,0.0,0.0,10.0
1446038494502770828,234,1446038494495819091,robocape_mag,8.85,-11.7,18.15,10.0,0.0,0.0,0.0,10.0,0.0,0.0,0.0,10.0
1446038494532965787,235,1446038494527795076,robocape_mag,8.85,-11.7,18.15,10.0,0.0,0.0,0.0,10.0,0.0,0.0,0.0,10.0
1446038494567163912,236,1446038494562067031,robocape_mag,8.85,-11.7,18.15,10.0,0.0,0.0,0.0,10.0,0.0,0.0,0.0,10.0
1446038494601109829,237,1446038494595860958,robocape_mag,9.15,-10.2,17.85,10.0,0.0,0.0,0.0,10.0,0.0,0.0,0.0,10.0
1446038494633138287,238,1446038494628001928,robocape_mag,9.15,-10.2,17.85,10.0,0.0,0.0,0.0,10.0,0.0,0.0,0.0,10.0
1446038494668612454,239,1446038494661489963,robocape_mag,9.15,-10.2,17.85,10.0,0.0,0.0,0.0,10.0,0.0,0.0,0.0,10.0
1446038494700762412,240,1446038494695525884,robocape_mag,9.15,-10.2,17.85,10.0,0.0,0.0,0.0,10.0,0.0,0.0,0.0,10.0
1446038494732782787,241,1446038494728002071,robocape_mag,9.15,-10.2,17.85,10.0,0.0,0.0,0.0,10.0,0.0,0.0,0.0,10.0
1446038494766695329,242,1446038494761651992,robocape_mag,9.45,-12.9,16.95,10.0,0.0,0.0,0.0,10.0,0.0,0.0,0.0,10.0
1446038494799826662,243,1446038494794895887,robocape_mag,9.45,-12.9,16.95,10.0,0.0,0.0,0.0,10.0,0.0,0.0,0.0,10.0
1446038494832131995,244,1446038494827286958,robocape_mag,9.45,-12.9,16.95,10.0,0.0,0.0,0.0,10.0,0.0,0.0,0.0,10.0
1446038494865334120,245,1446038494860553026,robocape_mag,9.45,-12.9,16.95,10.0,0.0,0.0,0.0,10.0,0.0,0.0,0.0,10.0
1446038494899209370,246,1446038494894385099,robocape_mag,9.45,-12.9,16.95,10.0,0.0,0.0,0.0,10.0,0.0,0.0,0.0,10.0
1446038494931964912,247,1446038494927249908,robocape_mag,10.65,-11.7,16.35,10.0,0.0,0.0,0.0,10.0,0.0,0.0,0.0,10.0
1446038494967961995,248,1446038494961659908,robocape_mag,10.65,-11.7,16.35,10.0,0.0,0.0,0.0,10.0,0.0,0.0,0.0,10.0
1446038495000316495,249,1446038494995207071,robocape_mag,10.65,-11.7,16.35,10.0,0.0,0.0,0.0,10.0,0.0,0.0,0.0,10.0
1446038495033288370,250,1446038495028306961,robocape_mag,10.65,-11.7,16.35,10.0,0.0,0.0,0.0,10.0,0.0,0.0,0.0,10.0
1446038495068331037,251,1446038495061909914,robocape_mag,10.65,-11.7,16.35,10.0,0.0,0.0,0.0,10.0,0.0,0.0,0.0,10.0
1446038495100480454,252,1446038495095169067,robocape_mag,10.05,-12.9,16.35,10.0,0.0,0.0,0.0,10.0,0.0,0.0,0.0,10.0
1446038495133026787,253,1446038495128119945,robocape_mag,10.05,-12.9,16.35,10.0,0.0,0.0,0.0,10.0,0.0,0.0,0.0,10.0
1446038495166022912,254,1446038495161113023,robocape_mag,10.05,-12.9,16.35,10.0,0.0,0.0,0.0,10.0,0.0,0.0,0.0,10.0
1446038495199913412,255,1446038495194833040,robocape_mag,10.05,-12.9,16.35,10.0,0.0,0.0,0.0,10.0,0.0,0.0,0.0,10.0
1446038495232670079,256,1446038495227756023,robocape_mag,10.05,-12.9,16.35,10.0,0.0,0.0,0.0,10.0,0.0,0.0,0.0,10.0
1446038495266121245,257,1446038495261197090,robocape_mag,9.15,-10.8,16.65,10.0,0.0,0.0,0.0,10.0,0.0,0.0,0.0,10.0
1446038495301036454,258,1446038495294037103,robocape_mag,9.15,-10.8,16.65,10.0,0.0,0.0,0.0,10.0,0.0,0.0,0.0,10.0
1446038495333552121,259,1446038495328608989,robocape_mag,9.15,-10.8,16.65,10.0,0.0,0.0,0.0,10.0,0.0,0.0,0.0,10.0
1446038495365449746,260,1446038495360739946,robocape_mag,9.15,-10.8,16.65,10.0,0.0,0.0,0.0,10.0,0.0,0.0,0.0,10.0
1446038495399415412,261,1446038495394578933,robocape_mag,9.15,-10.2,17.85,10.0,0.0,0.0,0.0,10.0,0.0,0.0,0.0,10.0
1446038495432025454,262,1446038495427273988,robocape_mag,9.15,-10.2,17.85,10.0,0.0,0.0,0.0,10.0,0.0,0.0,0.0,10.0
1446038495466879579,263,1446038495461769104,robocape_mag,9.15,-10.2,17.85,10.0,0.0,0.0,0.0,10.0,0.0,0.0,0.0,10.0
1446038495500237954,264,1446038495495165109,robocape_mag,9.15,-10.2,17.85,10.0,0.0,0.0,0.0,10.0,0.0,0.0,0.0,10.0
1446038495533154371,265,1446038495528111934,robocape_mag,9.15,-10.2,17.85,10.0,0.0,0.0,0.0,10.0,0.0,0.0,0.0,10.0
1446038495566414162,266,1446038495561418056,robocape_mag,10.05,-11.1,16.95,10.0,0.0,0.0,0.0,10.0,0.0,0.0,0.0,10.0
1446038495601339746,267,1446038495595724105,robocape_mag,10.05,-11.1,16.95,10.0,0.0,0.0,0.0,10.0,0.0,0.0,0.0,10.0
1446038495633039537,268,1446038495628139972,robocape_mag,10.05,-11.1,16.95,10.0,0.0,0.0,0.0,10.0,0.0,0.0,0.0,10.0
1446038495665656787,269,1446038495660854101,robocape_mag,10.05,-11.1,16.95,10.0,0.0,0.0,0.0,10.0,0.0,0.0,0.0,10.0
1446038495700575454,270,1446038495694359064,robocape_mag,10.05,-11.1,16.95,10.0,0.0,0.0,0.0,10.0,0.0,0.0,0.0,10.0
1446038495732889579,271,1446038495728094100,robocape_mag,9.75,-12.6,17.85,10.0,0.0,0.0,0.0,10.0,0.0,0.0,0.0,10.0
1446038495766647496,272,1446038495761670112,robocape_mag,9.75,-12.6,17.85,10.0,0.0,0.0,0.0,10.0,0.0,0.0,0.0,10.0
1446038495801519912,273,1446038495794979095,robocape_mag,9.75,-12.6,17.85,10.0,0.0,0.0,0.0,10.0,0.0,0.0,0.0,10.0
1446038495833062621,274,1446038495828192949,robocape_mag,9.75,-12.6,17.85,10.0,0.0,0.0,0.0,10.0,0.0,0.0,0.0,10.0
1446038495866787912,275,1446038495861854076,robocape_mag,9.75,-12.6,17.85,10.0,0.0,0.0,0.0,10.0,0.0,0.0,0.0,10.0
1446038495901577496,276,1446038495895174980,robocape_mag,9.15,-10.8,17.25,10.0,0.0,0.0,0.0,10.0,0.0,0.0,0.0,10.0
1446038495933092287,277,1446038495928169965,robocape_mag,9.15,-10.8,17.25,10.0,0.0,0.0,0.0,10.0,0.0,0.0,0.0,10.0
1446038495966801454,278,1446038495961801052,robocape_mag,9.15,-10.8,17.25,10.0,0.0,0.0,0.0,10.0,0.0,0.0,0.0,10.0
1446038496001759746,279,1446038495995289087,robocape_mag,9.15,-10.8,17.25,10.0,0.0,0.0,0.0,10.0,0.0,0.0,0.0,10.0
1446038496033148913,280,1446038496028197050,robocape_mag,9.15,-10.8,17.25,10.0,0.0,0.0,0.0,10.0,0.0,0.0,0.0,10.0
1446038496066800829,281,1446038496061878919,robocape_mag,10.35,-12.0,17.85,10.0,0.0,0.0,0.0,10.0,0.0,0.0,0.0,10.0
1446038496102317246,282,1446038496095527887,robocape_mag,10.35,-12.0,17.85,10.0,0.0,0.0,0.0,10.0,0.0,0.0,0.0,10.0
1446038496134466204,283,1446038496129560947,robocape_mag,10.35,-12.0,17.85,10.0,0.0,0.0,0.0,10.0,0.0,0.0,0.0,10.0
1446038496166250246,284,1446038496161303043,robocape_mag,10.35,-12.0,17.85,10.0,0.0,0.0,0.0,10.0,0.0,0.0,0.0,10.0
1446038496200078121,285,1446038496194982051,robocape_mag,8.25,-11.7,16.95,10.0,0.0,0.0,0.0,10.0,0.0,0.0,0.0,10.0
1446038496233235079,286,1446038496228111028,robocape_mag,8.25,-11.7,16.95,10.0,0.0,0.0,0.0,10.0,0.0,0.0,0.0,10.0
1446038496267264913,287,1446038496261948108,robocape_mag,8.25,-11.7,16.95,10.0,0.0,0.0,0.0,10.0,0.0,0.0,0.0,10.0
1446038496300560329,288,1446038496294730901,robocape_mag,8.25,-11.7,16.95,10.0,0.0,0.0,0.0,10.0,0.0,0.0,0.0,10.0
1446038496332999829,289,1446038496328057050,robocape_mag,8.25,-11.7,16.95,10.0,0.0,0.0,0.0,10.0,0.0,0.0,0.0,10.0
1446038496366871704,290,1446038496361779928,robocape_mag,9.75,-11.4,16.05,10.0,0.0,0.0,0.0,10.0,0.0,0.0,0.0,10.0
1446038496399925246,291,1446038496394448041,robocape_mag,9.75,-11.4,16.05,10.0,0.0,0.0,0.0,10.0,0.0,0.0,0.0,10.0
1446038496433173163,292,1446038496428253889,robocape_mag,9.75,-11.4,16.05,10.0,0.0,0.0,0.0,10.0,0.0,0.0,0.0,10.0
1446038496465757121,293,1446038496460602045,robocape_mag,9.75,-11.4,16.05,10.0,0.0,0.0,0.0,10.0,0.0,0.0,0.0,10.0
1446038496500047788,294,1446038496494812965,robocape_mag,9.75,-11.4,16.05,10.0,0.0,0.0,0.0,10.0,0.0,0.0,0.0,10.0
1446038496531618954,295,1446038496526971101,robocape_mag,9.15,-11.4,18.45,10.0,0.0,0.0,0.0,10.0,0.0,0.0,0.0,10.0
1446038496576176454,296,1446038496566366910,robocape_mag,9.15,-11.4,18.45,10.0,0.0,0.0,0.0,10.0,0.0,0.0,0.0,10.0
1446038496605242663,297,1446038496595422983,robocape_mag,9.15,-11.4,18.45,10.0,0.0,0.0,0.0,10.0,0.0,0.0,0.0,10.0
1446038496635052204,298,1446038496630007028,robocape_mag,9.15,-11.4,18.45,10.0,0.0,0.0,0.0,10.0,0.0,0.0,0.0,10.0
1446038496667088204,299,1446038496662149906,robocape_mag,9.15,-11.4,18.45,10.0,0.0,0.0,0.0,10.0,0.0,0.0,0.0,10.0
1446038496704273705,300,1446038496697272062,robocape_mag,10.95,-10.2,17.25,10.0,0.0,0.0,0.0,10.0,0.0,0.0,0.0,10.0
1446038496734321038,301,1446038496729310989,robocape_mag,10.95,-10.2,17.25,10.0,0.0,0.0,0.0,10.0,0.0,0.0,0.0,10.0
1446038496767597205,302,1446038496761986970,robocape_mag,10.95,-10.2,17.25,10.0,0.0,0.0,0.0,10.0,0.0,0.0,0.0,10.0
1446038496811421913,303,1446038496796828031,robocape_mag,10.95,-10.2,17.25,10.0,0.0,0.0,0.0,10.0,0.0,0.0,0.0,10.0
1446038496835977413,304,1446038496830848932,robocape_mag,10.95,-10.2,17.25,10.0,0.0,0.0,0.0,10.0,0.0,0.0,0.0,10.0
1446038496875568288,305,1446038496866189002,robocape_mag,9.15,-10.8,17.25,10.0,0.0,0.0,0.0,10.0,0.0,0.0,0.0,10.0
1446038496902104830,306,1446038496896512985,robocape_mag,9.15,-10.8,17.25,10.0,0.0,0.0,0.0,10.0,0.0,0.0,0.0,10.0
1446038496935554080,307,1446038496930610895,robocape_mag,9.15,-10.8,17.25,10.0,0.0,0.0,0.0,10.0,0.0,0.0,0.0,10.0
1446038496968029163,308,1446038496963288068,robocape_mag,9.15,-10.8,17.25,10.0,0.0,0.0,0.0,10.0,0.0,0.0,0.0,10.0
1446038496998650705,309,1446038496993865013,robocape_mag,8.85,-11.1,18.15,10.0,0.0,0.0,0.0,10.0,0.0,0.0,0.0,10.0
1446038497032042580,310,1446038497027306079,robocape_mag,8.85,-11.1,18.15,10.0,0.0,0.0,0.0,10.0,0.0,0.0,0.0,10.0
1446038497065799621,311,1446038497061007976,robocape_mag,8.85,-11.1,18.15,10.0,0.0,0.0,0.0,10.0,0.0,0.0,0.0,10.0
1446038497099383663,312,1446038497094458103,robocape_mag,8.85,-11.1,18.15,10.0,0.0,0.0,0.0,10.0,0.0,0.0,0.0,10.0
1446038497133948038,313,1446038497129216909,robocape_mag,8.85,-11.1,18.15,10.0,0.0,0.0,0.0,10.0,0.0,0.0,0.0,10.0
1446038497197772246,314,1446038497160734891,robocape_mag,17.25,-15.9,18.15,10.0,0.0,0.0,0.0,10.0,0.0,0.0,0.0,10.0
1446038497221325538,315,1446038497212867975,robocape_mag,17.25,-15.9,18.15,10.0,0.0,0.0,0.0,10.0,0.0,0.0,0.0,10.0
1446038497237192330,316,1446038497232389926,robocape_mag,17.25,-15.9,18.15,10.0,0.0,0.0,0.0,10.0,0.0,0.0,0.0,10.0
1446038497265374996,317,1446038497260538101,robocape_mag,17.25,-15.9,18.15,10.0,0.0,0.0,0.0,10.0,0.0,0.0,0.0,10.0
1446038497298537746,318,1446038497293658971,robocape_mag,17.25,-15.9,18.15,10.0,0.0,0.0,0.0,10.0,0.0,0.0,0.0,10.0
1446038497332611705,319,1446038497327109098,robocape_mag,11.25,-11.1,17.55,10.0,0.0,0.0,0.0,10.0,0.0,0.0,0.0,10.0
1446038497367406621,320,1446038497360573053,robocape_mag,11.25,-11.1,17.55,10.0,0.0,0.0,0.0,10.0,0.0,0.0,0.0,10.0
1446038497398859330,321,1446038497393889904,robocape_mag,11.25,-11.1,17.55,10.0,0.0,0.0,0.0,10.0,0.0,0.0,0.0,10.0
1446038497431923372,322,1446038497427056074,robocape_mag,11.25,-11.1,17.55,10.0,0.0,0.0,0.0,10.0,0.0,0.0,0.0,10.0
1446038497465799413,323,1446038497460572004,robocape_mag,11.25,-11.1,17.55,10.0,0.0,0.0,0.0,10.0,0.0,0.0,0.0,10.0
1446038497499051538,324,1446038497493921995,robocape_mag,13.95,-13.2,19.05,10.0,0.0,0.0,0.0,10.0,0.0,0.0,0.0,10.0
1446038497531967372,325,1446038497526905059,robocape_mag,13.95,-13.2,19.05,10.0,0.0,0.0,0.0,10.0,0.0,0.0,0.0,10.0
1446038497565908163,326,1446038497560641050,robocape_mag,13.95,-13.2,19.05,10.0,0.0,0.0,0.0,10.0,0.0,0.0,0.0,10.0
1446038497598867372,327,1446038497593976974,robocape_mag,13.95,-13.2,19.05,10.0,0.0,0.0,0.0,10.0,0.0,0.0,0.0,10.0
1446038497632185913,328,1446038497627315998,robocape_mag,13.95,-13.2,19.05,10.0,0.0,0.0,0.0,10.0,0.0,0.0,0.0,10.0
1446038497665567872,329,1446038497660665988,robocape_mag,13.05,-12.3,14.55,10.0,0.0,0.0,0.0,10.0,0.0,0.0,0.0,10.0
1446038497698732622,330,1446038497693798065,robocape_mag,13.05,-12.3,14.55,10.0,0.0,0.0,0.0,10.0,0.0,0.0,0.0,10.0
1446038497731922872,331,1446038497727111101,robocape_mag,13.05,-12.3,14.55,10.0,0.0,0.0,0.0,10.0,0.0,0.0,0.0,10.0
1446038497765582205,332,1446038497760730981,robocape_mag,13.05,-12.3,14.55,10.0,0.0,0.0,0.0,10.0,0.0,0.0,0.0,10.0
1446038497798896997,333,1446038497794042110,robocape_mag,8.25,-11.1,18.15,10.0,0.0,0.0,0.0,10.0,0.0,0.0,0.0,10.0
1446038497833476997,334,1446038497828572034,robocape_mag,8.25,-11.1,18.15,10.0,0.0,0.0,0.0,10.0,0.0,0.0,0.0,10.0
1446038497866842830,335,1446038497862041950,robocape_mag,8.25,-11.1,18.15,10.0,0.0,0.0,0.0,10.0,0.0,0.0,0.0,10.0
1446038497900922622,336,1446038497894566059,robocape_mag,8.25,-11.1,18.15,10.0,0.0,0.0,0.0,10.0,0.0,0.0,0.0,10.0
1446038497933614080,337,1446038497928582906,robocape_mag,8.25,-11.1,18.15,10.0,0.0,0.0,0.0,10.0,0.0,0.0,0.0,10.0
1446038497966220538,338,1446038497961397886,robocape_mag,10.95,-10.2,16.65,10.0,0.0,0.0,0.0,10.0,0.0,0.0,0.0,10.0
1446038498002255163,339,1446038497995501041,robocape_mag,10.95,-10.2,16.65,10.0,0.0,0.0,0.0,10.0,0.0,0.0,0.0,10.0
1446038498033515038,340,1446038498028737068,robocape_mag,10.95,-10.2,16.65,10.0,0.0,0.0,0.0,10.0,0.0,0.0,0.0,10.0
1446038498076771372,341,1446038498067986011,robocape_mag,10.95,-10.2,16.65,10.0,0.0,0.0,0.0,10.0,0.0,0.0,0.0,10.0
1446038498102140914,342,1446038498096820116,robocape_mag,10.95,-10.2,16.65,10.0,0.0,0.0,0.0,10.0,0.0,0.0,0.0,10.0
1446038498134588580,343,1446038498129779100,robocape_mag,12.45,-10.5,18.15,10.0,0.0,0.0,0.0,10.0,0.0,0.0,0.0,10.0
1446038498168063789,344,1446038498163249969,robocape_mag,12.45,-10.5,18.15,10.0,0.0,0.0,0.0,10.0,0.0,0.0,0.0,10.0
1446038498200371414,345,1446038498195652008,robocape_mag,12.45,-10.5,18.15,10.0,0.0,0.0,0.0,10.0,0.0,0.0,0.0,10.0
1446038498240486122,346,1446038498231092929,robocape_mag,12.45,-10.5,18.15,10.0,0.0,0.0,0.0,10.0,0.0,0.0,0.0,10.0
1446038498274001330,347,1446038498262497901,robocape_mag,12.45,-10.5,18.15,10.0,0.0,0.0,0.0,10.0,0.0,0.0,0.0,10.0
1446038498302861622,348,1446038498297835111,robocape_mag,13.65,-12.9,18.75,10.0,0.0,0.0,0.0,10.0,0.0,0.0,0.0,10.0
1446038498335567122,349,1446038498330403089,robocape_mag,13.65,-12.9,18.75,10.0,0.0,0.0,0.0,10.0,0.0,0.0,0.0,10.0
1446038498369403955,350,1446038498364090919,robocape_mag,13.65,-12.9,18.75,10.0,0.0,0.0,0.0,10.0,0.0,0.0,0.0,10.0
1446038498405023539,351,1446038498396212100,robocape_mag,13.65,-12.9,18.75,10.0,0.0,0.0,0.0,10.0,0.0,0.0,0.0,10.0
1446038498435050664,352,1446038498429944992,robocape_mag,13.65,-12.9,18.75,10.0,0.0,0.0,0.0,10.0,0.0,0.0,0.0,10.0
1446038498471882372,353,1446038498464818954,robocape_mag,11.85,-12.3,15.75,10.0,0.0,0.0,0.0,10.0,0.0,0.0,0.0,10.0
1446038498502641122,354,1446038498497509002,robocape_mag,11.85,-12.3,15.75,10.0,0.0,0.0,0.0,10.0,0.0,0.0,0.0,10.0
1446038498535633455,355,1446038498530730962,robocape_mag,11.85,-12.3,15.75,10.0,0.0,0.0,0.0,10.0,0.0,0.0,0.0,10.0
1446038498569007497,356,1446038498564059019,robocape_mag,11.85,-12.3,15.75,10.0,0.0,0.0,0.0,10.0,0.0,0.0,0.0,10.0
1446038498605211955,357,1446038498598412990,robocape_mag,11.85,-13.5,20.55,10.0,0.0,0.0,0.0,10.0,0.0,0.0,0.0,10.0
1446038498635584247,358,1446038498630786895,robocape_mag,11.85,-13.5,20.55,10.0,0.0,0.0,0.0,10.0,0.0,0.0,0.0,10.0
1446038498669153955,359,1446038498664177894,robocape_mag,11.85,-13.5,20.55,10.0,0.0,0.0,0.0,10.0,0.0,0.0,0.0,10.0
1446038498701531164,360,1446038498696718931,robocape_mag,11.85,-13.5,20.55,10.0,0.0,0.0,0.0,10.0,0.0,0.0,0.0,10.0
1446038498735345205,361,1446038498730586051,robocape_mag,11.85,-13.5,20.55,10.0,0.0,0.0,0.0,10.0,0.0,0.0,0.0,10.0
1446038498768452872,362,1446038498763348102,robocape_mag,16.35,-14.4,17.85,10.0,0.0,0.0,0.0,10.0,0.0,0.0,0.0,10.0
1446038498801241539,363,1446038498796302080,robocape_mag,16.35,-14.4,17.85,10.0,0.0,0.0,0.0,10.0,0.0,0.0,0.0,10.0
1446038498834788622,364,1446038498830043077,robocape_mag,16.35,-14.4,17.85,10.0,0.0,0.0,0.0,10.0,0.0,0.0,0.0,10.0
1446038498867604456,365,1446038498862412929,robocape_mag,16.35,-14.4,17.85,10.0,0.0,0.0,0.0,10.0,0.0,0.0,0.0,10.0
1446038498901488497,366,1446038498896544933,robocape_mag,16.35,-14.4,17.85,10.0,0.0,0.0,0.0,10.0,0.0,0.0,0.0,10.0
1446038498934504289,367,1446038498929672956,robocape_mag,10.35,-11.4,17.25,10.0,0.0,0.0,0.0,10.0,0.0,0.0,0.0,10.0
1446038498967029414,368,1446038498961344957,robocape_mag,10.35,-11.4,17.25,10.0,0.0,0.0,0.0,10.0,0.0,0.0,0.0,10.0
1446038499003286289,369,1446038498994128942,robocape_mag,10.35,-11.4,17.25,10.0,0.0,0.0,0.0,10.0,0.0,0.0,0.0,10.0
1446038499032842581,370,1446038499027970075,robocape_mag,10.35,-11.4,17.25,10.0,0.0,0.0,0.0,10.0,0.0,0.0,0.0,10.0
1446038499066118872,371,1446038499060762882,robocape_mag,10.35,-11.4,17.25,10.0,0.0,0.0,0.0,10.0,0.0,0.0,0.0,10.0
1446038499099123956,372,1446038499094147920,robocape_mag,10.05,-10.5,18.15,10.0,0.0,0.0,0.0,10.0,0.0,0.0,0.0,10.0
1446038499132219622,373,1446038499127429008,robocape_mag,10.05,-10.5,18.15,10.0,0.0,0.0,0.0,10.0,0.0,0.0,0.0,10.0
1446038499166070331,374,1446038499160767078,robocape_mag,10.05,-10.5,18.15,10.0,0.0,0.0,0.0,10.0,0.0,0.0,0.0,10.0
1446038499198821039,375,1446038499194003105,robocape_mag,10.05,-10.5,18.15,10.0,0.0,0.0,0.0,10.0,0.0,0.0,0.0,10.0
1446038499232351122,376,1446038499227555990,robocape_mag,10.05,-10.5,18.15,10.0,0.0,0.0,0.0,10.0,0.0,0.0,0.0,10.0
1446038499266046372,377,1446038499260777950,robocape_mag,10.05,-12.3,16.35,10.0,0.0,0.0,0.0,10.0,0.0,0.0,0.0,10.0
1446038499298754872,378,1446038499293951988,robocape_mag,10.05,-12.3,16.35,10.0,0.0,0.0,0.0,10.0,0.0,0.0,0.0,10.0
1446038499332403831,379,1446038499327382087,robocape_mag,10.05,-12.3,16.35,10.0,0.0,0.0,0.0,10.0,0.0,0.0,0.0,10.0
1446038499365938122,380,1446038499360586881,robocape_mag,10.05,-12.3,16.35,10.0,0.0,0.0,0.0,10.0,0.0,0.0,0.0,10.0
1446038499398721247,381,1446038499393979072,robocape_mag,8.85,-12.9,16.95,10.0,0.0,0.0,0.0,10.0,0.0,0.0,0.0,10.0
1446038499432153747,382,1446038499427248954,robocape_mag,8.85,-12.9,16.95,10.0,0.0,0.0,0.0,10.0,0.0,0.0,0.0,10.0
1446038499468813122,383,1446038499460623025,robocape_mag,8.85,-12.9,16.95,10.0,0.0,0.0,0.0,10.0,0.0,0.0,0.0,10.0
1446038499498565539,384,1446038499493804931,robocape_mag,8.85,-12.9,16.95,10.0,0.0,0.0,0.0,10.0,0.0,0.0,0.0,10.0
1446038499533671581,385,1446038499528760910,robocape_mag,8.85,-12.9,16.95,10.0,0.0,0.0,0.0,10.0,0.0,0.0,0.0,10.0
1446038499566829373,386,1446038499560353040,robocape_mag,10.65,-11.1,17.55,10.0,0.0,0.0,0.0,10.0,0.0,0.0,0.0,10.0
1446038499599101623,387,1446038499594125986,robocape_mag,10.65,-11.1,17.55,10.0,0.0,0.0,0.0,10.0,0.0,0.0,0.0,10.0
1446038499634289956,388,1446038499627449035,robocape_mag,10.65,-11.1,17.55,10.0,0.0,0.0,0.0,10.0,0.0,0.0,0.0,10.0
1446038499668415331,389,1446038499661330938,robocape_mag,10.65,-11.1,17.55,10.0,0.0,0.0,0.0,10.0,0.0,0.0,0.0,10.0
1446038499700615289,390,1446038499693749904,robocape_mag,10.65,-11.1,17.55,10.0,0.0,0.0,0.0,10.0,0.0,0.0,0.0,10.0
1446038499732374998,391,1446038499727368116,robocape_mag,10.65,-12.3,17.55,10.0,0.0,0.0,0.0,10.0,0.0,0.0,0.0,10.0
1446038499765974831,392,1446038499760339975,robocape_mag,10.65,-12.3,17.55,10.0,0.0,0.0,0.0,10.0,0.0,0.0,0.0,10.0
1446038499798775998,393,1446038499793742895,robocape_mag,10.65,-12.3,17.55,10.0,0.0,0.0,0.0,10.0,0.0,0.0,0.0,10.0
1446038499834464039,394,1446038499829637050,robocape_mag,10.65,-12.3,17.55,10.0,0.0,0.0,0.0,10.0,0.0,0.0,0.0,10.0
1446038499867252248,395,1446038499860429048,robocape_mag,10.65,-12.3,17.55,10.0,0.0,0.0,0.0,10.0,0.0,0.0,0.0,10.0
1446038499899538123,396,1446038499894491910,robocape_mag,10.05,-11.7,16.95,10.0,0.0,0.0,0.0,10.0,0.0,0.0,0.0,10.0
1446038499932345998,397,1446038499927438974,robocape_mag,10.05,-11.7,16.95,10.0,0.0,0.0,0.0,10.0,0.0,0.0,0.0,10.0
1446038499965672539,398,1446038499960623979,robocape_mag,10.05,-11.7,16.95,10.0,0.0,0.0,0.0,10.0,0.0,0.0,0.0,10.0
1446038499998522873,399,1446038499993696928,robocape_mag,10.05,-11.7,16.95,10.0,0.0,0.0,0.0,10.0,0.0,0.0,0.0,10.0
1446038500032151456,400,1446038500027291059,robocape_mag,10.05,-11.7,16.95,10.0,0.0,0.0,0.0,10.0,0.0,0.0,0.0,10.0
1446038500065475623,401,1446038500060441017,robocape_mag,13.95,-12.0,14.85,10.0,0.0,0.0,0.0,10.0,0.0,0.0,0.0,10.0
1446038500099166373,402,1446038500094198942,robocape_mag,13.95,-12.0,14.85,10.0,0.0,0.0,0.0,10.0,0.0,0.0,0.0,10.0
1446038500133418539,403,1446038500128678083,robocape_mag,13.95,-12.0,14.85,10.0,0.0,0.0,0.0,10.0,0.0,0.0,0.0,10.0
1446038500168696248,404,1446038500161834001,robocape_mag,13.95,-12.0,14.85,10.0,0.0,0.0,0.0,10.0,0.0,0.0,0.0,10.0
1446038500199786040,405,1446038500195050001,robocape_mag,9.45,-11.1,18.15,10.0,0.0,0.0,0.0,10.0,0.0,0.0,0.0,10.0
1446038500237546665,406,1446038500232566118,robocape_mag,9.45,-11.1,18.15,10.0,0.0,0.0,0.0,10.0,0.0,0.0,0.0,10.0
1446038500268189623,407,1446038500261857032,robocape_mag,9.45,-11.1,18.15,10.0,0.0,0.0,0.0,10.0,0.0,0.0,0.0,10.0
1446038500300827831,408,1446038500295485973,robocape_mag,9.45,-11.1,18.15,10.0,0.0,0.0,0.0,10.0,0.0,0.0,0.0,10.0
1446038500333578248,409,1446038500328237056,robocape_mag,9.45,-11.1,18.15,10.0,0.0,0.0,0.0,10.0,0.0,0.0,0.0,10.0
1446038500375154415,410,1446038500362154960,robocape_mag,9.75,-10.8,17.85,10.0,0.0,0.0,0.0,10.0,0.0,0.0,0.0,10.0
1446038500401985248,411,1446038500395596981,robocape_mag,9.75,-10.8,17.85,10.0,0.0,0.0,0.0,10.0,0.0,0.0,0.0,10.0
1446038500434223081,412,1446038500429138898,robocape_mag,9.75,-10.8,17.85,10.0,0.0,0.0,0.0,10.0,0.0,0.0,0.0,10.0
1446038500469433790,413,1446038500463923931,robocape_mag,9.75,-10.8,17.85,10.0,0.0,0.0,0.0,10.0,0.0,0.0,0.0,10.0
1446038500504536373,414,1446038500495896100,robocape_mag,9.75,-10.8,17.85,10.0,0.0,0.0,0.0,10.0,0.0,0.0,0.0,10.0
1446038500537818456,415,1446038500530026912,robocape_mag,8.55,-11.4,17.85,10.0,0.0,0.0,0.0,10.0,0.0,0.0,0.0,10.0
1446038500571465706,416,1446038500563446998,robocape_mag,8.55,-11.4,17.85,10.0,0.0,0.0,0.0,10.0,0.0,0.0,0.0,10.0
1446038500604194290,417,1446038500596600055,robocape_mag,8.55,-11.4,17.85,10.0,0.0,0.0,0.0,10.0,0.0,0.0,0.0,10.0
1446038500641196540,418,1446038500631531953,robocape_mag,8.55,-11.4,17.85,10.0,0.0,0.0,0.0,10.0,0.0,0.0,0.0,10.0
1446038500669904373,419,1446038500664208889,robocape_mag,8.55,-11.4,17.85,10.0,0.0,0.0,0.0,10.0,0.0,0.0,0.0,10.0
1446038500702630248,420,1446038500697499990,robocape_mag,15.15,-14.4,18.45,10.0,0.0,0.0,0.0,10.0,0.0,0.0,0.0,10.0
1446038500737487081,421,1446038500732261896,robocape_mag,15.15,-14.4,18.45,10.0,0.0,0.0,0.0,10.0,0.0,0.0,0.0,10.0
1446038500774037581,422,1446038500764844894,robocape_mag,15.15,-14.4,18.45,10.0,0.0,0.0,0.0,10.0,0.0,0.0,0.0,10.0
1446038500808558123,423,1446038500799031019,robocape_mag,15.15,-14.4,18.45,10.0,0.0,0.0,0.0,10.0,0.0,0.0,0.0,10.0
1446038500836641998,424,1446038500831648111,robocape_mag,15.15,-14.4,16.65,10.0,0.0,0.0,0.0,10.0,0.0,0.0,0.0,10.0
1446038500870171456,425,1446038500863280057,robocape_mag,11.55,-13.2,16.65,10.0,0.0,0.0,0.0,10.0,0.0,0.0,0.0,10.0
1446038500903960207,426,1446038500898403882,robocape_mag,11.55,-13.2,16.65,10.0,0.0,0.0,0.0,10.0,0.0,0.0,0.0,10.0
1446038500935732832,427,1446038500930924892,robocape_mag,11.55,-13.2,16.65,10.0,0.0,0.0,0.0,10.0,0.0,0.0,0.0,10.0
1446038500970430665,428,1446038500963663101,robocape_mag,11.55,-13.2,16.65,10.0,0.0,0.0,0.0,10.0,0.0,0.0,0.0,10.0
1446038501000833498,429,1446038500995645046,robocape_mag,13.35,-14.4,21.45,10.0,0.0,0.0,0.0,10.0,0.0,0.0,0.0,10.0
1446038501035274540,430,1446038501030270099,robocape_mag,13.35,-14.4,21.45,10.0,0.0,0.0,0.0,10.0,0.0,0.0,0.0,10.0
1446038501067326748,431,1446038501062407016,robocape_mag,13.35,-14.4,21.45,10.0,0.0,0.0,0.0,10.0,0.0,0.0,0.0,10.0
1446038501102550540,432,1446038501097594022,robocape_mag,13.35,-14.4,21.45,10.0,0.0,0.0,0.0,10.0,0.0,0.0,0.0,10.0
1446038501134865540,433,1446038501129781007,robocape_mag,13.35,-14.4,21.45,10.0,0.0,0.0,0.0,10.0,0.0,0.0,0.0,10.0
1446038501166958957,434,1446038501162112951,robocape_mag,16.05,-14.7,21.15,10.0,0.0,0.0,0.0,10.0,0.0,0.0,0.0,10.0
1446038501200747290,435,1446038501195914030,robocape_mag,16.05,-14.7,21.15,10.0,0.0,0.0,0.0,10.0,0.0,0.0,0.0,10.0
1446038501234216832,436,1446038501229197978,robocape_mag,16.05,-14.7,21.15,10.0,0.0,0.0,0.0,10.0,0.0,0.0,0.0,10.0
1446038501266425207,437,1446038501261348009,robocape_mag,16.05,-14.7,21.15,10.0,0.0,0.0,0.0,10.0,0.0,0.0,0.0,10.0
1446038501300188707,438,1446038501295012950,robocape_mag,16.05,-14.7,21.15,10.0,0.0,0.0,0.0,10.0,0.0,0.0,0.0,10.0
1446038501333074290,439,1446038501328306913,robocape_mag,7.35,-10.2,18.45,10.0,0.0,0.0,0.0,10.0,0.0,0.0,0.0,10.0
1446038501365630040,440,1446038501360716104,robocape_mag,7.35,-10.2,18.45,10.0,0.0,0.0,0.0,10.0,0.0,0.0,0.0,10.0
1446038501399456082,441,1446038501393989086,robocape_mag,7.35,-10.2,18.45,10.0,0.0,0.0,0.0,10.0,0.0,0.0,0.0,10.0
1446038501432527207,442,1446038501427639007,robocape_mag,7.35,-10.2,18.45,10.0,0.0,0.0,0.0,10.0,0.0,0.0,0.0,10.0
1446038501465472165,443,1446038501460582971,robocape_mag,7.35,-10.2,18.45,10.0,0.0,0.0,0.0,10.0,0.0,0.0,0.0,10.0
1446038501498915082,444,1446038501493762016,robocape_mag,8.25,-12.9,19.35,10.0,0.0,0.0,0.0,10.0,0.0,0.0,0.0,10.0
1446038501532695790,445,1446038501527520895,robocape_mag,8.25,-12.9,19.35,10.0,0.0,0.0,0.0,10.0,0.0,0.0,0.0,10.0
1446038501565315332,446,1446038501560451984,robocape_mag,8.25,-12.9,19.35,10.0,0.0,0.0,0.0,10.0,0.0,0.0,0.0,10.0
1446038501601407624,447,1446038501594279050,robocape_mag,8.25,-12.9,19.35,10.0,0.0,0.0,0.0,10.0,0.0,0.0,0.0,10.0
1446038501632637332,448,1446038501627398967,robocape_mag,8.25,-12.9,19.35,10.0,0.0,0.0,0.0,10.0,0.0,0.0,0.0,10.0
1446038501665692582,449,1446038501660763025,robocape_mag,11.25,-10.5,18.15,10.0,0.0,0.0,0.0,10.0,0.0,0.0,0.0,10.0
1446038501698684832,450,1446038501693871974,robocape_mag,11.25,-10.5,18.15,10.0,0.0,0.0,0.0,10.0,0.0,0.0,0.0,10.0
1446038501732372207,451,1446038501727274894,robocape_mag,11.25,-10.5,18.15,10.0,0.0,0.0,0.0,10.0,0.0,0.0,0.0,10.0
1446038501765586957,452,1446038501760580062,robocape_mag,11.25,-10.5,18.15,10.0,0.0,0.0,0.0,10.0,0.0,0.0,0.0,10.0
1446038501799831832,453,1446038501794811964,robocape_mag,11.85,-12.3,16.95,10.0,0.0,0.0,0.0,10.0,0.0,0.0,0.0,10.0
1446038501832820874,454,1446038501827647924,robocape_mag,11.85,-12.3,16.95,10.0,0.0,0.0,0.0,10.0,0.0,0.0,0.0,10.0
1446038501865605249,455,1446038501860670089,robocape_mag,11.85,-12.3,16.95,10.0,0.0,0.0,0.0,10.0,0.0,0.0,0.0,10.0
1446038501899880165,456,1446038501894625902,robocape_mag,11.85,-12.3,16.95,10.0,0.0,0.0,0.0,10.0,0.0,0.0,0.0,10.0
1446038501933470999,457,1446038501927181959,robocape_mag,11.85,-12.3,16.95,10.0,0.0,0.0,0.0,10.0,0.0,0.0,0.0,10.0
1446038501967641290,458,1446038501960570096,robocape_mag,11.55,-12.6,18.45,10.0,0.0,0.0,0.0,10.0,0.0,0.0,0.0,10.0
1446038502000944457,459,1446038501993983983,robocape_mag,11.55,-12.6,18.45,10.0,0.0,0.0,0.0,10.0,0.0,0.0,0.0,10.0
1446038502033649332,460,1446038502026952981,robocape_mag,11.55,-12.6,18.45,10.0,0.0,0.0,0.0,10.0,0.0,0.0,0.0,10.0
1446038502065644957,461,1446038502060384035,robocape_mag,11.55,-12.6,18.45,10.0,0.0,0.0,0.0,10.0,0.0,0.0,0.0,10.0
1446038502101561540,462,1446038502093920946,robocape_mag,11.55,-12.6,18.45,10.0,0.0,0.0,0.0,10.0,0.0,0.0,0.0,10.0
1446038502132629124,463,1446038502126974105,robocape_mag,13.35,-8.4,17.25,10.0,0.0,0.0,0.0,10.0,0.0,0.0,0.0,10.0
1446038502165665874,464,1446038502160412073,robocape_mag,13.35,-8.4,17.25,10.0,0.0,0.0,0.0,10.0,0.0,0.0,0.0,10.0
1446038502199093249,465,1446038502193896055,robocape_mag,13.35,-8.4,17.25,10.0,0.0,0.0,0.0,10.0,0.0,0.0,0.0,10.0
1446038502234530374,466,1446038502227001905,robocape_mag,13.35,-8.4,17.25,10.0,0.0,0.0,0.0,10.0,0.0,0.0,0.0,10.0
1446038502265620707,467,1446038502260555982,robocape_mag,13.35,-8.4,17.25,10.0,0.0,0.0,0.0,10.0,0.0,0.0,0.0,10.0
1446038502300960999,468,1446038502293893098,robocape_mag,17.85,-11.1,18.15,10.0,0.0,0.0,0.0,10.0,0.0,0.0,0.0,10.0
1446038502332709707,469,1446038502327517032,robocape_mag,17.85,-11.1,18.15,10.0,0.0,0.0,0.0,10.0,0.0,0.0,0.0,10.0
1446038502365483874,470,1446038502360495090,robocape_mag,17.85,-11.1,18.15,10.0,0.0,0.0,0.0,10.0,0.0,0.0,0.0,10.0
1446038502398552666,471,1446038502393733024,robocape_mag,17.85,-11.1,18.15,10.0,0.0,0.0,0.0,10.0,0.0,0.0,0.0,10.0
1446038502436547666,472,1446038502430510044,robocape_mag,17.85,-11.1,18.15,10.0,0.0,0.0,0.0,10.0,0.0,0.0,0.0,10.0
1446038502465239541,473,1446038502460416078,robocape_mag,13.65,-11.7,15.15,10.0,0.0,0.0,0.0,10.0,0.0,0.0,0.0,10.0
1446038502499639582,474,1446038502494577884,robocape_mag,13.65,-11.7,15.15,10.0,0.0,0.0,0.0,10.0,0.0,0.0,0.0,10.0
1446038502533521707,475,1446038502528295993,robocape_mag,13.65,-11.7,15.15,10.0,0.0,0.0,0.0,10.0,0.0,0.0,0.0,10.0
1446038502565591291,476,1446038502560628890,robocape_mag,13.65,-11.7,15.15,10.0,0.0,0.0,0.0,10.0,0.0,0.0,0.0,10.0
1446038502603650749,477,1446038502594089031,robocape_mag,11.25,-11.1,16.95,10.0,0.0,0.0,0.0,10.0,0.0,0.0,0.0,10.0
1446038502632350416,478,1446038502627334117,robocape_mag,11.25,-11.1,16.95,10.0,0.0,0.0,0.0,10.0,0.0,0.0,0.0,10.0
1446038502666853916,479,1446038502661919116,robocape_mag,11.25,-11.1,16.95,10.0,0.0,0.0,0.0,10.0,0.0,0.0,0.0,10.0
1446038502698475916,480,1446038502693727970,robocape_mag,11.25,-11.1,16.95,10.0,0.0,0.0,0.0,10.0,0.0,0.0,0.0,10.0
1446038502731825124,481,1446038502727018117,robocape_mag,11.25,-11.1,16.95,10.0,0.0,0.0,0.0,10.0,0.0,0.0,0.0,10.0
1446038502765729499,482,1446038502760591030,robocape_mag,13.65,-13.5,18.15,10.0,0.0,0.0,0.0,10.0,0.0,0.0,0.0,10.0
1446038502798870957,483,1446038502793994903,robocape_mag,13.65,-13.5,18.15,10.0,0.0,0.0,0.0,10.0,0.0,0.0,0.0,10.0
1446038502832485374,484,1446038502827739000,robocape_mag,13.65,-13.5,18.15,10.0,0.0,0.0,0.0,10.0,0.0,0.0,0.0,10.0
1446038502866311541,485,1446038502860668897,robocape_mag,13.65,-13.5,18.15,10.0,0.0,0.0,0.0,10.0,0.0,0.0,0.0,10.0
1446038502901489874,486,1446038502896656990,robocape_mag,13.65,-13.5,18.15,10.0,0.0,0.0,0.0,10.0,0.0,0.0,0.0,10.0
1446038502932605332,487,1446038502927467107,robocape_mag,12.15,-10.8,17.85,10.0,0.0,0.0,0.0,10.0,0.0,0.0,0.0,10.0
1446038502965316666,488,1446038502960525035,robocape_mag,12.15,-10.8,17.85,10.0,0.0,0.0,0.0,10.0,0.0,0.0,0.0,10.0
1446038502998786208,489,1446038502993995904,robocape_mag,12.15,-10.8,17.85,10.0,0.0,0.0,0.0,10.0,0.0,0.0,0.0,10.0
1446038503032453083,490,1446038503027651071,robocape_mag,12.15,-10.8,17.85,10.0,0.0,0.0,0.0,10.0,0.0,0.0,0.0,10.0
1446038503065131583,491,1446038503060313940,robocape_mag,12.15,-10.8,17.85,10.0,0.0,0.0,0.0,10.0,0.0,0.0,0.0,10.0
1446038503100426624,492,1446038503093839883,robocape_mag,14.85,-11.7,17.55,10.0,0.0,0.0,0.0,10.0,0.0,0.0,0.0,10.0
1446038503134229124,493,1446038503127288103,robocape_mag,14.85,-11.7,17.55,10.0,0.0,0.0,0.0,10.0,0.0,0.0,0.0,10.0
1446038503166032291,494,1446038503160363912,robocape_mag,14.85,-11.7,17.55,10.0,0.0,0.0,0.0,10.0,0.0,0.0,0.0,10.0
1446038503200557666,495,1446038503193738937,robocape_mag,14.85,-11.7,17.55,10.0,0.0,0.0,0.0,10.0,0.0,0.0,0.0,10.0
1446038503232416458,496,1446038503227380990,robocape_mag,14.85,-11.7,17.55,10.0,0.0,0.0,0.0,10.0,0.0,0.0,0.0,10.0
1446038503265413999,497,1446038503260267019,robocape_mag,13.05,-11.1,16.95,10.0,0.0,0.0,0.0,10.0,0.0,0.0,0.0,10.0
1446038503299318499,498,1446038503293975114,robocape_mag,13.05,-11.1,16.95,10.0,0.0,0.0,0.0,10.0,0.0,0.0,0.0,10.0
1446038503332496583,499,1446038503327382087,robocape_mag,13.05,-11.1,16.95,10.0,0.0,0.0,0.0,10.0,0.0,0.0,0.0,10.0
1446038503367202374,500,1446038503360282897,robocape_mag,13.05,-11.1,16.95,10.0,0.0,0.0,0.0,10.0,0.0,0.0,0.0,10.0
1446038503398788874,501,1446038503393791913,robocape_mag,10.05,-10.5,17.55,10.0,0.0,0.0,0.0,10.0,0.0,0.0,0.0,10.0
1446038503432204458,502,1446038503427287101,robocape_mag,10.05,-10.5,17.55,10.0,0.0,0.0,0.0,10.0,0.0,0.0,0.0,10.0
1446038503465518124,503,1446038503460403919,robocape_mag,10.05,-10.5,17.55,10.0,0.0,0.0,0.0,10.0,0.0,0.0,0.0,10.0
1446038503498637249,504,1446038503493839979,robocape_mag,10.05,-10.5,17.55,10.0,0.0,0.0,0.0,10.0,0.0,0.0,0.0,10.0
1446038503532201374,505,1446038503527365922,robocape_mag,10.05,-10.5,17.55,10.0,0.0,0.0,0.0,10.0,0.0,0.0,0.0,10.0
1446038503565333999,506,1446038503560427904,robocape_mag,17.55,-13.8,18.45,10.0,0.0,0.0,0.0,10.0,0.0,0.0,0.0,10.0
1446038503600505124,507,1446038503593915939,robocape_mag,17.55,-13.8,18.45,10.0,0.0,0.0,0.0,10.0,0.0,0.0,0.0,10.0
1446038503633608208,508,1446038503628561973,robocape_mag,17.55,-13.8,18.45,10.0,0.0,0.0,0.0,10.0,0.0,0.0,0.0,10.0
1446038503666292041,509,1446038503661600112,robocape_mag,17.55,-13.8,18.45,10.0,0.0,0.0,0.0,10.0,0.0,0.0,0.0,10.0
1446038503699660833,510,1446038503694937944,robocape_mag,17.55,-13.8,18.45,10.0,0.0,0.0,0.0,10.0,0.0,0.0,0.0,10.0
1446038503734466875,511,1446038503728770971,robocape_mag,10.95,-11.4,16.65,10.0,0.0,0.0,0.0,10.0,0.0,0.0,0.0,10.0
1446038503767287833,512,1446038503762115001,robocape_mag,10.95,-11.4,16.65,10.0,0.0,0.0,0.0,10.0,0.0,0.0,0.0,10.0
1446038503802805916,513,1446038503795824050,robocape_mag,10.95,-11.4,16.65,10.0,0.0,0.0,0.0,10.0,0.0,0.0,0.0,10.0
1446038503834403166,514,1446038503829236984,robocape_mag,10.95,-11.4,16.65,10.0,0.0,0.0,0.0,10.0,0.0,0.0,0.0,10.0
1446038503867032291,515,1446038503862173080,robocape_mag,10.95,-11.4,16.65,10.0,0.0,0.0,0.0,10.0,0.0,0.0,0.0,10.0
1446038503902300833,516,1446038503897234916,robocape_mag,12.45,-11.1,15.75,10.0,0.0,0.0,0.0,10.0,0.0,0.0,0.0,10.0
1446038503936398083,517,1446038503928584098,robocape_mag,12.45,-11.1,15.75,10.0,0.0,0.0,0.0,10.0,0.0,0.0,0.0,10.0
1446038503967803000,518,1446038503962631940,robocape_mag,12.45,-11.1,15.75,10.0,0.0,0.0,0.0,10.0,0.0,0.0,0.0,10.0
1446038504006392500,519,1446038503998310089,robocape_mag,12.45,-11.1,15.75,10.0,0.0,0.0,0.0,10.0,0.0,0.0,0.0,10.0
1446038504035729000,520,1446038504030610084,robocape_mag,12.45,-11.1,15.75,10.0,0.0,0.0,0.0,10.0,0.0,0.0,0.0,10.0
1446038504074505375,521,1446038504062983989,robocape_mag,16.95,-12.0,16.65,10.0,0.0,0.0,0.0,10.0,0.0,0.0,0.0,10.0
1446038504106350500,522,1446038504098294973,robocape_mag,16.95,-12.0,16.65,10.0,0.0,0.0,0.0,10.0,0.0,0.0,0.0,10.0
1446038504138055958,523,1446038504131331920,robocape_mag,16.95,-12.0,16.65,10.0,0.0,0.0,0.0,10.0,0.0,0.0,0.0,10.0
1446038504172565541,524,1446038504163804054,robocape_mag,16.95,-12.0,16.65,10.0,0.0,0.0,0.0,10.0,0.0,0.0,0.0,10.0
1446038504205850375,525,1446038504196994066,robocape_mag,13.35,-10.2,16.65,10.0,0.0,0.0,0.0,10.0,0.0,0.0,0.0,10.0
