%time,field.header.seq,field.header.stamp,field.header.frame_id,field.magnetic_field.x,field.magnetic_field.y,field.magnetic_field.z,field.magnetic_field_covariance0,field.magnetic_field_covariance1,field.magnetic_field_covariance2,field.magnetic_field_covariance3,field.magnetic_field_covariance4,field.magnetic_field_covariance5,field.magnetic_field_covariance6,field.magnetic_field_covariance7,field.magnetic_field_covariance8
1446036911744994032,1,1446036911338860988,robocape_mag,15.9,-4.8,3.6,10.0,0.0,0.0,0.0,10.0,0.0,0.0,0.0,10.0
1446036911745260115,2,1446036911373250007,robocape_mag,15.9,-4.8,3.6,10.0,0.0,0.0,0.0,10.0,0.0,0.0,0.0,10.0
1446036911745297199,3,1446036911400866031,robocape_mag,15.9,-4.8,3.6,10.0,0.0,0.0,0.0,10.0,0.0,0.0,0.0,10.0
1446036911745486199,4,1446036911439531087,robocape_mag,10.8,-0.9,0.9,10.0,0.0,0.0,0.0,10.0,0.0,0.0,0.0,10.0
1446036911745525907,5,1446036911484339952,robocape_mag,10.8,-0.9,0.9,10.0,0.0,0.0,0.0,10.0,0.0,0.0,0.0,10.0
1446036911745560199,6,1446036911516161918,robocape_mag,10.8,-0.9,0.9,10.0,0.0,0.0,0.0,10.0,0.0,0.0,0.0,10.0
1446036911745632574,7,1446036911537096977,robocape_mag,10.8,-0.9,0.9,10.0,0.0,0.0,0.0,10.0,0.0,0.0,0.0,10.0
1446036911745664574,8,1446036911567214012,robocape_mag,10.8,-0.9,0.9,10.0,0.0,0.0,0.0,10.0,0.0,0.0,0.0,10.0
1446036911745734740,9,1446036911602652072,robocape_mag,8.7,-0.6,1.2,10.0,0.0,0.0,0.0,10.0,0.0,0.0,0.0,10.0
1446036911745842532,10,1446036911669183969,robocape_mag,8.7,-0.6,1.2,10.0,0.0,0.0,0.0,10.0,0.0,0.0,0.0,10.0
1446036911773966365,11,1446036911695518016,robocape_mag,8.7,-0.6,1.2,10.0,0.0,0.0,0.0,10.0,0.0,0.0,0.0,10.0
1446036911774062615,12,1446036911717643976,robocape_mag,8.7,-0.6,1.2,10.0,0.0,0.0,0.0,10.0,0.0,0.0,0.0,10.0
1446036911774153032,13,1446036911741368055,robocape_mag,8.7,-0.6,1.2,10.0,0.0,0.0,0.0,10.0,0.0,0.0,0.0,10.0
1446036911774186824,14,1446036911768381118,robocape_mag,10.8,-2.7,2.7,10.0,0.0,0.0,0.0,10.0,0.0,0.0,0.0,10.0
1446036911807698824,15,1446036911802615880,robocape_mag,10.8,-2.7,2.7,10.0,0.0,0.0,0.0,10.0,0.0,0.0,0.0,10.0
1446036911838246365,16,1446036911833182096,robocape_mag,10.8,-2.7,2.7,10.0,0.0,0.0,0.0,10.0,0.0,0.0,0.0,10.0
1446036911882290990,17,1446036911866300106,robocape_mag,10.8,-2.7,2.7,10.0,0.0,0.0,0.0,10.0,0.0,0.0,0.0,10.0
1446036911905018074,18,1446036911900254964,robocape_mag,10.8,-2.7,2.7,10.0,0.0,0.0,0.0,10.0,0.0,0.0,0.0,10.0
1446036911938707699,19,1446036911933696031,robocape_mag,12.6,-0.9,0.9,10.0,0.0,0.0,0.0,10.0,0.0,0.0,0.0,10.0
1446036911971184241,20,1446036911966417074,robocape_mag,12.6,-0.9,0.9,10.0,0.0,0.0,0.0,10.0,0.0,0.0,0.0,10.0
1446036912004881699,21,1446036912000096082,robocape_mag,12.6,-0.9,0.9,10.0,0.0,0.0,0.0,10.0,0.0,0.0,0.0,10.0
1446036912037957949,22,1446036912033225059,robocape_mag,12.6,-0.9,0.9,10.0,0.0,0.0,0.0,10.0,0.0,0.0,0.0,10.0
1446036912071143157,23,1446036912066345930,robocape_mag,12.6,-0.9,0.9,10.0,0.0,0.0,0.0,10.0,0.0,0.0,0.0,10.0
1446036912104416782,24,1446036912099472045,robocape_mag,13.2,-2.7,2.7,10.0,0.0,0.0,0.0,10.0,0.0,0.0,0.0,10.0
1446036912138966574,25,1446036912133660078,robocape_mag,13.2,-2.7,2.7,10.0,0.0,0.0,0.0,10.0,0.0,0.0,0.0,10.0
1446036912173246741,26,1446036912166398048,robocape_mag,13.2,-2.7,2.7,10.0,0.0,0.0,0.0,10.0,0.0,0.0,0.0,10.0
1446036912204920157,27,1446036912199904918,robocape_mag,13.2,-2.7,2.7,10.0,0.0,0.0,0.0,10.0,0.0,0.0,0.0,10.0
1446036912237956116,28,1446036912232943058,robocape_mag,13.2,-2.7,2.7,10.0,0.0,0.0,0.0,10.0,0.0,0.0,0.0,10.0
1446036912271634449,29,1446036912266191005,robocape_mag,16.2,-4.5,2.7,10.0,0.0,0.0,0.0,10.0,0.0,0.0,0.0,10.0
1446036912304970532,30,1446036912299676895,robocape_mag,16.2,-4.5,2.7,10.0,0.0,0.0,0.0,10.0,0.0,0.0,0.0,10.0
1446036912338170491,31,1446036912332894086,robocape_mag,16.2,-4.5,2.7,10.0,0.0,0.0,0.0,10.0,0.0,0.0,0.0,10.0
1446036912372011866,32,1446036912366077899,robocape_mag,16.2,-4.5,2.7,10.0,0.0,0.0,0.0,10.0,0.0,0.0,0.0,10.0
1446036912405001407,33,1446036912399807929,robocape_mag,15.9,-3.6,5.4,10.0,0.0,0.0,0.0,10.0,0.0,0.0,0.0,10.0
1446036912438247157,34,1446036912433057069,robocape_mag,15.9,-3.6,5.4,10.0,0.0,0.0,0.0,10.0,0.0,0.0,0.0,10.0
1446036912471105657,35,1446036912466247081,robocape_mag,15.9,-3.6,5.4,10.0,0.0,0.0,0.0,10.0,0.0,0.0,0.0,10.0
1446036912505080366,36,1446036912500013113,robocape_mag,15.9,-3.6,5.4,10.0,0.0,0.0,0.0,10.0,0.0,0.0,0.0,10.0
1446036912537973949,37,1446036912533155918,robocape_mag,15.9,-3.6,5.4,10.0,0.0,0.0,0.0,10.0,0.0,0.0,0.0,10.0
1446036912571178949,38,1446036912566363096,robocape_mag,11.7,-2.4,2.4,10.0,0.0,0.0,0.0,10.0,0.0,0.0,0.0,10.0
1446036912607628199,39,1446036912600759983,robocape_mag,11.7,-2.4,2.4,10.0,0.0,0.0,0.0,10.0,0.0,0.0,0.0,10.0
1446036912640369783,40,1446036912635221958,robocape_mag,11.7,-2.4,2.4,10.0,0.0,0.0,0.0,10.0,0.0,0.0,0.0,10.0
1446036912672522074,41,1446036912667738914,robocape_mag,11.7,-2.4,2.4,10.0,0.0,0.0,0.0,10.0,0.0,0.0,0.0,10.0
1446036912705300116,42,1446036912700370073,robocape_mag,11.7,-2.4,2.4,10.0,0.0,0.0,0.0,10.0,0.0,0.0,0.0,10.0
1446036912739394574,43,1446036912734572887,robocape_mag,13.5,-1.8,1.8,10.0,0.0,0.0,0.0,10.0,0.0,0.0,0.0,10.0
1446036912773203699,44,1446036912768022060,robocape_mag,13.5,-1.8,1.8,10.0,0.0,0.0,0.0,10.0,0.0,0.0,0.0,10.0
1446036912810036908,45,1446036912801616907,robocape_mag,13.5,-1.8,1.8,10.0,0.0,0.0,0.0,10.0,0.0,0.0,0.0,10.0
1446036912840362533,46,1446036912835220098,robocape_mag,13.5,-1.8,1.8,10.0,0.0,0.0,0.0,10.0,0.0,0.0,0.0,10.0
1446036912876968616,47,1446036912871390104,robocape_mag,13.5,-1.8,1.8,10.0,0.0,0.0,0.0,10.0,0.0,0.0,0.0,10.0
1446036912906735949,48,1446036912901226997,robocape_mag,14.7,-4.8,3.0,10.0,0.0,0.0,0.0,10.0,0.0,0.0,0.0,10.0
1446036912940315866,49,1446036912934971094,robocape_mag,14.7,-4.8,3.0,10.0,0.0,0.0,0.0,10.0,0.0,0.0,0.0,10.0
1446036912974393616,50,1446036912969429969,robocape_mag,14.7,-4.8,3.0,10.0,0.0,0.0,0.0,10.0,0.0,0.0,0.0,10.0
1446036913010062158,51,1446036913003758907,robocape_mag,14.7,-4.8,3.0,10.0,0.0,0.0,0.0,10.0,0.0,0.0,0.0,10.0
1446036913043125074,52,1446036913035813093,robocape_mag,14.7,-4.8,3.0,10.0,0.0,0.0,0.0,10.0,0.0,0.0,0.0,10.0
1446036913075392366,53,1446036913070424079,robocape_mag,18.3,-4.8,0.6,10.0,0.0,0.0,0.0,10.0,0.0,0.0,0.0,10.0
1446036913110471783,54,1446036913105217933,robocape_mag,18.3,-4.8,0.6,10.0,0.0,0.0,0.0,10.0,0.0,0.0,0.0,10.0
1446036913145466533,55,1446036913136903047,robocape_mag,18.3,-4.8,0.6,10.0,0.0,0.0,0.0,10.0,0.0,0.0,0.0,10.0
1446036913174943241,56,1446036913169737100,robocape_mag,18.3,-4.8,0.6,10.0,0.0,0.0,0.0,10.0,0.0,0.0,0.0,10.0
1446036913211626658,57,1446036913203319072,robocape_mag,12.9,-2.4,0.6,10.0,0.0,0.0,0.0,10.0,0.0,0.0,0.0,10.0
1446036913243132741,58,1446036913237894058,robocape_mag,12.9,-2.4,0.6,10.0,0.0,0.0,0.0,10.0,0.0,0.0,0.0,10.0
1446036913277999699,59,1446036913270212888,robocape_mag,12.9,-2.4,0.6,10.0,0.0,0.0,0.0,10.0,0.0,0.0,0.0,10.0
1446036913313087616,60,1446036913302990913,robocape_mag,12.9,-2.4,0.6,10.0,0.0,0.0,0.0,10.0,0.0,0.0,0.0,10.0
1446036913346235450,61,1446036913335947036,robocape_mag,12.9,-2.4,0.6,10.0,0.0,0.0,0.0,10.0,0.0,0.0,0.0,10.0
1446036913374595158,62,1446036913369416952,robocape_mag,13.2,-1.5,2.1,10.0,0.0,0.0,0.0,10.0,0.0,0.0,0.0,10.0
1446036913407626825,63,1446036913402535915,robocape_mag,13.2,-1.5,2.1,10.0,0.0,0.0,0.0,10.0,0.0,0.0,0.0,10.0
1446036913442348575,64,1446036913436379909,robocape_mag,13.2,-1.5,2.1,10.0,0.0,0.0,0.0,10.0,0.0,0.0,0.0,10.0
1446036913474297408,65,1446036913469264030,robocape_mag,13.2,-1.5,2.1,10.0,0.0,0.0,0.0,10.0,0.0,0.0,0.0,10.0
1446036913508163200,66,1446036913502855062,robocape_mag,13.2,-1.5,2.1,10.0,0.0,0.0,0.0,10.0,0.0,0.0,0.0,10.0
1446036913541536075,67,1446036913536328077,robocape_mag,12.0,-0.9,2.1,10.0,0.0,0.0,0.0,10.0,0.0,0.0,0.0,10.0
1446036913573933908,68,1446036913568876028,robocape_mag,12.0,-0.9,2.1,10.0,0.0,0.0,0.0,10.0,0.0,0.0,0.0,10.0
1446036913607177325,69,1446036913602191925,robocape_mag,12.0,-0.9,2.1,10.0,0.0,0.0,0.0,10.0,0.0,0.0,0.0,10.0
1446036913642096908,70,1446036913634308099,robocape_mag,12.0,-0.9,2.1,10.0,0.0,0.0,0.0,10.0,0.0,0.0,0.0,10.0
1446036913672402616,71,1446036913667464017,robocape_mag,12.0,-0.9,2.1,10.0,0.0,0.0,0.0,10.0,0.0,0.0,0.0,10.0
1446036913705815408,72,1446036913700886964,robocape_mag,10.8,-0.9,0.9,10.0,0.0,0.0,0.0,10.0,0.0,0.0,0.0,10.0
1446036913739445616,73,1446036913734074115,robocape_mag,10.8,-0.9,0.9,10.0,0.0,0.0,0.0,10.0,0.0,0.0,0.0,10.0
1446036913774030825,74,1446036913769208908,robocape_mag,10.8,-0.9,0.9,10.0,0.0,0.0,0.0,10.0,0.0,0.0,0.0,10.0
1446036913805500616,75,1446036913800458908,robocape_mag,10.8,-0.9,0.9,10.0,0.0,0.0,0.0,10.0,0.0,0.0,0.0,10.0
1446036913839525866,76,1446036913833137989,robocape_mag,10.8,-0.9,0.9,10.0,0.0,0.0,0.0,10.0,0.0,0.0,0.0,10.0
1446036913871533575,77,1446036913866709947,robocape_mag,11.1,-1.8,1.2,10.0,0.0,0.0,0.0,10.0,0.0,0.0,0.0,10.0
1446036913904924825,78,1446036913899888038,robocape_mag,11.1,-1.8,1.2,10.0,0.0,0.0,0.0,10.0,0.0,0.0,0.0,10.0
1446036913938452866,79,1446036913932959079,robocape_mag,11.1,-1.8,1.2,10.0,0.0,0.0,0.0,10.0,0.0,0.0,0.0,10.0
1446036913971660825,80,1446036913966819047,robocape_mag,11.1,-1.8,1.2,10.0,0.0,0.0,0.0,10.0,0.0,0.0,0.0,10.0
1446036914009714033,81,1446036913999658107,robocape_mag,13.5,-1.8,4.2,10.0,0.0,0.0,0.0,10.0,0.0,0.0,0.0,10.0
1446036914038932700,82,1446036914033195018,robocape_mag,13.5,-1.8,4.2,10.0,0.0,0.0,0.0,10.0,0.0,0.0,0.0,10.0
1446036914071312408,83,1446036914066315889,robocape_mag,13.5,-1.8,4.2,10.0,0.0,0.0,0.0,10.0,0.0,0.0,0.0,10.0
1446036914109654617,84,1446036914099936962,robocape_mag,13.5,-1.8,4.2,10.0,0.0,0.0,0.0,10.0,0.0,0.0,0.0,10.0
1446036914139571075,85,1446036914133160114,robocape_mag,13.5,-1.8,4.2,10.0,0.0,0.0,0.0,10.0,0.0,0.0,0.0,10.0
1446036914171799908,86,1446036914166836023,robocape_mag,15.6,-4.5,3.9,10.0,0.0,0.0,0.0,10.0,0.0,0.0,0.0,10.0
1446036914205604117,87,1446036914199805974,robocape_mag,15.6,-4.5,3.9,10.0,0.0,0.0,0.0,10.0,0.0,0.0,0.0,10.0
1446036914237957492,88,1446036914232944011,robocape_mag,15.6,-4.5,3.9,10.0,0.0,0.0,0.0,10.0,0.0,0.0,0.0,10.0
1446036914271090200,89,1446036914266246080,robocape_mag,15.6,-4.5,3.9,10.0,0.0,0.0,0.0,10.0,0.0,0.0,0.0,10.0
1446036914306624075,90,1446036914300198078,robocape_mag,15.6,-4.5,3.9,10.0,0.0,0.0,0.0,10.0,0.0,0.0,0.0,10.0
1446036914337926117,91,1446036914333093881,robocape_mag,16.8,-5.1,3.9,10.0,0.0,0.0,0.0,10.0,0.0,0.0,0.0,10.0
1446036914370858117,92,1446036914366060972,robocape_mag,16.8,-5.1,3.9,10.0,0.0,0.0,0.0,10.0,0.0,0.0,0.0,10.0
1446036914404637825,93,1446036914399504899,robocape_mag,16.8,-5.1,3.9,10.0,0.0,0.0,0.0,10.0,0.0,0.0,0.0,10.0
1446036914437843825,94,1446036914432878017,robocape_mag,16.8,-5.1,3.9,10.0,0.0,0.0,0.0,10.0,0.0,0.0,0.0,10.0
1446036914473073658,95,1446036914466315031,robocape_mag,16.8,-5.1,3.9,10.0,0.0,0.0,0.0,10.0,0.0,0.0,0.0,10.0
1446036914505017075,96,1446036914499685049,robocape_mag,12.0,-2.7,0.9,10.0,0.0,0.0,0.0,10.0,0.0,0.0,0.0,10.0
1446036914537750992,97,1446036914532766103,robocape_mag,12.0,-2.7,0.9,10.0,0.0,0.0,0.0,10.0,0.0,0.0,0.0,10.0
1446036914571542200,98,1446036914566513061,robocape_mag,12.0,-2.7,0.9,10.0,0.0,0.0,0.0,10.0,0.0,0.0,0.0,10.0
1446036914604632117,99,1446036914599540948,robocape_mag,12.0,-2.7,0.9,10.0,0.0,0.0,0.0,10.0,0.0,0.0,0.0,10.0
1446036914638349575,100,1446036914632838964,robocape_mag,12.0,-2.7,0.9,10.0,0.0,0.0,0.0,10.0,0.0,0.0,0.0,10.0
1446036914671548617,101,1446036914666332960,robocape_mag,14.1,-4.2,3.6,10.0,0.0,0.0,0.0,10.0,0.0,0.0,0.0,10.0
1446036914704943367,102,1446036914699820041,robocape_mag,14.1,-4.2,3.6,10.0,0.0,0.0,0.0,10.0,0.0,0.0,0.0,10.0
1446036914737957575,103,1446036914732937097,robocape_mag,14.1,-4.2,3.6,10.0,0.0,0.0,0.0,10.0,0.0,0.0,0.0,10.0
1446036914772297325,104,1446036914767446041,robocape_mag,14.1,-4.2,3.6,10.0,0.0,0.0,0.0,10.0,0.0,0.0,0.0,10.0
1446036914804851284,105,1446036914799792051,robocape_mag,9.3,-3.0,2.4,10.0,0.0,0.0,0.0,10.0,0.0,0.0,0.0,10.0
1446036914837971784,106,1446036914832986116,robocape_mag,9.3,-3.0,2.4,10.0,0.0,0.0,0.0,10.0,0.0,0.0,0.0,10.0
1446036914871229992,107,1446036914866364955,robocape_mag,9.3,-3.0,2.4,10.0,0.0,0.0,0.0,10.0,0.0,0.0,0.0,10.0
1446036914904564492,108,1446036914899671077,robocape_mag,9.3,-3.0,2.4,10.0,0.0,0.0,0.0,10.0,0.0,0.0,0.0,10.0
1446036914939129075,109,1446036914934276103,robocape_mag,9.3,-3.0,2.4,10.0,0.0,0.0,0.0,10.0,0.0,0.0,0.0,10.0
1446036914974331659,110,1446036914967950105,robocape_mag,14.4,-6.3,2.7,10.0,0.0,0.0,0.0,10.0,0.0,0.0,0.0,10.0
1446036915005759700,111,1446036915000936031,robocape_mag,14.4,-6.3,2.7,10.0,0.0,0.0,0.0,10.0,0.0,0.0,0.0,10.0
1446036915040198784,112,1446036915034523010,robocape_mag,14.4,-6.3,2.7,10.0,0.0,0.0,0.0,10.0,0.0,0.0,0.0,10.0
1446036915071943575,113,1446036915066637039,robocape_mag,14.4,-6.3,2.7,10.0,0.0,0.0,0.0,10.0,0.0,0.0,0.0,10.0
1446036915106680742,114,1446036915101372957,robocape_mag,14.4,-6.3,2.7,10.0,0.0,0.0,0.0,10.0,0.0,0.0,0.0,10.0
1446036915142858117,115,1446036915134744882,robocape_mag,11.4,-2.7,3.3,10.0,0.0,0.0,0.0,10.0,0.0,0.0,0.0,10.0
1446036915175749700,116,1446036915167998075,robocape_mag,11.4,-2.7,3.3,10.0,0.0,0.0,0.0,10.0,0.0,0.0,0.0,10.0
1446036915206650867,117,1446036915201353073,robocape_mag,11.4,-2.7,3.3,10.0,0.0,0.0,0.0,10.0,0.0,0.0,0.0,10.0
1446036915245618450,118,1446036915236054897,robocape_mag,11.4,-2.7,3.3,10.0,0.0,0.0,0.0,10.0,0.0,0.0,0.0,10.0
1446036915281355200,119,1446036915270340919,robocape_mag,11.4,-2.7,3.3,10.0,0.0,0.0,0.0,10.0,0.0,0.0,0.0,10.0
1446036915309927242,120,1446036915301753997,robocape_mag,10.5,-2.4,-0.6,10.0,0.0,0.0,0.0,10.0,0.0,0.0,0.0,10.0
1446036915340736575,121,1446036915334813117,robocape_mag,10.5,-2.4,-0.6,10.0,0.0,0.0,0.0,10.0,0.0,0.0,0.0,10.0
1446036915379470950,122,1446036915370148897,robocape_mag,10.5,-2.4,-0.6,10.0,0.0,0.0,0.0,10.0,0.0,0.0,0.0,10.0
1446036915412795367,123,1446036915403397083,robocape_mag,10.5,-2.4,-0.6,10.0,0.0,0.0,0.0,10.0,0.0,0.0,0.0,10.0
1446036915445417617,124,1446036915436610937,robocape_mag,10.5,-5.4,3.0,10.0,0.0,0.0,0.0,10.0,0.0,0.0,0.0,10.0
1446036915479189909,125,1446036915469968080,robocape_mag,16.5,-5.4,3.0,10.0,0.0,0.0,0.0,10.0,0.0,0.0,0.0,10.0
1446036915509360534,126,1446036915503695964,robocape_mag,16.5,-5.4,3.0,10.0,0.0,0.0,0.0,10.0,0.0,0.0,0.0,10.0
1446036915545532742,127,1446036915536938905,robocape_mag,16.5,-5.4,3.0,10.0,0.0,0.0,0.0,10.0,0.0,0.0,0.0,10.0
1446036915579633576,128,1446036915569216012,robocape_mag,16.5,-5.4,3.0,10.0,0.0,0.0,0.0,10.0,0.0,0.0,0.0,10.0
1446036915610110909,129,1446036915604896068,robocape_mag,12.9,-4.2,1.2,10.0,0.0,0.0,0.0,10.0,0.0,0.0,0.0,10.0
1446036915642267992,130,1446036915637110948,robocape_mag,12.9,-4.2,1.2,10.0,0.0,0.0,0.0,10.0,0.0,0.0,0.0,10.0
1446036915674326284,131,1446036915669351100,robocape_mag,12.9,-4.2,1.2,10.0,0.0,0.0,0.0,10.0,0.0,0.0,0.0,10.0
1446036915707368826,132,1446036915702145099,robocape_mag,12.9,-4.2,1.2,10.0,0.0,0.0,0.0,10.0,0.0,0.0,0.0,10.0
1446036915746877492,133,1446036915735538005,robocape_mag,12.9,-4.2,1.2,10.0,0.0,0.0,0.0,10.0,0.0,0.0,0.0,10.0
1446036915775979701,134,1446036915771145105,robocape_mag,9.9,-1.8,1.8,10.0,0.0,0.0,0.0,10.0,0.0,0.0,0.0,10.0
1446036915809477742,135,1446036915802973985,robocape_mag,9.9,-1.8,1.8,10.0,0.0,0.0,0.0,10.0,0.0,0.0,0.0,10.0
1446036915840442242,136,1446036915835664033,robocape_mag,9.9,-1.8,1.8,10.0,0.0,0.0,0.0,10.0,0.0,0.0,0.0,10.0
1446036915875200742,137,1446036915870127916,robocape_mag,9.9,-1.8,1.8,10.0,0.0,0.0,0.0,10.0,0.0,0.0,0.0,10.0
1446036915907875034,138,1446036915902841091,robocape_mag,9.9,-1.8,1.8,10.0,0.0,0.0,0.0,10.0,0.0,0.0,0.0,10.0
1446036915940616867,139,1446036915935745954,robocape_mag,29.1,-31.2,-12.0,10.0,0.0,0.0,0.0,10.0,0.0,0.0,0.0,10.0
1446036915973778326,140,1446036915968614101,robocape_mag,29.1,-31.2,-12.0,10.0,0.0,0.0,0.0,10.0,0.0,0.0,0.0,10.0
1446036916006263784,141,1446036916001447916,robocape_mag,29.1,-31.2,-12.0,10.0,0.0,0.0,0.0,10.0,0.0,0.0,0.0,10.0
1446036916038960909,142,1446036916034096002,robocape_mag,29.1,-31.2,-12.0,10.0,0.0,0.0,0.0,10.0,0.0,0.0,0.0,10.0
1446036916072648326,143,1446036916067606925,robocape_mag,29.1,-31.2,-12.0,10.0,0.0,0.0,0.0,10.0,0.0,0.0,0.0,10.0
1446036916105265409,144,1446036916100415945,robocape_mag,2.4,-23.1,5.1,10.0,0.0,0.0,0.0,10.0,0.0,0.0,0.0,10.0
1446036916138522118,145,1446036916133652925,robocape_mag,2.4,-23.1,5.1,10.0,0.0,0.0,0.0,10.0,0.0,0.0,0.0,10.0
1446036916172454326,146,1446036916167550086,robocape_mag,2.4,-23.1,5.1,10.0,0.0,0.0,0.0,10.0,0.0,0.0,0.0,10.0
1446036916205138159,147,1446036916200160980,robocape_mag,2.4,-23.1,5.1,10.0,0.0,0.0,0.0,10.0,0.0,0.0,0.0,10.0
1446036916237875659,148,1446036916233006000,robocape_mag,2.4,-23.1,5.1,10.0,0.0,0.0,0.0,10.0,0.0,0.0,0.0,10.0
1446036916271347284,149,1446036916266514062,robocape_mag,9.0,-6.3,21.9,10.0,0.0,0.0,0.0,10.0,0.0,0.0,0.0,10.0
1446036916304694909,150,1446036916299789905,robocape_mag,9.0,-6.3,21.9,10.0,0.0,0.0,0.0,10.0,0.0,0.0,0.0,10.0
1446036916337762659,151,1446036916332904100,robocape_mag,9.0,-6.3,21.9,10.0,0.0,0.0,0.0,10.0,0.0,0.0,0.0,10.0
1446036916371443826,152,1446036916366641044,robocape_mag,9.0,-6.3,21.9,10.0,0.0,0.0,0.0,10.0,0.0,0.0,0.0,10.0
1446036916404887201,153,1446036916400052070,robocape_mag,-7.5,-0.6,16.8,10.0,0.0,0.0,0.0,10.0,0.0,0.0,0.0,10.0
1446036916437793784,154,1446036916432980060,robocape_mag,-7.5,-0.6,16.8,10.0,0.0,0.0,0.0,10.0,0.0,0.0,0.0,10.0
1446036916471427326,155,1446036916466454029,robocape_mag,-7.5,-0.6,16.8,10.0,0.0,0.0,0.0,10.0,0.0,0.0,0.0,10.0
1446036916504776284,156,1446036916499938964,robocape_mag,-7.5,-0.6,16.8,10.0,0.0,0.0,0.0,10.0,0.0,0.0,0.0,10.0
1446036916538330909,157,1446036916533550977,robocape_mag,-7.5,-0.6,16.8,10.0,0.0,0.0,0.0,10.0,0.0,0.0,0.0,10.0
1446036916571792993,158,1446036916566724061,robocape_mag,-15.0,-17.1,7.5,10.0,0.0,0.0,0.0,10.0,0.0,0.0,0.0,10.0
1446036916606476618,159,1446036916600354909,robocape_mag,-15.0,-17.1,7.5,10.0,0.0,0.0,0.0,10.0,0.0,0.0,0.0,10.0
1446036916641542118,160,1446036916636782884,robocape_mag,-15.0,-17.1,7.5,10.0,0.0,0.0,0.0,10.0,0.0,0.0,0.0,10.0
1446036916671151201,161,1446036916666380882,robocape_mag,-15.0,-17.1,7.5,10.0,0.0,0.0,0.0,10.0,0.0,0.0,0.0,10.0
1446036916706705826,162,1446036916701039075,robocape_mag,-15.0,-17.1,7.5,10.0,0.0,0.0,0.0,10.0,0.0,0.0,0.0,10.0
1446036916737923826,163,1446036916733055114,robocape_mag,-4.5,-18.6,12.6,10.0,0.0,0.0,0.0,10.0,0.0,0.0,0.0,10.0
1446036916778549409,164,1446036916773396015,robocape_mag,-4.5,-18.6,12.6,10.0,0.0,0.0,0.0,10.0,0.0,0.0,0.0,10.0
1446036916808135451,165,1446036916802923917,robocape_mag,-4.5,-18.6,12.6,10.0,0.0,0.0,0.0,10.0,0.0,0.0,0.0,10.0
1446036916841267993,166,1446036916836230993,robocape_mag,-4.5,-18.6,12.6,10.0,0.0,0.0,0.0,10.0,0.0,0.0,0.0,10.0
1446036916874782618,167,1446036916869828939,robocape_mag,-4.5,-18.6,12.6,10.0,0.0,0.0,0.0,10.0,0.0,0.0,0.0,10.0
1446036916907303910,168,1446036916902302026,robocape_mag,-9.3,-21.0,9.6,10.0,0.0,0.0,0.0,10.0,0.0,0.0,0.0,10.0
1446036916940202201,169,1446036916935277938,robocape_mag,-9.3,-21.0,9.6,10.0,0.0,0.0,0.0,10.0,0.0,0.0,0.0,10.0
1446036916977112118,170,1446036916968489885,robocape_mag,-9.3,-21.0,9.6,10.0,0.0,0.0,0.0,10.0,0.0,0.0,0.0,10.0
1446036917007502201,171,1446036917002665042,robocape_mag,-9.3,-21.0,9.6,10.0,0.0,0.0,0.0,10.0,0.0,0.0,0.0,10.0
1446036917039888035,172,1446036917035064935,robocape_mag,-9.3,-21.0,10.5,10.0,0.0,0.0,0.0,10.0,0.0,0.0,0.0,10.0
1446036917074433160,173,1446036917069341897,robocape_mag,13.8,-29.1,10.5,10.0,0.0,0.0,0.0,10.0,0.0,0.0,0.0,10.0
1446036917107025118,174,1446036917102159023,robocape_mag,13.8,-29.1,10.5,10.0,0.0,0.0,0.0,10.0,0.0,0.0,0.0,10.0
1446036917140544660,175,1446036917135481119,robocape_mag,13.8,-29.1,10.5,10.0,0.0,0.0,0.0,10.0,0.0,0.0,0.0,10.0
1446036917173303993,176,1446036917168428897,robocape_mag,13.8,-29.1,10.5,10.0,0.0,0.0,0.0,10.0,0.0,0.0,0.0,10.0
1446036917205837993,177,1446036917201021909,robocape_mag,19.2,-22.5,18.9,10.0,0.0,0.0,0.0,10.0,0.0,0.0,0.0,10.0
1446036917239185493,178,1446036917234129905,robocape_mag,19.2,-22.5,18.9,10.0,0.0,0.0,0.0,10.0,0.0,0.0,0.0,10.0
1446036917272484201,179,1446036917267656087,robocape_mag,19.2,-22.5,18.9,10.0,0.0,0.0,0.0,10.0,0.0,0.0,0.0,10.0
1446036917305148035,180,1446036917300334930,robocape_mag,19.2,-22.5,18.9,10.0,0.0,0.0,0.0,10.0,0.0,0.0,0.0,10.0
1446036917341993160,181,1446036917333127021,robocape_mag,19.2,-22.5,18.9,10.0,0.0,0.0,0.0,10.0,0.0,0.0,0.0,10.0
1446036917371518035,182,1446036917366681098,robocape_mag,11.7,-22.2,16.8,10.0,0.0,0.0,0.0,10.0,0.0,0.0,0.0,10.0
1446036917404844618,183,1446036917400038003,robocape_mag,11.7,-22.2,16.8,10.0,0.0,0.0,0.0,10.0,0.0,0.0,0.0,10.0
1446036917439760451,184,1446036917434587001,robocape_mag,11.7,-22.2,16.8,10.0,0.0,0.0,0.0,10.0,0.0,0.0,0.0,10.0
1446036917473849576,185,1446036917468687057,robocape_mag,11.7,-22.2,16.8,10.0,0.0,0.0,0.0,10.0,0.0,0.0,0.0,10.0
1446036917507292493,186,1446036917502161979,robocape_mag,11.7,-22.2,16.8,10.0,0.0,0.0,0.0,10.0,0.0,0.0,0.0,10.0
1446036917539638035,187,1446036917534562110,robocape_mag,3.6,-19.5,12.9,10.0,0.0,0.0,0.0,10.0,0.0,0.0,0.0,10.0
1446036917572275618,188,1446036917567198038,robocape_mag,3.6,-19.5,12.9,10.0,0.0,0.0,0.0,10.0,0.0,0.0,0.0,10.0
1446036917606381327,189,1446036917601535081,robocape_mag,3.6,-19.5,12.9,10.0,0.0,0.0,0.0,10.0,0.0,0.0,0.0,10.0
1446036917637810160,190,1446036917632886886,robocape_mag,3.6,-19.5,12.9,10.0,0.0,0.0,0.0,10.0,0.0,0.0,0.0,10.0
1446036917671560035,191,1446036917666706085,robocape_mag,3.6,-19.5,12.9,10.0,0.0,0.0,0.0,10.0,0.0,0.0,0.0,10.0
1446036917704967910,192,1446036917700089931,robocape_mag,18.9,-21.0,15.0,10.0,0.0,0.0,0.0,10.0,0.0,0.0,0.0,10.0
1446036917737983118,193,1446036917732992887,robocape_mag,18.9,-21.0,15.0,10.0,0.0,0.0,0.0,10.0,0.0,0.0,0.0,10.0
1446036917776458077,194,1446036917771107912,robocape_mag,18.9,-21.0,15.0,10.0,0.0,0.0,0.0,10.0,0.0,0.0,0.0,10.0
1446036917808483243,195,1446036917801934003,robocape_mag,18.9,-21.0,15.0,10.0,0.0,0.0,0.0,10.0,0.0,0.0,0.0,10.0
1446036917837777785,196,1446036917832773923,robocape_mag,18.9,-21.0,15.0,10.0,0.0,0.0,0.0,10.0,0.0,0.0,0.0,10.0
1446036917873300077,197,1446036917867547988,robocape_mag,19.2,-23.7,17.7,10.0,0.0,0.0,0.0,10.0,0.0,0.0,0.0,10.0
1446036917912865243,198,1446036917903743028,robocape_mag,19.2,-23.7,17.7,10.0,0.0,0.0,0.0,10.0,0.0,0.0,0.0,10.0
1446036917942334702,199,1446036917936172962,robocape_mag,19.2,-23.7,17.7,10.0,0.0,0.0,0.0,10.0,0.0,0.0,0.0,10.0
1446036917975741827,200,1446036917970901966,robocape_mag,19.2,-23.7,17.7,10.0,0.0,0.0,0.0,10.0,0.0,0.0,0.0,10.0
1446036918008996493,201,1446036918003948926,robocape_mag,20.4,-23.7,8.1,10.0,0.0,0.0,0.0,10.0,0.0,0.0,0.0,10.0
1446036918041494910,202,1446036918036312103,robocape_mag,20.4,-23.7,8.1,10.0,0.0,0.0,0.0,10.0,0.0,0.0,0.0,10.0
1446036918078654077,203,1446036918068849086,robocape_mag,20.4,-23.7,8.1,10.0,0.0,0.0,0.0,10.0,0.0,0.0,0.0,10.0
1446036918111241743,204,1446036918102375030,robocape_mag,20.4,-23.7,8.1,10.0,0.0,0.0,0.0,10.0,0.0,0.0,0.0,10.0
1446036918140702660,205,1446036918135679006,robocape_mag,20.4,-23.7,8.1,10.0,0.0,0.0,0.0,10.0,0.0,0.0,0.0,10.0
1446036918175060868,206,1446036918169378995,robocape_mag,27.6,-21.9,17.7,10.0,0.0,0.0,0.0,10.0,0.0,0.0,0.0,10.0
1446036918207592577,207,1446036918202795028,robocape_mag,27.6,-21.9,17.7,10.0,0.0,0.0,0.0,10.0,0.0,0.0,0.0,10.0
1446036918240477369,208,1446036918235235929,robocape_mag,27.6,-21.9,17.7,10.0,0.0,0.0,0.0,10.0,0.0,0.0,0.0,10.0
1446036918273583410,209,1446036918268675088,robocape_mag,27.6,-21.9,17.7,10.0,0.0,0.0,0.0,10.0,0.0,0.0,0.0,10.0
1446036918306171369,210,1446036918301259040,robocape_mag,27.6,-21.9,17.7,10.0,0.0,0.0,0.0,10.0,0.0,0.0,0.0,10.0
1446036918338749285,211,1446036918333851099,robocape_mag,21.3,-21.6,12.6,10.0,0.0,0.0,0.0,10.0,0.0,0.0,0.0,10.0
1446036918371978077,212,1446036918367139101,robocape_mag,21.3,-21.6,12.6,10.0,0.0,0.0,0.0,10.0,0.0,0.0,0.0,10.0
1446036918404616827,213,1446036918399621009,robocape_mag,21.3,-21.6,12.6,10.0,0.0,0.0,0.0,10.0,0.0,0.0,0.0,10.0
1446036918437840202,214,1446036918432877063,robocape_mag,21.3,-21.6,12.6,10.0,0.0,0.0,0.0,10.0,0.0,0.0,0.0,10.0
1446036918472708910,215,1446036918467338085,robocape_mag,21.3,-21.6,12.6,10.0,0.0,0.0,0.0,10.0,0.0,0.0,0.0,10.0
1446036918504584660,216,1446036918499646902,robocape_mag,32.1,-16.8,6.6,10.0,0.0,0.0,0.0,10.0,0.0,0.0,0.0,10.0
1446036918537369994,217,1446036918532716035,robocape_mag,32.1,-16.8,6.6,10.0,0.0,0.0,0.0,10.0,0.0,0.0,0.0,10.0
1446036918574871660,218,1446036918567594051,robocape_mag,32.1,-16.8,6.6,10.0,0.0,0.0,0.0,10.0,0.0,0.0,0.0,10.0
1446036918605096452,219,1446036918599836111,robocape_mag,32.1,-16.8,6.6,10.0,0.0,0.0,0.0,10.0,0.0,0.0,0.0,10.0
1446036918637634785,220,1446036918632842063,robocape_mag,32.1,-16.8,6.6,10.0,0.0,0.0,0.0,10.0,0.0,0.0,0.0,10.0
1446036918675780785,221,1446036918666362047,robocape_mag,20.4,-20.1,0.9,10.0,0.0,0.0,0.0,10.0,0.0,0.0,0.0,10.0
1446036918704754910,222,1446036918699769973,robocape_mag,20.4,-20.1,0.9,10.0,0.0,0.0,0.0,10.0,0.0,0.0,0.0,10.0
1446036918737748535,223,1446036918732876062,robocape_mag,20.4,-20.1,0.9,10.0,0.0,0.0,0.0,10.0,0.0,0.0,0.0,10.0
1446036918775698952,224,1446036918767075061,robocape_mag,20.4,-20.1,0.9,10.0,0.0,0.0,0.0,10.0,0.0,0.0,0.0,10.0
1446036918804898202,225,1446036918799938917,robocape_mag,27.0,-17.1,17.1,10.0,0.0,0.0,0.0,10.0,0.0,0.0,0.0,10.0
1446036918840315869,226,1446036918835525035,robocape_mag,27.0,-17.1,17.1,10.0,0.0,0.0,0.0,10.0,0.0,0.0,0.0,10.0
1446036918871095327,227,1446036918866085052,robocape_mag,27.0,-17.1,17.1,10.0,0.0,0.0,0.0,10.0,0.0,0.0,0.0,10.0
1446036918904820119,228,1446036918899811029,robocape_mag,27.0,-17.1,17.1,10.0,0.0,0.0,0.0,10.0,0.0,0.0,0.0,10.0
1446036918937416077,229,1446036918932672023,robocape_mag,27.0,-17.1,17.1,10.0,0.0,0.0,0.0,10.0,0.0,0.0,0.0,10.0
1446036918971372411,230,1446036918966308116,robocape_mag,19.2,-16.5,8.1,10.0,0.0,0.0,0.0,10.0,0.0,0.0,0.0,10.0
1446036919004692577,231,1446036918999638080,robocape_mag,19.2,-16.5,8.1,10.0,0.0,0.0,0.0,10.0,0.0,0.0,0.0,10.0
1446036919037404994,232,1446036919032706022,robocape_mag,19.2,-16.5,8.1,10.0,0.0,0.0,0.0,10.0,0.0,0.0,0.0,10.0
1446036919071220536,233,1446036919066245079,robocape_mag,19.2,-16.5,8.1,10.0,0.0,0.0,0.0,10.0,0.0,0.0,0.0,10.0
1446036919107903077,234,1446036919102906942,robocape_mag,19.2,-16.5,8.1,10.0,0.0,0.0,0.0,10.0,0.0,0.0,0.0,10.0
1446036919137580619,235,1446036919132651090,robocape_mag,29.4,-15.9,-0.9,10.0,0.0,0.0,0.0,10.0,0.0,0.0,0.0,10.0
1446036919174043911,236,1446036919166182994,robocape_mag,29.4,-15.9,-0.9,10.0,0.0,0.0,0.0,10.0,0.0,0.0,0.0,10.0
1446036919204766327,237,1446036919199625015,robocape_mag,29.4,-15.9,-0.9,10.0,0.0,0.0,0.0,10.0,0.0,0.0,0.0,10.0
1446036919240689827,238,1446036919235776901,robocape_mag,29.4,-15.9,-0.9,10.0,0.0,0.0,0.0,10.0,0.0,0.0,0.0,10.0
1446036919272883661,239,1446036919266211986,robocape_mag,29.4,-15.9,-0.9,10.0,0.0,0.0,0.0,10.0,0.0,0.0,0.0,10.0
1446036919306414827,240,1446036919299680948,robocape_mag,22.8,-19.5,9.9,10.0,0.0,0.0,0.0,10.0,0.0,0.0,0.0,10.0
1446036919337624619,241,1446036919332818984,robocape_mag,22.8,-19.5,9.9,10.0,0.0,0.0,0.0,10.0,0.0,0.0,0.0,10.0
1446036919370945036,242,1446036919366044044,robocape_mag,22.8,-19.5,9.9,10.0,0.0,0.0,0.0,10.0,0.0,0.0,0.0,10.0
1446036919406476286,243,1446036919399733066,robocape_mag,22.8,-19.5,9.9,10.0,0.0,0.0,0.0,10.0,0.0,0.0,0.0,10.0
1446036919437669994,244,1446036919432951927,robocape_mag,22.8,-19.5,9.9,10.0,0.0,0.0,0.0,10.0,0.0,0.0,0.0,10.0
1446036919473387244,245,1446036919468528032,robocape_mag,31.5,-13.2,11.4,10.0,0.0,0.0,0.0,10.0,0.0,0.0,0.0,10.0
1446036919505043577,246,1446036919500050067,robocape_mag,31.5,-13.2,11.4,10.0,0.0,0.0,0.0,10.0,0.0,0.0,0.0,10.0
1446036919537615702,247,1446036919532831907,robocape_mag,31.5,-13.2,11.4,10.0,0.0,0.0,0.0,10.0,0.0,0.0,0.0,10.0
1446036919571110202,248,1446036919566200971,robocape_mag,31.5,-13.2,11.4,10.0,0.0,0.0,0.0,10.0,0.0,0.0,0.0,10.0
1446036919605452411,249,1446036919600270032,robocape_mag,27.3,-8.4,12.0,10.0,0.0,0.0,0.0,10.0,0.0,0.0,0.0,10.0
1446036919637716911,250,1446036919632898092,robocape_mag,27.3,-8.4,12.0,10.0,0.0,0.0,0.0,10.0,0.0,0.0,0.0,10.0
1446036919671707786,251,1446036919666831016,robocape_mag,27.3,-8.4,12.0,10.0,0.0,0.0,0.0,10.0,0.0,0.0,0.0,10.0
1446036919705999036,252,1446036919700903892,robocape_mag,27.3,-8.4,12.0,10.0,0.0,0.0,0.0,10.0,0.0,0.0,0.0,10.0
1446036919737508411,253,1446036919732743024,robocape_mag,27.3,-8.4,12.0,10.0,0.0,0.0,0.0,10.0,0.0,0.0,0.0,10.0
1446036919776813244,254,1446036919768001079,robocape_mag,15.9,-9.0,16.8,10.0,0.0,0.0,0.0,10.0,0.0,0.0,0.0,10.0
1446036919804457036,255,1446036919799458026,robocape_mag,15.9,-9.0,16.8,10.0,0.0,0.0,0.0,10.0,0.0,0.0,0.0,10.0
1446036919837506036,256,1446036919832743883,robocape_mag,15.9,-9.0,16.8,10.0,0.0,0.0,0.0,10.0,0.0,0.0,0.0,10.0
1446036919871871744,257,1446036919867049932,robocape_mag,15.9,-9.0,16.8,10.0,0.0,0.0,0.0,10.0,0.0,0.0,0.0,10.0
1446036919904853036,258,1446036919899789094,robocape_mag,15.9,-9.0,16.8,10.0,0.0,0.0,0.0,10.0,0.0,0.0,0.0,10.0
1446036919937938619,259,1446036919933146953,robocape_mag,19.8,-11.1,11.7,10.0,0.0,0.0,0.0,10.0,0.0,0.0,0.0,10.0
1446036919977354744,260,1446036919969877958,robocape_mag,19.8,-11.1,11.7,10.0,0.0,0.0,0.0,10.0,0.0,0.0,0.0,10.0
1446036920007509994,261,1446036920002203941,robocape_mag,19.8,-11.1,11.7,10.0,0.0,0.0,0.0,10.0,0.0,0.0,0.0,10.0
1446036920037504828,262,1446036920032763957,robocape_mag,19.8,-11.1,11.7,10.0,0.0,0.0,0.0,10.0,0.0,0.0,0.0,10.0
1446036920070994078,263,1446036920066191911,robocape_mag,19.8,-11.1,11.7,10.0,0.0,0.0,0.0,10.0,0.0,0.0,0.0,10.0
1446036920109793786,264,1446036920104182958,robocape_mag,19.8,-12.9,3.9,10.0,0.0,0.0,0.0,10.0,0.0,0.0,0.0,10.0
1446036920137647411,265,1446036920132786989,robocape_mag,19.8,-12.9,3.9,10.0,0.0,0.0,0.0,10.0,0.0,0.0,0.0,10.0
1446036920170954203,266,1446036920166184902,robocape_mag,19.8,-12.9,3.9,10.0,0.0,0.0,0.0,10.0,0.0,0.0,0.0,10.0
1446036920205009203,267,1446036920199644088,robocape_mag,19.8,-12.9,3.9,10.0,0.0,0.0,0.0,10.0,0.0,0.0,0.0,10.0
1446036920238196786,268,1446036920232899904,robocape_mag,19.8,-12.9,3.9,10.0,0.0,0.0,0.0,10.0,0.0,0.0,0.0,10.0
1446036920271382703,269,1446036920266472101,robocape_mag,26.1,-7.8,9.0,10.0,0.0,0.0,0.0,10.0,0.0,0.0,0.0,10.0
1446036920304883411,270,1446036920299398899,robocape_mag,26.1,-7.8,9.0,10.0,0.0,0.0,0.0,10.0,0.0,0.0,0.0,10.0
1446036920337585536,271,1446036920332768917,robocape_mag,26.1,-7.8,9.0,10.0,0.0,0.0,0.0,10.0,0.0,0.0,0.0,10.0
1446036920370999870,272,1446036920366156101,robocape_mag,26.1,-7.8,9.0,10.0,0.0,0.0,0.0,10.0,0.0,0.0,0.0,10.0
1446036920404962203,273,1446036920399579048,robocape_mag,31.2,-8.7,-5.1,10.0,0.0,0.0,0.0,10.0,0.0,0.0,0.0,10.0
1446036920437655786,274,1446036920432872056,robocape_mag,31.2,-8.7,-5.1,10.0,0.0,0.0,0.0,10.0,0.0,0.0,0.0,10.0
1446036920473354411,275,1446036920468342065,robocape_mag,31.2,-8.7,-5.1,10.0,0.0,0.0,0.0,10.0,0.0,0.0,0.0,10.0
1446036920504796411,276,1446036920499871969,robocape_mag,31.2,-8.7,-5.1,10.0,0.0,0.0,0.0,10.0,0.0,0.0,0.0,10.0
1446036920537626495,277,1446036920532887935,robocape_mag,31.2,-8.7,-5.1,10.0,0.0,0.0,0.0,10.0,0.0,0.0,0.0,10.0
1446036920571340120,278,1446036920566297054,robocape_mag,36.0,-4.5,0.9,10.0,0.0,0.0,0.0,10.0,0.0,0.0,0.0,10.0
1446036920605018703,279,1446036920599646091,robocape_mag,36.0,-4.5,0.9,10.0,0.0,0.0,0.0,10.0,0.0,0.0,0.0,10.0
1446036920639182245,280,1446036920634387969,robocape_mag,36.0,-4.5,0.9,10.0,0.0,0.0,0.0,10.0,0.0,0.0,0.0,10.0
1446036920670914828,281,1446036920666121006,robocape_mag,36.0,-4.5,0.9,10.0,0.0,0.0,0.0,10.0,0.0,0.0,0.0,10.0
1446036920704282203,282,1446036920699472904,robocape_mag,36.0,-4.5,0.9,10.0,0.0,0.0,0.0,10.0,0.0,0.0,0.0,10.0
1446036920737710036,283,1446036920732892036,robocape_mag,36.0,-3.9,2.1,10.0,0.0,0.0,0.0,10.0,0.0,0.0,0.0,10.0
1446036920771176370,284,1446036920766211032,robocape_mag,36.0,-3.9,2.1,10.0,0.0,0.0,0.0,10.0,0.0,0.0,0.0,10.0
1446036920805035870,285,1446036920799977064,robocape_mag,36.0,-3.9,2.1,10.0,0.0,0.0,0.0,10.0,0.0,0.0,0.0,10.0
1446036920837597703,286,1446036920832811117,robocape_mag,36.0,-3.9,2.1,10.0,0.0,0.0,0.0,10.0,0.0,0.0,0.0,10.0
1446036920871342328,287,1446036920866338968,robocape_mag,36.0,-3.9,2.1,10.0,0.0,0.0,0.0,10.0,0.0,0.0,0.0,10.0
1446036920906070953,288,1446036920899759054,robocape_mag,23.7,-4.2,0.0,10.0,0.0,0.0,0.0,10.0,0.0,0.0,0.0,10.0
1446036920942546411,289,1446036920937757015,robocape_mag,23.7,-4.2,0.0,10.0,0.0,0.0,0.0,10.0,0.0,0.0,0.0,10.0
1446036920971246078,290,1446036920966305017,robocape_mag,23.7,-4.2,0.0,10.0,0.0,0.0,0.0,10.0,0.0,0.0,0.0,10.0
1446036921005891661,291,1446036920999705076,robocape_mag,23.7,-4.2,0.0,10.0,0.0,0.0,0.0,10.0,0.0,0.0,0.0,10.0
1446036921037595495,292,1446036921032810926,robocape_mag,23.7,-4.2,0.0,10.0,0.0,0.0,0.0,10.0,0.0,0.0,0.0,10.0
1446036921071245870,293,1446036921066294908,robocape_mag,34.8,0.9,3.3,10.0,0.0,0.0,0.0,10.0,0.0,0.0,0.0,10.0
1446036921106654037,294,1446036921099574089,robocape_mag,34.8,0.9,3.3,10.0,0.0,0.0,0.0,10.0,0.0,0.0,0.0,10.0
1446036921137878787,295,1446036921133163928,robocape_mag,34.8,0.9,3.3,10.0,0.0,0.0,0.0,10.0,0.0,0.0,0.0,10.0
1446036921171298745,296,1446036921166384935,robocape_mag,34.8,0.9,3.3,10.0,0.0,0.0,0.0,10.0,0.0,0.0,0.0,10.0
1446036921204800537,297,1446036921199807882,robocape_mag,24.3,-1.2,13.8,10.0,0.0,0.0,0.0,10.0,0.0,0.0,0.0,10.0
1446036921237699870,298,1446036921232898950,robocape_mag,24.3,-1.2,13.8,10.0,0.0,0.0,0.0,10.0,0.0,0.0,0.0,10.0
1446036921271019828,299,1446036921266153097,robocape_mag,24.3,-1.2,13.8,10.0,0.0,0.0,0.0,10.0,0.0,0.0,0.0,10.0
1446036921312855162,300,1446036921303361892,robocape_mag,24.3,-1.2,13.8,10.0,0.0,0.0,0.0,10.0,0.0,0.0,0.0,10.0
1446036921337635745,301,1446036921332837104,robocape_mag,24.3,-1.2,13.8,10.0,0.0,0.0,0.0,10.0,0.0,0.0,0.0,10.0
1446036921371049912,302,1446036921366094112,robocape_mag,15.0,3.9,14.1,10.0,0.0,0.0,0.0,10.0,0.0,0.0,0.0,10.0
1446036921404813037,303,1446036921399812936,robocape_mag,15.0,3.9,14.1,10.0,0.0,0.0,0.0,10.0,0.0,0.0,0.0,10.0
1446036921437906328,304,1446036921432939052,robocape_mag,15.0,3.9,14.1,10.0,0.0,0.0,0.0,10.0,0.0,0.0,0.0,10.0
1446036921471274787,305,1446036921466314077,robocape_mag,15.0,3.9,14.1,10.0,0.0,0.0,0.0,10.0,0.0,0.0,0.0,10.0
1446036921504431703,306,1446036921499641895,robocape_mag,15.0,3.9,14.1,10.0,0.0,0.0,0.0,10.0,0.0,0.0,0.0,10.0
1446036921537566287,307,1446036921532824039,robocape_mag,10.2,-0.9,18.3,10.0,0.0,0.0,0.0,10.0,0.0,0.0,0.0,10.0
1446036921571193912,308,1446036921566274881,robocape_mag,10.2,-0.9,18.3,10.0,0.0,0.0,0.0,10.0,0.0,0.0,0.0,10.0
1446036921606912953,309,1446036921600106000,robocape_mag,10.2,-0.9,18.3,10.0,0.0,0.0,0.0,10.0,0.0,0.0,0.0,10.0
1446036921637623453,310,1446036921632838010,robocape_mag,10.2,-0.9,18.3,10.0,0.0,0.0,0.0,10.0,0.0,0.0,0.0,10.0
1446036921674171370,311,1446036921669399023,robocape_mag,10.2,-0.9,18.3,10.0,0.0,0.0,0.0,10.0,0.0,0.0,0.0,10.0
1446036921728578454,312,1446036921699480056,robocape_mag,13.5,1.8,4.2,10.0,0.0,0.0,0.0,10.0,0.0,0.0,0.0,10.0
1446036921756489662,313,1446036921746021032,robocape_mag,13.5,1.8,4.2,10.0,0.0,0.0,0.0,10.0,0.0,0.0,0.0,10.0
1446036921780891870,314,1446036921773052930,robocape_mag,13.5,1.8,4.2,10.0,0.0,0.0,0.0,10.0,0.0,0.0,0.0,10.0
1446036921804466495,315,1446036921799498081,robocape_mag,13.5,1.8,4.2,10.0,0.0,0.0,0.0,10.0,0.0,0.0,0.0,10.0
1446036921837679370,316,1446036921832890987,robocape_mag,13.5,1.8,4.2,10.0,0.0,0.0,0.0,10.0,0.0,0.0,0.0,10.0
1446036921871027037,317,1446036921866161108,robocape_mag,21.6,3.9,-1.5,10.0,0.0,0.0,0.0,10.0,0.0,0.0,0.0,10.0
1446036921904511620,318,1446036921899625062,robocape_mag,21.6,3.9,-1.5,10.0,0.0,0.0,0.0,10.0,0.0,0.0,0.0,10.0
1446036921937852370,319,1446036921933037042,robocape_mag,21.6,3.9,-1.5,10.0,0.0,0.0,0.0,10.0,0.0,0.0,0.0,10.0
1446036921971190537,320,1446036921966196060,robocape_mag,21.6,3.9,-1.5,10.0,0.0,0.0,0.0,10.0,0.0,0.0,0.0,10.0
1446036922006552287,321,1446036922001643896,robocape_mag,27.0,5.1,-9.3,10.0,0.0,0.0,0.0,10.0,0.0,0.0,0.0,10.0
1446036922037800162,322,1446036922032980918,robocape_mag,27.0,5.1,-9.3,10.0,0.0,0.0,0.0,10.0,0.0,0.0,0.0,10.0
1446036922071334537,323,1446036922066351890,robocape_mag,27.0,5.1,-9.3,10.0,0.0,0.0,0.0,10.0,0.0,0.0,0.0,10.0
1446036922104424870,324,1446036922099409103,robocape_mag,27.0,5.1,-9.3,10.0,0.0,0.0,0.0,10.0,0.0,0.0,0.0,10.0
1446036922137821829,325,1446036922132898092,robocape_mag,27.0,5.1,-9.3,10.0,0.0,0.0,0.0,10.0,0.0,0.0,0.0,10.0
1446036922171258704,326,1446036922166132926,robocape_mag,29.1,8.4,14.4,10.0,0.0,0.0,0.0,10.0,0.0,0.0,0.0,10.0
1446036922204769620,327,1446036922199609994,robocape_mag,29.1,8.4,14.4,10.0,0.0,0.0,0.0,10.0,0.0,0.0,0.0,10.0
1446036922237732787,328,1446036922232876062,robocape_mag,29.1,8.4,14.4,10.0,0.0,0.0,0.0,10.0,0.0,0.0,0.0,10.0
1446036922271708579,329,1446036922266244888,robocape_mag,29.1,8.4,14.4,10.0,0.0,0.0,0.0,10.0,0.0,0.0,0.0,10.0
1446036922304333120,330,1446036922299412965,robocape_mag,29.1,8.4,14.4,10.0,0.0,0.0,0.0,10.0,0.0,0.0,0.0,10.0
1446036922337645912,331,1446036922332837104,robocape_mag,27.6,6.3,13.5,10.0,0.0,0.0,0.0,10.0,0.0,0.0,0.0,10.0
1446036922371252037,332,1446036922366039037,robocape_mag,27.6,6.3,13.5,10.0,0.0,0.0,0.0,10.0,0.0,0.0,0.0,10.0
1446036922404602204,333,1446036922399744987,robocape_mag,27.6,6.3,13.5,10.0,0.0,0.0,0.0,10.0,0.0,0.0,0.0,10.0
1446036922437609579,334,1446036922432760953,robocape_mag,27.6,6.3,13.5,10.0,0.0,0.0,0.0,10.0,0.0,0.0,0.0,10.0
1446036922472462329,335,1446036922466155052,robocape_mag,27.6,6.3,13.5,10.0,0.0,0.0,0.0,10.0,0.0,0.0,0.0,10.0
1446036922504461246,336,1446036922499660015,robocape_mag,-3.9,5.4,6.0,10.0,0.0,0.0,0.0,10.0,0.0,0.0,0.0,10.0
1446036922537661496,337,1446036922532819032,robocape_mag,-3.9,5.4,6.0,10.0,0.0,0.0,0.0,10.0,0.0,0.0,0.0,10.0
1446036922575460246,338,1446036922570051908,robocape_mag,-3.9,5.4,6.0,10.0,0.0,0.0,0.0,10.0,0.0,0.0,0.0,10.0
1446036922605383329,339,1446036922599489927,robocape_mag,-3.9,5.4,6.0,10.0,0.0,0.0,0.0,10.0,0.0,0.0,0.0,10.0
1446036922638061037,340,1446036922633204936,robocape_mag,-3.9,5.4,6.0,10.0,0.0,0.0,0.0,10.0,0.0,0.0,0.0,10.0
1446036922671105412,341,1446036922666136980,robocape_mag,1.5,5.4,19.8,10.0,0.0,0.0,0.0,10.0,0.0,0.0,0.0,10.0
1446036922704223162,342,1446036922699482917,robocape_mag,1.5,5.4,19.8,10.0,0.0,0.0,0.0,10.0,0.0,0.0,0.0,10.0
1446036922737894621,343,1446036922733004093,robocape_mag,1.5,5.4,19.8,10.0,0.0,0.0,0.0,10.0,0.0,0.0,0.0,10.0
1446036922771190371,344,1446036922766341924,robocape_mag,1.5,5.4,19.8,10.0,0.0,0.0,0.0,10.0,0.0,0.0,0.0,10.0
1446036922804272287,345,1446036922799500942,robocape_mag,-17.7,9.6,9.0,10.0,0.0,0.0,0.0,10.0,0.0,0.0,0.0,10.0
1446036922837667787,346,1446036922832865953,robocape_mag,-17.7,9.6,9.0,10.0,0.0,0.0,0.0,10.0,0.0,0.0,0.0,10.0
1446036922870923746,347,1446036922866099119,robocape_mag,-17.7,9.6,9.0,10.0,0.0,0.0,0.0,10.0,0.0,0.0,0.0,10.0
1446036922904677496,348,1446036922899827957,robocape_mag,-17.7,9.6,9.0,10.0,0.0,0.0,0.0,10.0,0.0,0.0,0.0,10.0
1446036922937663246,349,1446036922932825088,robocape_mag,-17.7,9.6,9.0,10.0,0.0,0.0,0.0,10.0,0.0,0.0,0.0,10.0
1446036922973235662,350,1446036922966243028,robocape_mag,14.7,9.6,19.2,10.0,0.0,0.0,0.0,10.0,0.0,0.0,0.0,10.0
1446036923004864912,351,1446036923000022888,robocape_mag,14.7,9.6,19.2,10.0,0.0,0.0,0.0,10.0,0.0,0.0,0.0,10.0
1446036923037593454,352,1446036923032825946,robocape_mag,14.7,9.6,19.2,10.0,0.0,0.0,0.0,10.0,0.0,0.0,0.0,10.0
1446036923073672079,353,1446036923066247940,robocape_mag,14.7,9.6,19.2,10.0,0.0,0.0,0.0,10.0,0.0,0.0,0.0,10.0
1446036923104361371,354,1446036923099446058,robocape_mag,14.7,9.6,19.2,10.0,0.0,0.0,0.0,10.0,0.0,0.0,0.0,10.0
1446036923138053829,355,1446036923132915019,robocape_mag,33.3,9.6,14.4,10.0,0.0,0.0,0.0,10.0,0.0,0.0,0.0,10.0
1446036923170961829,356,1446036923166132926,robocape_mag,33.3,9.6,14.4,10.0,0.0,0.0,0.0,10.0,0.0,0.0,0.0,10.0
1446036923204626329,357,1446036923199594974,robocape_mag,33.3,9.6,14.4,10.0,0.0,0.0,0.0,10.0,0.0,0.0,0.0,10.0
1446036923237841579,358,1446036923233012914,robocape_mag,33.3,9.6,14.4,10.0,0.0,0.0,0.0,10.0,0.0,0.0,0.0,10.0
1446036923272627038,359,1446036923267590999,robocape_mag,33.3,9.6,14.4,10.0,0.0,0.0,0.0,10.0,0.0,0.0,0.0,10.0
1446036923304533579,360,1446036923299614906,robocape_mag,22.5,18.0,5.4,10.0,0.0,0.0,0.0,10.0,0.0,0.0,0.0,10.0
1446036923339053704,361,1446036923334202051,robocape_mag,22.5,18.0,5.4,10.0,0.0,0.0,0.0,10.0,0.0,0.0,0.0,10.0
1446036923371304329,362,1446036923366321086,robocape_mag,22.5,18.0,5.4,10.0,0.0,0.0,0.0,10.0,0.0,0.0,0.0,10.0
1446036923404508246,363,1446036923399605989,robocape_mag,22.5,18.0,5.4,10.0,0.0,0.0,0.0,10.0,0.0,0.0,0.0,10.0
1446036923437710371,364,1446036923432970046,robocape_mag,22.5,18.0,5.4,10.0,0.0,0.0,0.0,10.0,0.0,0.0,0.0,10.0
1446036923470984538,365,1446036923466166019,robocape_mag,-4.8,18.3,10.5,10.0,0.0,0.0,0.0,10.0,0.0,0.0,0.0,10.0
1446036923504951829,366,1446036923499974966,robocape_mag,-4.8,18.3,10.5,10.0,0.0,0.0,0.0,10.0,0.0,0.0,0.0,10.0
1446036923537625579,367,1446036923532882928,robocape_mag,-4.8,18.3,10.5,10.0,0.0,0.0,0.0,10.0,0.0,0.0,0.0,10.0
1446036923570922163,368,1446036923566051959,robocape_mag,-4.8,18.3,10.5,10.0,0.0,0.0,0.0,10.0,0.0,0.0,0.0,10.0
1446036923604327538,369,1446036923599462985,robocape_mag,-12.0,9.3,6.3,10.0,0.0,0.0,0.0,10.0,0.0,0.0,0.0,10.0
1446036923637861371,370,1446036923632946968,robocape_mag,-12.0,9.3,6.3,10.0,0.0,0.0,0.0,10.0,0.0,0.0,0.0,10.0
1446036923670966621,371,1446036923666146039,robocape_mag,-12.0,9.3,6.3,10.0,0.0,0.0,0.0,10.0,0.0,0.0,0.0,10.0
1446036923704349788,372,1446036923699556112,robocape_mag,-12.0,9.3,6.3,10.0,0.0,0.0,0.0,10.0,0.0,0.0,0.0,10.0
1446036923737520954,373,1446036923732778072,robocape_mag,-12.0,9.3,6.3,10.0,0.0,0.0,0.0,10.0,0.0,0.0,0.0,10.0
1446036923771211913,374,1446036923766299962,robocape_mag,6.3,3.0,19.8,10.0,0.0,0.0,0.0,10.0,0.0,0.0,0.0,10.0
1446036923804427038,375,1446036923799513101,robocape_mag,6.3,3.0,19.8,10.0,0.0,0.0,0.0,10.0,0.0,0.0,0.0,10.0
1446036923838636746,376,1446036923832874059,robocape_mag,6.3,3.0,19.8,10.0,0.0,0.0,0.0,10.0,0.0,0.0,0.0,10.0
1446036923870995038,377,1446036923866086006,robocape_mag,6.3,3.0,19.8,10.0,0.0,0.0,0.0,10.0,0.0,0.0,0.0,10.0
1446036923904371080,378,1446036923899488925,robocape_mag,6.3,3.0,19.8,10.0,0.0,0.0,0.0,10.0,0.0,0.0,0.0,10.0
1446036923937753705,379,1446036923933007001,robocape_mag,-23.4,-2.1,8.7,10.0,0.0,0.0,0.0,10.0,0.0,0.0,0.0,10.0
1446036923971141788,380,1446036923966264009,robocape_mag,-23.4,-2.1,8.7,10.0,0.0,0.0,0.0,10.0,0.0,0.0,0.0,10.0
1446036924004777205,381,1446036923999622106,robocape_mag,-23.4,-2.1,8.7,10.0,0.0,0.0,0.0,10.0,0.0,0.0,0.0,10.0
1446036924037777288,382,1446036924032836914,robocape_mag,-23.4,-2.1,8.7,10.0,0.0,0.0,0.0,10.0,0.0,0.0,0.0,10.0
1446036924073271496,383,1446036924068475961,robocape_mag,-23.4,-2.1,8.7,10.0,0.0,0.0,0.0,10.0,0.0,0.0,0.0,10.0
1446036924104461913,384,1446036924099461078,robocape_mag,-24.6,5.1,9.9,10.0,0.0,0.0,0.0,10.0,0.0,0.0,0.0,10.0
1446036924137774246,385,1446036924132844924,robocape_mag,-24.6,5.1,9.9,10.0,0.0,0.0,0.0,10.0,0.0,0.0,0.0,10.0
1446036924172260663,386,1446036924167318105,robocape_mag,-24.6,5.1,9.9,10.0,0.0,0.0,0.0,10.0,0.0,0.0,0.0,10.0
1446036924204988955,387,1446036924199594020,robocape_mag,-24.6,5.1,9.9,10.0,0.0,0.0,0.0,10.0,0.0,0.0,0.0,10.0
1446036924237871080,388,1446036924232819080,robocape_mag,-24.6,5.1,9.9,10.0,0.0,0.0,0.0,10.0,0.0,0.0,0.0,10.0
1446036924275690246,389,1446036924270157098,robocape_mag,-9.0,-11.7,14.7,10.0,0.0,0.0,0.0,10.0,0.0,0.0,0.0,10.0
1446036924304817496,390,1446036924299890041,robocape_mag,-9.0,-11.7,14.7,10.0,0.0,0.0,0.0,10.0,0.0,0.0,0.0,10.0
1446036924338138621,391,1446036924333076000,robocape_mag,-9.0,-11.7,14.7,10.0,0.0,0.0,0.0,10.0,0.0,0.0,0.0,10.0
1446036924371187538,392,1446036924366329908,robocape_mag,-9.0,-11.7,14.7,10.0,0.0,0.0,0.0,10.0,0.0,0.0,0.0,10.0
1446036924408254330,393,1446036924399578094,robocape_mag,5.7,-15.6,12.6,10.0,0.0,0.0,0.0,10.0,0.0,0.0,0.0,10.0
1446036924437988663,394,1446036924432986974,robocape_mag,5.7,-15.6,12.6,10.0,0.0,0.0,0.0,10.0,0.0,0.0,0.0,10.0
1446036924470912705,395,1446036924466166973,robocape_mag,5.7,-15.6,12.6,10.0,0.0,0.0,0.0,10.0,0.0,0.0,0.0,10.0
1446036924509318413,396,1446036924499563932,robocape_mag,5.7,-15.6,12.6,10.0,0.0,0.0,0.0,10.0,0.0,0.0,0.0,10.0
1446036924537819788,397,1446036924532859086,robocape_mag,5.7,-15.6,12.6,10.0,0.0,0.0,0.0,10.0,0.0,0.0,0.0,10.0
1446036924570765538,398,1446036924566051959,robocape_mag,-10.5,0.6,13.2,10.0,0.0,0.0,0.0,10.0,0.0,0.0,0.0,10.0
1446036924604374997,399,1446036924599483966,robocape_mag,-10.5,0.6,13.2,10.0,0.0,0.0,0.0,10.0,0.0,0.0,0.0,10.0
1446036924638034205,400,1446036924632850885,robocape_mag,-10.5,0.6,13.2,10.0,0.0,0.0,0.0,10.0,0.0,0.0,0.0,10.0
1446036924671424080,401,1446036924666430950,robocape_mag,-10.5,0.6,13.2,10.0,0.0,0.0,0.0,10.0,0.0,0.0,0.0,10.0
1446036924704230247,402,1446036924699489116,robocape_mag,-10.5,0.6,13.2,10.0,0.0,0.0,0.0,10.0,0.0,0.0,0.0,10.0
1446036924739010997,403,1446036924732753992,robocape_mag,28.8,-4.5,18.3,10.0,0.0,0.0,0.0,10.0,0.0,0.0,0.0,10.0
1446036924777120247,404,1446036924771888017,robocape_mag,28.8,-4.5,18.3,10.0,0.0,0.0,0.0,10.0,0.0,0.0,0.0,10.0
1446036924804550788,405,1446036924799438953,robocape_mag,28.8,-4.5,18.3,10.0,0.0,0.0,0.0,10.0,0.0,0.0,0.0,10.0
1446036924839775997,406,1446036924832828044,robocape_mag,28.8,-4.5,18.3,10.0,0.0,0.0,0.0,10.0,0.0,0.0,0.0,10.0
1446036924871008872,407,1446036924866049051,robocape_mag,28.8,-4.5,18.3,10.0,0.0,0.0,0.0,10.0,0.0,0.0,0.0,10.0
1446036924904650080,408,1446036924899493932,robocape_mag,47.1,0.6,-0.6,10.0,0.0,0.0,0.0,10.0,0.0,0.0,0.0,10.0
1446036924938039580,409,1446036924932985067,robocape_mag,47.1,0.6,-0.6,10.0,0.0,0.0,0.0,10.0,0.0,0.0,0.0,10.0
1446036924971250538,410,1446036924966156959,robocape_mag,47.1,0.6,-0.6,10.0,0.0,0.0,0.0,10.0,0.0,0.0,0.0,10.0
1446036925008633663,411,1446036925003067016,robocape_mag,47.1,0.6,-0.6,10.0,0.0,0.0,0.0,10.0,0.0,0.0,0.0,10.0
1446036925038639288,412,1446036925032860040,robocape_mag,47.1,0.6,-0.6,10.0,0.0,0.0,0.0,10.0,0.0,0.0,0.0,10.0
1446036925071215122,413,1446036925066140890,robocape_mag,11.7,-1.8,6.6,10.0,0.0,0.0,0.0,10.0,0.0,0.0,0.0,10.0
1446036925104200580,414,1446036925099478006,robocape_mag,11.7,-1.8,6.6,10.0,0.0,0.0,0.0,10.0,0.0,0.0,0.0,10.0
1446036925137864455,415,1446036925132886886,robocape_mag,11.7,-1.8,6.6,10.0,0.0,0.0,0.0,10.0,0.0,0.0,0.0,10.0
1446036925171573538,416,1446036925166104078,robocape_mag,11.7,-1.8,6.6,10.0,0.0,0.0,0.0,10.0,0.0,0.0,0.0,10.0
1446036925204279288,417,1446036925199533939,robocape_mag,43.2,9.9,0.9,10.0,0.0,0.0,0.0,10.0,0.0,0.0,0.0,10.0
1446036925237828330,418,1446036925232887983,robocape_mag,43.2,9.9,0.9,10.0,0.0,0.0,0.0,10.0,0.0,0.0,0.0,10.0
1446036925272664830,419,1446036925266185045,robocape_mag,43.2,9.9,0.9,10.0,0.0,0.0,0.0,10.0,0.0,0.0,0.0,10.0
1446036925304183580,420,1446036925299386978,robocape_mag,43.2,9.9,0.9,10.0,0.0,0.0,0.0,10.0,0.0,0.0,0.0,10.0
1446036925337681247,421,1446036925332844972,robocape_mag,43.2,9.9,0.9,10.0,0.0,0.0,0.0,10.0,0.0,0.0,0.0,10.0
1446036925373182455,422,1446036925366197109,robocape_mag,41.4,-12.3,2.7,10.0,0.0,0.0,0.0,10.0,0.0,0.0,0.0,10.0
1446036925404595997,423,1446036925399749040,robocape_mag,41.4,-12.3,2.7,10.0,0.0,0.0,0.0,10.0,0.0,0.0,0.0,10.0
1446036925437740664,424,1446036925432952880,robocape_mag,41.4,-12.3,2.7,10.0,0.0,0.0,0.0,10.0,0.0,0.0,0.0,10.0
1446036925471052497,425,1446036925466120004,robocape_mag,41.4,-12.3,2.7,10.0,0.0,0.0,0.0,10.0,0.0,0.0,0.0,10.0
1446036925504763539,426,1446036925499878883,robocape_mag,41.4,-12.3,2.7,10.0,0.0,0.0,0.0,10.0,0.0,0.0,0.0,10.0
1446036925538102164,427,1446036925533301115,robocape_mag,24.0,-9.3,8.1,10.0,0.0,0.0,0.0,10.0,0.0,0.0,0.0,10.0
1446036925571221205,428,1446036925566128969,robocape_mag,24.0,-9.3,8.1,10.0,0.0,0.0,0.0,10.0,0.0,0.0,0.0,10.0
1446036925604031872,429,1446036925599373102,robocape_mag,24.0,-9.3,8.1,10.0,0.0,0.0,0.0,10.0,0.0,0.0,0.0,10.0
1446036925642203664,430,1446036925634566068,robocape_mag,24.0,-9.3,8.1,10.0,0.0,0.0,0.0,10.0,0.0,0.0,0.0,10.0
1446036925681681830,431,1446036925672873020,robocape_mag,24.0,-9.3,8.1,10.0,0.0,0.0,0.0,10.0,0.0,0.0,0.0,10.0
1446036925704082664,432,1446036925699412107,robocape_mag,-17.4,12.3,12.9,10.0,0.0,0.0,0.0,10.0,0.0,0.0,0.0,10.0
1446036925737559289,433,1446036925732810974,robocape_mag,-17.4,12.3,12.9,10.0,0.0,0.0,0.0,10.0,0.0,0.0,0.0,10.0
1446036925771729789,434,1446036925766206026,robocape_mag,-17.4,12.3,12.9,10.0,0.0,0.0,0.0,10.0,0.0,0.0,0.0,10.0
1446036925804220622,435,1446036925799453020,robocape_mag,-17.4,12.3,12.9,10.0,0.0,0.0,0.0,10.0,0.0,0.0,0.0,10.0
1446036925837678664,436,1446036925832854032,robocape_mag,-17.4,12.3,12.9,10.0,0.0,0.0,0.0,10.0,0.0,0.0,0.0,10.0
1446036925872413164,437,1446036925866045951,robocape_mag,-11.7,21.0,15.0,10.0,0.0,0.0,0.0,10.0,0.0,0.0,0.0,10.0
1446036925904214039,438,1446036925899420976,robocape_mag,-11.7,21.0,15.0,10.0,0.0,0.0,0.0,10.0,0.0,0.0,0.0,10.0
1446036925941924747,439,1446036925936876058,robocape_mag,-11.7,21.0,15.0,10.0,0.0,0.0,0.0,10.0,0.0,0.0,0.0,10.0
1446036925970883914,440,1446036925966135978,robocape_mag,-11.7,21.0,15.0,10.0,0.0,0.0,0.0,10.0,0.0,0.0,0.0,10.0
1446036926005737206,441,1446036926000863075,robocape_mag,12.6,-5.7,8.7,10.0,0.0,0.0,0.0,10.0,0.0,0.0,0.0,10.0
1446036926037671539,442,1446036926032835960,robocape_mag,12.6,-5.7,8.7,10.0,0.0,0.0,0.0,10.0,0.0,0.0,0.0,10.0
1446036926070781914,443,1446036926066071987,robocape_mag,12.6,-5.7,8.7,10.0,0.0,0.0,0.0,10.0,0.0,0.0,0.0,10.0
1446036926104161331,444,1446036926099438905,robocape_mag,12.6,-5.7,8.7,10.0,0.0,0.0,0.0,10.0,0.0,0.0,0.0,10.0
1446036926137814289,445,1446036926132906913,robocape_mag,12.6,-5.7,8.7,10.0,0.0,0.0,0.0,10.0,0.0,0.0,0.0,10.0
1446036926170935331,446,1446036926166126966,robocape_mag,30.6,-8.1,-2.1,10.0,0.0,0.0,0.0,10.0,0.0,0.0,0.0,10.0
1446036926204723664,447,1446036926199594974,robocape_mag,30.6,-8.1,-2.1,10.0,0.0,0.0,0.0,10.0,0.0,0.0,0.0,10.0
1446036926238398831,448,1446036926232837915,robocape_mag,30.6,-8.1,-2.1,10.0,0.0,0.0,0.0,10.0,0.0,0.0,0.0,10.0
1446036926271453081,449,1446036926266422033,robocape_mag,30.6,-8.1,-2.1,10.0,0.0,0.0,0.0,10.0,0.0,0.0,0.0,10.0
1446036926304226539,450,1446036926299411058,robocape_mag,30.6,-8.1,-2.1,10.0,0.0,0.0,0.0,10.0,0.0,0.0,0.0,10.0
1446036926339105372,451,1446036926332894086,robocape_mag,5.7,-6.6,12.0,10.0,0.0,0.0,0.0,10.0,0.0,0.0,0.0,10.0
1446036926370913372,452,1446036926366041898,robocape_mag,5.7,-6.6,12.0,10.0,0.0,0.0,0.0,10.0,0.0,0.0,0.0,10.0
1446036926404256914,453,1446036926399446964,robocape_mag,5.7,-6.6,12.0,10.0,0.0,0.0,0.0,10.0,0.0,0.0,0.0,10.0
1446036926437781914,454,1446036926432742118,robocape_mag,5.7,-6.6,12.0,10.0,0.0,0.0,0.0,10.0,0.0,0.0,0.0,10.0
1446036926471025872,455,1446036926466156005,robocape_mag,5.7,-6.6,12.0,10.0,0.0,0.0,0.0,10.0,0.0,0.0,0.0,10.0
1446036926504366664,456,1446036926499608993,robocape_mag,-21.9,30.6,9.6,10.0,0.0,0.0,0.0,10.0,0.0,0.0,0.0,10.0
1446036926537697164,457,1446036926532934904,robocape_mag,-21.9,30.6,9.6,10.0,0.0,0.0,0.0,10.0,0.0,0.0,0.0,10.0
1446036926572709414,458,1446036926567835092,robocape_mag,-21.9,30.6,9.6,10.0,0.0,0.0,0.0,10.0,0.0,0.0,0.0,10.0
1446036926604663789,459,1446036926599809885,robocape_mag,-21.9,30.6,9.6,10.0,0.0,0.0,0.0,10.0,0.0,0.0,0.0,10.0
1446036926639027331,460,1446036926634160995,robocape_mag,-21.9,30.6,9.6,10.0,0.0,0.0,0.0,10.0,0.0,0.0,0.0,10.0
1446036926670868623,461,1446036926666188955,robocape_mag,-2.1,24.6,13.8,10.0,0.0,0.0,0.0,10.0,0.0,0.0,0.0,10.0
1446036926704497373,462,1446036926699692010,robocape_mag,-2.1,24.6,13.8,10.0,0.0,0.0,0.0,10.0,0.0,0.0,0.0,10.0
1446036926737726831,463,1446036926732738018,robocape_mag,-2.1,24.6,13.8,10.0,0.0,0.0,0.0,10.0,0.0,0.0,0.0,10.0
1446036926771032664,464,1446036926766158103,robocape_mag,-2.1,24.6,13.8,10.0,0.0,0.0,0.0,10.0,0.0,0.0,0.0,10.0
1446036926804241664,465,1446036926799442052,robocape_mag,8.7,1.2,9.6,10.0,0.0,0.0,0.0,10.0,0.0,0.0,0.0,10.0
1446036926837959373,466,1446036926833015918,robocape_mag,8.7,1.2,9.6,10.0,0.0,0.0,0.0,10.0,0.0,0.0,0.0,10.0
1446036926870950498,467,1446036926866147041,robocape_mag,8.7,1.2,9.6,10.0,0.0,0.0,0.0,10.0,0.0,0.0,0.0,10.0
1446036926904334498,468,1446036926899380922,robocape_mag,8.7,1.2,9.6,10.0,0.0,0.0,0.0,10.0,0.0,0.0,0.0,10.0
1446036926937938831,469,1446036926932990074,robocape_mag,8.7,1.2,9.6,10.0,0.0,0.0,0.0,10.0,0.0,0.0,0.0,10.0
1446036926970892539,470,1446036926966185092,robocape_mag,-8.4,22.5,15.3,10.0,0.0,0.0,0.0,10.0,0.0,0.0,0.0,10.0
1446036927004396873,471,1446036926999629020,robocape_mag,-8.4,22.5,15.3,10.0,0.0,0.0,0.0,10.0,0.0,0.0,0.0,10.0
1446036927041561331,472,1446036927036113023,robocape_mag,-8.4,22.5,15.3,10.0,0.0,0.0,0.0,10.0,0.0,0.0,0.0,10.0
1446036927070868248,473,1446036927066135883,robocape_mag,-8.4,22.5,15.3,10.0,0.0,0.0,0.0,10.0,0.0,0.0,0.0,10.0
1446036927104188831,474,1446036927099443912,robocape_mag,-8.4,22.5,15.3,10.0,0.0,0.0,0.0,10.0,0.0,0.0,0.0,10.0
1446036927138253789,475,1446036927132937908,robocape_mag,-10.2,13.5,18.3,10.0,0.0,0.0,0.0,10.0,0.0,0.0,0.0,10.0
1446036927170954206,476,1446036927166235923,robocape_mag,-10.2,13.5,18.3,10.0,0.0,0.0,0.0,10.0,0.0,0.0,0.0,10.0
1446036927204202831,477,1446036927199526071,robocape_mag,-10.2,13.5,18.3,10.0,0.0,0.0,0.0,10.0,0.0,0.0,0.0,10.0
1446036927239367914,478,1446036927232762098,robocape_mag,-10.2,13.5,18.3,10.0,0.0,0.0,0.0,10.0,0.0,0.0,0.0,10.0
1446036927270739248,479,1446036927266040086,robocape_mag,-10.2,13.5,18.3,10.0,0.0,0.0,0.0,10.0,0.0,0.0,0.0,10.0
1446036927304437498,480,1446036927299624919,robocape_mag,16.8,-17.1,8.1,10.0,0.0,0.0,0.0,10.0,0.0,0.0,0.0,10.0
1446036927339628540,481,1446036927332869052,robocape_mag,16.8,-17.1,8.1,10.0,0.0,0.0,0.0,10.0,0.0,0.0,0.0,10.0
1446036927370794040,482,1446036927366028070,robocape_mag,16.8,-17.1,8.1,10.0,0.0,0.0,0.0,10.0,0.0,0.0,0.0,10.0
1446036927404467040,483,1446036927399465084,robocape_mag,16.8,-17.1,8.1,10.0,0.0,0.0,0.0,10.0,0.0,0.0,0.0,10.0
1446036927439491248,484,1446036927433023929,robocape_mag,16.8,-17.1,8.1,10.0,0.0,0.0,0.0,10.0,0.0,0.0,0.0,10.0
1446036927471149248,485,1446036927466048955,robocape_mag,42.0,-12.9,-2.1,10.0,0.0,0.0,0.0,10.0,0.0,0.0,0.0,10.0
1446036927504608206,486,1446036927499582052,robocape_mag,42.0,-12.9,-2.1,10.0,0.0,0.0,0.0,10.0,0.0,0.0,0.0,10.0
1446036927537583873,487,1446036927532742023,robocape_mag,42.0,-12.9,-2.1,10.0,0.0,0.0,0.0,10.0,0.0,0.0,0.0,10.0
1446036927570807956,488,1446036927566020011,robocape_mag,42.0,-12.9,-2.1,10.0,0.0,0.0,0.0,10.0,0.0,0.0,0.0,10.0
1446036927604303540,489,1446036927599474906,robocape_mag,36.9,16.8,-7.2,10.0,0.0,0.0,0.0,10.0,0.0,0.0,0.0,10.0
1446036927637876415,490,1446036927632885932,robocape_mag,36.9,16.8,-7.2,10.0,0.0,0.0,0.0,10.0,0.0,0.0,0.0,10.0
1446036927672599998,491,1446036927667699098,robocape_mag,36.9,16.8,-7.2,10.0,0.0,0.0,0.0,10.0,0.0,0.0,0.0,10.0
1446036927704507331,492,1446036927699711084,robocape_mag,36.9,16.8,-7.2,10.0,0.0,0.0,0.0,10.0,0.0,0.0,0.0,10.0
1446036927737684831,493,1446036927732861995,robocape_mag,36.9,16.8,-7.2,10.0,0.0,0.0,0.0,10.0,0.0,0.0,0.0,10.0
1446036927771467290,494,1446036927766364097,robocape_mag,35.1,-3.6,1.2,10.0,0.0,0.0,0.0,10.0,0.0,0.0,0.0,10.0
1446036927804387456,495,1446036927799618959,robocape_mag,35.1,-3.6,1.2,10.0,0.0,0.0,0.0,10.0,0.0,0.0,0.0,10.0
1446036927837686790,496,1446036927832874059,robocape_mag,35.1,-3.6,1.2,10.0,0.0,0.0,0.0,10.0,0.0,0.0,0.0,10.0
1446036927872562873,497,1446036927867669105,robocape_mag,35.1,-3.6,1.2,10.0,0.0,0.0,0.0,10.0,0.0,0.0,0.0,10.0
1446036927908479206,498,1446036927899755001,robocape_mag,35.1,-3.6,1.2,10.0,0.0,0.0,0.0,10.0,0.0,0.0,0.0,10.0
1446036927937809123,499,1446036927932982921,robocape_mag,16.8,-6.3,12.9,10.0,0.0,0.0,0.0,10.0,0.0,0.0,0.0,10.0
1446036927970926331,500,1446036927966169118,robocape_mag,16.8,-6.3,12.9,10.0,0.0,0.0,0.0,10.0,0.0,0.0,0.0,10.0
1446036928005616956,501,1446036927999846935,robocape_mag,16.8,-6.3,12.9,10.0,0.0,0.0,0.0,10.0,0.0,0.0,0.0,10.0
1446036928037910207,502,1446036928032978057,robocape_mag,16.8,-6.3,12.9,10.0,0.0,0.0,0.0,10.0,0.0,0.0,0.0,10.0
1446036928075308790,503,1446036928069670915,robocape_mag,16.8,-6.3,12.9,10.0,0.0,0.0,0.0,10.0,0.0,0.0,0.0,10.0
1446036928109265415,504,1446036928102351903,robocape_mag,27.9,21.6,4.2,10.0,0.0,0.0,0.0,10.0,0.0,0.0,0.0,10.0
1446036928142783373,505,1446036928136509895,robocape_mag,27.9,21.6,4.2,10.0,0.0,0.0,0.0,10.0,0.0,0.0,0.0,10.0
1446036928177898707,506,1446036928170682907,robocape_mag,27.9,21.6,4.2,10.0,0.0,0.0,0.0,10.0,0.0,0.0,0.0,10.0
1446036928209082873,507,1446036928203404903,robocape_mag,27.9,21.6,4.2,10.0,0.0,0.0,0.0,10.0,0.0,0.0,0.0,10.0
1446036928237844082,508,1446036928232884883,robocape_mag,27.9,21.6,4.2,10.0,0.0,0.0,0.0,10.0,0.0,0.0,0.0,10.0
1446036928271211748,509,1446036928266201019,robocape_mag,36.9,18.0,2.4,10.0,0.0,0.0,0.0,10.0,0.0,0.0,0.0,10.0
1446036928304857498,510,1446036928299716949,robocape_mag,36.9,18.0,2.4,10.0,0.0,0.0,0.0,10.0,0.0,0.0,0.0,10.0
1446036928347737623,511,1446036928336704969,robocape_mag,36.9,18.0,2.4,10.0,0.0,0.0,0.0,10.0,0.0,0.0,0.0,10.0
1446036928370778873,512,1446036928366020917,robocape_mag,36.9,18.0,2.4,10.0,0.0,0.0,0.0,10.0,0.0,0.0,0.0,10.0
1446036928404759165,513,1446036928399518966,robocape_mag,12.0,28.5,8.7,10.0,0.0,0.0,0.0,10.0,0.0,0.0,0.0,10.0
1446036928439777248,514,1446036928432915925,robocape_mag,12.0,28.5,8.7,10.0,0.0,0.0,0.0,10.0,0.0,0.0,0.0,10.0
1446036928471454873,515,1446036928466365098,robocape_mag,12.0,28.5,8.7,10.0,0.0,0.0,0.0,10.0,0.0,0.0,0.0,10.0
1446036928507304332,516,1446036928502248048,robocape_mag,12.0,28.5,8.7,10.0,0.0,0.0,0.0,10.0,0.0,0.0,0.0,10.0
1446036928546231123,517,1446036928535898923,robocape_mag,12.0,28.5,8.7,10.0,0.0,0.0,0.0,10.0,0.0,0.0,0.0,10.0
1446036928571179248,518,1446036928566195964,robocape_mag,33.3,18.6,-6.6,10.0,0.0,0.0,0.0,10.0,0.0,0.0,0.0,10.0
1446036928604702832,519,1446036928599582910,robocape_mag,33.3,18.6,-6.6,10.0,0.0,0.0,0.0,10.0,0.0,0.0,0.0,10.0
1446036928638293873,520,1446036928632847070,robocape_mag,33.3,18.6,-6.6,10.0,0.0,0.0,0.0,10.0,0.0,0.0,0.0,10.0
1446036928671496998,521,1446036928666380882,robocape_mag,33.3,18.6,-6.6,10.0,0.0,0.0,0.0,10.0,0.0,0.0,0.0,10.0
1446036928704730207,522,1446036928699731111,robocape_mag,33.3,18.6,-6.6,10.0,0.0,0.0,0.0,10.0,0.0,0.0,0.0,10.0
1446036928738210374,523,1446036928733264923,robocape_mag,23.4,18.9,-4.5,10.0,0.0,0.0,0.0,10.0,0.0,0.0,0.0,10.0
1446036928772158832,524,1446036928767250061,robocape_mag,23.4,18.9,-4.5,10.0,0.0,0.0,0.0,10.0,0.0,0.0,0.0,10.0
1446036928804676332,525,1446036928799814939,robocape_mag,23.4,18.9,-4.5,10.0,0.0,0.0,0.0,10.0,0.0,0.0,0.0,10.0
1446036928837977749,526,1446036928833069086,robocape_mag,23.4,18.9,-4.5,10.0,0.0,0.0,0.0,10.0,0.0,0.0,0.0,10.0
1446036928871197707,527,1446036928866302013,robocape_mag,23.4,18.9,-4.5,10.0,0.0,0.0,0.0,10.0,0.0,0.0,0.0,10.0
1446036928904591040,528,1446036928899620056,robocape_mag,-17.1,6.0,0.6,10.0,0.0,0.0,0.0,10.0,0.0,0.0,0.0,10.0
1446036928939278040,529,1446036928934314012,robocape_mag,-17.1,6.0,0.6,10.0,0.0,0.0,0.0,10.0,0.0,0.0,0.0,10.0
1446036928972540624,530,1446036928967683076,robocape_mag,-17.1,6.0,0.6,10.0,0.0,0.0,0.0,10.0,0.0,0.0,0.0,10.0
1446036929005974499,531,1446036929001085996,robocape_mag,-17.1,6.0,0.6,10.0,0.0,0.0,0.0,10.0,0.0,0.0,0.0,10.0
1446036929039564915,532,1446036929034383058,robocape_mag,-17.1,6.0,0.6,10.0,0.0,0.0,0.0,10.0,0.0,0.0,0.0,10.0
1446036929072940832,533,1446036929068129062,robocape_mag,-30.3,-2.4,-2.4,10.0,0.0,0.0,0.0,10.0,0.0,0.0,0.0,10.0
1446036929105926624,534,1446036929101114988,robocape_mag,-30.3,-2.4,-2.4,10.0,0.0,0.0,0.0,10.0,0.0,0.0,0.0,10.0
1446036929143295499,535,1446036929135951042,robocape_mag,-30.3,-2.4,-2.4,10.0,0.0,0.0,0.0,10.0,0.0,0.0,0.0,10.0
1446036929174999082,536,1446036929169080972,robocape_mag,-30.3,-2.4,-2.4,10.0,0.0,0.0,0.0,10.0,0.0,0.0,0.0,10.0
1446036929205126915,537,1446036929200253009,robocape_mag,-22.8,20.7,-9.9,10.0,0.0,0.0,0.0,10.0,0.0,0.0,0.0,10.0
1446036929241677790,538,1446036929236545085,robocape_mag,-22.8,20.7,-9.9,10.0,0.0,0.0,0.0,10.0,0.0,0.0,0.0,10.0
1446036929270737207,539,1446036929266016960,robocape_mag,-22.8,20.7,-9.9,10.0,0.0,0.0,0.0,10.0,0.0,0.0,0.0,10.0
