%time,field.header.seq,field.header.stamp,field.header.frame_id,field.orientation.x,field.orientation.y,field.orientation.z,field.orientation.w,field.orientation_covariance0,field.orientation_covariance1,field.orientation_covariance2,field.orientation_covariance3,field.orientation_covariance4,field.orientation_covariance5,field.orientation_covariance6,field.orientation_covariance7,field.orientation_covariance8,field.angular_velocity.x,field.angular_velocity.y,field.angular_velocity.z,field.angular_velocity_covariance0,field.angular_velocity_covariance1,field.angular_velocity_covariance2,field.angular_velocity_covariance3,field.angular_velocity_covariance4,field.angular_velocity_covariance5,field.angular_velocity_covariance6,field.angular_velocity_covariance7,field.angular_velocity_covariance8,field.linear_acceleration.x,field.linear_acceleration.y,field.linear_acceleration.z,field.linear_acceleration_covariance0,field.linear_acceleration_covariance1,field.linear_acceleration_covariance2,field.linear_acceleration_covariance3,field.linear_acceleration_covariance4,field.linear_acceleration_covariance5,field.linear_acceleration_covariance6,field.linear_acceleration_covariance7,field.linear_acceleration_covariance8
1446036911805794782,1,1446036911802615880,robocape,-6.34422712311,13.6272417078,24.7324313604,0.0,10.0,0.0,0.0,0.0,10.0,0.0,0.0,0.0,10.0,-0.254731358266,0.00266316109008,0.0953411670248,1.0,0.0,0.0,0.0,1.0,0.0,0.0,0.0,1.0,-0.0646655273438,-2.36388427734,9.94771362305,0.1,0.0,0.0,0.0,0.1,0.0,0.0,0.0,0.1
1446036911836456407,2,1446036911833182096,robocape,-6.36022744633,13.626756374,24.7057564085,0.0,10.0,0.0,0.0,0.0,10.0,0.0,0.0,0.0,10.0,-0.0173105470855,0.0173105470855,0.0202400242846,1.0,0.0,0.0,0.0,1.0,0.0,0.0,0.0,1.0,0.259859619141,-2.35789672852,10.0051940918,0.1,0.0,0.0,0.0,0.1,0.0,0.0,0.0,0.1
1446036911874899782,3,1446036911866300106,robocape,-5.95227755734,13.6350152159,24.5252824278,0.0,10.0,0.0,0.0,0.0,10.0,0.0,0.0,0.0,10.0,0.227034482929,0.0263652947918,-0.0653806047614,1.0,0.0,0.0,0.0,1.0,0.0,0.0,0.0,1.0,0.102985839844,-2.17827026367,9.93933105469,0.1,0.0,0.0,0.0,0.1,0.0,0.0,0.0,0.1
1446036911903217282,4,1446036911900254964,robocape,-5.53371365763,13.6501069787,24.3079277569,0.0,10.0,0.0,0.0,0.0,10.0,0.0,0.0,0.0,10.0,0.237953443399,0.0307595105904,-0.085087996828,1.0,0.0,0.0,0.0,1.0,0.0,0.0,0.0,1.0,-0.235909423828,0.866997070313,10.193203125,0.1,0.0,0.0,0.0,0.1,0.0,0.0,0.0,0.1
1446036911936930907,5,1446036911933696031,robocape,-5.46921932303,13.6448252936,24.1990377265,0.0,10.0,0.0,0.0,0.0,10.0,0.0,0.0,0.0,10.0,0.0374174133156,0.017177389031,-0.0259658206283,1.0,0.0,0.0,0.0,1.0,0.0,0.0,0.0,1.0,0.0514929199219,-1.36037109375,10.0662670898,0.1,0.0,0.0,0.0,0.1,0.0,0.0,0.0,0.1
1446036911969356616,6,1446036911966417074,robocape,-5.23164467861,13.6248720683,23.8104660993,0.0,10.0,0.0,0.0,0.0,10.0,0.0,0.0,0.0,10.0,0.165781777857,0.018242653467,-0.177632844708,1.0,0.0,0.0,0.0,1.0,0.0,0.0,0.0,1.0,-0.117355957031,0.113763427734,9.9980090332,0.1,0.0,0.0,0.0,0.1,0.0,0.0,0.0,0.1
1446036912003076782,7,1446036912000096082,robocape,-5.63432718684,13.5940130321,23.7422164807,0.0,10.0,0.0,0.0,0.0,10.0,0.0,0.0,0.0,10.0,-0.213718677479,0.00386158358061,-0.0033289513626,1.0,0.0,0.0,0.0,1.0,0.0,0.0,0.0,1.0,-0.15328125,1.12805419922,10.0722546387,0.1,0.0,0.0,0.0,0.1,0.0,0.0,0.0,0.1
1446036912036175324,8,1446036912033225059,robocape,-6.41280593188,13.5638670334,24.0135596438,0.0,10.0,0.0,0.0,0.0,10.0,0.0,0.0,0.0,10.0,-0.457797391385,-0.00785632521573,0.180695479962,1.0,0.0,0.0,0.0,1.0,0.0,0.0,0.0,1.0,-0.180823974609,-0.847836914063,10.1069824219,0.1,0.0,0.0,0.0,0.1,0.0,0.0,0.0,0.1
1446036912069324449,9,1446036912066345930,robocape,-6.76056045053,13.5431337397,24.1444862148,0.0,10.0,0.0,0.0,0.0,10.0,0.0,0.0,0.0,10.0,-0.213186045261,0.000532632218016,0.104129598622,1.0,0.0,0.0,0.0,1.0,0.0,0.0,0.0,1.0,0.347277832031,-3.09556274414,9.91538085938,0.1,0.0,0.0,0.0,0.1,0.0,0.0,0.0,0.1
1446036912102523741,10,1446036912099472045,robocape,-6.41025444936,13.5560823135,23.996266166,0.0,10.0,0.0,0.0,0.0,10.0,0.0,0.0,0.0,10.0,0.192013914595,0.0279631914458,-0.0482032157304,1.0,0.0,0.0,0.0,1.0,0.0,0.0,0.0,1.0,0.243094482422,-3.39613769531,9.89382568359,0.1,0.0,0.0,0.0,0.1,0.0,0.0,0.0,0.1
1446036912136860866,11,1446036912133660078,robocape,-5.59780627183,13.5799068757,23.5844640531,0.0,10.0,0.0,0.0,0.0,10.0,0.0,0.0,0.0,10.0,0.470980038781,0.0416784710597,-0.192413388758,1.0,0.0,0.0,0.0,1.0,0.0,0.0,0.0,1.0,-0.0371228027344,-0.683778076172,10.1309326172,0.1,0.0,0.0,0.0,0.1,0.0,0.0,0.0,0.1
1446036912169657282,12,1446036912166398048,robocape,-5.1336616038,13.5971812477,23.5604347155,0.0,10.0,0.0,0.0,0.0,10.0,0.0,0.0,0.0,10.0,0.237154495072,0.0239684498107,0.015845808486,1.0,0.0,0.0,0.0,1.0,0.0,0.0,0.0,1.0,-0.312550048828,0.925675048828,10.0459094238,0.1,0.0,0.0,0.0,0.1,0.0,0.0,0.0,0.1
1446036912203084532,13,1446036912199904918,robocape,-5.14067205996,13.6042432402,23.6423409047,0.0,10.0,0.0,0.0,0.0,10.0,0.0,0.0,0.0,10.0,-0.0246342400832,0.0170442309765,0.0752343007947,1.0,0.0,0.0,0.0,1.0,0.0,0.0,0.0,1.0,0.126936035156,-0.829874267578,9.98363891602,0.1,0.0,0.0,0.0,0.1,0.0,0.0,0.0,0.1
1446036912236167949,14,1446036912232943058,robocape,-5.06404405336,13.5892139195,23.4011360541,0.0,10.0,0.0,0.0,0.0,10.0,0.0,0.0,0.0,10.0,0.0619184953443,0.0157126504315,-0.0985369603329,1.0,0.0,0.0,0.0,1.0,0.0,0.0,0.0,1.0,-0.0742456054688,-0.176033935547,10.0578845215,0.1,0.0,0.0,0.0,0.1,0.0,0.0,0.0,0.1
1446036912269768574,15,1446036912266191005,robocape,-5.40245039011,13.5670810801,23.3882886963,0.0,10.0,0.0,0.0,0.0,10.0,0.0,0.0,0.0,10.0,-0.186687592415,0.00599211245268,0.0251668723012,1.0,0.0,0.0,0.0,1.0,0.0,0.0,0.0,1.0,-0.0586779785156,0.290994873047,10.1033898926,0.1,0.0,0.0,0.0,0.1,0.0,0.0,0.0,0.1
1446036912303208907,16,1446036912299676895,robocape,-6.05274791911,13.5503902535,23.7102779068,0.0,10.0,0.0,0.0,0.0,10.0,0.0,0.0,0.0,10.0,-0.396012054095,-0.00279631914458,0.206261826427,1.0,0.0,0.0,0.0,1.0,0.0,0.0,0.0,1.0,-0.176033935547,-1.63220581055,10.1237475586,0.1,0.0,0.0,0.0,0.1,0.0,0.0,0.0,0.1
1446036912336368949,17,1446036912332894086,robocape,-6.30361930626,13.5461672248,23.9027702522,0.0,10.0,0.0,0.0,0.0,10.0,0.0,0.0,0.0,10.0,-0.169377045329,0.00652474467069,0.136220689758,1.0,0.0,0.0,0.0,1.0,0.0,0.0,0.0,1.0,0.331710205078,-2.91354125977,9.91897338867,0.1,0.0,0.0,0.0,0.1,0.0,0.0,0.0,0.1
1446036912370091824,18,1446036912366077899,robocape,-5.97438689826,13.5646815946,23.728751759,0.0,10.0,0.0,0.0,0.0,10.0,0.0,0.0,0.0,10.0,0.184823379651,0.0315584589174,-0.0619184953443,1.0,0.0,0.0,0.0,1.0,0.0,0.0,0.0,1.0,0.166453857422,-2.95665161133,9.9213684082,0.1,0.0,0.0,0.0,0.1,0.0,0.0,0.0,0.1
1446036912403180324,19,1446036912399807929,robocape,-5.47575222169,13.5911211814,23.6499737596,0.0,10.0,0.0,0.0,0.0,10.0,0.0,0.0,0.0,10.0,0.262055051264,0.0307595105904,-0.0126500151779,1.0,0.0,0.0,0.0,1.0,0.0,0.0,0.0,1.0,-0.161663818359,0.464633789063,10.1285375977,0.1,0.0,0.0,0.0,0.1,0.0,0.0,0.0,0.1
1446036912436468032,20,1446036912433057069,robocape,-5.27168294206,13.6196937739,23.8731679468,0.0,10.0,0.0,0.0,0.0,10.0,0.0,0.0,0.0,10.0,0.0675111336335,0.0223705531567,0.150468601589,1.0,0.0,0.0,0.0,1.0,0.0,0.0,0.0,1.0,-0.0538879394531,-0.655037841797,10.0770446777,0.1,0.0,0.0,0.0,0.1,0.0,0.0,0.0,0.1
1446036912469326324,21,1446036912466247081,robocape,-5.08395730413,13.6388914918,24.0433058759,0.0,10.0,0.0,0.0,0.0,10.0,0.0,0.0,0.0,10.0,0.066046395034,0.0198405501211,0.122239094035,1.0,0.0,0.0,0.0,1.0,0.0,0.0,0.0,1.0,-0.0203576660156,-0.790356445313,10.0638720703,0.1,0.0,0.0,0.0,0.1,0.0,0.0,0.0,0.1
1446036912503335491,22,1446036912500013113,robocape,-4.74744648895,13.6497984703,23.9500098184,0.0,10.0,0.0,0.0,0.0,10.0,0.0,0.0,0.0,10.0,0.179363899417,0.0235689756472,-0.0195742340121,1.0,0.0,0.0,0.0,1.0,0.0,0.0,0.0,1.0,-0.0131726074219,-1.07177124023,10.0315393066,0.1,0.0,0.0,0.0,0.1,0.0,0.0,0.0,0.1
1446036912536231074,23,1446036912533155918,robocape,-4.49878113285,13.6361304922,23.7135749819,0.0,10.0,0.0,0.0,0.0,10.0,0.0,0.0,0.0,10.0,0.152332814353,0.0147805440499,-0.0968059056244,1.0,0.0,0.0,0.0,1.0,0.0,0.0,0.0,1.0,0.00838256835938,0.961600341797,10.0171691895,0.1,0.0,0.0,0.0,0.1,0.0,0.0,0.0,0.1
1446036912569411491,24,1446036912566363096,robocape,-4.74407500298,13.63004429,23.8736645057,0.0,10.0,0.0,0.0,0.0,10.0,0.0,0.0,0.0,10.0,-0.15965650735,0.00932106381528,0.117978036291,1.0,0.0,0.0,0.0,1.0,0.0,0.0,0.0,1.0,-0.0934057617188,-0.4215234375,10.1884130859,0.1,0.0,0.0,0.0,0.1,0.0,0.0,0.0,0.1
1446036912604047782,25,1446036912600759983,robocape,-4.92568114345,13.6208222703,23.879606905,0.0,10.0,0.0,0.0,0.0,10.0,0.0,0.0,0.0,10.0,-0.106260127494,0.0118510668509,0.0356863586071,1.0,0.0,0.0,0.0,1.0,0.0,0.0,0.0,1.0,-0.009580078125,-1.48371459961,10.0578845215,0.1,0.0,0.0,0.0,0.1,0.0,0.0,0.0,0.1
1446036912638439199,26,1446036912635221958,robocape,-4.79424963995,13.6060503474,23.5004651032,0.0,10.0,0.0,0.0,0.0,10.0,0.0,0.0,0.0,10.0,0.109056446639,0.0194410759576,-0.172040206419,1.0,0.0,0.0,0.0,1.0,0.0,0.0,0.0,1.0,0.0490979003906,-1.02985839844,10.0842297363,0.1,0.0,0.0,0.0,0.1,0.0,0.0,0.0,0.1
1446036912670769658,27,1446036912667738914,robocape,-5.0400016058,13.5975269048,23.5497765673,0.0,10.0,0.0,0.0,0.0,10.0,0.0,0.0,0.0,10.0,-0.145674911627,0.0109189604693,0.0584563859272,1.0,0.0,0.0,0.0,1.0,0.0,0.0,0.0,1.0,-0.119750976563,-0.869392089844,10.0447119141,0.1,0.0,0.0,0.0,0.1,0.0,0.0,0.0,0.1
1446036912703592449,28,1446036912700370073,robocape,-4.96809876621,13.5806460954,23.2589840715,0.0,10.0,0.0,0.0,0.0,10.0,0.0,0.0,0.0,10.0,0.066046395034,0.016112124595,-0.125168571234,1.0,0.0,0.0,0.0,1.0,0.0,0.0,0.0,1.0,0.0814306640625,-0.992735595703,10.0171691895,0.1,0.0,0.0,0.0,0.1,0.0,0.0,0.0,0.1
1446036912737717991,29,1446036912734572887,robocape,-5.17594215489,13.5724919164,23.2911593473,0.0,10.0,0.0,0.0,0.0,10.0,0.0,0.0,0.0,10.0,-0.12357067458,0.0113184346328,0.0486026898939,1.0,0.0,0.0,0.0,1.0,0.0,0.0,0.0,1.0,-0.126936035156,-0.822689208984,10.0459094238,0.1,0.0,0.0,0.0,0.1,0.0,0.0,0.0,0.1
1446036912771176324,30,1446036912768022060,robocape,-5.06567121887,13.5639318686,23.0021656144,0.0,10.0,0.0,0.0,0.0,10.0,0.0,0.0,0.0,10.0,0.0858869451551,0.0205063403936,-0.124369622907,1.0,0.0,0.0,0.0,1.0,0.0,0.0,0.0,1.0,0.135318603516,-1.36875366211,10.0339343262,0.1,0.0,0.0,0.0,0.1,0.0,0.0,0.0,0.1
1446036912805366866,31,1446036912801616907,robocape,-5.22590034755,13.5628556542,23.143485543,0.0,10.0,0.0,0.0,0.0,10.0,0.0,0.0,0.0,10.0,-0.112784872165,0.0110521185238,0.10612696944,1.0,0.0,0.0,0.0,1.0,0.0,0.0,0.0,1.0,-0.142503662109,-0.45984375,10.0171691895,0.1,0.0,0.0,0.0,0.1,0.0,0.0,0.0,0.1
1446036912838576033,32,1446036912835220098,robocape,-4.99626484684,13.5581208521,22.9025932651,0.0,10.0,0.0,0.0,0.0,10.0,0.0,0.0,0.0,10.0,0.142479118319,0.0203731823391,-0.0997353828235,1.0,0.0,0.0,0.0,1.0,0.0,0.0,0.0,1.0,0.104183349609,-0.693358154297,10.0650695801,0.1,0.0,0.0,0.0,0.1,0.0,0.0,0.0,0.1
1446036912875078783,33,1446036912871390104,robocape,-5.1023430555,13.566693602,23.0616439605,0.0,10.0,0.0,0.0,0.0,10.0,0.0,0.0,0.0,10.0,-0.0864195773731,0.0154463343225,0.115448033255,1.0,0.0,0.0,0.0,1.0,0.0,0.0,0.0,1.0,-0.116158447266,-1.00111816406,10.0435144043,0.1,0.0,0.0,0.0,0.1,0.0,0.0,0.0,0.1
1446036912904930699,34,1446036912901226997,robocape,-4.86170449515,13.5622003168,22.835722357,0.0,10.0,0.0,0.0,0.0,10.0,0.0,0.0,0.0,10.0,0.146473859954,0.0197073920666,-0.0920122156622,1.0,0.0,0.0,0.0,1.0,0.0,0.0,0.0,1.0,0.101788330078,-0.694555664063,10.0674645996,0.1,0.0,0.0,0.0,0.1,0.0,0.0,0.0,0.1
1446036912938283199,35,1446036912934971094,robocape,-4.96188726087,13.5724505769,23.0111474907,0.0,10.0,0.0,0.0,0.0,10.0,0.0,0.0,0.0,10.0,-0.0852211548825,0.0159789665405,0.123970148743,1.0,0.0,0.0,0.0,1.0,0.0,0.0,0.0,1.0,-0.13412109375,-0.513731689453,10.0650695801,0.1,0.0,0.0,0.0,0.1,0.0,0.0,0.0,0.1
1446036912972675533,36,1446036912969429969,robocape,-4.81263600983,13.5633456894,22.6878058096,0.0,10.0,0.0,0.0,0.0,10.0,0.0,0.0,0.0,10.0,0.111186975511,0.0205063403936,-0.143411224701,1.0,0.0,0.0,0.0,1.0,0.0,0.0,0.0,1.0,0.0993933105469,-1.53520751953,10.0004040527,0.1,0.0,0.0,0.0,0.1,0.0,0.0,0.0,0.1
1446036913008096491,37,1446036913003758907,robocape,-4.68097755306,13.5433848814,22.3286605132,0.0,10.0,0.0,0.0,0.0,10.0,0.0,0.0,0.0,10.0,0.106792759712,0.0154463343225,-0.163384932876,1.0,0.0,0.0,0.0,1.0,0.0,0.0,0.0,1.0,-0.028740234375,0.104183349609,10.0518969727,0.1,0.0,0.0,0.0,0.1,0.0,0.0,0.0,0.1
1446036913039615991,38,1446036913035813093,robocape,-4.89603651389,13.5148014194,22.1593409023,0.0,10.0,0.0,0.0,0.0,10.0,0.0,0.0,0.0,10.0,-0.100268015041,0.00639158661619,-0.0615190211808,1.0,0.0,0.0,0.0,1.0,0.0,0.0,0.0,1.0,-0.05748046875,0.197589111328,10.0387243652,0.1,0.0,0.0,0.0,0.1,0.0,0.0,0.0,0.1
1446036913073486033,39,1446036913070424079,robocape,-5.2972093465,13.4824195451,22.0654547548,0.0,10.0,0.0,0.0,0.0,10.0,0.0,0.0,0.0,10.0,-0.208392355299,0.00292947719909,-0.0207726565026,1.0,0.0,0.0,0.0,1.0,0.0,0.0,0.0,1.0,-0.076640625,-0.819096679688,10.0782421875,0.1,0.0,0.0,0.0,0.1,0.0,0.0,0.0,0.1
1446036913108821866,40,1446036913105217933,robocape,-5.64007930694,13.4473177102,21.9590866563,0.0,10.0,0.0,0.0,0.0,10.0,0.0,0.0,0.0,10.0,-0.176567580272,0.00199737081756,-0.0279631914458,1.0,0.0,0.0,0.0,1.0,0.0,0.0,0.0,1.0,0.0275427246094,-1.48610961914,10.0315393066,0.1,0.0,0.0,0.0,0.1,0.0,0.0,0.0,0.1
1446036913141106491,41,1446036913136903047,robocape,-5.80352532946,13.425404531,21.8537315188,0.0,10.0,0.0,0.0,0.0,10.0,0.0,0.0,0.0,10.0,-0.0825579937925,0.00838895743375,-0.0279631914458,1.0,0.0,0.0,0.0,1.0,0.0,0.0,0.0,1.0,0.0371228027344,-1.60466308594,10.0770446777,0.1,0.0,0.0,0.0,0.1,0.0,0.0,0.0,0.1
1446036913173221991,42,1446036913169737100,robocape,-5.78688180354,13.4209755046,21.7911097742,0.0,10.0,0.0,0.0,0.0,10.0,0.0,0.0,0.0,10.0,0.0066579027252,0.0151800182135,-0.00572579634367,1.0,0.0,0.0,0.0,1.0,0.0,0.0,0.0,1.0,0.0898132324219,-1.55915771484,10.0255517578,0.1,0.0,0.0,0.0,0.1,0.0,0.0,0.0,0.1
1446036913206913533,43,1446036913203319072,robocape,-5.64343488771,13.4294441077,21.7513796917,0.0,10.0,0.0,0.0,0.0,10.0,0.0,0.0,0.0,10.0,0.0705737688871,0.0205063403936,0.00612527050718,1.0,0.0,0.0,0.0,1.0,0.0,0.0,0.0,1.0,0.0586779785156,-1.39749389648,10.0375268555,0.1,0.0,0.0,0.0,0.1,0.0,0.0,0.0,0.1
1446036913241107699,44,1446036913237894058,robocape,-5.41093452316,13.4436643664,21.7074185208,0.0,10.0,0.0,0.0,0.0,10.0,0.0,0.0,0.0,10.0,0.1182443524,0.0233026595382,0.0034621094171,1.0,0.0,0.0,0.0,1.0,0.0,0.0,0.0,1.0,0.028740234375,-1.01189575195,10.075847168,0.1,0.0,0.0,0.0,0.1,0.0,0.0,0.0,0.1
1446036913273497533,45,1446036913270212888,robocape,-5.18783652954,13.4615598858,21.7178435356,0.0,10.0,0.0,0.0,0.0,10.0,0.0,0.0,0.0,10.0,0.106526443603,0.0233026595382,0.0323574072445,1.0,0.0,0.0,0.0,1.0,0.0,0.0,0.0,1.0,-0.00718505859375,-0.334105224609,10.0447119141,0.1,0.0,0.0,0.0,0.1,0.0,0.0,0.0,0.1
1446036913306537824,46,1446036913302990913,robocape,-5.29299610174,13.4936450487,22.0404600476,0.0,10.0,0.0,0.0,0.0,10.0,0.0,0.0,0.0,10.0,-0.106792759712,0.0211721306661,0.200669188137,1.0,0.0,0.0,0.0,1.0,0.0,0.0,0.0,1.0,-0.167651367188,-1.00111816406,10.0566870117,0.1,0.0,0.0,0.0,0.1,0.0,0.0,0.0,0.1
1446036913339848533,47,1446036913335947036,robocape,-5.06617671829,13.5147854632,21.9754192298,0.0,10.0,0.0,0.0,0.0,10.0,0.0,0.0,0.0,10.0,0.1182443524,0.0278300333913,-0.0067910607797,1.0,0.0,0.0,0.0,1.0,0.0,0.0,0.0,1.0,0.196391601563,-1.74836425781,10.0207617188,0.1,0.0,0.0,0.0,0.1,0.0,0.0,0.0,0.1
1446036913372682408,48,1446036913369416952,robocape,-4.71564152482,13.5290203416,21.8814727815,0.0,10.0,0.0,0.0,0.0,10.0,0.0,0.0,0.0,10.0,0.187486540742,0.0245010820287,-0.0235689756472,1.0,0.0,0.0,0.0,1.0,0.0,0.0,0.0,1.0,-0.111368408203,-0.690963134766,10.039921875,0.1,0.0,0.0,0.0,0.1,0.0,0.0,0.0,0.1
1446036913405893491,49,1446036913402535915,robocape,-4.47294663504,13.5346505914,21.7489666932,0.0,10.0,0.0,0.0,0.0,10.0,0.0,0.0,0.0,10.0,0.136087531703,0.0213052887206,-0.0439421579863,1.0,0.0,0.0,0.0,1.0,0.0,0.0,0.0,1.0,-0.0371228027344,-0.143701171875,10.0890197754,0.1,0.0,0.0,0.0,0.1,0.0,0.0,0.0,0.1
1446036913440569075,50,1446036913436379909,robocape,-4.47366041394,13.5312000581,21.6801528704,0.0,10.0,0.0,0.0,0.0,10.0,0.0,0.0,0.0,10.0,0.0,0.0154463343225,-0.00945422186978,1.0,0.0,0.0,0.0,1.0,0.0,0.0,0.0,1.0,-0.067060546875,0.0730480957031,10.0279467773,0.1,0.0,0.0,0.0,0.1,0.0,0.0,0.0,0.1
1446036913472537741,51,1446036913469264030,robocape,-4.67721302644,13.518941913,21.64631523,0.0,10.0,0.0,0.0,0.0,10.0,0.0,0.0,0.0,10.0,-0.111320133565,0.0105194863058,0.00972053797879,1.0,0.0,0.0,0.0,1.0,0.0,0.0,0.0,1.0,0.00838256835938,-0.258662109375,10.0530944824,0.1,0.0,0.0,0.0,0.1,0.0,0.0,0.0,0.1
1446036913506392825,52,1446036913502855062,robocape,-4.95077056572,13.4988881787,21.5879874118,0.0,10.0,0.0,0.0,0.0,10.0,0.0,0.0,0.0,10.0,-0.145275437464,0.00745685105222,-0.0031957933081,1.0,0.0,0.0,0.0,1.0,0.0,0.0,0.0,1.0,-0.047900390625,-0.8813671875,10.0746496582,0.1,0.0,0.0,0.0,0.1,0.0,0.0,0.0,0.1
1446036913539415325,53,1446036913536328077,robocape,-5.14789454781,13.4845535654,21.5345126283,0.0,10.0,0.0,0.0,0.0,10.0,0.0,0.0,0.0,10.0,-0.105993811385,0.0101200121423,-0.000798948327024,1.0,0.0,0.0,0.0,1.0,0.0,0.0,0.0,1.0,0.0395178222656,-1.21187988281,10.080637207,0.1,0.0,0.0,0.0,0.1,0.0,0.0,0.0,0.1
1446036913572158200,54,1446036913568876028,robocape,-5.1930036149,13.4799343771,21.4786670068,0.0,10.0,0.0,0.0,0.0,10.0,0.0,0.0,0.0,10.0,-0.0258326625738,0.0147805440499,-0.00253000303558,1.0,0.0,0.0,0.0,1.0,0.0,0.0,0.0,1.0,0.0586779785156,-1.50766479492,10.0590820312,0.1,0.0,0.0,0.0,0.1,0.0,0.0,0.0,0.1
1446036913605347158,55,1446036913602191925,robocape,-5.14826792002,13.487007723,21.5289554665,0.0,10.0,0.0,0.0,0.0,10.0,0.0,0.0,0.0,10.0,0.00772316716123,0.016911072922,0.0535295379106,1.0,0.0,0.0,0.0,1.0,0.0,0.0,0.0,1.0,0.0263452148438,-1.87530029297,10.0291442871,0.1,0.0,0.0,0.0,0.1,0.0,0.0,0.0,0.1
1446036913638298491,56,1446036913634308099,robocape,-5.06128893509,13.5113049351,21.6799744777,0.0,10.0,0.0,0.0,0.0,10.0,0.0,0.0,0.0,10.0,0.016911072922,0.0225037112112,0.107591708039,1.0,0.0,0.0,0.0,1.0,0.0,0.0,0.0,1.0,0.0383203125,-0.682580566406,10.1081799316,0.1,0.0,0.0,0.0,0.1,0.0,0.0,0.0,0.1
1446036913670613116,57,1446036913667464017,robocape,-4.74946935681,13.541226769,21.8300179851,0.0,10.0,0.0,0.0,0.0,10.0,0.0,0.0,0.0,10.0,0.135554899485,0.0250337142467,0.10612696944,1.0,0.0,0.0,0.0,1.0,0.0,0.0,0.0,1.0,0.0562829589844,-2.20820800781,10.0363293457,0.1,0.0,0.0,0.0,0.1,0.0,0.0,0.0,0.1
1446036913704029408,58,1446036913700886964,robocape,-4.19949358324,13.5634724566,21.6663648947,0.0,10.0,0.0,0.0,0.0,10.0,0.0,0.0,0.0,10.0,0.30186930956,0.0296942461544,-0.0616521792353,1.0,0.0,0.0,0.0,1.0,0.0,0.0,0.0,1.0,0.00838256835938,-0.389190673828,10.0902172852,0.1,0.0,0.0,0.0,0.1,0.0,0.0,0.0,0.1
1446036913737515075,59,1446036913734074115,robocape,-3.8178647355,13.5581999943,21.5194750805,0.0,10.0,0.0,0.0,0.0,10.0,0.0,0.0,0.0,10.0,0.211721306661,0.0147805440499,-0.0533963798561,1.0,0.0,0.0,0.0,1.0,0.0,0.0,0.0,1.0,-0.0395178222656,0.221539306641,10.0351318359,0.1,0.0,0.0,0.0,0.1,0.0,0.0,0.0,0.1
1446036913772275825,60,1446036913769208908,robocape,-3.83863848101,13.5551224221,21.4694875525,0.0,10.0,0.0,0.0,0.0,10.0,0.0,0.0,0.0,10.0,-0.0121173829599,0.0149137021044,0.0,1.0,0.0,0.0,0.0,1.0,0.0,0.0,0.0,1.0,-0.0526904296875,0.359252929688,10.0123791504,0.1,0.0,0.0,0.0,0.1,0.0,0.0,0.0,0.1
1446036913803558241,61,1446036913800458908,robocape,-4.11266058221,13.5492494004,21.4388583552,0.0,10.0,0.0,0.0,0.0,10.0,0.0,0.0,0.0,10.0,-0.147938598554,0.0138484376684,0.0114515926873,1.0,0.0,0.0,0.0,1.0,0.0,0.0,0.0,1.0,-0.0383203125,0.111368408203,10.0854272461,0.1,0.0,0.0,0.0,0.1,0.0,0.0,0.0,0.1
1446036913836261616,62,1446036913833137989,robocape,-4.47001094287,13.5273747066,21.368134558,0.0,10.0,0.0,0.0,0.0,10.0,0.0,0.0,0.0,10.0,-0.186953908524,0.0067910607797,-0.0099868540878,1.0,0.0,0.0,0.0,1.0,0.0,0.0,0.0,1.0,-0.0311352539063,-0.553249511719,10.0530944824,0.1,0.0,0.0,0.0,0.1,0.0,0.0,0.0,0.1
1446036913869734241,63,1446036913866709947,robocape,-4.89215616199,13.5089335144,21.376648477,0.0,10.0,0.0,0.0,0.0,10.0,0.0,0.0,0.0,10.0,-0.231828172891,0.0066579027252,0.032490565299,1.0,0.0,0.0,0.0,1.0,0.0,0.0,0.0,1.0,-0.009580078125,-0.700543212891,10.1177600098,0.1,0.0,0.0,0.0,0.1,0.0,0.0,0.0,0.1
1446036913903084366,64,1446036913899888038,robocape,-5.13552444586,13.4984169613,21.5145697273,0.0,10.0,0.0,0.0,0.0,10.0,0.0,0.0,0.0,10.0,-0.154995975443,0.00585895439817,0.100401173096,1.0,0.0,0.0,0.0,1.0,0.0,0.0,0.0,1.0,0.0802331542969,-3.16621582031,10.0303417969,0.1,0.0,0.0,0.0,0.1,0.0,0.0,0.0,0.1
1446036913935988366,65,1446036913932959079,robocape,-4.80722407736,13.5118853406,21.3593089861,0.0,10.0,0.0,0.0,0.0,10.0,0.0,0.0,0.0,10.0,0.183758115215,0.0260989786828,-0.0565921731642,1.0,0.0,0.0,0.0,1.0,0.0,0.0,0.0,1.0,0.199984130859,-1.55796020508,10.080637207,0.1,0.0,0.0,0.0,0.1,0.0,0.0,0.0,0.1
1446036913969855283,66,1446036913966819047,robocape,-4.39415577078,13.5290989924,21.2494579488,0.0,10.0,0.0,0.0,0.0,10.0,0.0,0.0,0.0,10.0,0.22290658324,0.0259658206283,-0.033289513626,1.0,0.0,0.0,0.0,1.0,0.0,0.0,0.0,1.0,-0.116158447266,-1.04183349609,10.0830322266,0.1,0.0,0.0,0.0,0.1,0.0,0.0,0.0,0.1
1446036914002747825,67,1446036913999658107,robocape,-4.17227694304,13.549226079,21.3094835079,0.0,10.0,0.0,0.0,0.0,10.0,0.0,0.0,0.0,10.0,0.100800647259,0.0234358175927,0.0575242795457,1.0,0.0,0.0,0.0,1.0,0.0,0.0,0.0,1.0,-0.0047900390625,0.265847167969,10.0997973633,0.1,0.0,0.0,0.0,0.1,0.0,0.0,0.0,0.1
1446036914036249033,68,1446036914033195018,robocape,-4.05729461326,13.576334597,21.5489059942,0.0,10.0,0.0,0.0,0.0,10.0,0.0,0.0,0.0,10.0,0.0215716048296,0.0231695014837,0.153398078789,1.0,0.0,0.0,0.0,1.0,0.0,0.0,0.0,1.0,0.126936035156,-1.69088378906,10.0866247559,0.1,0.0,0.0,0.0,0.1,0.0,0.0,0.0,0.1
1446036914069561658,69,1446036914066315889,robocape,-3.67386478517,13.5787938417,21.4167670094,0.0,10.0,0.0,0.0,0.0,10.0,0.0,0.0,0.0,10.0,0.210922358334,0.0183758115215,-0.0454068965859,1.0,0.0,0.0,0.0,1.0,0.0,0.0,0.0,1.0,-0.0455053710938,-0.393980712891,10.1429077148,0.1,0.0,0.0,0.0,0.1,0.0,0.0,0.0,0.1
1446036914103060033,70,1446036914099936962,robocape,-3.39714247477,13.58125208,21.2995520846,0.0,10.0,0.0,0.0,0.0,10.0,0.0,0.0,0.0,10.0,0.153264920734,0.0181094954125,-0.0371510972066,1.0,0.0,0.0,0.0,1.0,0.0,0.0,0.0,1.0,-0.0143701171875,-0.132923583984,10.0710571289,0.1,0.0,0.0,0.0,0.1,0.0,0.0,0.0,0.1
1446036914136271242,71,1446036914133160114,robocape,-3.30399838277,13.5806138235,21.1877360393,0.0,10.0,0.0,0.0,0.0,10.0,0.0,0.0,0.0,10.0,0.0563258570552,0.0167779148675,-0.0336889877895,1.0,0.0,0.0,0.0,1.0,0.0,0.0,0.0,1.0,-0.0431103515625,-0.0550854492188,10.024354248,0.1,0.0,0.0,0.0,0.1,0.0,0.0,0.0,0.1
1446036914169920450,72,1446036914166836023,robocape,-3.35944243525,13.5857876485,21.2531162396,0.0,10.0,0.0,0.0,0.0,10.0,0.0,0.0,0.0,10.0,-0.0444747902043,0.0170442309765,0.0607200728538,1.0,0.0,0.0,0.0,1.0,0.0,0.0,0.0,1.0,-0.0311352539063,0.508941650391,10.019564209,0.1,0.0,0.0,0.0,0.1,0.0,0.0,0.0,0.1
1446036914202957075,73,1446036914199805974,robocape,-3.64519151758,13.5927342996,21.4052146076,0.0,10.0,0.0,0.0,0.0,10.0,0.0,0.0,0.0,10.0,-0.176967054436,0.016911072922,0.107991182203,1.0,0.0,0.0,0.0,1.0,0.0,0.0,0.0,1.0,-0.0167651367188,-1.46575195313,9.98723144531,0.1,0.0,0.0,0.0,0.1,0.0,0.0,0.0,0.1
1446036914236045992,74,1446036914232944011,robocape,-3.87127205796,13.5912681202,21.4483954257,0.0,10.0,0.0,0.0,0.0,10.0,0.0,0.0,0.0,10.0,-0.131959632013,0.0143810698864,0.050200586548,1.0,0.0,0.0,0.0,1.0,0.0,0.0,0.0,1.0,-0.01916015625,-0.232316894531,10.0626745605,0.1,0.0,0.0,0.0,0.1,0.0,0.0,0.0,0.1
1446036914269339367,75,1446036914266246080,robocape,-3.86038273493,13.5932823943,21.4435565052,0.0,10.0,0.0,0.0,0.0,10.0,0.0,0.0,0.0,10.0,-0.00133158054504,0.0165115987585,0.0238352917562,1.0,0.0,0.0,0.0,1.0,0.0,0.0,0.0,1.0,0.0299377441406,-2.51357299805,9.96328125,0.1,0.0,0.0,0.0,0.1,0.0,0.0,0.0,0.1
1446036914303231575,76,1446036914300198078,robocape,-3.63531472769,13.6028719798,21.4010875227,0.0,10.0,0.0,0.0,0.0,10.0,0.0,0.0,0.0,10.0,0.116246981582,0.0206394984481,0.00306263525359,1.0,0.0,0.0,0.0,1.0,0.0,0.0,0.0,1.0,0.0239501953125,-0.307760009766,10.1165625,0.1,0.0,0.0,0.0,0.1,0.0,0.0,0.0,0.1
1446036914336153658,77,1446036914333093881,robocape,-3.33497929635,13.6193137712,21.455039708,0.0,10.0,0.0,0.0,0.0,10.0,0.0,0.0,0.0,10.0,0.14367754081,0.0221042370477,0.0537958540196,1.0,0.0,0.0,0.0,1.0,0.0,0.0,0.0,1.0,-0.0694555664063,-1.53880004883,10.1081799316,0.1,0.0,0.0,0.0,0.1,0.0,0.0,0.0,0.1
1446036914369117242,78,1446036914366060972,robocape,-2.8917011133,13.6262766547,21.4191575599,0.0,10.0,0.0,0.0,0.0,10.0,0.0,0.0,0.0,10.0,0.230762908455,0.0183758115215,0.00519316412565,1.0,0.0,0.0,0.0,1.0,0.0,0.0,0.0,1.0,0.00359252929688,-0.0993933105469,10.0135766602,0.1,0.0,0.0,0.0,0.1,0.0,0.0,0.0,0.1
1446036914402575325,79,1446036914399504899,robocape,-2.45752752139,13.6317155053,21.3629984843,0.0,10.0,0.0,0.0,0.0,10.0,0.0,0.0,0.0,10.0,0.229031853747,0.0178431793035,-0.00559263828917,1.0,0.0,0.0,0.0,1.0,0.0,0.0,0.0,1.0,-0.0131726074219,-1.59867553711,10.1177600098,0.1,0.0,0.0,0.0,0.1,0.0,0.0,0.0,0.1
1446036914435938825,80,1446036914432878017,robocape,-1.74276175152,13.6301426292,21.0275467803,0.0,10.0,0.0,0.0,0.0,10.0,0.0,0.0,0.0,10.0,0.412523652853,0.0151800182135,-0.154729659334,1.0,0.0,0.0,0.0,1.0,0.0,0.0,0.0,1.0,0.0395178222656,-1.25139770508,10.0051940918,0.1,0.0,0.0,0.0,0.1,0.0,0.0,0.0,0.1
1446036914469329742,81,1446036914466315031,robocape,-1.37131213149,13.6542701936,21.0034151764,0.0,10.0,0.0,0.0,0.0,10.0,0.0,0.0,0.0,10.0,0.193212337085,0.0275637172823,0.0114515926873,1.0,0.0,0.0,0.0,1.0,0.0,0.0,0.0,1.0,-0.1916015625,0.638272705078,9.95489868164,0.1,0.0,0.0,0.0,0.1,0.0,0.0,0.0,0.1
1446036914502719783,82,1446036914499685049,robocape,-1.15115616015,13.6630675924,21.0792388509,0.0,10.0,0.0,0.0,0.0,10.0,0.0,0.0,0.0,10.0,0.101466437532,0.0198405501211,0.0643153403254,1.0,0.0,0.0,0.0,1.0,0.0,0.0,0.0,1.0,0.0131726074219,-0.562829589844,10.0674645996,0.1,0.0,0.0,0.0,0.1,0.0,0.0,0.0,0.1
1446036914535769367,83,1446036914532766103,robocape,-0.962713993695,13.6656531872,21.0069305959,0.0,10.0,0.0,0.0,0.0,10.0,0.0,0.0,0.0,10.0,0.103863282513,0.0165115987585,-0.0138484376684,1.0,0.0,0.0,0.0,1.0,0.0,0.0,0.0,1.0,-0.0562829589844,0.208366699219,9.97286132813,0.1,0.0,0.0,0.0,0.1,0.0,0.0,0.0,0.1
1446036914569815742,84,1446036914566513061,robocape,-0.952860679936,13.6673150177,20.9538270101,0.0,10.0,0.0,0.0,0.0,10.0,0.0,0.0,0.0,10.0,0.00785632521573,0.016378440704,-0.0033289513626,1.0,0.0,0.0,0.0,1.0,0.0,0.0,0.0,1.0,-0.00119750976563,0.534089355469,9.96807128906,0.1,0.0,0.0,0.0,0.1,0.0,0.0,0.0,0.1
1446036914602920450,85,1446036914599540948,robocape,-1.13898781766,13.6667886186,20.8862595729,0.0,10.0,0.0,0.0,0.0,10.0,0.0,0.0,0.0,10.0,-0.0932106381528,0.015579492377,-0.0105194863058,1.0,0.0,0.0,0.0,1.0,0.0,0.0,0.0,1.0,-0.00119750976563,0.0802331542969,10.0207617188,0.1,0.0,0.0,0.0,0.1,0.0,0.0,0.0,0.1
1446036914636275283,86,1446036914632838964,robocape,-1.38138390062,13.6651172957,20.8265670013,0.0,10.0,0.0,0.0,0.0,10.0,0.0,0.0,0.0,10.0,-0.123970148743,0.0151800182135,-0.00625842856169,1.0,0.0,0.0,0.0,1.0,0.0,0.0,0.0,1.0,-0.0047900390625,-0.274229736328,10.0483044434,0.1,0.0,0.0,0.0,0.1,0.0,0.0,0.0,0.1
1446036914669808492,87,1446036914666332960,robocape,-1.53497372812,13.6626284865,20.759896087,0.0,10.0,0.0,0.0,0.0,10.0,0.0,0.0,0.0,10.0,-0.0766990393943,0.0146473859954,-0.0102531701968,1.0,0.0,0.0,0.0,1.0,0.0,0.0,0.0,1.0,-0.0167651367188,-0.837059326172,10.1165625,0.1,0.0,0.0,0.0,0.1,0.0,0.0,0.0,0.1
1446036914703098408,88,1446036914699820041,robocape,-1.55198395765,13.6621743608,20.693872174,0.0,10.0,0.0,0.0,0.0,10.0,0.0,0.0,0.0,10.0,-0.00519316412565,0.0154463343225,-0.0103863282513,1.0,0.0,0.0,0.0,1.0,0.0,0.0,0.0,1.0,0.0131726074219,-0.882564697266,10.1093774414,0.1,0.0,0.0,0.0,0.1,0.0,0.0,0.0,0.1
1446036914736193450,89,1446036914732937097,robocape,-1.54225321583,13.6647665304,20.6586234143,0.0,10.0,0.0,0.0,0.0,10.0,0.0,0.0,0.0,10.0,0.00492684801665,0.016911072922,0.00572579634367,1.0,0.0,0.0,0.0,1.0,0.0,0.0,0.0,1.0,0.0,-0.158071289063,10.0914147949,0.1,0.0,0.0,0.0,0.1,0.0,0.0,0.0,0.1
1446036914770504200,90,1446036914767446041,robocape,-1.65234735581,13.6819910134,21.0627629898,0.0,10.0,0.0,0.0,0.0,10.0,0.0,0.0,0.0,10.0,-0.11411645271,0.0237021337017,0.238352917562,1.0,0.0,0.0,0.0,1.0,0.0,0.0,0.0,1.0,0.0359252929688,-0.675395507813,10.060279541,0.1,0.0,0.0,0.0,0.1,0.0,0.0,0.0,0.1
1446036914803069784,91,1446036914799792051,robocape,-1.45847881757,13.6952331783,21.295370278,0.0,10.0,0.0,0.0,0.0,10.0,0.0,0.0,0.0,10.0,0.0672448175245,0.0217047628841,0.14753912439,1.0,0.0,0.0,0.0,1.0,0.0,0.0,0.0,1.0,-0.0215551757813,-2.05013671875,10.0734521484,0.1,0.0,0.0,0.0,0.1,0.0,0.0,0.0,0.1
1446036914836107534,92,1446036914832986116,robocape,-1.02169702579,13.7017362599,21.2615561663,0.0,10.0,0.0,0.0,0.0,10.0,0.0,0.0,0.0,10.0,0.229031853747,0.018242653467,0.00612527050718,1.0,0.0,0.0,0.0,1.0,0.0,0.0,0.0,1.0,0.0562829589844,0.0407153320313,9.97884887695,0.1,0.0,0.0,0.0,0.1,0.0,0.0,0.0,0.1
1446036914869447284,93,1446036914866364955,robocape,-0.625114924499,13.7079156679,21.2716577788,0.0,10.0,0.0,0.0,0.0,10.0,0.0,0.0,0.0,10.0,0.20279971701,0.0183758115215,0.0294279300454,1.0,0.0,0.0,0.0,1.0,0.0,0.0,0.0,1.0,0.0610729980469,-0.307760009766,10.1261425781,0.1,0.0,0.0,0.0,0.1,0.0,0.0,0.0,0.1
1446036914902765534,94,1446036914899671077,robocape,-0.314424462549,13.7107220712,21.1238085983,0.0,10.0,0.0,0.0,0.0,10.0,0.0,0.0,0.0,10.0,0.178165476926,0.0157126504315,-0.0537958540196,1.0,0.0,0.0,0.0,1.0,0.0,0.0,0.0,1.0,-0.137713623047,0.754431152344,10.0255517578,0.1,0.0,0.0,0.0,0.1,0.0,0.0,0.0,0.1
1446036914937426284,95,1446036914934276103,robocape,-0.315122665271,13.7070395729,20.9213395054,0.0,10.0,0.0,0.0,0.0,10.0,0.0,0.0,0.0,10.0,0.0219710789932,0.0121173829599,-0.0821585196289,1.0,0.0,0.0,0.0,1.0,0.0,0.0,0.0,1.0,0.107775878906,1.05261108398,9.94292358398,0.1,0.0,0.0,0.0,0.1,0.0,0.0,0.0,0.1
1446036914971053075,96,1446036914967950105,robocape,-0.654369714188,13.7040821739,20.7236775235,0.0,10.0,0.0,0.0,0.0,10.0,0.0,0.0,0.0,10.0,-0.156327555988,0.0133158054504,-0.0790958843754,1.0,0.0,0.0,0.0,1.0,0.0,0.0,0.0,1.0,0.00359252929688,0.568817138672,9.98244140625,0.1,0.0,0.0,0.0,0.1,0.0,0.0,0.0,0.1
1446036915004045992,97,1446036915000936031,robocape,-1.20639202093,13.6928676501,20.555852134,0.0,10.0,0.0,0.0,0.0,10.0,0.0,0.0,0.0,10.0,-0.272175063406,0.0101200121423,-0.0631169178349,1.0,0.0,0.0,0.0,1.0,0.0,0.0,0.0,1.0,-0.110170898438,0.0419128417969,10.0495019531,0.1,0.0,0.0,0.0,0.1,0.0,0.0,0.0,0.1
1446036915038053700,98,1446036915034523010,robocape,-2.11504185943,13.6861459401,20.8684614215,0.0,10.0,0.0,0.0,0.0,10.0,0.0,0.0,0.0,10.0,-0.521713257547,0.0126500151779,0.191481282377,1.0,0.0,0.0,0.0,1.0,0.0,0.0,0.0,1.0,-0.0383203125,0.427510986328,9.96807128906,0.1,0.0,0.0,0.0,0.1,0.0,0.0,0.0,0.1
1446036915069993409,99,1446036915066637039,robocape,-3.09032464614,13.6601859394,21.339204142,0.0,10.0,0.0,0.0,0.0,10.0,0.0,0.0,0.0,10.0,-0.578838062929,-0.00146473859954,0.276302963096,1.0,0.0,0.0,0.0,1.0,0.0,0.0,0.0,1.0,-0.0131726074219,-2.88599853516,10.1812280273,0.1,0.0,0.0,0.0,0.1,0.0,0.0,0.0,0.1
1446036915104676534,100,1446036915101372957,robocape,-3.28411744195,13.6562669809,21.4042770477,0.0,10.0,0.0,0.0,0.0,10.0,0.0,0.0,0.0,10.0,-0.117045929909,0.0129163312869,0.0611195470173,1.0,0.0,0.0,0.0,1.0,0.0,0.0,0.0,1.0,0.158071289063,-3.24884399414,10.024354248,0.1,0.0,0.0,0.0,0.1,0.0,0.0,0.0,0.1
1446036915138219992,101,1446036915134744882,robocape,-2.81980841579,13.6804324421,21.1057904012,0.0,10.0,0.0,0.0,0.0,10.0,0.0,0.0,0.0,10.0,0.275637172823,0.0315584589174,-0.133024896449,1.0,0.0,0.0,0.0,1.0,0.0,0.0,0.0,1.0,-0.00359252929688,-1.69806884766,9.99441650391,0.1,0.0,0.0,0.0,0.1,0.0,0.0,0.0,0.1
1446036915171604325,102,1446036915167998075,robocape,-2.2078139896,13.6813886097,20.7506843216,0.0,10.0,0.0,0.0,0.0,10.0,0.0,0.0,0.0,10.0,0.36099148576,0.0181094954125,-0.164849671476,1.0,0.0,0.0,0.0,1.0,0.0,0.0,0.0,1.0,-0.0227526855469,-0.256267089844,10.0447119141,0.1,0.0,0.0,0.0,0.1,0.0,0.0,0.0,0.1
1446036915204763159,103,1446036915201353073,robocape,-2.00394513538,13.6881631969,20.8427989646,0.0,10.0,0.0,0.0,0.0,10.0,0.0,0.0,0.0,10.0,0.0898816867902,0.0178431793035,0.0725711397047,1.0,0.0,0.0,0.0,1.0,0.0,0.0,0.0,1.0,-0.0550854492188,0.217946777344,10.0686621094,0.1,0.0,0.0,0.0,0.1,0.0,0.0,0.0,0.1
1446036915239967409,104,1446036915236054897,robocape,-1.63202907642,13.6949184622,20.6918572072,0.0,10.0,0.0,0.0,0.0,10.0,0.0,0.0,0.0,10.0,0.209457619735,0.0189084437396,-0.0561926990007,1.0,0.0,0.0,0.0,1.0,0.0,0.0,0.0,1.0,-0.0155676269531,-1.0346484375,10.1045874023,0.1,0.0,0.0,0.0,0.1,0.0,0.0,0.0,0.1
1446036915274342409,105,1446036915270340919,robocape,-1.14737313472,13.6985156998,20.3719643646,0.0,10.0,0.0,0.0,0.0,10.0,0.0,0.0,0.0,10.0,0.290550874928,0.016644756813,-0.145941227736,1.0,0.0,0.0,0.0,1.0,0.0,0.0,0.0,1.0,-0.0311352539063,-0.221539306641,10.0866247559,0.1,0.0,0.0,0.0,0.1,0.0,0.0,0.0,0.1
1446036915306248825,106,1446036915301753997,robocape,-0.921076035182,13.698327849,20.2447506622,0.0,10.0,0.0,0.0,0.0,10.0,0.0,0.0,0.0,10.0,0.130894367577,0.0146473859954,-0.0440753160408,1.0,0.0,0.0,0.0,1.0,0.0,0.0,0.0,1.0,-0.0742456054688,0.880169677734,10.0435144043,0.1,0.0,0.0,0.0,0.1,0.0,0.0,0.0,0.1
1446036915338834284,107,1446036915334813117,robocape,-1.16597127004,13.7017435467,20.3903663946,0.0,10.0,0.0,0.0,0.0,10.0,0.0,0.0,0.0,10.0,-0.151001233807,0.017976337358,0.100800647259,1.0,0.0,0.0,0.0,1.0,0.0,0.0,0.0,1.0,-0.01916015625,1.05740112305,10.0171691895,0.1,0.0,0.0,0.0,0.1,0.0,0.0,0.0,0.1
1446036915373441825,108,1446036915370148897,robocape,-1.74472477868,13.7062444637,20.9797565785,0.0,10.0,0.0,0.0,0.0,10.0,0.0,0.0,0.0,10.0,-0.383628355026,0.017976337358,0.336357245677,1.0,0.0,0.0,0.0,1.0,0.0,0.0,0.0,1.0,-0.0359252929688,-0.799936523438,10.0423168945,0.1,0.0,0.0,0.0,0.1,0.0,0.0,0.0,0.1
1446036915407271909,109,1446036915403397083,robocape,-1.79632087291,13.7043958037,20.8465905598,0.0,10.0,0.0,0.0,0.0,10.0,0.0,0.0,0.0,10.0,-0.0150468601589,0.015313176268,-0.0452737385313,1.0,0.0,0.0,0.0,1.0,0.0,0.0,0.0,1.0,-0.0323327636719,-1.22026245117,10.1812280273,0.1,0.0,0.0,0.0,0.1,0.0,0.0,0.0,0.1
1446036915439794742,110,1446036915436610937,robocape,-2.04635346725,13.705546649,21.005962429,0.0,10.0,0.0,0.0,0.0,10.0,0.0,0.0,0.0,10.0,-0.156860188206,0.015845808486,0.109722236911,1.0,0.0,0.0,0.0,1.0,0.0,0.0,0.0,1.0,0.0119750976563,-0.0251477050781,10.080637207,0.1,0.0,0.0,0.0,0.1,0.0,0.0,0.0,0.1
1446036915473890617,111,1446036915469968080,robocape,-2.28970014595,13.7056280345,21.1232075279,0.0,10.0,0.0,0.0,0.0,10.0,0.0,0.0,0.0,10.0,-0.148338072717,0.015313176268,0.0878843159726,1.0,0.0,0.0,0.0,1.0,0.0,0.0,0.0,1.0,0.00359252929688,-1.23702758789,10.0974023437,0.1,0.0,0.0,0.0,0.1,0.0,0.0,0.0,0.1
1446036915507366992,112,1446036915503695964,robocape,-2.34623891492,13.7060861523,21.1388730736,0.0,10.0,0.0,0.0,0.0,10.0,0.0,0.0,0.0,10.0,-0.0374174133156,0.015845808486,0.033822145844,1.0,0.0,0.0,0.0,1.0,0.0,0.0,0.0,1.0,-0.0419128417969,-1.31965576172,10.0495019531,0.1,0.0,0.0,0.0,0.1,0.0,0.0,0.0,0.1
1446036915540428659,113,1446036915536938905,robocape,-2.19925476491,13.7045372824,20.9088100296,0.0,10.0,0.0,0.0,0.0,10.0,0.0,0.0,0.0,10.0,0.101066963369,0.016378440704,-0.0968059056244,1.0,0.0,0.0,0.0,1.0,0.0,0.0,0.0,1.0,-0.0167651367188,-0.601149902344,10.0950073242,0.1,0.0,0.0,0.0,0.1,0.0,0.0,0.0,0.1
1446036915572787576,114,1446036915569216012,robocape,-2.25311324221,13.7066055085,20.8911647837,0.0,10.0,0.0,0.0,0.0,10.0,0.0,0.0,0.0,10.0,-0.0315584589174,0.016911072922,0.015845808486,1.0,0.0,0.0,0.0,1.0,0.0,0.0,0.0,1.0,0.0179626464844,-0.281414794922,10.0447119141,0.1,0.0,0.0,0.0,0.1,0.0,0.0,0.0,0.1
1446036915608158867,115,1446036915604896068,robocape,-2.25859045654,13.7026924173,20.7061908414,0.0,10.0,0.0,0.0,0.0,10.0,0.0,0.0,0.0,10.0,0.015313176268,0.0150468601589,-0.0728374558137,1.0,0.0,0.0,0.0,1.0,0.0,0.0,0.0,1.0,-0.05748046875,-0.749641113281,10.0483044434,0.1,0.0,0.0,0.0,0.1,0.0,0.0,0.0,0.1
1446036915640332617,116,1446036915637110948,robocape,-2.51307740806,13.6983429549,20.7527054294,0.0,10.0,0.0,0.0,0.0,10.0,0.0,0.0,0.0,10.0,-0.145275437464,0.0133158054504,0.049934270439,1.0,0.0,0.0,0.0,1.0,0.0,0.0,0.0,1.0,-0.168848876953,-0.456251220703,10.0495019531,0.1,0.0,0.0,0.0,0.1,0.0,0.0,0.0,0.1
1446036915672584492,117,1446036915669351100,robocape,-2.67664624116,13.7407712948,20.7933490266,0.0,10.0,0.0,0.0,0.0,10.0,0.0,0.0,0.0,10.0,-0.0972053797879,0.0379500455336,0.0483363737849,1.0,0.0,0.0,0.0,1.0,0.0,0.0,0.0,1.0,-1.89805297852,-1.66813110352,10.7165148926,0.1,0.0,0.0,0.0,0.1,0.0,0.0,0.0,0.1
1446036915705451576,118,1446036915702145099,robocape,-2.73873810338,13.824510522,20.8461869054,0.0,10.0,0.0,0.0,0.0,10.0,0.0,0.0,0.0,10.0,-0.0458063707494,0.0595216503633,0.0560595409462,1.0,0.0,0.0,0.0,1.0,0.0,0.0,0.0,1.0,-4.06913818359,-0.968785400391,11.3607751465,0.1,0.0,0.0,0.0,0.1,0.0,0.0,0.0,0.1
1446036915738815117,119,1446036915735538005,robocape,-2.57858365837,13.9108586491,20.6120458798,0.0,10.0,0.0,0.0,0.0,10.0,0.0,0.0,0.0,10.0,0.108257498312,0.0639158661619,-0.0960069572974,1.0,0.0,0.0,0.0,1.0,0.0,0.0,0.0,1.0,-8.43885131836,-0.820294189453,11.5990795898,0.1,0.0,0.0,0.0,0.1,0.0,0.0,0.0,0.1
1446036915774196576,120,1446036915771145105,robocape,-2.75863690168,13.9932049098,20.6826283448,0.0,10.0,0.0,0.0,0.0,10.0,0.0,0.0,0.0,10.0,-0.110121711075,0.0591221761998,0.0655137628159,1.0,0.0,0.0,0.0,1.0,0.0,0.0,0.0,1.0,-10.612331543,-1.8812878418,11.6625476074,0.1,0.0,0.0,0.0,0.1,0.0,0.0,0.0,0.1
1446036915806099826,121,1446036915802973985,robocape,-3.20716869902,13.8538727817,20.7325478612,0.0,10.0,0.0,0.0,0.0,10.0,0.0,0.0,0.0,10.0,-0.248206613595,-0.0577905956547,0.0475374254579,1.0,0.0,0.0,0.0,1.0,0.0,0.0,0.0,1.0,-9.19088745117,-0.67060546875,10.024354248,0.1,0.0,0.0,0.0,0.1,0.0,0.0,0.0,0.1
1446036915838712992,122,1446036915835664033,robocape,-4.37926132382,14.2234283614,20.680500105,0.0,10.0,0.0,0.0,0.0,10.0,0.0,0.0,0.0,10.0,-0.618252847062,0.216914470787,0.0207726565026,1.0,0.0,0.0,0.0,1.0,0.0,0.0,0.0,1.0,-5.61392578125,0.764011230469,12.7666516113,0.1,0.0,0.0,0.0,0.1,0.0,0.0,0.0,0.1
1446036915873402492,123,1446036915870127916,robocape,-5.0720620673,13.9376448481,20.6738818356,0.0,10.0,0.0,0.0,0.0,10.0,0.0,0.0,0.0,10.0,-0.371111497903,-0.133024896449,0.0099868540878,1.0,0.0,0.0,0.0,1.0,0.0,0.0,0.0,1.0,-3.61647949219,-2.10641967773,9.36213134766,0.1,0.0,0.0,0.0,0.1,0.0,0.0,0.0,0.1
1446036915905987451,124,1446036915902841091,robocape,-5.25603613276,14.0621488641,19.7377760951,0.0,10.0,0.0,0.0,0.0,10.0,0.0,0.0,0.0,10.0,0.0183758115215,0.114515926873,-0.457264759167,1.0,0.0,0.0,0.0,1.0,0.0,0.0,0.0,1.0,-7.34193237305,-2.23814575195,11.8529516602,0.1,0.0,0.0,0.0,0.1,0.0,0.0,0.0,0.1
1446036915938889284,125,1446036915935745954,robocape,-4.39789324133,14.0607279851,18.3326033322,0.0,10.0,0.0,0.0,0.0,10.0,0.0,0.0,0.0,10.0,0.629837597804,0.0557932248372,-0.716390333231,1.0,0.0,0.0,0.0,1.0,0.0,0.0,0.0,1.0,-5.69535644531,-1.9890637207,9.87586303711,0.1,0.0,0.0,0.0,0.1,0.0,0.0,0.0,0.1
1446036915971834659,126,1446036915968614101,robocape,-3.16799904295,13.9132675553,16.8615605211,0.0,10.0,0.0,0.0,0.0,10.0,0.0,0.0,0.0,10.0,0.832370998704,-0.0334226716805,-0.758468278455,1.0,0.0,0.0,0.0,1.0,0.0,0.0,0.0,1.0,-11.5380065918,-1.4525793457,10.6877746582,0.1,0.0,0.0,0.0,0.1,0.0,0.0,0.0,0.1
1446036916004477909,127,1446036916001447916,robocape,-1.46075381829,13.9623165066,15.4283620443,0.0,10.0,0.0,0.0,0.0,10.0,0.0,0.0,0.0,10.0,1.07565076428,0.0513990090385,-0.731170877281,1.0,0.0,0.0,0.0,1.0,0.0,0.0,0.0,1.0,-9.80401245117,-1.04901855469,13.0528564453,0.1,0.0,0.0,0.0,0.1,0.0,0.0,0.0,0.1
1446036916037197117,128,1446036916034096002,robocape,0.700750029281,13.8979550712,14.8903918157,0.0,10.0,0.0,0.0,0.0,10.0,0.0,0.0,0.0,10.0,1.19935459692,-0.0270310850643,-0.268313479825,1.0,0.0,0.0,0.0,1.0,0.0,0.0,0.0,1.0,-6.8940637207,-1.1879296875,8.6220703125,0.1,0.0,0.0,0.0,0.1,0.0,0.0,0.0,0.1
1446036916070681909,129,1446036916067606925,robocape,3.99768444426,14.1759533534,14.9548707478,0.0,10.0,0.0,0.0,0.0,10.0,0.0,0.0,0.0,10.0,1.72080153835,0.161787036222,0.0423442613323,1.0,0.0,0.0,0.0,1.0,0.0,0.0,0.0,1.0,-10.4518652344,-0.912502441406,12.0361706543,0.1,0.0,0.0,0.0,0.1,0.0,0.0,0.0,0.1
1446036916103520159,130,1446036916100415945,robocape,7.7705632387,14.3946615141,15.4275626479,0.0,10.0,0.0,0.0,0.0,10.0,0.0,0.0,0.0,10.0,1.92506599396,0.164583355367,0.252867145503,1.0,0.0,0.0,0.0,1.0,0.0,0.0,0.0,1.0,-3.91705444336,-1.02985839844,9.73216186523,0.1,0.0,0.0,0.0,0.1,0.0,0.0,0.0,0.1
1446036916136756118,131,1446036916133652925,robocape,11.8681457463,14.3809473585,15.8472822774,0.0,10.0,0.0,0.0,0.0,10.0,0.0,0.0,0.0,10.0,2.1137509572,0.0641821822709,0.244611346124,1.0,0.0,0.0,0.0,1.0,0.0,0.0,0.0,1.0,-10.9176965332,0.616717529297,10.4470751953,0.1,0.0,0.0,0.0,0.1,0.0,0.0,0.0,0.1
1446036916170661618,132,1446036916167550086,robocape,15.7932508842,14.417042753,16.92190539,0.0,10.0,0.0,0.0,0.0,10.0,0.0,0.0,0.0,10.0,1.96075235257,0.202932875064,0.576041743784,1.0,0.0,0.0,0.0,1.0,0.0,0.0,0.0,1.0,-8.43765380859,1.58430541992,9.16094970703,0.1,0.0,0.0,0.0,0.1,0.0,0.0,0.0,0.1
1446036916203301451,133,1446036916200160980,robocape,17.0715311656,14.4218582147,18.3931776163,0.0,10.0,0.0,0.0,0.0,10.0,0.0,0.0,0.0,10.0,0.518117990075,0.261389260991,0.760465649272,1.0,0.0,0.0,0.0,1.0,0.0,0.0,0.0,1.0,-14.2288110352,6.3958996582,14.9329467773,0.1,0.0,0.0,0.0,0.1,0.0,0.0,0.0,0.1
1446036916236108368,134,1446036916233006000,robocape,16.8933176043,14.2160857264,19.5418931016,0.0,10.0,0.0,0.0,0.0,10.0,0.0,0.0,0.0,10.0,-0.216381838569,0.0982706442239,0.620117059825,1.0,0.0,0.0,0.0,1.0,0.0,0.0,0.0,1.0,-8.10833862305,0.914897460938,7.28325439453,0.1,0.0,0.0,0.0,0.1,0.0,0.0,0.0,0.1
1446036916269583784,135,1446036916266514062,robocape,15.3465217415,14.9885296308,21.5516148336,0.0,10.0,0.0,0.0,0.0,10.0,0.0,0.0,0.0,10.0,-1.04901915338,0.710398220779,0.906806351172,1.0,0.0,0.0,0.0,1.0,0.0,0.0,0.0,1.0,-11.1464208984,3.06442749023,16.9627258301,0.1,0.0,0.0,0.0,0.1,0.0,0.0,0.0,0.1
1446036916302932118,136,1446036916299789905,robocape,13.2903084326,15.4096525078,23.1951831998,0.0,10.0,0.0,0.0,0.0,10.0,0.0,0.0,0.0,10.0,-1.28484206791,0.452071595041,0.787496734336,1.0,0.0,0.0,0.0,1.0,0.0,0.0,0.0,1.0,-6.12406494141,-1.98068115234,7.2078112793,0.1,0.0,0.0,0.0,0.1,0.0,0.0,0.0,0.1
1446036916335972701,137,1446036916332904100,robocape,11.5882764424,15.470512622,23.7205473705,0.0,10.0,0.0,0.0,0.0,10.0,0.0,0.0,0.0,10.0,-0.955275883011,0.108656972475,0.276702437259,1.0,0.0,0.0,0.0,1.0,0.0,0.0,0.0,1.0,-5.94803100586,-2.70038452148,13.1306945801,0.1,0.0,0.0,0.0,0.1,0.0,0.0,0.0,0.1
1446036916369682034,138,1446036916366641044,robocape,11.2584364269,15.1544270271,23.0594539908,0.0,10.0,0.0,0.0,0.0,10.0,0.0,0.0,0.0,10.0,-0.0776311457758,-0.220509738259,-0.284691920529,1.0,0.0,0.0,0.0,1.0,0.0,0.0,0.0,1.0,-4.90739501953,-2.26928100586,7.39701782227,0.1,0.0,0.0,0.0,0.1,0.0,0.0,0.0,0.1
1446036916403140034,139,1446036916400052070,robocape,11.7681905525,15.0663890023,23.1501404785,0.0,10.0,0.0,0.0,0.0,10.0,0.0,0.0,0.0,10.0,0.267381373444,-0.0101200121423,0.0866858934821,1.0,0.0,0.0,0.0,1.0,0.0,0.0,0.0,1.0,-5.44627441406,0.32572265625,11.4314282227,0.1,0.0,0.0,0.0,0.1,0.0,0.0,0.0,0.1
1446036916436020868,140,1446036916432980060,robocape,12.3768589668,15.0976337958,23.4105454598,0.0,10.0,0.0,0.0,0.0,10.0,0.0,0.0,0.0,10.0,0.299339306525,0.0743021944132,0.163917565094,1.0,0.0,0.0,0.0,1.0,0.0,0.0,0.0,1.0,-5.63907348633,-0.0742456054688,10.0638720703,0.1,0.0,0.0,0.0,0.1,0.0,0.0,0.0,0.1
1446036916469650576,141,1446036916466454029,robocape,13.3018569321,15.3638080631,23.5555415022,0.0,10.0,0.0,0.0,0.0,10.0,0.0,0.0,0.0,10.0,0.483763212013,0.18655443436,0.082691151847,1.0,0.0,0.0,0.0,1.0,0.0,0.0,0.0,1.0,-5.07983642578,0.90052734375,11.5463891602,0.1,0.0,0.0,0.0,0.1,0.0,0.0,0.0,0.1
1446036916503025618,142,1446036916499938964,robocape,13.4860537233,15.6595662484,24.5716149699,0.0,10.0,0.0,0.0,0.0,10.0,0.0,0.0,0.0,10.0,-0.0213052887206,0.315185115011,0.518916938402,1.0,0.0,0.0,0.0,1.0,0.0,0.0,0.0,1.0,-5.00439331055,2.8009753418,11.2613818359,0.1,0.0,0.0,0.0,0.1,0.0,0.0,0.0,0.1
1446036916536668618,143,1446036916533550977,robocape,12.9097434381,15.9055117856,25.564192171,0.0,10.0,0.0,0.0,0.0,10.0,0.0,0.0,0.0,10.0,-0.423043139159,0.281096653058,0.509462716532,1.0,0.0,0.0,0.0,1.0,0.0,0.0,0.0,1.0,-5.58997558594,-0.0131726074219,12.0649108887,0.1,0.0,0.0,0.0,0.1,0.0,0.0,0.0,0.1
1446036916570044243,144,1446036916566724061,robocape,12.5293566798,15.9347135195,25.5017020569,0.0,10.0,0.0,0.0,0.0,10.0,0.0,0.0,0.0,10.0,-0.179363899417,0.0308926686449,-0.00492684801665,1.0,0.0,0.0,0.0,1.0,0.0,0.0,0.0,1.0,-6.95992675781,-1.97110107422,9.55493041992,0.1,0.0,0.0,0.0,0.1,0.0,0.0,0.0,0.1
1446036916603718618,145,1446036916600354909,robocape,13.6204129223,15.9029520772,25.0356797591,0.0,10.0,0.0,0.0,0.0,10.0,0.0,0.0,0.0,10.0,0.651542360688,-0.0447411063133,-0.193744969303,1.0,0.0,0.0,0.0,1.0,0.0,0.0,0.0,1.0,-1.93038574219,-0.718505859375,10.556048584,0.1,0.0,0.0,0.0,0.1,0.0,0.0,0.0,0.1
1446036916639846451,146,1446036916636782884,robocape,14.7003170268,16.0771293414,25.4214389898,0.0,10.0,0.0,0.0,0.0,10.0,0.0,0.0,0.0,10.0,0.535029062997,0.17976337358,0.220110264095,1.0,0.0,0.0,0.0,1.0,0.0,0.0,0.0,1.0,-1.02387084961,1.1879296875,9.46990722656,0.1,0.0,0.0,0.0,0.1,0.0,0.0,0.0,0.1
1446036916669488576,147,1446036916666380882,robocape,15.1966483982,16.1654390087,26.2567781211,0.0,10.0,0.0,0.0,0.0,10.0,0.0,0.0,0.0,10.0,0.166580726184,0.202000768683,0.454601598077,1.0,0.0,0.0,0.0,1.0,0.0,0.0,0.0,1.0,-5.24389526367,1.90883056641,11.572734375,0.1,0.0,0.0,0.0,0.1,0.0,0.0,0.0,0.1
1446036916704120534,148,1446036916701039075,robocape,14.5868429559,16.6004510645,27.4372573981,0.0,10.0,0.0,0.0,0.0,10.0,0.0,0.0,0.0,10.0,-0.466852139091,0.424774193868,0.579503853201,1.0,0.0,0.0,0.0,1.0,0.0,0.0,0.0,1.0,-5.38999145508,3.755390625,12.5858276367,0.1,0.0,0.0,0.0,0.1,0.0,0.0,0.0,0.1
1446036916736154576,149,1446036916733055114,robocape,12.034731869,16.4245904711,29.4681045451,0.0,10.0,0.0,0.0,0.0,10.0,0.0,0.0,0.0,10.0,-1.62119931359,0.194277601521,1.08004498008,1.0,0.0,0.0,0.0,1.0,0.0,0.0,0.0,1.0,-2.11480224609,2.53033813477,10.402767334,0.1,0.0,0.0,0.0,0.1,0.0,0.0,0.0,0.1
1446036916776797409,150,1446036916773396015,robocape,8.339138943,16.2285263302,30.5264049733,0.0,10.0,0.0,0.0,0.0,10.0,0.0,0.0,0.0,10.0,-2.08618723991,0.0218379209386,0.584963333436,1.0,0.0,0.0,0.0,1.0,0.0,0.0,0.0,1.0,-3.48116088867,0.319735107422,10.0159716797,0.1,0.0,0.0,0.0,0.1,0.0,0.0,0.0,0.1
1446036916806250326,151,1446036916802923917,robocape,4.23852412393,16.083443976,31.3549362089,0.0,10.0,0.0,0.0,0.0,10.0,0.0,0.0,0.0,10.0,-2.26967903902,0.0034621094171,0.478303731778,1.0,0.0,0.0,0.0,1.0,0.0,0.0,0.0,1.0,-3.02011962891,0.01916015625,7.27008178711,0.1,0.0,0.0,0.0,0.1,0.0,0.0,0.0,0.1
1446036916839526160,152,1446036916836230993,robocape,-0.079012126752,15.6603865829,32.0554910884,0.0,10.0,0.0,0.0,0.0,10.0,0.0,0.0,0.0,10.0,-2.37287653126,-0.171108100038,0.432364202974,1.0,0.0,0.0,0.0,1.0,0.0,0.0,0.0,1.0,-6.88089111328,-0.337697753906,9.60642333984,0.1,0.0,0.0,0.0,0.1,0.0,0.0,0.0,0.1
1446036916873018076,153,1446036916869828939,robocape,-4.01120666638,14.5165058236,32.2299572207,0.0,10.0,0.0,0.0,0.0,10.0,0.0,0.0,0.0,10.0,-2.09883725509,-0.576041743784,0.125834361506,1.0,0.0,0.0,0.0,1.0,0.0,0.0,0.0,1.0,18.8320385742,-3.58414672852,6.17436035156,0.1,0.0,0.0,0.0,0.1,0.0,0.0,0.0,0.1
1446036916905531868,154,1446036916902302026,robocape,-6.67053663462,14.357549214,31.2398898395,0.0,10.0,0.0,0.0,0.0,10.0,0.0,0.0,0.0,10.0,-1.27485521382,-0.0217047628841,-0.47244477738,1.0,0.0,0.0,0.0,1.0,0.0,0.0,0.0,1.0,-3.12310546875,-2.88599853516,6.30848144531,0.1,0.0,0.0,0.0,0.1,0.0,0.0,0.0,0.1
1446036916938460660,155,1446036916935277938,robocape,-7.72357924587,14.4548482396,29.9824212406,0.0,10.0,0.0,0.0,0.0,10.0,0.0,0.0,0.0,10.0,-0.393082576896,0.136620163921,-0.611062312119,1.0,0.0,0.0,0.0,1.0,0.0,0.0,0.0,1.0,3.79131591797,-4.061953125,12.604987793,0.1,0.0,0.0,0.0,0.1,0.0,0.0,0.0,0.1
1446036916972191910,156,1446036916968489885,robocape,-7.42292158365,14.079613412,29.2289816497,0.0,10.0,0.0,0.0,0.0,10.0,0.0,0.0,0.0,10.0,0.252068197176,-0.141547011938,-0.397743108803,1.0,0.0,0.0,0.0,1.0,0.0,0.0,0.0,1.0,4.08829833984,-0.150886230469,5.10498413086,0.1,0.0,0.0,0.0,0.1,0.0,0.0,0.0,0.1
1446036917005765451,157,1446036917002665042,robocape,-6.70253686776,13.8254089785,28.8387479609,0.0,10.0,0.0,0.0,0.0,10.0,0.0,0.0,0.0,10.0,0.420646294178,-0.100933805314,-0.19600865623,1.0,0.0,0.0,0.0,1.0,0.0,0.0,0.0,1.0,-1.56634277344,-1.6513659668,7.99337768555,0.1,0.0,0.0,0.0,0.1,0.0,0.0,0.0,0.1
1446036917038092035,158,1446036917035064935,robocape,-5.06778218872,14.1789670632,27.6875696684,0.0,10.0,0.0,0.0,0.0,10.0,0.0,0.0,0.0,10.0,1.00494383734,0.239551340053,-0.573511740749,1.0,0.0,0.0,0.0,1.0,0.0,0.0,0.0,1.0,-1.3412109375,-3.2991394043,12.1271813965,0.1,0.0,0.0,0.0,0.1,0.0,0.0,0.0,0.1
1446036917072680451,159,1446036917069341897,robocape,-2.16850276435,13.7553999271,26.4529553272,0.0,10.0,0.0,0.0,0.0,10.0,0.0,0.0,0.0,10.0,1.68125359617,-0.197606552884,-0.674845020226,1.0,0.0,0.0,0.0,1.0,0.0,0.0,0.0,1.0,-4.6020300293,-2.27047851563,8.85678222656,0.1,0.0,0.0,0.0,0.1,0.0,0.0,0.0,0.1
1446036917105274285,160,1446036917102159023,robocape,1.67060291731,13.4336049031,25.8297184648,0.0,10.0,0.0,0.0,0.0,10.0,0.0,0.0,0.0,10.0,2.08818461073,-0.171640732256,-0.327169339916,1.0,0.0,0.0,0.0,1.0,0.0,0.0,0.0,1.0,0.283809814453,0.967587890625,7.03297485352,0.1,0.0,0.0,0.0,0.1,0.0,0.0,0.0,0.1
1446036917138775326,161,1446036917135481119,robocape,4.08355534004,13.6943641594,26.903816464,0.0,10.0,0.0,0.0,0.0,10.0,0.0,0.0,0.0,10.0,1.13344135994,0.198272343156,0.605070199666,1.0,0.0,0.0,0.0,1.0,0.0,0.0,0.0,1.0,4.36372558594,5.3229309082,10.1584753418,0.1,0.0,0.0,0.0,0.1,0.0,0.0,0.0,0.1
1446036917171549743,162,1446036917168428897,robocape,2.41250355428,13.5809641834,28.9985632843,0.0,10.0,0.0,0.0,0.0,10.0,0.0,0.0,0.0,10.0,-1.13850136601,0.0523311154201,1.16846192827,1.0,0.0,0.0,0.0,1.0,0.0,0.0,0.0,1.0,0.686173095703,4.10506347656,8.36939575195,0.1,0.0,0.0,0.0,0.1,0.0,0.0,0.0,0.1
1446036917204079951,163,1446036917201021909,robocape,-0.709074488012,13.8078349642,29.7391043612,0.0,10.0,0.0,0.0,0.0,10.0,0.0,0.0,0.0,10.0,-1.73797892739,0.161387562059,0.451672120877,1.0,0.0,0.0,0.0,1.0,0.0,0.0,0.0,1.0,1.58191040039,-0.852626953125,11.2529992676,0.1,0.0,0.0,0.0,0.1,0.0,0.0,0.0,0.1
1446036917237206410,164,1446036917234129905,robocape,-2.49355917667,13.8770615496,28.6568867079,0.0,10.0,0.0,0.0,0.0,10.0,0.0,0.0,0.0,10.0,-0.801877804223,0.0587227020362,-0.533830640506,1.0,0.0,0.0,0.0,1.0,0.0,0.0,0.0,1.0,-1.01069824219,-6.27734619141,10.0662670898,0.1,0.0,0.0,0.0,0.1,0.0,0.0,0.0,0.1
1446036917270735493,165,1446036917267656087,robocape,-1.23456940754,13.7276157596,26.7227126493,0.0,10.0,0.0,0.0,0.0,10.0,0.0,0.0,0.0,10.0,0.906273718954,-0.0625842856169,-1.0199906975,1.0,0.0,0.0,0.0,1.0,0.0,0.0,0.0,1.0,0.724493408203,-4.86428466797,8.60291015625,0.1,0.0,0.0,0.0,0.1,0.0,0.0,0.0,0.1
1446036917303367035,166,1446036917300334930,robocape,1.95624708596,14.9022763671,25.1122055757,0.0,10.0,0.0,0.0,0.0,10.0,0.0,0.0,0.0,10.0,1.8801917296,0.604670725502,-0.831172576214,1.0,0.0,0.0,0.0,1.0,0.0,0.0,0.0,1.0,-7.84608398438,-1.51604736328,13.3091235352,0.1,0.0,0.0,0.0,0.1,0.0,0.0,0.0,0.1
1446036917336194285,167,1446036917333127021,robocape,4.98484846525,14.6746825267,25.3347513975,0.0,10.0,0.0,0.0,0.0,10.0,0.0,0.0,0.0,10.0,1.55834871186,-0.0933437962073,0.151267549917,1.0,0.0,0.0,0.0,1.0,0.0,0.0,0.0,1.0,1.76393188477,3.16142578125,11.1751611328,0.1,0.0,0.0,0.0,0.1,0.0,0.0,0.0,0.1
1446036917369739826,168,1446036917366681098,robocape,6.21374023514,14.7654218891,26.5021372206,0.0,10.0,0.0,0.0,0.0,10.0,0.0,0.0,0.0,10.0,0.494948488591,0.147006492172,0.652341309015,1.0,0.0,0.0,0.0,1.0,0.0,0.0,0.0,1.0,3.6057019043,1.31007568359,6.84616333008,0.1,0.0,0.0,0.0,0.1,0.0,0.0,0.0,0.1
1446036917403101618,169,1446036917400038003,robocape,5.8498956218,14.2208204854,27.0105045049,0.0,10.0,0.0,0.0,0.0,10.0,0.0,0.0,0.0,10.0,-0.25366609383,-0.231961330946,0.327701972134,1.0,0.0,0.0,0.0,1.0,0.0,0.0,0.0,1.0,-5.54207519531,0.481398925781,8.97653320313,0.1,0.0,0.0,0.0,0.1,0.0,0.0,0.0,0.1
1446036917437727160,170,1446036917434587001,robocape,4.21597292186,13.919164001,27.9415422837,0.0,10.0,0.0,0.0,0.0,10.0,0.0,0.0,0.0,10.0,-0.97298590426,-0.0844222065555,0.541287491559,1.0,0.0,0.0,0.0,1.0,0.0,0.0,0.0,1.0,-1.8812878418,1.82620239258,7.68681518555,0.1,0.0,0.0,0.0,0.1,0.0,0.0,0.0,0.1
1446036917472092118,171,1446036917468687057,robocape,0.749206503255,14.1942793432,29.4940377798,0.0,10.0,0.0,0.0,0.0,10.0,0.0,0.0,0.0,10.0,-2.02320348013,0.226635008766,0.874981576146,1.0,0.0,0.0,0.0,1.0,0.0,0.0,0.0,1.0,5.72170166016,2.48363525391,10.9787695313,0.1,0.0,0.0,0.0,0.1,0.0,0.0,0.0,0.1
1446036917505501743,172,1446036917502161979,robocape,-4.24457493024,14.1116524742,30.6971204993,0.0,10.0,0.0,0.0,0.0,10.0,0.0,0.0,0.0,10.0,-2.79924862178,-0.0126500151779,0.717189281558,1.0,0.0,0.0,0.0,1.0,0.0,0.0,0.0,1.0,-3.30273193359,0.122145996094,8.62925537109,0.1,0.0,0.0,0.0,0.1,0.0,0.0,0.0,0.1
1446036917537591660,173,1446036917534562110,robocape,-9.789099195,13.8425778713,31.2716917388,0.0,10.0,0.0,0.0,0.0,10.0,0.0,0.0,0.0,10.0,-3.03227521716,-0.126100677615,0.40000679573,1.0,0.0,0.0,0.0,1.0,0.0,0.0,0.0,1.0,-1.39150634766,-2.65487915039,9.32860107422,0.1,0.0,0.0,0.0,0.1,0.0,0.0,0.0,0.1
1446036917570505285,174,1446036917567198038,robocape,-14.4046382643,14.2304298646,30.0631306905,0.0,10.0,0.0,0.0,0.0,10.0,0.0,0.0,0.0,10.0,-2.31655067421,0.361657276033,-0.464721610219,1.0,0.0,0.0,0.0,1.0,0.0,0.0,0.0,1.0,3.56498657227,-7.19224365234,13.9390136719,0.1,0.0,0.0,0.0,0.1,0.0,0.0,0.0,0.1
1446036917604606452,175,1446036917601535081,robocape,-15.1896134032,14.8092527896,27.4666789578,0.0,10.0,0.0,0.0,0.0,10.0,0.0,0.0,0.0,10.0,-0.0577905956547,0.62144864037,-1.21546672151,1.0,0.0,0.0,0.0,1.0,0.0,0.0,0.0,1.0,4.60921508789,-9.12981445313,10.3536694336,0.1,0.0,0.0,0.0,0.1,0.0,0.0,0.0,0.1
1446036917636139077,176,1446036917632886886,robocape,-13.186020932,15.1013501218,25.5692877861,0.0,10.0,0.0,0.0,0.0,10.0,0.0,0.0,0.0,10.0,1.33810528971,0.360192537433,-0.949150612504,1.0,0.0,0.0,0.0,1.0,0.0,0.0,0.0,1.0,2.64649658203,-3.06322998047,9.85550537109,0.1,0.0,0.0,0.0,0.1,0.0,0.0,0.0,0.1
1446036917669809660,177,1446036917666706085,robocape,-10.4832516457,14.6783703772,25.0293063362,0.0,10.0,0.0,0.0,0.0,10.0,0.0,0.0,0.0,10.0,1.50468601589,-0.174969683618,-0.345411993383,1.0,0.0,0.0,0.0,1.0,0.0,0.0,0.0,1.0,-4.47030395508,-0.906514892578,7.96343994141,0.1,0.0,0.0,0.0,0.1,0.0,0.0,0.0,0.1
1446036917703210493,178,1446036917700089931,robocape,-8.05784168501,14.7696561731,24.6187844116,0.0,10.0,0.0,0.0,0.0,10.0,0.0,0.0,0.0,10.0,1.32811843562,0.0769653555033,-0.205329720045,1.0,0.0,0.0,0.0,1.0,0.0,0.0,0.0,1.0,2.03337158203,1.1879296875,9.196875,0.1,0.0,0.0,0.0,0.1,0.0,0.0,0.0,0.1
1446036917736232202,179,1446036917732992887,robocape,-7.40291147157,15.6923339634,25.0585831091,0.0,10.0,0.0,0.0,0.0,10.0,0.0,0.0,0.0,10.0,0.259258732119,0.478836363996,0.34234935813,1.0,0.0,0.0,0.0,1.0,0.0,0.0,0.0,1.0,-0.743653564453,3.84759887695,13.146262207,0.1,0.0,0.0,0.0,0.1,0.0,0.0,0.0,0.1
1446036917774681368,180,1446036917771107912,robocape,-9.96572563054,15.5877079278,26.4924530132,0.0,10.0,0.0,0.0,0.0,10.0,0.0,0.0,0.0,10.0,-1.59962770876,-0.108523814421,0.817057822436,1.0,0.0,0.0,0.0,1.0,0.0,0.0,0.0,1.0,-6.73359741211,4.04279296875,9.90340576172,0.1,0.0,0.0,0.0,0.1,0.0,0.0,0.0,0.1
1446036917805063868,181,1446036917801934003,robocape,-14.3839232768,14.875717157,27.6102197296,0.0,10.0,0.0,0.0,0.0,10.0,0.0,0.0,0.0,10.0,-2.55397148539,-0.426238932467,0.609730731574,1.0,0.0,0.0,0.0,1.0,0.0,0.0,0.0,1.0,-1.1148815918,1.33881591797,8.02571044922,0.1,0.0,0.0,0.0,0.1,0.0,0.0,0.0,0.1
1446036917835874702,182,1446036917832773923,robocape,-18.7796110255,14.9064624124,26.9832220564,0.0,10.0,0.0,0.0,0.0,10.0,0.0,0.0,0.0,10.0,-2.31069171981,0.154063869061,-0.177766002763,1.0,0.0,0.0,0.0,1.0,0.0,0.0,0.0,1.0,1.90643554688,-4.46551391602,9.32261352539,0.1,0.0,0.0,0.0,0.1,0.0,0.0,0.0,0.1
1446036917870831035,183,1446036917867547988,robocape,-20.3358629768,15.6626079392,24.1587300203,0.0,10.0,0.0,0.0,0.0,10.0,0.0,0.0,0.0,10.0,-0.433163151301,0.85500786797,-1.20228407412,1.0,0.0,0.0,0.0,1.0,0.0,0.0,0.0,1.0,-6.94316162109,-10.0363293457,16.0705810547,0.1,0.0,0.0,0.0,0.1,0.0,0.0,0.0,0.1
1446036917907216827,184,1446036917903743028,robocape,-18.5520708672,16.3105957461,20.8738058614,0.0,10.0,0.0,0.0,0.0,10.0,0.0,0.0,0.0,10.0,1.47525808585,0.82957467956,-1.52479288212,1.0,0.0,0.0,0.0,1.0,0.0,0.0,0.0,1.0,-5.41394165039,-6.07137451172,14.500645752,0.1,0.0,0.0,0.0,0.1,0.0,0.0,0.0,0.1
1446036917939833993,185,1446036917936172962,robocape,-14.9413838129,16.322838475,20.5877878892,0.0,10.0,0.0,0.0,0.0,10.0,0.0,0.0,0.0,10.0,1.9674102553,0.0229031853747,-0.180296005798,1.0,0.0,0.0,0.0,1.0,0.0,0.0,0.0,1.0,-2.85127075195,2.49800537109,7.29642700195,0.1,0.0,0.0,0.0,0.1,0.0,0.0,0.0,0.1
1446036917974062202,186,1446036917970901966,robocape,-14.8659615677,16.5700660052,22.186453131,0.0,10.0,0.0,0.0,0.0,10.0,0.0,0.0,0.0,10.0,-0.253399777721,-0.0402137324602,0.883636849688,1.0,0.0,0.0,0.0,1.0,0.0,0.0,0.0,1.0,2.28245361328,6.14801513672,9.8902331543,0.1,0.0,0.0,0.0,0.1,0.0,0.0,0.0,0.1
1446036918007060160,187,1446036918003948926,robocape,-18.2184094561,16.2673928432,23.9429560826,0.0,10.0,0.0,0.0,0.0,10.0,0.0,0.0,0.0,10.0,-2.13572203619,-0.33289513626,0.943025341997,1.0,0.0,0.0,0.0,1.0,0.0,0.0,0.0,1.0,-2.79618530273,3.75658813477,5.25826538086,0.1,0.0,0.0,0.0,0.1,0.0,0.0,0.0,0.1
1446036918039709702,188,1446036918036312103,robocape,-22.6981709653,16.0475658106,23.8768712528,0.0,10.0,0.0,0.0,0.0,10.0,0.0,0.0,0.0,10.0,-2.47780507821,-0.0304931944814,0.0719053494321,1.0,0.0,0.0,0.0,1.0,0.0,0.0,0.0,1.0,3.61408447266,-4.22720947266,8.4723815918,0.1,0.0,0.0,0.0,0.1,0.0,0.0,0.0,0.1
1446036918072351493,189,1446036918068849086,robocape,-25.1144365304,15.9166084714,21.3374024505,0.0,10.0,0.0,0.0,0.0,10.0,0.0,0.0,0.0,10.0,-0.940229022852,0.473243725707,-1.15980665473,1.0,0.0,0.0,0.0,1.0,0.0,0.0,0.0,1.0,0.358055419922,-9.4232043457,12.1032312012,0.1,0.0,0.0,0.0,0.1,0.0,0.0,0.0,0.1
1446036918105568118,190,1446036918102375030,robocape,-24.2101807991,16.0907578152,18.8365174118,0.0,10.0,0.0,0.0,0.0,10.0,0.0,0.0,0.0,10.0,0.879775266108,0.587493336471,-1.14475979457,1.0,0.0,0.0,0.0,1.0,0.0,0.0,0.0,1.0,-1.68848876953,-5.78756469727,12.4121887207,0.1,0.0,0.0,0.0,0.1,0.0,0.0,0.0,0.1
1446036918138936327,191,1446036918135679006,robocape,-21.6454019186,15.7865462722,17.8757213365,0.0,10.0,0.0,0.0,0.0,10.0,0.0,0.0,0.0,10.0,1.53704342314,0.0139815957229,-0.556733825881,1.0,0.0,0.0,0.0,1.0,0.0,0.0,0.0,1.0,-8.00295776367,-2.07648193359,9.20765258789,0.1,0.0,0.0,0.0,0.1,0.0,0.0,0.0,0.1
1446036918173365035,192,1446036918169378995,robocape,-19.9128945909,15.7428256003,17.8966122052,0.0,10.0,0.0,0.0,0.0,10.0,0.0,0.0,0.0,10.0,0.908670563935,-0.0275637172823,-0.00239684498107,1.0,0.0,0.0,0.0,1.0,0.0,0.0,0.0,1.0,-0.634680175781,1.53161499023,8.40053100586,0.1,0.0,0.0,0.0,0.1,0.0,0.0,0.0,0.1
1446036918205854285,193,1446036918202795028,robocape,-20.7306777585,15.5878865906,19.0519509211,0.0,10.0,0.0,0.0,0.0,10.0,0.0,0.0,0.0,10.0,-0.664059217811,-0.241282394761,0.584697017327,1.0,0.0,0.0,0.0,1.0,0.0,0.0,0.0,1.0,-0.494571533203,4.67986816406,7.38624023438,0.1,0.0,0.0,0.0,0.1,0.0,0.0,0.0,0.1
1446036918238544035,194,1446036918235235929,robocape,-24.1472531126,15.3763052407,20.2336093165,0.0,10.0,0.0,0.0,0.0,10.0,0.0,0.0,0.0,10.0,-2.1093567414,-0.264851370408,0.639691293837,1.0,0.0,0.0,0.0,1.0,0.0,0.0,0.0,1.0,1.8010546875,2.33035400391,8.71427856445,0.1,0.0,0.0,0.0,0.1,0.0,0.0,0.0,0.1
