%time,field.header.seq,field.header.stamp,field.header.frame_id,field.orientation.x,field.orientation.y,field.orientation.z,field.orientation.w,field.orientation_covariance0,field.orientation_covariance1,field.orientation_covariance2,field.orientation_covariance3,field.orientation_covariance4,field.orientation_covariance5,field.orientation_covariance6,field.orientation_covariance7,field.orientation_covariance8,field.angular_velocity.x,field.angular_velocity.y,field.angular_velocity.z,field.angular_velocity_covariance0,field.angular_velocity_covariance1,field.angular_velocity_covariance2,field.angular_velocity_covariance3,field.angular_velocity_covariance4,field.angular_velocity_covariance5,field.angular_velocity_covariance6,field.angular_velocity_covariance7,field.angular_velocity_covariance8,field.linear_acceleration.x,field.linear_acceleration.y,field.linear_acceleration.z,field.linear_acceleration_covariance0,field.linear_acceleration_covariance1,field.linear_acceleration_covariance2,field.linear_acceleration_covariance3,field.linear_acceleration_covariance4,field.linear_acceleration_covariance5,field.linear_acceleration_covariance6,field.linear_acceleration_covariance7,field.linear_acceleration_covariance8
1446036917472443080,1,1446036917468990087,robocape,-0.095922808958,2.77087425747,-29.0233412953,0.0,10.0,0.0,0.0,0.0,10.0,0.0,0.0,0.0,10.0,-0.113184346328,0.0101200121423,0.109322762748,1.0,0.0,0.0,0.0,1.0,0.0,0.0,0.0,1.0,0.0550854492188,0.941242675781,10.0566870117,0.1,0.0,0.0,0.0,0.1,0.0,0.0,0.0,0.1
1446036917502425580,2,1446036917499489068,robocape,-0.430352434472,2.78061382039,-28.6571955882,0.0,10.0,0.0,0.0,0.0,10.0,0.0,0.0,0.0,10.0,-0.184157589379,0.0066579027252,0.166048093966,1.0,0.0,0.0,0.0,1.0,0.0,0.0,0.0,1.0,-0.0550854492188,-0.640667724609,9.99441650391,0.1,0.0,0.0,0.0,0.1,0.0,0.0,0.0,0.1
1446036917535425163,3,1446036917532309055,robocape,-0.351114592576,2.80463601802,-28.4876735156,0.0,10.0,0.0,0.0,0.0,10.0,0.0,0.0,0.0,10.0,0.0375505713701,0.0151800182135,0.0567253312187,1.0,0.0,0.0,0.0,1.0,0.0,0.0,0.0,1.0,0.0526904296875,-1.02147583008,9.99321899414,0.1,0.0,0.0,0.0,0.1,0.0,0.0,0.0,0.1
1446036917569542997,4,1446036917566427946,robocape,-0.03529831535,2.83330613142,-28.4054050157,0.0,10.0,0.0,0.0,0.0,10.0,0.0,0.0,0.0,10.0,0.164050723149,0.0183758115215,0.00825579937925,1.0,0.0,0.0,0.0,1.0,0.0,0.0,0.0,1.0,0.01916015625,-0.167651367188,10.0902172852,0.1,0.0,0.0,0.0,0.1,0.0,0.0,0.0,0.1
1446036917602197038,5,1446036917599159002,robocape,0.476471454968,2.87169777436,-28.5889825031,0.0,10.0,0.0,0.0,0.0,10.0,0.0,0.0,0.0,10.0,0.274571908387,0.0241016078652,-0.140348589447,1.0,0.0,0.0,0.0,1.0,0.0,0.0,0.0,1.0,-0.186811523438,0.184416503906,9.99321899414,0.1,0.0,0.0,0.0,0.1,0.0,0.0,0.0,0.1
1446036917635441872,6,1446036917632384061,robocape,0.788161199526,2.88755359519,-28.723400705,0.0,10.0,0.0,0.0,0.0,10.0,0.0,0.0,0.0,10.0,0.168977571166,0.0115847507418,-0.113450662437,1.0,0.0,0.0,0.0,1.0,0.0,0.0,0.0,1.0,0.0598754882813,1.58310791016,9.93573852539,0.1,0.0,0.0,0.0,0.1,0.0,0.0,0.0,0.1
1446036917669204788,7,1446036917666023015,robocape,0.661124334933,2.89311821706,-28.6472679064,0.0,10.0,0.0,0.0,0.0,10.0,0.0,0.0,0.0,10.0,-0.066845343361,0.0066579027252,0.00452737385313,1.0,0.0,0.0,0.0,1.0,0.0,0.0,0.0,1.0,0.0323327636719,1.4525793457,10.0483044434,0.1,0.0,0.0,0.0,0.1,0.0,0.0,0.0,0.1
1446036917702568538,8,1446036917699145078,robocape,0.290975209007,2.89163684585,-28.5636955356,0.0,10.0,0.0,0.0,0.0,10.0,0.0,0.0,0.0,10.0,-0.194810233739,0.00279631914458,0.00932106381528,1.0,0.0,0.0,0.0,1.0,0.0,0.0,0.0,1.0,-0.0706530761719,0.894539794922,10.075847168,0.1,0.0,0.0,0.0,0.1,0.0,0.0,0.0,0.1
1446036917735448372,9,1446036917732347965,robocape,-0.22263689651,2.87960164576,-28.4538784728,0.0,10.0,0.0,0.0,0.0,10.0,0.0,0.0,0.0,10.0,-0.271242957025,-0.00306263525359,0.0242347659197,1.0,0.0,0.0,0.0,1.0,0.0,0.0,0.0,1.0,0.05748046875,0.293389892578,10.0016015625,0.1,0.0,0.0,0.0,0.1,0.0,0.0,0.0,0.1
1446036917768796122,10,1446036917765657901,robocape,-0.712151848201,2.87114711336,-28.3006609685,0.0,10.0,0.0,0.0,0.0,10.0,0.0,0.0,0.0,10.0,-0.260323996555,-0.00186421276306,0.0483363737849,1.0,0.0,0.0,0.0,1.0,0.0,0.0,0.0,1.0,-0.129331054688,-0.140108642578,10.0303417969,0.1,0.0,0.0,0.0,0.1,0.0,0.0,0.0,0.1
1446036917802270538,11,1446036917799181938,robocape,-1.0485145626,2.86791798328,-28.1554217116,0.0,10.0,0.0,0.0,0.0,10.0,0.0,0.0,0.0,10.0,-0.180296005798,0.000532632218016,0.0439421579863,1.0,0.0,0.0,0.0,1.0,0.0,0.0,0.0,1.0,-0.0467028808594,-1.64178588867,10.0339343262,0.1,0.0,0.0,0.0,0.1,0.0,0.0,0.0,0.1
1446036917835575414,12,1446036917832509040,robocape,-0.979861770277,2.89293385241,-28.0560568527,0.0,10.0,0.0,0.0,0.0,10.0,0.0,0.0,0.0,10.0,0.033023197517,0.015845808486,0.0189084437396,1.0,0.0,0.0,0.0,1.0,0.0,0.0,0.0,1.0,0.330512695313,-0.467028808594,10.0722546387,0.1,0.0,0.0,0.0,0.1,0.0,0.0,0.0,0.1
1446036917868960955,13,1446036917865910053,robocape,-0.853401048441,2.9224923669,-27.8396116863,0.0,10.0,0.0,0.0,0.0,10.0,0.0,0.0,0.0,10.0,0.0603205986903,0.016911072922,0.084289048501,1.0,0.0,0.0,0.0,1.0,0.0,0.0,0.0,1.0,0.290994873047,-0.967587890625,10.0004040527,0.1,0.0,0.0,0.0,0.1,0.0,0.0,0.0,0.1
1446036917901993872,14,1446036917898875951,robocape,-0.360729029214,2.97512208538,-27.806886585,0.0,10.0,0.0,0.0,0.0,10.0,0.0,0.0,0.0,10.0,0.257527677411,0.0312921428084,-0.01744370514,1.0,0.0,0.0,0.0,1.0,0.0,0.0,0.0,1.0,-0.124541015625,-0.265847167969,9.99082397461,0.1,0.0,0.0,0.0,0.1,0.0,0.0,0.0,0.1
1446036917935299455,15,1446036917932163000,robocape,0.18118807585,3.01527720434,-27.7567854188,0.0,10.0,0.0,0.0,0.0,10.0,0.0,0.0,0.0,10.0,0.283493498039,0.0247673981377,-0.00825579937925,1.0,0.0,0.0,0.0,1.0,0.0,0.0,0.0,1.0,-0.201181640625,0.173638916016,9.96807128906,0.1,0.0,0.0,0.0,0.1,0.0,0.0,0.0,0.1
1446036917968855289,16,1446036917965838909,robocape,0.774305330298,3.04611311672,-27.9287068794,0.0,10.0,0.0,0.0,0.0,10.0,0.0,0.0,0.0,10.0,0.317581959992,0.0198405501211,-0.132225948122,1.0,0.0,0.0,0.0,1.0,0.0,0.0,0.0,1.0,-0.137713623047,1.01429077148,10.1584753418,0.1,0.0,0.0,0.0,0.1,0.0,0.0,0.0,0.1
1446036918001979330,17,1446036917998934984,robocape,1.05533734064,3.06681958452,-27.9348601102,0.0,10.0,0.0,0.0,0.0,10.0,0.0,0.0,0.0,10.0,0.149669653262,0.0145142279409,-0.0403468905147,1.0,0.0,0.0,0.0,1.0,0.0,0.0,0.0,1.0,0.0634680175781,1.9507434082,10.0016015625,0.1,0.0,0.0,0.0,0.1,0.0,0.0,0.0,0.1
1446036918035454080,18,1446036918032290935,robocape,0.829670978423,3.0747156679,-27.8251934579,0.0,10.0,0.0,0.0,0.0,10.0,0.0,0.0,0.0,10.0,-0.11944277489,0.00825579937925,0.0251668723012,1.0,0.0,0.0,0.0,1.0,0.0,0.0,0.0,1.0,0.009580078125,1.37234619141,9.98723144531,0.1,0.0,0.0,0.0,0.1,0.0,0.0,0.0,0.1
1446036918068705872,19,1446036918065603971,robocape,0.0346668450179,3.06369032211,-27.3881032487,0.0,10.0,0.0,0.0,0.0,10.0,0.0,0.0,0.0,10.0,-0.427969987176,-0.00199737081756,0.208525513353,1.0,0.0,0.0,0.0,1.0,0.0,0.0,0.0,1.0,-0.0598754882813,0.946032714844,9.97525634766,0.1,0.0,0.0,0.0,0.1,0.0,0.0,0.0,0.1
1446036918102470289,20,1446036918099117994,robocape,-0.602940133958,3.04978314821,-27.0703457115,0.0,10.0,0.0,0.0,0.0,10.0,0.0,0.0,0.0,10.0,-0.342615674239,-0.00545948023466,0.142079644156,1.0,0.0,0.0,0.0,1.0,0.0,0.0,0.0,1.0,-0.274229736328,-1.76752441406,9.91777587891,0.1,0.0,0.0,0.0,0.1,0.0,0.0,0.0,0.1
1446036918135742705,21,1446036918132173061,robocape,-0.706091661651,3.06619932027,-26.9817123968,0.0,10.0,0.0,0.0,0.0,10.0,0.0,0.0,0.0,10.0,-0.0564590151097,0.0117179087963,0.0151800182135,1.0,0.0,0.0,0.0,1.0,0.0,0.0,0.0,1.0,0.0934057617188,-0.868194580078,10.075847168,0.1,0.0,0.0,0.0,0.1,0.0,0.0,0.0,0.1
1446036918169023247,22,1446036918165570020,robocape,-0.57936605178,3.0892757311,-26.9124036693,0.0,10.0,0.0,0.0,0.0,10.0,0.0,0.0,0.0,10.0,0.0645816564344,0.0154463343225,0.00466053190764,1.0,0.0,0.0,0.0,1.0,0.0,0.0,0.0,1.0,0.365240478516,-0.741258544922,9.9980090332,0.1,0.0,0.0,0.0,0.1,0.0,0.0,0.0,0.1
1446036918202288455,23,1446036918199011087,robocape,-0.292275219276,3.12327730379,-26.8432032874,0.0,10.0,0.0,0.0,0.0,10.0,0.0,0.0,0.0,10.0,0.148870704935,0.0213052887206,0.00466053190764,1.0,0.0,0.0,0.0,1.0,0.0,0.0,0.0,1.0,0.168848876953,-0.313747558594,9.9980090332,0.1,0.0,0.0,0.0,0.1,0.0,0.0,0.0,0.1
1446036918235587872,24,1446036918232311964,robocape,0.096890933045,3.1588032644,-26.7620002741,0.0,10.0,0.0,0.0,0.0,10.0,0.0,0.0,0.0,10.0,0.202400242846,0.0222373951022,0.0111852765783,1.0,0.0,0.0,0.0,1.0,0.0,0.0,0.0,1.0,-0.346080322266,0.117355957031,9.96328125,0.1,0.0,0.0,0.0,0.1,0.0,0.0,0.0,0.1
1446036918269018622,25,1446036918265499114,robocape,0.461062439604,3.19156649723,-26.7125952517,0.0,10.0,0.0,0.0,0.0,10.0,0.0,0.0,0.0,10.0,0.19068233405,0.0210389726116,-0.00652474467069,1.0,0.0,0.0,0.0,1.0,0.0,0.0,0.0,1.0,0.0694555664063,0.514929199219,10.0698596191,0.1,0.0,0.0,0.0,0.1,0.0,0.0,0.0,0.1
1446036918302239330,26,1446036918299099922,robocape,0.802357331533,3.21705006906,-26.7787380837,0.0,10.0,0.0,0.0,0.0,10.0,0.0,0.0,0.0,10.0,0.182692850779,0.0170442309765,-0.0705737688871,1.0,0.0,0.0,0.0,1.0,0.0,0.0,0.0,1.0,-0.130528564453,0.971180419922,10.1117724609,0.1,0.0,0.0,0.0,0.1,0.0,0.0,0.0,0.1
1446036918335482705,27,1446036918332324028,robocape,0.759202633841,3.22753379758,-26.6790480487,0.0,10.0,0.0,0.0,0.0,10.0,0.0,0.0,0.0,10.0,-0.0238352917562,0.00958737992429,0.0217047628841,1.0,0.0,0.0,0.0,1.0,0.0,0.0,0.0,1.0,0.0107775878906,1.48970214844,9.97286132813,0.1,0.0,0.0,0.0,0.1,0.0,0.0,0.0,0.1
1446036918374750705,28,1446036918365578889,robocape,0.348700328754,3.22551295992,-26.4067678321,0.0,10.0,0.0,0.0,0.0,10.0,0.0,0.0,0.0,10.0,-0.221974476858,0.00306263525359,0.118111194345,1.0,0.0,0.0,0.0,1.0,0.0,0.0,0.0,1.0,-0.00239501953125,0.623902587891,9.96926879883,0.1,0.0,0.0,0.0,0.1,0.0,0.0,0.0,0.1
1446036918402756830,29,1446036918399708032,robocape,0.0278165085468,3.22879176196,-26.3923848785,0.0,10.0,0.0,0.0,0.0,10.0,0.0,0.0,0.0,10.0,-0.167512832566,0.00545948023466,-0.0242347659197,1.0,0.0,0.0,0.0,1.0,0.0,0.0,0.0,1.0,-0.100590820313,-0.411943359375,10.0710571289,0.1,0.0,0.0,0.0,0.1,0.0,0.0,0.0,0.1
1446036918435695497,30,1446036918432492017,robocape,-0.0481182220177,3.24272172283,-26.4237173509,0.0,10.0,0.0,0.0,0.0,10.0,0.0,0.0,0.0,10.0,-0.0379500455336,0.0113184346328,-0.0498011123845,1.0,0.0,0.0,0.0,1.0,0.0,0.0,0.0,1.0,0.0718505859375,-0.0946032714844,10.2446960449,0.1,0.0,0.0,0.0,0.1,0.0,0.0,0.0,0.1
1446036918469893872,31,1446036918466754913,robocape,-0.0375683904831,3.25461217815,-26.440843664,0.0,10.0,0.0,0.0,0.0,10.0,0.0,0.0,0.0,10.0,0.00692421883421,0.0102531701968,-0.0420779452233,1.0,0.0,0.0,0.0,1.0,0.0,0.0,0.0,1.0,0.0371228027344,-0.423918457031,10.0291442871,0.1,0.0,0.0,0.0,0.1,0.0,0.0,0.0,0.1
1446036918503265955,32,1446036918500138044,robocape,-0.0953830216544,3.26543621585,-26.3329894211,0.0,10.0,0.0,0.0,0.0,10.0,0.0,0.0,0.0,10.0,-0.032756881408,0.00918790576077,0.0270310850643,1.0,0.0,0.0,0.0,1.0,0.0,0.0,0.0,1.0,0.0778381347656,0.0598754882813,10.0614770508,0.1,0.0,0.0,0.0,0.1,0.0,0.0,0.0,0.1
1446036918536859122,33,1446036918533586025,robocape,0.00814759788281,3.2891773058,-26.315132977,0.0,10.0,0.0,0.0,0.0,10.0,0.0,0.0,0.0,10.0,0.0545948023466,0.016378440704,-0.0226368692657,1.0,0.0,0.0,0.0,1.0,0.0,0.0,0.0,1.0,-0.0550854492188,-0.0431103515625,10.0027990723,0.1,0.0,0.0,0.0,0.1,0.0,0.0,0.0,0.1
1446036918570351497,34,1446036918567153930,robocape,0.0618451585833,3.30867941088,-26.2007313587,0.0,10.0,0.0,0.0,0.0,10.0,0.0,0.0,0.0,10.0,0.0255663464648,0.0138484376684,0.0307595105904,1.0,0.0,0.0,0.0,1.0,0.0,0.0,0.0,1.0,0.0934057617188,0.128133544922,10.0578845215,0.1,0.0,0.0,0.0,0.1,0.0,0.0,0.0,0.1
1446036918602779539,35,1446036918599644899,robocape,0.0198833020844,3.32636231937,-25.9696464754,0.0,10.0,0.0,0.0,0.0,10.0,0.0,0.0,0.0,10.0,-0.0282295075548,0.0125168571234,0.0954743250793,1.0,0.0,0.0,0.0,1.0,0.0,0.0,0.0,1.0,-0.0047900390625,-0.0526904296875,10.0435144043,0.1,0.0,0.0,0.0,0.1,0.0,0.0,0.0,0.1
1446036918637755872,36,1446036918634012937,robocape,0.176120504186,3.35082437004,-25.8478096941,0.0,10.0,0.0,0.0,0.0,10.0,0.0,0.0,0.0,10.0,0.0790958843754,0.0165115987585,0.0354200424981,1.0,0.0,0.0,0.0,1.0,0.0,0.0,0.0,1.0,0.0550854492188,-0.417930908203,10.0231567383,0.1,0.0,0.0,0.0,0.1,0.0,0.0,0.0,0.1
1446036918669904247,37,1446036918666465997,robocape,0.379133296681,3.37613503661,-25.7619080072,0.0,10.0,0.0,0.0,0.0,10.0,0.0,0.0,0.0,10.0,0.104928546949,0.017177389031,0.0157126504315,1.0,0.0,0.0,0.0,1.0,0.0,0.0,0.0,1.0,-0.0455053710938,0.423918457031,10.0267492676,0.1,0.0,0.0,0.0,0.1,0.0,0.0,0.0,0.1
1446036918704082497,38,1446036918700690984,robocape,0.498878620731,3.39593403384,-25.657791936,0.0,10.0,0.0,0.0,0.0,10.0,0.0,0.0,0.0,10.0,0.0608532309083,0.0143810698864,0.0259658206283,1.0,0.0,0.0,0.0,1.0,0.0,0.0,0.0,1.0,0.01916015625,0.414338378906,10.0303417969,0.1,0.0,0.0,0.0,0.1,0.0,0.0,0.0,0.1
1446036918736608997,39,1446036918733345985,robocape,0.567786984588,3.41370833442,-25.600767747,0.0,10.0,0.0,0.0,0.0,10.0,0.0,0.0,0.0,10.0,0.0358195166616,0.0133158054504,0.000266316109008,1.0,0.0,0.0,0.0,1.0,0.0,0.0,0.0,1.0,-0.0383203125,0.598754882812,10.0363293457,0.1,0.0,0.0,0.0,0.1,0.0,0.0,0.0,0.1
1446036918775106539,40,1446036918770768880,robocape,0.738157692139,3.43066330942,-25.7727213234,0.0,10.0,0.0,0.0,0.0,10.0,0.0,0.0,0.0,10.0,0.0966727475699,0.0123836990689,-0.125967519561,1.0,0.0,0.0,0.0,1.0,0.0,0.0,0.0,1.0,-0.0443078613281,0.308957519531,10.0135766602,0.1,0.0,0.0,0.0,0.1,0.0,0.0,0.0,0.1
1446036918805730539,41,1446036918802577972,robocape,0.891081742256,3.43404172985,-26.0598886898,0.0,10.0,0.0,0.0,0.0,10.0,0.0,0.0,0.0,10.0,0.0916127414987,0.00452737385313,-0.189883385723,1.0,0.0,0.0,0.0,1.0,0.0,0.0,0.0,1.0,-0.0790356445313,1.45736938477,9.99920654297,0.1,0.0,0.0,0.0,0.1,0.0,0.0,0.0,0.1
1446036918838756206,42,1446036918833448886,robocape,0.497239893242,3.42108839528,-26.166768226,0.0,10.0,0.0,0.0,0.0,10.0,0.0,0.0,0.0,10.0,-0.201201820355,-0.0033289513626,-0.0900148448447,1.0,0.0,0.0,0.0,1.0,0.0,0.0,0.0,1.0,0.0359252929688,1.47413452148,10.0207617188,0.1,0.0,0.0,0.0,0.1,0.0,0.0,0.0,0.1
1446036918872193872,43,1446036918868797063,robocape,-0.168945223039,3.39148509686,-26.1504598408,0.0,10.0,0.0,0.0,0.0,10.0,0.0,0.0,0.0,10.0,-0.348607786691,-0.0117179087963,-0.0219710789932,1.0,0.0,0.0,0.0,1.0,0.0,0.0,0.0,1.0,0.0047900390625,0.477806396484,10.003996582,0.1,0.0,0.0,0.0,0.1,0.0,0.0,0.0,0.1
1446036918906128872,44,1446036918902487993,robocape,-0.785585794202,3.36218152563,-26.0674537602,0.0,10.0,0.0,0.0,0.0,10.0,0.0,0.0,0.0,10.0,-0.325438285208,-0.0119842249054,0.0142479118319,1.0,0.0,0.0,0.0,1.0,0.0,0.0,0.0,1.0,-0.274229736328,-0.796343994141,10.1201550293,0.1,0.0,0.0,0.0,0.1,0.0,0.0,0.0,0.1
1446036918939509331,45,1446036918935389995,robocape,-1.16285883632,3.35213937365,-26.0013886071,0.0,10.0,0.0,0.0,0.0,10.0,0.0,0.0,0.0,10.0,-0.200003397865,-0.00186421276306,0.00466053190764,1.0,0.0,0.0,0.0,1.0,0.0,0.0,0.0,1.0,0.173638916016,-1.02985839844,9.96567626953,0.1,0.0,0.0,0.0,0.1,0.0,0.0,0.0,0.1
1446036918974123664,46,1446036918969631910,robocape,-1.32135876282,3.36251629225,-25.909411657,0.0,10.0,0.0,0.0,0.0,10.0,0.0,0.0,0.0,10.0,-0.0864195773731,0.00838895743375,0.0191747598486,1.0,0.0,0.0,0.0,1.0,0.0,0.0,0.0,1.0,0.371228027344,-0.799936523438,9.92017089844,0.1,0.0,0.0,0.0,0.1,0.0,0.0,0.0,0.1
1446036919006911497,47,1446036919003418922,robocape,-1.19080571406,3.39018533625,-25.8586215446,0.0,10.0,0.0,0.0,0.0,10.0,0.0,0.0,0.0,10.0,0.066312711143,0.0181094954125,-0.00306263525359,1.0,0.0,0.0,0.0,1.0,0.0,0.0,0.0,1.0,0.215551757813,-0.683778076172,10.0207617188,0.1,0.0,0.0,0.0,0.1,0.0,0.0,0.0,0.1
1446036919040103539,48,1446036919036608934,robocape,-1.0116908449,3.4241510421,-25.7285361367,0.0,10.0,0.0,0.0,0.0,10.0,0.0,0.0,0.0,10.0,0.0894822126267,0.0203731823391,0.0407463646782,1.0,0.0,0.0,0.0,1.0,0.0,0.0,0.0,1.0,0.0874182128906,-0.311352539063,10.0734521484,0.1,0.0,0.0,0.0,0.1,0.0,0.0,0.0,0.1
1446036919073333914,49,1446036919070050001,robocape,-0.763532914619,3.453859224,-25.5764559628,0.0,10.0,0.0,0.0,0.0,10.0,0.0,0.0,0.0,10.0,0.125168571234,0.0181094954125,0.0529969056926,1.0,0.0,0.0,0.0,1.0,0.0,0.0,0.0,1.0,-0.0275427246094,-0.822689208984,9.98962646484,0.1,0.0,0.0,0.0,0.1,0.0,0.0,0.0,0.1
1446036919105934872,50,1446036919102529048,robocape,-0.371481537497,3.49688330474,-25.5339492663,0.0,10.0,0.0,0.0,0.0,10.0,0.0,0.0,0.0,10.0,0.204397613664,0.0264984528463,-0.00719053494321,1.0,0.0,0.0,0.0,1.0,0.0,0.0,0.0,1.0,-0.0706530761719,0.423918457031,10.0518969727,0.1,0.0,0.0,0.0,0.1,0.0,0.0,0.0,0.1
1446036919138930247,51,1446036919135340929,robocape,0.0466154548126,3.53404238294,-25.648597006,0.0,10.0,0.0,0.0,0.0,10.0,0.0,0.0,0.0,10.0,0.223705531567,0.0243679239742,-0.0940095864798,1.0,0.0,0.0,0.0,1.0,0.0,0.0,0.0,1.0,-0.0275427246094,0.387993164063,9.94891113281,0.1,0.0,0.0,0.0,0.1,0.0,0.0,0.0,0.1
1446036919171790622,52,1446036919168311119,robocape,0.220842722005,3.54329270595,-25.5958160043,0.0,10.0,0.0,0.0,0.0,10.0,0.0,0.0,0.0,10.0,0.0906806351172,0.00892158965177,-0.00199737081756,1.0,0.0,0.0,0.0,1.0,0.0,0.0,0.0,1.0,-0.275427246094,1.67172363281,10.100994873,0.1,0.0,0.0,0.0,0.1,0.0,0.0,0.0,0.1
1446036919205445331,53,1446036919202286958,robocape,0.0484062967979,3.54662504204,-25.5419428635,0.0,10.0,0.0,0.0,0.0,10.0,0.0,0.0,0.0,10.0,-0.0910801092807,0.00572579634367,-0.000932106381528,1.0,0.0,0.0,0.0,1.0,0.0,0.0,0.0,1.0,-0.118553466797,0.438288574219,10.080637207,0.1,0.0,0.0,0.0,0.1,0.0,0.0,0.0,0.1
1446036919238966081,54,1446036919235925912,robocape,-0.301887938849,3.53791412532,-25.4409439727,0.0,10.0,0.0,0.0,0.0,10.0,0.0,0.0,0.0,10.0,-0.186154960197,-0.000932106381528,0.0253000303558,1.0,0.0,0.0,0.0,1.0,0.0,0.0,0.0,1.0,-0.0215551757813,0.514929199219,10.0614770508,0.1,0.0,0.0,0.0,0.1,0.0,0.0,0.0,0.1
1446036919271474039,55,1446036919268291950,robocape,-0.71233068357,3.51960938279,-25.3224151525,0.0,10.0,0.0,0.0,0.0,10.0,0.0,0.0,0.0,10.0,-0.218645525496,-0.00639158661619,0.0350205683345,1.0,0.0,0.0,0.0,1.0,0.0,0.0,0.0,1.0,-0.0981958007813,-0.426313476563,10.0207617188,0.1,0.0,0.0,0.0,0.1,0.0,0.0,0.0,0.1
1446036919304375456,56,1446036919301182985,robocape,-1.01793046514,3.51393669863,-25.2543366162,0.0,10.0,0.0,0.0,0.0,10.0,0.0,0.0,0.0,10.0,-0.162452826495,0.000532632218016,0.00732369299772,1.0,0.0,0.0,0.0,1.0,0.0,0.0,0.0,1.0,0.0874182128906,-0.207169189453,10.0279467773,0.1,0.0,0.0,0.0,0.1,0.0,0.0,0.0,0.1
1446036919338419581,57,1446036919335387945,robocape,-1.27587356156,3.51389620394,-25.1263386808,0.0,10.0,0.0,0.0,0.0,10.0,0.0,0.0,0.0,10.0,-0.139682799175,0.00253000303558,0.0403468905147,1.0,0.0,0.0,0.0,1.0,0.0,0.0,0.0,1.0,0.0886157226563,-0.656235351563,9.99202148437,0.1,0.0,0.0,0.0,0.1,0.0,0.0,0.0,0.1
1446036919376836706,58,1446036919367861986,robocape,-1.42565743195,3.52909614494,-24.9602096092,0.0,10.0,0.0,0.0,0.0,10.0,0.0,0.0,0.0,10.0,-0.0844222065555,0.00972053797879,0.0616521792353,1.0,0.0,0.0,0.0,1.0,0.0,0.0,0.0,1.0,0.0922082519531,-0.871787109375,10.0075891113,0.1,0.0,0.0,0.0,0.1,0.0,0.0,0.0,0.1
1446036919405530664,59,1446036919402369976,robocape,-1.26962888584,3.56119475443,-24.8131538002,0.0,10.0,0.0,0.0,0.0,10.0,0.0,0.0,0.0,10.0,0.0764327232853,0.0189084437396,0.051798483202,1.0,0.0,0.0,0.0,1.0,0.0,0.0,0.0,1.0,0.119750976563,-1.08733886719,9.95729370117,0.1,0.0,0.0,0.0,0.1,0.0,0.0,0.0,0.1
1446036919437761873,60,1446036919434302091,robocape,-0.867847277656,3.60831820791,-24.7555828685,0.0,10.0,0.0,0.0,0.0,10.0,0.0,0.0,0.0,10.0,0.208392355299,0.0283626656093,0.00306263525359,1.0,0.0,0.0,0.0,1.0,0.0,0.0,0.0,1.0,0.0993933105469,-0.316142578125,9.98244140625,0.1,0.0,0.0,0.0,0.1,0.0,0.0,0.0,0.1
1446036919470658081,61,1446036919467541933,robocape,-0.443599669002,3.65157797214,-24.6951151775,0.0,10.0,0.0,0.0,0.0,10.0,0.0,0.0,0.0,10.0,0.220509738259,0.0264984528463,0.00439421579863,1.0,0.0,0.0,0.0,1.0,0.0,0.0,0.0,1.0,0.132923583984,0.170046386719,9.98842895508,0.1,0.0,0.0,0.0,0.1,0.0,0.0,0.0,0.1
1446036919504349831,62,1446036919500878095,robocape,-0.115424107683,3.68669226314,-24.6313756286,0.0,10.0,0.0,0.0,0.0,10.0,0.0,0.0,0.0,10.0,0.170442309765,0.0223705531567,0.00599211245268,1.0,0.0,0.0,0.0,1.0,0.0,0.0,0.0,1.0,0.0969982910156,0.500559082031,10.0099841309,0.1,0.0,0.0,0.0,0.1,0.0,0.0,0.0,0.1
1446036919536548081,63,1446036919533261060,robocape,0.123893687529,3.70784566067,-24.6079517988,0.0,10.0,0.0,0.0,0.0,10.0,0.0,0.0,0.0,10.0,0.125568045397,0.015313176268,-0.016112124595,1.0,0.0,0.0,0.0,1.0,0.0,0.0,0.0,1.0,-0.205971679688,0.246687011719,9.98842895508,0.1,0.0,0.0,0.0,0.1,0.0,0.0,0.0,0.1
1446036919569502248,64,1446036919566384077,robocape,0.253856205439,3.72077933813,-24.6829658361,0.0,10.0,0.0,0.0,0.0,10.0,0.0,0.0,0.0,10.0,0.0719053494321,0.0111852765783,-0.0700411366691,1.0,0.0,0.0,0.0,1.0,0.0,0.0,0.0,1.0,-0.189206542969,0.738863525391,10.0686621094,0.1,0.0,0.0,0.0,0.1,0.0,0.0,0.0,0.1
1446036919603976414,65,1446036919600476980,robocape,0.110521020087,3.71523537872,-24.7731350125,0.0,10.0,0.0,0.0,0.0,10.0,0.0,0.0,0.0,10.0,-0.0708400849961,0.00146473859954,-0.0781637779938,1.0,0.0,0.0,0.0,1.0,0.0,0.0,0.0,1.0,-0.105380859375,1.2609777832,10.0638720703,0.1,0.0,0.0,0.0,0.1,0.0,0.0,0.0,0.1
1446036919635938789,66,1446036919632778882,robocape,-0.38031541521,3.69185347239,-24.7124470686,0.0,10.0,0.0,0.0,0.0,10.0,0.0,0.0,0.0,10.0,-0.258592941847,-0.00838895743375,0.00479368996214,1.0,0.0,0.0,0.0,1.0,0.0,0.0,0.0,1.0,-0.196391601563,0.711320800781,10.0890197754,0.1,0.0,0.0,0.0,0.1,0.0,0.0,0.0,0.1
1446036919669334664,67,1446036919666249036,robocape,-0.916576575299,3.66413076818,-24.6433832248,0.0,10.0,0.0,0.0,0.0,10.0,0.0,0.0,0.0,10.0,-0.28322718193,-0.0109189604693,0.00918790576077,1.0,0.0,0.0,0.0,1.0,0.0,0.0,0.0,1.0,-0.131726074219,-0.207169189453,9.99920654297,0.1,0.0,0.0,0.0,0.1,0.0,0.0,0.0,0.1
1446036919702280914,68,1446036919699179887,robocape,-1.38601622636,3.63915483137,-24.570234913,0.0,10.0,0.0,0.0,0.0,10.0,0.0,0.0,0.0,10.0,-0.248872403868,-0.00972053797879,0.0111852765783,1.0,0.0,0.0,0.0,1.0,0.0,0.0,0.0,1.0,0.117355957031,-0.649050292969,10.0027990723,0.1,0.0,0.0,0.0,0.1,0.0,0.0,0.0,0.1
1446036919735758414,69,1446036919732544898,robocape,-1.61524057877,3.63204436775,-24.5926051879,0.0,10.0,0.0,0.0,0.0,10.0,0.0,0.0,0.0,10.0,-0.120241723217,0.00119842249054,-0.0410126807872,1.0,0.0,0.0,0.0,1.0,0.0,0.0,0.0,1.0,0.2682421875,-0.510139160156,10.0207617188,0.1,0.0,0.0,0.0,0.1,0.0,0.0,0.0,0.1
1446036919768895873,70,1446036919765809059,robocape,-1.80427068344,3.62519181131,-24.5349380833,0.0,10.0,0.0,0.0,0.0,10.0,0.0,0.0,0.0,10.0,-0.10199906975,-0.000133158054504,0.00279631914458,1.0,0.0,0.0,0.0,1.0,0.0,0.0,0.0,1.0,0.240699462891,-1.27894042969,9.93334350586,0.1,0.0,0.0,0.0,0.1,0.0,0.0,0.0,0.1
1446036919802023289,71,1446036919798938035,robocape,-1.76225503565,3.64217893979,-24.4531231415,0.0,10.0,0.0,0.0,0.0,10.0,0.0,0.0,0.0,10.0,0.018242653467,0.0118510668509,0.016644756813,1.0,0.0,0.0,0.0,1.0,0.0,0.0,0.0,1.0,0.00598754882813,-0.892144775391,10.0722546387,0.1,0.0,0.0,0.0,0.1,0.0,0.0,0.0,0.1
1446036919835461081,72,1446036919832290887,robocape,-1.49089239135,3.68626935114,-24.4245286813,0.0,10.0,0.0,0.0,0.0,10.0,0.0,0.0,0.0,10.0,0.140348589447,0.0271642431188,-0.0118510668509,1.0,0.0,0.0,0.0,1.0,0.0,0.0,0.0,1.0,0.155676269531,-0.5748046875,9.94412109375,0.1,0.0,0.0,0.0,0.1,0.0,0.0,0.0,0.1
1446036919868766456,73,1446036919865705013,robocape,-1.2172011331,3.72062365775,-24.3544494769,0.0,10.0,0.0,0.0,0.0,10.0,0.0,0.0,0.0,10.0,0.140481747502,0.0214384467751,0.0106526443603,1.0,0.0,0.0,0.0,1.0,0.0,0.0,0.0,1.0,0.0634680175781,-0.371228027344,9.90699829102,0.1,0.0,0.0,0.0,0.1,0.0,0.0,0.0,0.1
1446036919902078414,74,1446036919899024009,robocape,-0.972930890975,3.75370152369,-24.2837874317,0.0,10.0,0.0,0.0,0.0,10.0,0.0,0.0,0.0,10.0,0.125301729288,0.0209058145571,0.0109189604693,1.0,0.0,0.0,0.0,1.0,0.0,0.0,0.0,1.0,0.0239501953125,0.150886230469,10.0435144043,0.1,0.0,0.0,0.0,0.1,0.0,0.0,0.0,0.1
1446036919935881331,75,1446036919932676076,robocape,-0.78096544897,3.78607466284,-24.2449500292,0.0,10.0,0.0,0.0,0.0,10.0,0.0,0.0,0.0,10.0,0.0992027506055,0.0210389726116,-0.00652474467069,1.0,0.0,0.0,0.0,1.0,0.0,0.0,0.0,1.0,-0.0227526855469,0.425115966797,10.0542919922,0.1,0.0,0.0,0.0,0.1,0.0,0.0,0.0,0.1
1446036919968772206,76,1446036919965765953,robocape,-0.757751119933,3.80343947632,-24.169298413,0.0,10.0,0.0,0.0,0.0,10.0,0.0,0.0,0.0,10.0,0.00958737992429,0.0127831732324,0.0135821215594,1.0,0.0,0.0,0.0,1.0,0.0,0.0,0.0,1.0,-0.0275427246094,0.189206542969,9.96208374023,0.1,0.0,0.0,0.0,0.1,0.0,0.0,0.0,0.1
1446036920002339915,77,1446036919999314069,robocape,-0.78655731439,3.81201982253,-24.0892246332,0.0,10.0,0.0,0.0,0.0,10.0,0.0,0.0,0.0,10.0,-0.0178431793035,0.00812264132474,0.016112124595,1.0,0.0,0.0,0.0,1.0,0.0,0.0,0.0,1.0,-0.0383203125,0.510139160156,10.0542919922,0.1,0.0,0.0,0.0,0.1,0.0,0.0,0.0,0.1
1446036920036582831,78,1446036920033325910,robocape,-1.10694642724,3.80933598714,-23.874743287,0.0,10.0,0.0,0.0,0.0,10.0,0.0,0.0,0.0,10.0,-0.175502315836,0.000399474163512,0.0897485287357,1.0,0.0,0.0,0.0,1.0,0.0,0.0,0.0,1.0,-0.0910107421875,0.196391601563,10.0506994629,0.1,0.0,0.0,0.0,0.1,0.0,0.0,0.0,0.1
1446036920068641998,79,1446036920065635919,robocape,-1.24770567599,3.81345648744,-23.7712303618,0.0,10.0,0.0,0.0,0.0,10.0,0.0,0.0,0.0,10.0,-0.0777643038303,0.00519316412565,0.0294279300454,1.0,0.0,0.0,0.0,1.0,0.0,0.0,0.0,1.0,0.00119750976563,-0.996328125,9.95489868164,0.1,0.0,0.0,0.0,0.1,0.0,0.0,0.0,0.1
1446036920102274331,80,1446036920099244117,robocape,-1.25462328893,3.82958774106,-23.6941348319,0.0,10.0,0.0,0.0,0.0,10.0,0.0,0.0,0.0,10.0,-0.0067910607797,0.0118510668509,0.015313176268,1.0,0.0,0.0,0.0,1.0,0.0,0.0,0.0,1.0,0.0335302734375,-0.350870361328,10.024354248,0.1,0.0,0.0,0.0,0.1,0.0,0.0,0.0,0.1
1446036920135714373,81,1446036920132458925,robocape,-1.16476884652,3.85277182176,-23.6432912614,0.0,10.0,0.0,0.0,0.0,10.0,0.0,0.0,0.0,10.0,0.0448742643678,0.0159789665405,0.00119842249054,1.0,0.0,0.0,0.0,1.0,0.0,0.0,0.0,1.0,0.269439697266,-0.410745849609,9.95489868164,0.1,0.0,0.0,0.0,0.1,0.0,0.0,0.0,0.1
1446036920170381581,82,1446036920167351007,robocape,-1.07972751842,3.87782761391,-23.5860006343,0.0,10.0,0.0,0.0,0.0,10.0,0.0,0.0,0.0,10.0,0.0422111032778,0.016911072922,0.00479368996214,1.0,0.0,0.0,0.0,1.0,0.0,0.0,0.0,1.0,0.0275427246094,-0.488583984375,10.0339343262,0.1,0.0,0.0,0.0,0.1,0.0,0.0,0.0,0.1
1446036920202055248,83,1446036920198949098,robocape,-0.892965145778,3.906108566,-23.5159787003,0.0,10.0,0.0,0.0,0.0,10.0,0.0,0.0,0.0,10.0,0.0952080089703,0.0185089695761,0.0118510668509,1.0,0.0,0.0,0.0,1.0,0.0,0.0,0.0,1.0,-0.0215551757813,-0.204774169922,10.0782421875,0.1,0.0,0.0,0.0,0.1,0.0,0.0,0.0,0.1
1446036920239309081,84,1446036920235831022,robocape,-0.778395465842,3.93526640255,-23.3757834087,0.0,10.0,0.0,0.0,0.0,10.0,0.0,0.0,0.0,10.0,0.0549942765101,0.018242653467,0.050200586548,1.0,0.0,0.0,0.0,1.0,0.0,0.0,0.0,1.0,-0.0395178222656,0.0323327636719,10.0722546387,0.1,0.0,0.0,0.0,0.1,0.0,0.0,0.0,0.1
1446036920273132956,85,1446036920269606113,robocape,-0.607012336352,3.96170074325,-23.2671293094,0.0,10.0,0.0,0.0,0.0,10.0,0.0,0.0,0.0,10.0,0.0860201032096,0.0173105470855,0.0331563555715,1.0,0.0,0.0,0.0,1.0,0.0,0.0,0.0,1.0,0.0646655273438,-0.548459472656,9.95489868164,0.1,0.0,0.0,0.0,0.1,0.0,0.0,0.0,0.1
1446036920307334748,86,1446036920303935050,robocape,-0.400139553777,3.98099795115,-23.2347986917,0.0,10.0,0.0,0.0,0.0,10.0,0.0,0.0,0.0,10.0,0.107591708039,0.0143810698864,-0.00838895743375,1.0,0.0,0.0,0.0,1.0,0.0,0.0,0.0,1.0,0.0311352539063,0.0898132324219,10.0123791504,0.1,0.0,0.0,0.0,0.1,0.0,0.0,0.0,0.1
1446036920339921415,87,1446036920336834907,robocape,-0.20273319766,4.00206949982,-23.2370771863,0.0,10.0,0.0,0.0,0.0,10.0,0.0,0.0,0.0,10.0,0.104129598622,0.015579492377,-0.0272974011733,1.0,0.0,0.0,0.0,1.0,0.0,0.0,0.0,1.0,-0.0335302734375,1.15439941406,10.0662670898,0.1,0.0,0.0,0.0,0.1,0.0,0.0,0.0,0.1
1446036920376689873,88,1446036920370641946,robocape,-0.379793379345,4.00581361709,-23.1312987372,0.0,10.0,0.0,0.0,0.0,10.0,0.0,0.0,0.0,10.0,-0.0961401153519,0.00572579634367,0.0318247750264,1.0,0.0,0.0,0.0,1.0,0.0,0.0,0.0,1.0,-0.17244140625,0.225131835938,10.0159716797,0.1,0.0,0.0,0.0,0.1,0.0,0.0,0.0,0.1
1446036920406479081,89,1446036920403198003,robocape,-0.559764133231,4.00417544207,-23.0465768043,0.0,10.0,0.0,0.0,0.0,10.0,0.0,0.0,0.0,10.0,-0.0970722217334,0.00292947719909,0.0205063403936,1.0,0.0,0.0,0.0,1.0,0.0,0.0,0.0,1.0,-0.190404052734,-0.28740234375,10.0004040527,0.1,0.0,0.0,0.0,0.1,0.0,0.0,0.0,0.1
1446036920438391165,90,1446036920434978961,robocape,-0.730419940607,4.00603753286,-22.9752798538,0.0,10.0,0.0,0.0,0.0,10.0,0.0,0.0,0.0,10.0,-0.0918790576077,0.00479368996214,0.0133158054504,1.0,0.0,0.0,0.0,1.0,0.0,0.0,0.0,1.0,0.0550854492188,-0.00359252929688,10.0854272461,0.1,0.0,0.0,0.0,0.1,0.0,0.0,0.0,0.1
1446036920471618081,91,1446036920468519926,robocape,-0.849451275962,4.01024640872,-22.9183590387,0.0,10.0,0.0,0.0,0.0,10.0,0.0,0.0,0.0,10.0,-0.0644484983799,0.00612527050718,0.00559263828917,1.0,0.0,0.0,0.0,1.0,0.0,0.0,0.0,1.0,0.162861328125,-0.353265380859,10.0075891113,0.1,0.0,0.0,0.0,0.1,0.0,0.0,0.0,0.1
1446036920504848456,92,1446036920501749038,robocape,-0.91114561461,4.01753657328,-22.861640129,0.0,10.0,0.0,0.0,0.0,10.0,0.0,0.0,0.0,10.0,-0.0344879361165,0.00772316716123,0.00559263828917,1.0,0.0,0.0,0.0,1.0,0.0,0.0,0.0,1.0,0.122145996094,-0.625100097656,9.98244140625,0.1,0.0,0.0,0.0,0.1,0.0,0.0,0.0,0.1
1446036920538596456,93,1446036920535305976,robocape,-0.865490161639,4.03388561212,-22.7961484022,0.0,10.0,0.0,0.0,0.0,10.0,0.0,0.0,0.0,10.0,0.0214384467751,0.0123836990689,0.0105194863058,1.0,0.0,0.0,0.0,1.0,0.0,0.0,0.0,1.0,-0.0131726074219,-0.373623046875,10.0267492676,0.1,0.0,0.0,0.0,0.1,0.0,0.0,0.0,0.1
1446036920571466581,94,1446036920568362951,robocape,-0.737735579171,4.05825318828,-22.7423886105,0.0,10.0,0.0,0.0,0.0,10.0,0.0,0.0,0.0,10.0,0.0649811305979,0.0167779148675,0.00426105774413,1.0,0.0,0.0,0.0,1.0,0.0,0.0,0.0,1.0,0.00239501953125,-0.36404296875,9.99681152344,0.1,0.0,0.0,0.0,0.1,0.0,0.0,0.0,0.1
1446036920604269706,95,1446036920601246118,robocape,-0.647695234695,4.08287650325,-22.6446898001,0.0,10.0,0.0,0.0,0.0,10.0,0.0,0.0,0.0,10.0,0.0436758418773,0.0165115987585,0.0282295075548,1.0,0.0,0.0,0.0,1.0,0.0,0.0,0.0,1.0,0.01916015625,-0.0383203125,10.0171691895,0.1,0.0,0.0,0.0,0.1,0.0,0.0,0.0,0.1
1446036920637035582,96,1446036920633989095,robocape,-0.559001743295,4.10812776957,-22.5462499488,0.0,10.0,0.0,0.0,0.0,10.0,0.0,0.0,0.0,10.0,0.0430100516048,0.016911072922,0.0287621397729,1.0,0.0,0.0,0.0,1.0,0.0,0.0,0.0,1.0,0.0598754882813,-0.28740234375,10.0171691895,0.1,0.0,0.0,0.0,0.1,0.0,0.0,0.0,0.1
1446036920671249457,97,1446036920667989969,robocape,-0.463937758502,4.13120020545,-22.4632142999,0.0,10.0,0.0,0.0,0.0,10.0,0.0,0.0,0.0,10.0,0.0470047932399,0.0159789665405,0.0205063403936,1.0,0.0,0.0,0.0,1.0,0.0,0.0,0.0,1.0,0.0323327636719,-0.0263452148438,10.0339343262,0.1,0.0,0.0,0.0,0.1,0.0,0.0,0.0,0.1
1446036920703362498,98,1446036920700345039,robocape,-0.378788580217,4.15331515242,-22.3852730155,0.0,10.0,0.0,0.0,0.0,10.0,0.0,0.0,0.0,10.0,0.0420779452233,0.015579492377,0.0178431793035,1.0,0.0,0.0,0.0,1.0,0.0,0.0,0.0,1.0,-0.00239501953125,-0.0622705078125,10.0135766602,0.1,0.0,0.0,0.0,0.1,0.0,0.0,0.0,0.1
1446036920736723123,99,1446036920733434915,robocape,-0.295591691206,4.17326569382,-22.3285822611,0.0,10.0,0.0,0.0,0.0,10.0,0.0,0.0,0.0,10.0,0.0419447871687,0.0146473859954,0.00639158661619,1.0,0.0,0.0,0.0,1.0,0.0,0.0,0.0,1.0,0.0215551757813,-0.0718505859375,10.0207617188,0.1,0.0,0.0,0.0,0.1,0.0,0.0,0.0,0.1
1446036920770177957,100,1446036920766887903,robocape,-0.204463694664,4.19300463591,-22.2827872421,0.0,10.0,0.0,0.0,0.0,10.0,0.0,0.0,0.0,10.0,0.0466053190764,0.0146473859954,0.000532632218016,1.0,0.0,0.0,0.0,1.0,0.0,0.0,0.0,1.0,0.01916015625,0.122145996094,10.0351318359,0.1,0.0,0.0,0.0,0.1,0.0,0.0,0.0,0.1
1446036920803007457,101,1446036920799717903,robocape,-0.182273893398,4.20909675599,-22.2197794963,0.0,10.0,0.0,0.0,0.0,10.0,0.0,0.0,0.0,10.0,0.00985369603329,0.0126500151779,0.0099868540878,1.0,0.0,0.0,0.0,1.0,0.0,0.0,0.0,1.0,-0.0107775878906,-0.0514929199219,10.0147741699,0.1,0.0,0.0,0.0,0.1,0.0,0.0,0.0,0.1
1446036920835864707,102,1446036920832421064,robocape,-0.173742221616,4.22235242129,-22.1591874819,0.0,10.0,0.0,0.0,0.0,10.0,0.0,0.0,0.0,10.0,0.00279631914458,0.0111852765783,0.00878843159726,1.0,0.0,0.0,0.0,1.0,0.0,0.0,0.0,1.0,-0.0359252929688,0.00239501953125,10.0171691895,0.1,0.0,0.0,0.0,0.1,0.0,0.0,0.0,0.1
1446036920869219748,103,1446036920866203069,robocape,-0.164802635913,4.23721184005,-22.1134773977,0.0,10.0,0.0,0.0,0.0,10.0,0.0,0.0,0.0,10.0,0.00359526747161,0.0121173829599,0.000798948327024,1.0,0.0,0.0,0.0,1.0,0.0,0.0,0.0,1.0,-0.00718505859375,0.146096191406,10.0459094238,0.1,0.0,0.0,0.0,0.1,0.0,0.0,0.0,0.1
1446036920902169540,104,1446036920899096965,robocape,-0.185550078424,4.2476112943,-22.0574164796,0.0,10.0,0.0,0.0,0.0,10.0,0.0,0.0,0.0,10.0,-0.0123836990689,0.00972053797879,0.00652474467069,1.0,0.0,0.0,0.0,1.0,0.0,0.0,0.0,1.0,0.0371228027344,-0.112565917969,9.98363891602,0.1,0.0,0.0,0.0,0.1,0.0,0.0,0.0,0.1
1446036920935611290,105,1446036920932249069,robocape,-0.117870166117,4.25389630385,-22.0781901523,0.0,10.0,0.0,0.0,0.0,10.0,0.0,0.0,0.0,10.0,0.0370179391521,0.00798948327024,-0.035153726389,1.0,0.0,0.0,0.0,1.0,0.0,0.0,0.0,1.0,0.086220703125,-0.519719238281,9.96328125,0.1,0.0,0.0,0.0,0.1,0.0,0.0,0.0,0.1
1446036920968857290,106,1446036920965812921,robocape,0.127942495735,4.27182797356,-22.314201423,0.0,10.0,0.0,0.0,0.0,10.0,0.0,0.0,0.0,10.0,0.139150166957,0.0149137021044,-0.152332814353,1.0,0.0,0.0,0.0,1.0,0.0,0.0,0.0,1.0,0.0490979003906,0.534089355469,10.055489502,0.1,0.0,0.0,0.0,0.1,0.0,0.0,0.0,0.1
1446036921002144915,107,1446036920999114990,robocape,0.0282979284135,4.25784567508,-22.313614678,0.0,10.0,0.0,0.0,0.0,10.0,0.0,0.0,0.0,10.0,-0.051265850984,-0.00279631914458,-0.0238352917562,1.0,0.0,0.0,0.0,1.0,0.0,0.0,0.0,1.0,-0.2682421875,1.00231567383,10.1381176758,0.1,0.0,0.0,0.0,0.1,0.0,0.0,0.0,0.1
1446036921035370165,108,1446036921032272100,robocape,-0.313562850459,4.24216015863,-22.2596859367,0.0,10.0,0.0,0.0,0.0,10.0,0.0,0.0,0.0,10.0,-0.180562321907,-0.00399474163512,0.00532632218016,1.0,0.0,0.0,0.0,1.0,0.0,0.0,0.0,1.0,-0.147293701172,0.0598754882813,10.0255517578,0.1,0.0,0.0,0.0,0.1,0.0,0.0,0.0,0.1
1446036921068920123,109,1446036921065901041,robocape,-0.658496882207,4.22544110998,-22.1875448926,0.0,10.0,0.0,0.0,0.0,10.0,0.0,0.0,0.0,10.0,-0.183225482997,-0.00479368996214,0.0151800182135,1.0,0.0,0.0,0.0,1.0,0.0,0.0,0.0,1.0,0.0107775878906,-0.335302734375,9.95489868164,0.1,0.0,0.0,0.0,0.1,0.0,0.0,0.0,0.1
1446036921103064707,110,1446036921099972009,robocape,-0.888457140083,4.21775115328,-22.131332002,0.0,10.0,0.0,0.0,0.0,10.0,0.0,0.0,0.0,10.0,-0.122638568198,0.0,0.00652474467069,1.0,0.0,0.0,0.0,1.0,0.0,0.0,0.0,1.0,0.387993164063,-0.486188964844,10.0123791504,0.1,0.0,0.0,0.0,0.1,0.0,0.0,0.0,0.1
1446036921135237790,111,1446036921132203102,robocape,-1.06447787533,4.22537886265,-22.0032564378,0.0,10.0,0.0,0.0,0.0,10.0,0.0,0.0,0.0,10.0,-0.0973385378424,0.00705737688871,0.0456732126949,1.0,0.0,0.0,0.0,1.0,0.0,0.0,0.0,1.0,0.165256347656,-0.827479248047,10.0506994629,0.1,0.0,0.0,0.0,0.1,0.0,0.0,0.0,0.1
1446036921169303165,112,1446036921166193962,robocape,-1.04185333783,4.24069752646,-21.9161567286,0.0,10.0,0.0,0.0,0.0,10.0,0.0,0.0,0.0,10.0,0.00825579937925,0.0115847507418,0.0237021337017,1.0,0.0,0.0,0.0,1.0,0.0,0.0,0.0,1.0,0.0586779785156,-1.57592285156,9.97525634766,0.1,0.0,0.0,0.0,0.1,0.0,0.0,0.0,0.1
1446036921202186290,113,1446036921199090957,robocape,-0.703047408934,4.28292493268,-21.8610052199,0.0,10.0,0.0,0.0,0.0,10.0,0.0,0.0,0.0,10.0,0.175369157782,0.0262321367373,0.0066579027252,1.0,0.0,0.0,0.0,1.0,0.0,0.0,0.0,1.0,0.105380859375,-0.437091064453,10.0303417969,0.1,0.0,0.0,0.0,0.1,0.0,0.0,0.0,0.1
1446036921235562957,114,1446036921232307910,robocape,-0.268398377886,4.34121831186,-21.8722678686,0.0,10.0,0.0,0.0,0.0,10.0,0.0,0.0,0.0,10.0,0.228632379583,0.0354200424981,-0.0295610880999,1.0,0.0,0.0,0.0,1.0,0.0,0.0,0.0,1.0,0.164058837891,-0.0910107421875,9.886640625,0.1,0.0,0.0,0.0,0.1,0.0,0.0,0.0,0.1
1446036921268864082,115,1446036921265743017,robocape,-0.0252759952668,4.36861041389,-21.7883792144,0.0,10.0,0.0,0.0,0.0,10.0,0.0,0.0,0.0,10.0,0.12476909707,0.0186421276306,0.0218379209386,1.0,0.0,0.0,0.0,1.0,0.0,0.0,0.0,1.0,0.0371228027344,0.258662109375,9.90939331055,0.1,0.0,0.0,0.0,0.1,0.0,0.0,0.0,0.1
1446036921302189582,116,1446036921299101114,robocape,0.105934291925,4.38870566975,-21.7410584392,0.0,10.0,0.0,0.0,0.0,10.0,0.0,0.0,0.0,10.0,0.0677774497425,0.0150468601589,0.00213052887206,1.0,0.0,0.0,0.0,1.0,0.0,0.0,0.0,1.0,-0.0658630371094,0.758023681641,10.0566870117,0.1,0.0,0.0,0.0,0.1,0.0,0.0,0.0,0.1
1446036921335498499,117,1446036921332293033,robocape,0.0730352710341,4.40197030848,-21.6958477391,0.0,10.0,0.0,0.0,0.0,10.0,0.0,0.0,0.0,10.0,-0.0181094954125,0.0114515926873,0.00119842249054,1.0,0.0,0.0,0.0,1.0,0.0,0.0,0.0,1.0,-0.259859619141,0.55564453125,10.0734521484,0.1,0.0,0.0,0.0,0.1,0.0,0.0,0.0,0.1
1446036921372695165,118,1446036921365639925,robocape,-0.0598368369657,4.40718814116,-21.6512466188,0.0,10.0,0.0,0.0,0.0,10.0,0.0,0.0,0.0,10.0,-0.0705737688871,0.00719053494321,0.00106526443603,1.0,0.0,0.0,0.0,1.0,0.0,0.0,0.0,1.0,-0.110170898438,0.0706530761719,9.95609619141,0.1,0.0,0.0,0.0,0.1,0.0,0.0,0.0,0.1
1446036921402687749,119,1446036921399661064,robocape,-0.155503354125,4.40922194187,-21.6796793455,0.0,10.0,0.0,0.0,0.0,10.0,0.0,0.0,0.0,10.0,-0.0482032157304,0.00585895439817,-0.0384826777516,1.0,0.0,0.0,0.0,1.0,0.0,0.0,0.0,1.0,0.15328125,-0.142503662109,9.96088623047,0.1,0.0,0.0,0.0,0.1,0.0,0.0,0.0,0.1
1446036921435672624,120,1446036921432496070,robocape,-0.364800282017,4.40294749442,-21.6313137169,0.0,10.0,0.0,0.0,0.0,10.0,0.0,0.0,0.0,10.0,-0.111053817456,0.00106526443603,0.0031957933081,1.0,0.0,0.0,0.0,1.0,0.0,0.0,0.0,1.0,0.0,0.178428955078,10.0818347168,0.1,0.0,0.0,0.0,0.1,0.0,0.0,0.0,0.1
1446036921468796624,121,1446036921465759038,robocape,-0.619732792976,4.40848674632,-21.5184679623,0.0,10.0,0.0,0.0,0.0,10.0,0.0,0.0,0.0,10.0,-0.137818586412,0.0066579027252,0.0382163616426,1.0,0.0,0.0,0.0,1.0,0.0,0.0,0.0,1.0,0.0514929199219,-0.09580078125,10.0578845215,0.1,0.0,0.0,0.0,0.1,0.0,0.0,0.0,0.1
1446036921502224082,122,1446036921499195098,robocape,-0.86694546785,4.40781361116,-21.2947206193,0.0,10.0,0.0,0.0,0.0,10.0,0.0,0.0,0.0,10.0,-0.138484376684,0.00199737081756,0.0984038022784,1.0,0.0,0.0,0.0,1.0,0.0,0.0,0.0,1.0,0.243094482422,-1.11368408203,9.97046630859,0.1,0.0,0.0,0.0,0.1,0.0,0.0,0.0,0.1
1446036921535659999,123,1446036921532377958,robocape,-0.779662672815,4.43538822338,-21.1710451824,0.0,10.0,0.0,0.0,0.0,10.0,0.0,0.0,0.0,10.0,0.0407463646782,0.0178431793035,0.0446079482588,1.0,0.0,0.0,0.0,1.0,0.0,0.0,0.0,1.0,0.119750976563,-1.26576782227,10.0123791504,0.1,0.0,0.0,0.0,0.1,0.0,0.0,0.0,0.1
1446036921568811915,124,1446036921565658092,robocape,-0.407538771133,4.48258918361,-21.1270958567,0.0,10.0,0.0,0.0,0.0,10.0,0.0,0.0,0.0,10.0,0.193478653194,0.0291616139364,0.00159789665405,1.0,0.0,0.0,0.0,1.0,0.0,0.0,0.0,1.0,0.0790356445313,-0.692160644531,9.98842895508,0.1,0.0,0.0,0.0,0.1,0.0,0.0,0.0,0.1
1446036921602603499,125,1446036921599198102,robocape,0.0975117741134,4.53117138556,-21.1861316256,0.0,10.0,0.0,0.0,0.0,10.0,0.0,0.0,0.0,10.0,0.267914005662,0.0306263525359,-0.0544616442921,1.0,0.0,0.0,0.0,1.0,0.0,0.0,0.0,1.0,0.113763427734,-0.458646240234,9.96328125,0.1,0.0,0.0,0.0,0.1,0.0,0.0,0.0,0.1
1446036921635786415,126,1446036921632205009,robocape,0.616393061874,4.57174591717,-21.3658473778,0.0,10.0,0.0,0.0,0.0,10.0,0.0,0.0,0.0,10.0,0.280963495003,0.0262321367373,-0.120374881272,1.0,0.0,0.0,0.0,1.0,0.0,0.0,0.0,1.0,0.0514929199219,1.24062011719,9.96088623047,0.1,0.0,0.0,0.0,0.1,0.0,0.0,0.0,0.1
1446036921669135374,127,1446036921665668010,robocape,0.633089627094,4.57873411155,-21.3458986663,0.0,10.0,0.0,0.0,0.0,10.0,0.0,0.0,0.0,10.0,0.00945422186978,0.00838895743375,-0.0119842249054,1.0,0.0,0.0,0.0,1.0,0.0,0.0,0.0,1.0,-0.0754431152344,1.25379272461,10.0063916016,0.1,0.0,0.0,0.0,0.1,0.0,0.0,0.0,0.1
1446036921702436624,128,1446036921699182987,robocape,0.393524469791,4.56733625298,-21.2939815739,0.0,10.0,0.0,0.0,0.0,10.0,0.0,0.0,0.0,10.0,-0.126366993724,-0.00133158054504,0.00585895439817,1.0,0.0,0.0,0.0,1.0,0.0,0.0,0.0,1.0,-0.409548339844,0.646655273438,10.0411193848,0.1,0.0,0.0,0.0,0.1,0.0,0.0,0.0,0.1
1446036921735731957,129,1446036921732310056,robocape,0.0180379973495,4.54940813977,-21.2303975126,0.0,10.0,0.0,0.0,0.0,10.0,0.0,0.0,0.0,10.0,-0.198405501211,-0.00492684801665,0.0123836990689,1.0,0.0,0.0,0.0,1.0,0.0,0.0,0.0,1.0,-0.0455053710938,0.214354248047,10.0423168945,0.1,0.0,0.0,0.0,0.1,0.0,0.0,0.0,0.1
1446036921769047582,130,1446036921765839099,robocape,-0.457270932242,4.52605433249,-21.1188794905,0.0,10.0,0.0,0.0,0.0,10.0,0.0,0.0,0.0,10.0,-0.253133461612,-0.00825579937925,0.0383495196971,1.0,0.0,0.0,0.0,1.0,0.0,0.0,0.0,1.0,0.0179626464844,-0.382005615234,10.0542919922,0.1,0.0,0.0,0.0,0.1,0.0,0.0,0.0,0.1
1446036921802078624,131,1446036921798906087,robocape,-0.786878150656,4.51691754861,-21.0662248078,0.0,10.0,0.0,0.0,0.0,10.0,0.0,0.0,0.0,10.0,-0.174703367509,-0.000532632218016,0.00639158661619,1.0,0.0,0.0,0.0,1.0,0.0,0.0,0.0,1.0,0.380808105469,-0.526904296875,9.97525634766,0.1,0.0,0.0,0.0,0.1,0.0,0.0,0.0,0.1
1446036921835494040,132,1446036921832158088,robocape,-0.925664502602,4.51726788953,-21.0126157409,0.0,10.0,0.0,0.0,0.0,10.0,0.0,0.0,0.0,10.0,-0.0749679846857,0.00439421579863,0.00692421883421,1.0,0.0,0.0,0.0,1.0,0.0,0.0,0.0,1.0,0.0682580566406,-1.12326416016,9.94891113281,0.1,0.0,0.0,0.0,0.1,0.0,0.0,0.0,0.1
1446036921869165249,133,1446036921866156101,robocape,-0.874388052171,4.5394586336,-20.9246346399,0.0,10.0,0.0,0.0,0.0,10.0,0.0,0.0,0.0,10.0,0.0231695014837,0.0154463343225,0.0256995045193,1.0,0.0,0.0,0.0,1.0,0.0,0.0,0.0,1.0,0.0419128417969,-0.959205322266,9.98124389648,0.1,0.0,0.0,0.0,0.1,0.0,0.0,0.0,0.1
1446036921902416874,134,1446036921899153947,robocape,-0.594330337657,4.58065833386,-20.8987622101,0.0,10.0,0.0,0.0,0.0,10.0,0.0,0.0,0.0,10.0,0.145808069682,0.0262321367373,-0.00772316716123,1.0,0.0,0.0,0.0,1.0,0.0,0.0,0.0,1.0,0.213156738281,-0.566422119141,9.99561401367,0.1,0.0,0.0,0.0,0.1,0.0,0.0,0.0,0.1
1446036921935566582,135,1446036921932231903,robocape,-0.31018433021,4.62650282279,-20.8095562023,0.0,10.0,0.0,0.0,0.0,10.0,0.0,0.0,0.0,10.0,0.145541753573,0.0282295075548,0.0263652947918,1.0,0.0,0.0,0.0,1.0,0.0,0.0,0.0,1.0,0.0299377441406,0.028740234375,10.0255517578,0.1,0.0,0.0,0.0,0.1,0.0,0.0,0.0,0.1
1446036921969938832,136,1446036921966814994,robocape,-0.183665908024,4.66345664587,-20.5691070247,0.0,10.0,0.0,0.0,0.0,10.0,0.0,0.0,0.0,10.0,0.0565921731642,0.0227700273202,0.108124340257,1.0,0.0,0.0,0.0,1.0,0.0,0.0,0.0,1.0,-0.0443078613281,-0.180823974609,10.0207617188,0.1,0.0,0.0,0.0,0.1,0.0,0.0,0.0,0.1
1446036922003675374,137,1446036922000360965,robocape,0.163665610552,4.7110066139,-20.5639870124,0.0,10.0,0.0,0.0,0.0,10.0,0.0,0.0,0.0,10.0,0.182692850779,0.0298274042089,-0.0189084437396,1.0,0.0,0.0,0.0,1.0,0.0,0.0,0.0,1.0,0.00838256835938,-0.0634680175781,9.98124389648,0.1,0.0,0.0,0.0,0.1,0.0,0.0,0.0,0.1
1446036922037593999,138,1446036922033807992,robocape,0.324116720835,4.73428868885,-20.4702318899,0.0,10.0,0.0,0.0,0.0,10.0,0.0,0.0,0.0,10.0,0.0810932551929,0.016911072922,0.0290284558819,1.0,0.0,0.0,0.0,1.0,0.0,0.0,0.0,1.0,0.0634680175781,0.468226318359,10.1045874023,0.1,0.0,0.0,0.0,0.1,0.0,0.0,0.0,0.1
1446036922070780166,139,1446036922067178010,robocape,0.388523908471,4.7495207912,-20.4346229985,0.0,10.0,0.0,0.0,0.0,10.0,0.0,0.0,0.0,10.0,0.0334226716805,0.0127831732324,-0.00213052887206,1.0,0.0,0.0,0.0,1.0,0.0,0.0,0.0,1.0,-0.0167651367188,0.473016357422,10.0447119141,0.1,0.0,0.0,0.0,0.1,0.0,0.0,0.0,0.1
1446036922102722082,140,1446036922099596977,robocape,0.288117472387,4.75295269386,-20.380824455,0.0,10.0,0.0,0.0,0.0,10.0,0.0,0.0,0.0,10.0,-0.0537958540196,0.00652474467069,0.00798948327024,1.0,0.0,0.0,0.0,1.0,0.0,0.0,0.0,1.0,-0.138911132813,0.356857910156,10.0638720703,0.1,0.0,0.0,0.0,0.1,0.0,0.0,0.0,0.1
1446036922137408457,141,1446036922133857011,robocape,0.0559830502035,4.75252356836,-20.2660151576,0.0,10.0,0.0,0.0,0.0,10.0,0.0,0.0,0.0,10.0,-0.125701203452,0.00426105774413,0.0411458388417,1.0,0.0,0.0,0.0,1.0,0.0,0.0,0.0,1.0,-0.178428955078,0.0251477050781,10.0650695801,0.1,0.0,0.0,0.0,0.1,0.0,0.0,0.0,0.1
1446036922171410166,142,1446036922168292999,robocape,-0.141959500106,4.75269477742,-20.1207888637,0.0,10.0,0.0,0.0,0.0,10.0,0.0,0.0,0.0,10.0,-0.109322762748,0.00426105774413,0.0576574376002,1.0,0.0,0.0,0.0,1.0,0.0,0.0,0.0,1.0,0.0490979003906,-0.587977294922,9.99321899414,0.1,0.0,0.0,0.0,0.1,0.0,0.0,0.0,0.1
1446036922203094124,143,1446036922199697017,robocape,-0.208662937999,4.75919336086,-20.0737761474,0.0,10.0,0.0,0.0,0.0,10.0,0.0,0.0,0.0,10.0,-0.0363521488796,0.00798948327024,0.00479368996214,1.0,0.0,0.0,0.0,1.0,0.0,0.0,0.0,1.0,0.100590820313,-0.382005615234,9.97765136719,0.1,0.0,0.0,0.0,0.1,0.0,0.0,0.0,0.1
1446036922239923457,144,1446036922236258029,robocape,-0.207705479153,4.7736021392,-20.0206316823,0.0,10.0,0.0,0.0,0.0,10.0,0.0,0.0,0.0,10.0,-0.00119842249054,0.0121173829599,0.00812264132474,1.0,0.0,0.0,0.0,1.0,0.0,0.0,0.0,1.0,0.243094482422,-0.403560791016,10.0016015625,0.1,0.0,0.0,0.0,0.1,0.0,0.0,0.0,0.1
1446036922273134374,145,1446036922269993066,robocape,-0.20429004612,4.79200412119,-19.9023912067,0.0,10.0,0.0,0.0,0.0,10.0,0.0,0.0,0.0,10.0,-0.00279631914458,0.0138484376684,0.0432763677138,1.0,0.0,0.0,0.0,1.0,0.0,0.0,0.0,1.0,0.00239501953125,-0.244291992188,10.039921875,0.1,0.0,0.0,0.0,0.1,0.0,0.0,0.0,0.1
1446036922303643832,146,1446036922300522089,robocape,-0.267116302672,4.81309728615,-19.6223237967,0.0,10.0,0.0,0.0,0.0,10.0,0.0,0.0,0.0,10.0,-0.0447411063133,0.0142479118319,0.130628051468,1.0,0.0,0.0,0.0,1.0,0.0,0.0,0.0,1.0,-0.0371228027344,-0.449066162109,10.024354248,0.1,0.0,0.0,0.0,0.1,0.0,0.0,0.0,0.1
1446036922338571666,147,1446036922333247900,robocape,-0.222217302297,4.84284724178,-19.230811656,0.0,10.0,0.0,0.0,0.0,10.0,0.0,0.0,0.0,10.0,0.0066579027252,0.0181094954125,0.190815492104,1.0,0.0,0.0,0.0,1.0,0.0,0.0,0.0,1.0,0.086220703125,-1.03345092773,9.96208374023,0.1,0.0,0.0,0.0,0.1,0.0,0.0,0.0,0.1
1446036922378665832,148,1446036922371289968,robocape,0.0642417559779,4.88565187196,-18.9238553129,0.0,10.0,0.0,0.0,0.0,10.0,0.0,0.0,0.0,10.0,0.137019638085,0.0259658206283,0.145541753573,1.0,0.0,0.0,0.0,1.0,0.0,0.0,0.0,1.0,0.147293701172,-1.04183349609,9.97286132813,0.1,0.0,0.0,0.0,0.1,0.0,0.0,0.0,0.1
1446036922405463416,149,1446036922402331113,robocape,0.582988687874,4.93290648026,-18.7372302188,0.0,10.0,0.0,0.0,0.0,10.0,0.0,0.0,0.0,10.0,0.264451896245,0.0295610880999,0.0808269390839,1.0,0.0,0.0,0.0,1.0,0.0,0.0,0.0,1.0,0.0826281738281,-0.331710205078,10.0315393066,0.1,0.0,0.0,0.0,0.1,0.0,0.0,0.0,0.1
1446036922437614499,150,1446036922434221982,robocape,1.08599558726,4.9761194847,-18.5708535037,0.0,10.0,0.0,0.0,0.0,10.0,0.0,0.0,0.0,10.0,0.257527677411,0.0282295075548,0.0697748205601,1.0,0.0,0.0,0.0,1.0,0.0,0.0,0.0,1.0,0.110170898438,0.338895263672,10.0375268555,0.1,0.0,0.0,0.0,0.1,0.0,0.0,0.0,0.1
1446036922471728082,151,1446036922468605995,robocape,1.49136199987,5.00838121992,-18.4654645578,0.0,10.0,0.0,0.0,0.0,10.0,0.0,0.0,0.0,10.0,0.209590777789,0.0226368692657,0.0371510972066,1.0,0.0,0.0,0.0,1.0,0.0,0.0,0.0,1.0,0.105380859375,0.397573242188,10.0123791504,0.1,0.0,0.0,0.0,0.1,0.0,0.0,0.0,0.1
1446036922506152624,152,1446036922502273082,robocape,1.72412283213,5.02718661283,-18.4033239083,0.0,10.0,0.0,0.0,0.0,10.0,0.0,0.0,0.0,10.0,0.121440145708,0.015313176268,0.0143810698864,1.0,0.0,0.0,0.0,1.0,0.0,0.0,0.0,1.0,-0.444276123047,1.18313964844,10.0495019531,0.1,0.0,0.0,0.0,0.1,0.0,0.0,0.0,0.1
1446036922539673707,153,1446036922536256074,robocape,1.71735754464,5.04410894247,-18.3423401778,0.0,10.0,0.0,0.0,0.0,10.0,0.0,0.0,0.0,10.0,-0.00399474163512,0.0142479118319,0.0142479118319,1.0,0.0,0.0,0.0,1.0,0.0,0.0,0.0,1.0,-0.0646655273438,0.892144775391,10.1333276367,0.1,0.0,0.0,0.0,0.1,0.0,0.0,0.0,0.1
1446036922573956166,154,1446036922570677042,robocape,1.51367089683,5.04616491518,-18.2847387634,0.0,10.0,0.0,0.0,0.0,10.0,0.0,0.0,0.0,10.0,-0.107192233876,0.00625842856169,0.0131826473959,1.0,0.0,0.0,0.0,1.0,0.0,0.0,0.0,1.0,0.0395178222656,0.720900878906,10.0255517578,0.1,0.0,0.0,0.0,0.1,0.0,0.0,0.0,0.1
1446036922606794124,155,1446036922603511095,robocape,1.18841049946,5.0447964691,-18.2312513827,0.0,10.0,0.0,0.0,0.0,10.0,0.0,0.0,0.0,10.0,-0.170974941983,0.00426105774413,0.0113184346328,1.0,0.0,0.0,0.0,1.0,0.0,0.0,0.0,1.0,-0.167651367188,0.251477050781,9.97884887695,0.1,0.0,0.0,0.0,0.1,0.0,0.0,0.0,0.1
1446036922639035457,156,1446036922635359048,robocape,0.86574224246,5.0409607617,-18.1664332588,0.0,10.0,0.0,0.0,0.0,10.0,0.0,0.0,0.0,10.0,-0.170442309765,0.00292947719909,0.01744370514,1.0,0.0,0.0,0.0,1.0,0.0,0.0,0.0,1.0,-0.0167651367188,-0.235909423828,9.9980090332,0.1,0.0,0.0,0.0,0.1,0.0,0.0,0.0,0.1
1446036922673264666,157,1446036922670078039,robocape,0.627725058483,5.04012114121,-18.1091218247,0.0,10.0,0.0,0.0,0.0,10.0,0.0,0.0,0.0,10.0,-0.125967519561,0.00439421579863,0.0133158054504,1.0,0.0,0.0,0.0,1.0,0.0,0.0,0.0,1.0,0.110170898438,-0.603544921875,9.99082397461,0.1,0.0,0.0,0.0,0.1,0.0,0.0,0.0,0.1
1446036922706025957,158,1446036922702863931,robocape,0.534728358794,5.0474374984,-18.0611828944,0.0,10.0,0.0,0.0,0.0,10.0,0.0,0.0,0.0,10.0,-0.04966795433,0.00865527354276,0.00812264132474,1.0,0.0,0.0,0.0,1.0,0.0,0.0,0.0,1.0,0.0874182128906,-0.742456054688,10.0123791504,0.1,0.0,0.0,0.0,0.1,0.0,0.0,0.0,0.1
1446036922738406958,159,1446036922735016107,robocape,0.719748123533,5.06478496175,-18.2308488158,0.0,10.0,0.0,0.0,0.0,10.0,0.0,0.0,0.0,10.0,0.106393285549,0.0135821215594,-0.10879013053,1.0,0.0,0.0,0.0,1.0,0.0,0.0,0.0,1.0,0.132923583984,-1.48610961914,10.0075891113,0.1,0.0,0.0,0.0,0.1,0.0,0.0,0.0,0.1
1446036922771628874,160,1446036922768142938,robocape,1.23435143052,5.09768530182,-18.5084602681,0.0,10.0,0.0,0.0,0.0,10.0,0.0,0.0,0.0,10.0,0.284825078584,0.0207726565026,-0.16764599062,1.0,0.0,0.0,0.0,1.0,0.0,0.0,0.0,1.0,0.0898132324219,0.930465087891,10.0518969727,0.1,0.0,0.0,0.0,0.1,0.0,0.0,0.0,0.1
1446036922806001333,161,1446036922802879095,robocape,1.15126096217,5.09987770638,-18.4761153392,0.0,10.0,0.0,0.0,0.0,10.0,0.0,0.0,0.0,10.0,-0.0431432096593,0.00612527050718,-0.000798948327024,1.0,0.0,0.0,0.0,1.0,0.0,0.0,0.0,1.0,-0.0826281738281,0.936452636719,10.0770446777,0.1,0.0,0.0,0.0,0.1,0.0,0.0,0.0,0.1
1446036922838822291,162,1446036922835349082,robocape,1.00518705228,5.10747330032,-18.4431558521,0.0,10.0,0.0,0.0,0.0,10.0,0.0,0.0,0.0,10.0,-0.0762995652308,0.00892158965177,-0.000399474163512,1.0,0.0,0.0,0.0,1.0,0.0,0.0,0.0,1.0,-0.411943359375,0.317340087891,10.0614770508,0.1,0.0,0.0,0.0,0.1,0.0,0.0,0.0,0.1
1446036922871866291,163,1446036922868120908,robocape,0.936896260246,5.11229945321,-18.5198959783,0.0,10.0,0.0,0.0,0.0,10.0,0.0,0.0,0.0,10.0,-0.0303600364269,0.00692421883421,-0.0592553342543,1.0,0.0,0.0,0.0,1.0,0.0,0.0,0.0,1.0,0.0347277832031,-0.416733398438,9.94052856445,0.1,0.0,0.0,0.0,0.1,0.0,0.0,0.0,0.1
1446036922904914624,164,1446036922901825904,robocape,1.01286577101,5.12003460841,-18.8036509941,0.0,10.0,0.0,0.0,0.0,10.0,0.0,0.0,0.0,10.0,0.0552605926191,0.00745685105222,-0.170708625874,1.0,0.0,0.0,0.0,1.0,0.0,0.0,0.0,1.0,0.211959228516,0.729283447266,9.99920654297,0.1,0.0,0.0,0.0,0.1,0.0,0.0,0.0,0.1
1446036922937041249,165,1446036922933890104,robocape,0.814176446032,5.108546407,-19.0260562007,0.0,10.0,0.0,0.0,0.0,10.0,0.0,0.0,0.0,10.0,-0.0917458995532,-0.00226368692657,-0.137685428357,1.0,0.0,0.0,0.0,1.0,0.0,0.0,0.0,1.0,0.0359252929688,0.918489990234,9.99321899414,0.1,0.0,0.0,0.0,0.1,0.0,0.0,0.0,0.1
1446036922971714499,166,1446036922968436002,robocape,0.246872017037,5.07700691674,-19.0230778301,0.0,10.0,0.0,0.0,0.0,10.0,0.0,0.0,0.0,10.0,-0.296143513217,-0.0118510668509,-0.016378440704,1.0,0.0,0.0,0.0,1.0,0.0,0.0,0.0,1.0,-0.451461181641,0.395178222656,10.075847168,0.1,0.0,0.0,0.0,0.1,0.0,0.0,0.0,0.1
1446036923004180041,167,1446036923001137018,robocape,-0.265251791946,5.04722238487,-18.9933176509,0.0,10.0,0.0,0.0,0.0,10.0,0.0,0.0,0.0,10.0,-0.268979270098,-0.0109189604693,-0.00239684498107,1.0,0.0,0.0,0.0,1.0,0.0,0.0,0.0,1.0,-0.0047900390625,-0.926872558594,10.0770446777,0.1,0.0,0.0,0.0,0.1,0.0,0.0,0.0,0.1
1446036923036435999,168,1446036923033343076,robocape,-0.642668929722,5.02622037526,-18.9201047946,0.0,10.0,0.0,0.0,0.0,10.0,0.0,0.0,0.0,10.0,-0.200802346192,-0.0066579027252,0.0206394984481,1.0,0.0,0.0,0.0,1.0,0.0,0.0,0.0,1.0,0.565224609375,-0.731678466797,9.9213684082,0.1,0.0,0.0,0.0,0.1,0.0,0.0,0.0,0.1
1446036923070195166,169,1446036923067137956,robocape,-0.721665106222,5.03931351789,-18.9396451358,0.0,10.0,0.0,0.0,0.0,10.0,0.0,0.0,0.0,10.0,-0.0403468905147,0.0121173829599,-0.0291616139364,1.0,0.0,0.0,0.0,1.0,0.0,0.0,0.0,1.0,0.374820556641,-0.973575439453,10.0734521484,0.1,0.0,0.0,0.0,0.1,0.0,0.0,0.0,0.1
1446036923103055416,170,1446036923099942922,robocape,-0.681664115364,5.05664361197,-18.8433289869,0.0,10.0,0.0,0.0,0.0,10.0,0.0,0.0,0.0,10.0,0.016644756813,0.0131826473959,0.033023197517,1.0,0.0,0.0,0.0,1.0,0.0,0.0,0.0,1.0,-0.0335302734375,-1.10649902344,9.96926879883,0.1,0.0,0.0,0.0,0.1,0.0,0.0,0.0,0.1
1446036923136027624,171,1446036923132926940,robocape,-0.457677620732,5.0842120264,-18.7132034979,0.0,10.0,0.0,0.0,0.0,10.0,0.0,0.0,0.0,10.0,0.111586449674,0.0183758115215,0.051265850984,1.0,0.0,0.0,0.0,1.0,0.0,0.0,0.0,1.0,0.298179931641,-1.26936035156,10.0063916016,0.1,0.0,0.0,0.0,0.1,0.0,0.0,0.0,0.1
1446036923169178541,172,1446036923166049957,robocape,-0.0132576755658,5.14439735847,-18.7196470944,0.0,10.0,0.0,0.0,0.0,10.0,0.0,0.0,0.0,10.0,0.233825543709,0.0367516230431,-0.0221042370477,1.0,0.0,0.0,0.0,1.0,0.0,0.0,0.0,1.0,0.0922082519531,-0.0706530761719,10.0698596191,0.1,0.0,0.0,0.0,0.1,0.0,0.0,0.0,0.1
1446036923202736874,173,1446036923199616909,robocape,0.322381220136,5.18297676513,-18.6378175664,0.0,10.0,0.0,0.0,0.0,10.0,0.0,0.0,0.0,10.0,0.172972312801,0.0251668723012,0.0250337142467,1.0,0.0,0.0,0.0,1.0,0.0,0.0,0.0,1.0,0.00239501953125,-0.215551757813,9.96567626953,0.1,0.0,0.0,0.0,0.1,0.0,0.0,0.0,0.1
1446036923235865958,174,1446036923232750892,robocape,0.610814860392,5.21128154461,-18.5991970731,0.0,10.0,0.0,0.0,0.0,10.0,0.0,0.0,0.0,10.0,0.150601759644,0.0199737081756,0.00186421276306,1.0,0.0,0.0,0.0,1.0,0.0,0.0,0.0,1.0,-0.0467028808594,0.577199707031,10.0183666992,0.1,0.0,0.0,0.0,0.1,0.0,0.0,0.0,0.1
1446036923269278583,175,1446036923266213893,robocape,0.727136082221,5.23263546204,-18.6016036186,0.0,10.0,0.0,0.0,0.0,10.0,0.0,0.0,0.0,10.0,0.0625842856169,0.0162452826495,-0.0199737081756,1.0,0.0,0.0,0.0,1.0,0.0,0.0,0.0,1.0,-0.0778381347656,1.00231567383,10.075847168,0.1,0.0,0.0,0.0,0.1,0.0,0.0,0.0,0.1
1446036923302611291,176,1446036923299031019,robocape,0.608581959977,5.23160190268,-18.5512862022,0.0,10.0,0.0,0.0,0.0,10.0,0.0,0.0,0.0,10.0,-0.0631169178349,0.00452737385313,0.00878843159726,1.0,0.0,0.0,0.0,1.0,0.0,0.0,0.0,1.0,-0.244291992188,0.183218994141,9.93813354492,0.1,0.0,0.0,0.0,0.1,0.0,0.0,0.0,0.1
1446036923335379499,177,1446036923332098007,robocape,0.358873640518,5.22290972563,-18.486091157,0.0,10.0,0.0,0.0,0.0,10.0,0.0,0.0,0.0,10.0,-0.13275858034,0.000399474163512,0.0170442309765,1.0,0.0,0.0,0.0,1.0,0.0,0.0,0.0,1.0,0.0143701171875,0.295784912109,10.0207617188,0.1,0.0,0.0,0.0,0.1,0.0,0.0,0.0,0.1
1446036923372945166,178,1446036923365639925,robocape,-0.0535697101147,5.20975067439,-18.3760825828,0.0,10.0,0.0,0.0,0.0,10.0,0.0,0.0,0.0,10.0,-0.220509738259,-0.00226368692657,0.0412789968962,1.0,0.0,0.0,0.0,1.0,0.0,0.0,0.0,1.0,0.0275427246094,-0.227526855469,10.0854272461,0.1,0.0,0.0,0.0,0.1,0.0,0.0,0.0,0.1
1446036923404039291,179,1446036923400346040,robocape,-0.306254795256,5.20610732048,-18.2477259734,0.0,10.0,0.0,0.0,0.0,10.0,0.0,0.0,0.0,10.0,-0.137951744466,0.00239684498107,0.050999534875,1.0,0.0,0.0,0.0,1.0,0.0,0.0,0.0,1.0,0.142503662109,-0.943637695313,9.96807128906,0.1,0.0,0.0,0.0,0.1,0.0,0.0,0.0,0.1
1446036923435484041,180,1446036923432467937,robocape,-0.323773731102,5.22197935742,-18.1733271342,0.0,10.0,0.0,0.0,0.0,10.0,0.0,0.0,0.0,10.0,-0.0122505410144,0.0129163312869,0.0221042370477,1.0,0.0,0.0,0.0,1.0,0.0,0.0,0.0,1.0,0.342487792969,-1.02746337891,9.95370117188,0.1,0.0,0.0,0.0,0.1,0.0,0.0,0.0,0.1
1446036923468994291,181,1446036923465972900,robocape,-0.120165937784,5.25100299174,-18.1297097145,0.0,10.0,0.0,0.0,0.0,10.0,0.0,0.0,0.0,10.0,0.105194863058,0.0201068662301,0.00559263828917,1.0,0.0,0.0,0.0,1.0,0.0,0.0,0.0,1.0,0.0239501953125,-0.902922363281,9.98962646484,0.1,0.0,0.0,0.0,0.1,0.0,0.0,0.0,0.1
1446036923502466125,182,1446036923499339103,robocape,0.240626443167,5.2839069965,-18.1116421106,0.0,10.0,0.0,0.0,0.0,10.0,0.0,0.0,0.0,10.0,0.189084437396,0.0223705531567,-0.00825579937925,1.0,0.0,0.0,0.0,1.0,0.0,0.0,0.0,1.0,0.0359252929688,-0.735270996094,10.0004040527,0.1,0.0,0.0,0.0,0.1,0.0,0.0,0.0,0.1
1446036923535320208,183,1446036923532310009,robocape,0.79781085593,5.33236094703,-18.2983646861,0.0,10.0,0.0,0.0,0.0,10.0,0.0,0.0,0.0,10.0,0.302668257888,0.0304931944814,-0.118510668509,1.0,0.0,0.0,0.0,1.0,0.0,0.0,0.0,1.0,0.0299377441406,0.244291992188,10.0219592285,0.1,0.0,0.0,0.0,0.1,0.0,0.0,0.0,0.1
1446036923569029916,184,1446036923565978050,robocape,1.09804718702,5.34786216661,-18.4621036354,0.0,10.0,0.0,0.0,0.0,10.0,0.0,0.0,0.0,10.0,0.167379674511,0.0125168571234,-0.106260127494,1.0,0.0,0.0,0.0,1.0,0.0,0.0,0.0,1.0,0.0251477050781,1.29690307617,9.99681152344,0.1,0.0,0.0,0.0,0.1,0.0,0.0,0.0,0.1
1446036923602290458,185,1446036923599245071,robocape,0.959961628659,5.33603747053,-18.4323113847,0.0,10.0,0.0,0.0,0.0,10.0,0.0,0.0,0.0,10.0,-0.0720385074866,-0.00106526443603,-0.00186421276306,1.0,0.0,0.0,0.0,1.0,0.0,0.0,0.0,1.0,-0.130528564453,1.08374633789,10.0291442871,0.1,0.0,0.0,0.0,0.1,0.0,0.0,0.0,0.1
1446036923635246166,186,1446036923632225036,robocape,0.625977971641,5.31812847226,-18.4421728296,0.0,10.0,0.0,0.0,0.0,10.0,0.0,0.0,0.0,10.0,-0.172972312801,-0.00452737385313,-0.0227700273202,1.0,0.0,0.0,0.0,1.0,0.0,0.0,0.0,1.0,-0.318537597656,0.238304443359,10.0183666992,0.1,0.0,0.0,0.0,0.1,0.0,0.0,0.0,0.1
1446036923669089083,187,1446036923665978908,robocape,0.201883127634,5.29225839097,-18.4180692355,0.0,10.0,0.0,0.0,0.0,10.0,0.0,0.0,0.0,10.0,-0.222240792967,-0.00865527354276,-0.00452737385313,1.0,0.0,0.0,0.0,1.0,0.0,0.0,0.0,1.0,-0.170046386719,-0.0886157226563,9.98004638672,0.1,0.0,0.0,0.0,0.1,0.0,0.0,0.0,0.1
1446036923702334750,188,1446036923699194908,robocape,-0.207481012909,5.26625394313,-18.3827084379,0.0,10.0,0.0,0.0,0.0,10.0,0.0,0.0,0.0,10.0,-0.215449732187,-0.00878843159726,0.00133158054504,1.0,0.0,0.0,0.0,1.0,0.0,0.0,0.0,1.0,0.403560791016,-0.358055419922,9.95370117188,0.1,0.0,0.0,0.0,0.1,0.0,0.0,0.0,0.1
1446036923735413291,189,1446036923732351064,robocape,-0.542356499866,5.251443149,-18.3318643581,0.0,10.0,0.0,0.0,0.0,10.0,0.0,0.0,0.0,10.0,-0.177499686654,-0.00306263525359,0.00945422186978,1.0,0.0,0.0,0.0,1.0,0.0,0.0,0.0,1.0,0.178428955078,-0.974772949219,10.0231567383,0.1,0.0,0.0,0.0,0.1,0.0,0.0,0.0,0.1
1446036923768905833,190,1446036923765820980,robocape,-0.670423969646,5.25081479624,-18.2856519163,0.0,10.0,0.0,0.0,0.0,10.0,0.0,0.0,0.0,10.0,-0.0691090302876,0.00439421579863,0.00692421883421,1.0,0.0,0.0,0.0,1.0,0.0,0.0,0.0,1.0,-0.0395178222656,-1.21906494141,9.97645385742,0.1,0.0,0.0,0.0,0.1,0.0,0.0,0.0,0.1
1446036923801888958,191,1446036923798777103,robocape,-0.570363967378,5.27815507773,-18.2458034225,0.0,10.0,0.0,0.0,0.0,10.0,0.0,0.0,0.0,10.0,0.050733218766,0.0191747598486,0.00359526747161,1.0,0.0,0.0,0.0,1.0,0.0,0.0,0.0,1.0,0.293389892578,-1.00111816406,9.9596887207,0.1,0.0,0.0,0.0,0.1,0.0,0.0,0.0,0.1
1446036923835244291,192,1446036923832078933,robocape,-0.295579647806,5.31571078542,-18.2061230574,0.0,10.0,0.0,0.0,0.0,10.0,0.0,0.0,0.0,10.0,0.142479118319,0.0246342400832,0.0034621094171,1.0,0.0,0.0,0.0,1.0,0.0,0.0,0.0,1.0,0.159268798828,-0.740061035156,9.98603393555,0.1,0.0,0.0,0.0,0.1,0.0,0.0,0.0,0.1
