%time,field.header.seq,field.header.stamp,field.header.frame_id,field.magnetic_field.x,field.magnetic_field.y,field.magnetic_field.z,field.magnetic_field_covariance0,field.magnetic_field_covariance1,field.magnetic_field_covariance2,field.magnetic_field_covariance3,field.magnetic_field_covariance4,field.magnetic_field_covariance5,field.magnetic_field_covariance6,field.magnetic_field_covariance7,field.magnetic_field_covariance8
1446038655383471867,1,1446038655057284116,robocape_mag,5.4,-14.55,6.0,10.0,0.0,0.0,0.0,10.0,0.0,0.0,0.0,10.0
1446038655400913784,2,1446038655090557098,robocape_mag,5.4,-14.55,6.0,10.0,0.0,0.0,0.0,10.0,0.0,0.0,0.0,10.0
1446038655401158075,3,1446038655114727973,robocape_mag,3.9,-14.85,8.1,10.0,0.0,0.0,0.0,10.0,0.0,0.0,0.0,10.0
1446038655401202992,4,1446038655156563043,robocape_mag,3.9,-14.85,8.1,10.0,0.0,0.0,0.0,10.0,0.0,0.0,0.0,10.0
1446038655401237034,5,1446038655185816049,robocape_mag,3.9,-14.85,8.1,10.0,0.0,0.0,0.0,10.0,0.0,0.0,0.0,10.0
1446038655402980325,6,1446038655207401037,robocape_mag,3.9,-14.85,8.1,10.0,0.0,0.0,0.0,10.0,0.0,0.0,0.0,10.0
1446038655403637784,7,1446038655242250919,robocape_mag,3.9,-14.85,8.1,10.0,0.0,0.0,0.0,10.0,0.0,0.0,0.0,10.0
1446038655403680825,8,1446038655276040077,robocape_mag,2.1,-14.25,9.3,10.0,0.0,0.0,0.0,10.0,0.0,0.0,0.0,10.0
1446038655437268534,9,1446038655336003065,robocape_mag,2.1,-14.25,9.3,10.0,0.0,0.0,0.0,10.0,0.0,0.0,0.0,10.0
1446038655437319992,10,1446038655359050035,robocape_mag,2.1,-14.25,9.3,10.0,0.0,0.0,0.0,10.0,0.0,0.0,0.0,10.0
1446038655437804117,11,1446038655384586095,robocape_mag,2.1,-14.25,9.3,10.0,0.0,0.0,0.0,10.0,0.0,0.0,0.0,10.0
1446038655437854659,12,1446038655406627893,robocape_mag,2.1,-14.25,9.3,10.0,0.0,0.0,0.0,10.0,0.0,0.0,0.0,10.0
1446038655452556409,13,1446038655441489934,robocape_mag,4.2,-13.95,8.4,10.0,0.0,0.0,0.0,10.0,0.0,0.0,0.0,10.0
1446038655480392034,14,1446038655475182056,robocape_mag,4.2,-13.95,8.4,10.0,0.0,0.0,0.0,10.0,0.0,0.0,0.0,10.0
1446038655513142784,15,1446038655507778882,robocape_mag,4.2,-13.95,8.4,10.0,0.0,0.0,0.0,10.0,0.0,0.0,0.0,10.0
1446038655547775992,16,1446038655542972087,robocape_mag,4.2,-13.95,8.4,10.0,0.0,0.0,0.0,10.0,0.0,0.0,0.0,10.0
1446038655581152784,17,1446038655576086997,robocape_mag,4.2,-13.95,8.4,10.0,0.0,0.0,0.0,10.0,0.0,0.0,0.0,10.0
1446038655614439284,18,1446038655609309911,robocape_mag,3.3,-14.85,9.3,10.0,0.0,0.0,0.0,10.0,0.0,0.0,0.0,10.0
1446038655648815159,19,1446038655643942117,robocape_mag,3.3,-14.85,9.3,10.0,0.0,0.0,0.0,10.0,0.0,0.0,0.0,10.0
1446038655679990117,20,1446038655674338102,robocape_mag,3.3,-14.85,9.3,10.0,0.0,0.0,0.0,10.0,0.0,0.0,0.0,10.0
1446038655712316617,21,1446038655706999063,robocape_mag,3.3,-14.85,9.3,10.0,0.0,0.0,0.0,10.0,0.0,0.0,0.0,10.0
1446038655746864326,22,1446038655741821050,robocape_mag,3.0,-13.95,7.8,10.0,0.0,0.0,0.0,10.0,0.0,0.0,0.0,10.0
1446038655782991034,23,1446038655774605989,robocape_mag,3.0,-13.95,7.8,10.0,0.0,0.0,0.0,10.0,0.0,0.0,0.0,10.0
1446038655814958242,24,1446038655806385993,robocape_mag,3.0,-13.95,7.8,10.0,0.0,0.0,0.0,10.0,0.0,0.0,0.0,10.0
1446038655846327534,25,1446038655841070890,robocape_mag,3.0,-13.95,7.8,10.0,0.0,0.0,0.0,10.0,0.0,0.0,0.0,10.0
1446038655879366534,26,1446038655874106884,robocape_mag,3.0,-13.95,7.8,10.0,0.0,0.0,0.0,10.0,0.0,0.0,0.0,10.0
1446038655912155284,27,1446038655907087087,robocape_mag,0.6,-14.55,10.2,10.0,0.0,0.0,0.0,10.0,0.0,0.0,0.0,10.0
1446038655946114034,28,1446038655941232919,robocape_mag,0.6,-14.55,10.2,10.0,0.0,0.0,0.0,10.0,0.0,0.0,0.0,10.0
1446038655978124367,29,1446038655973172903,robocape_mag,0.6,-14.55,10.2,10.0,0.0,0.0,0.0,10.0,0.0,0.0,0.0,10.0
1446038656010652367,30,1446038656005619049,robocape_mag,0.6,-14.55,10.2,10.0,0.0,0.0,0.0,10.0,0.0,0.0,0.0,10.0
1446038656047363076,31,1446038656039418935,robocape_mag,0.6,-14.55,10.2,10.0,0.0,0.0,0.0,10.0,0.0,0.0,0.0,10.0
1446038656077613576,32,1446038656072585105,robocape_mag,2.4,-12.75,9.6,10.0,0.0,0.0,0.0,10.0,0.0,0.0,0.0,10.0
1446038656111102034,33,1446038656106070995,robocape_mag,2.4,-12.75,9.6,10.0,0.0,0.0,0.0,10.0,0.0,0.0,0.0,10.0
1446038656144120409,34,1446038656139014959,robocape_mag,2.4,-12.75,9.6,10.0,0.0,0.0,0.0,10.0,0.0,0.0,0.0,10.0
1446038656177115367,35,1446038656172230005,robocape_mag,2.4,-12.75,9.6,10.0,0.0,0.0,0.0,10.0,0.0,0.0,0.0,10.0
1446038656209808701,36,1446038656204842090,robocape_mag,2.4,-12.75,9.6,10.0,0.0,0.0,0.0,10.0,0.0,0.0,0.0,10.0
1446038656243461242,37,1446038656238423109,robocape_mag,1.8,-15.15,10.2,10.0,0.0,0.0,0.0,10.0,0.0,0.0,0.0,10.0
1446038656276499284,38,1446038656271595001,robocape_mag,1.8,-15.15,10.2,10.0,0.0,0.0,0.0,10.0,0.0,0.0,0.0,10.0
1446038656309763784,39,1446038656304718971,robocape_mag,1.8,-15.15,10.2,10.0,0.0,0.0,0.0,10.0,0.0,0.0,0.0,10.0
1446038656343141368,40,1446038656338165998,robocape_mag,1.8,-15.15,10.2,10.0,0.0,0.0,0.0,10.0,0.0,0.0,0.0,10.0
1446038656381978826,41,1446038656372762918,robocape_mag,1.8,-15.15,10.2,10.0,0.0,0.0,0.0,10.0,0.0,0.0,0.0,10.0
1446038656410654826,42,1446038656405630111,robocape_mag,3.3,-16.65,9.9,10.0,0.0,0.0,0.0,10.0,0.0,0.0,0.0,10.0
1446038656445792826,43,1446038656438163042,robocape_mag,3.3,-16.65,9.9,10.0,0.0,0.0,0.0,10.0,0.0,0.0,0.0,10.0
1446038656476154743,44,1446038656471344947,robocape_mag,3.3,-16.65,9.9,10.0,0.0,0.0,0.0,10.0,0.0,0.0,0.0,10.0
1446038656512663784,45,1446038656504806995,robocape_mag,3.3,-16.65,9.9,10.0,0.0,0.0,0.0,10.0,0.0,0.0,0.0,10.0
1446038656543445076,46,1446038656538189888,robocape_mag,3.3,-16.35,9.0,10.0,0.0,0.0,0.0,10.0,0.0,0.0,0.0,10.0
1446038656576246034,47,1446038656571444988,robocape_mag,3.0,-16.35,9.0,10.0,0.0,0.0,0.0,10.0,0.0,0.0,0.0,10.0
1446038656609791784,48,1446038656604963064,robocape_mag,3.0,-16.35,9.0,10.0,0.0,0.0,0.0,10.0,0.0,0.0,0.0,10.0
1446038656643475076,49,1446038656638190031,robocape_mag,3.0,-16.35,9.0,10.0,0.0,0.0,0.0,10.0,0.0,0.0,0.0,10.0
1446038656677694701,50,1446038656672759056,robocape_mag,3.0,-16.35,9.0,10.0,0.0,0.0,0.0,10.0,0.0,0.0,0.0,10.0
1446038656709377951,51,1446038656704582929,robocape_mag,1.8,-15.15,8.4,10.0,0.0,0.0,0.0,10.0,0.0,0.0,0.0,10.0
1446038656744413326,52,1446038656738176107,robocape_mag,1.8,-15.15,8.4,10.0,0.0,0.0,0.0,10.0,0.0,0.0,0.0,10.0
1446038656776170743,53,1446038656771327018,robocape_mag,1.8,-15.15,8.4,10.0,0.0,0.0,0.0,10.0,0.0,0.0,0.0,10.0
1446038656809690284,54,1446038656804636955,robocape_mag,1.8,-15.15,8.4,10.0,0.0,0.0,0.0,10.0,0.0,0.0,0.0,10.0
1446038656844044451,55,1446038656838104009,robocape_mag,1.8,-15.15,8.4,10.0,0.0,0.0,0.0,10.0,0.0,0.0,0.0,10.0
1446038656876735451,56,1446038656871274948,robocape_mag,2.4,-15.15,8.4,10.0,0.0,0.0,0.0,10.0,0.0,0.0,0.0,10.0
1446038656909512326,57,1446038656904521942,robocape_mag,2.4,-15.15,8.4,10.0,0.0,0.0,0.0,10.0,0.0,0.0,0.0,10.0
1446038656943654951,58,1446038656937954902,robocape_mag,2.4,-15.15,8.4,10.0,0.0,0.0,0.0,10.0,0.0,0.0,0.0,10.0
1446038656976590659,59,1446038656971446990,robocape_mag,2.4,-15.15,8.4,10.0,0.0,0.0,0.0,10.0,0.0,0.0,0.0,10.0
1446038657010063160,60,1446038657004853963,robocape_mag,2.4,-15.15,8.4,10.0,0.0,0.0,0.0,10.0,0.0,0.0,0.0,10.0
1446038657045387785,61,1446038657038120985,robocape_mag,2.1,-15.45,9.9,10.0,0.0,0.0,0.0,10.0,0.0,0.0,0.0,10.0
1446038657076295701,62,1446038657071365118,robocape_mag,2.1,-15.45,9.9,10.0,0.0,0.0,0.0,10.0,0.0,0.0,0.0,10.0
1446038657109633326,63,1446038657104706048,robocape_mag,2.1,-15.45,9.9,10.0,0.0,0.0,0.0,10.0,0.0,0.0,0.0,10.0
1446038657143434660,64,1446038657138206958,robocape_mag,2.1,-15.45,9.9,10.0,0.0,0.0,0.0,10.0,0.0,0.0,0.0,10.0
1446038657176300618,65,1446038657171561956,robocape_mag,2.1,-15.45,9.9,10.0,0.0,0.0,0.0,10.0,0.0,0.0,0.0,10.0
1446038657209486285,66,1446038657204699039,robocape_mag,1.5,-16.05,9.9,10.0,0.0,0.0,0.0,10.0,0.0,0.0,0.0,10.0
1446038657243249035,67,1446038657238389968,robocape_mag,1.5,-16.05,9.9,10.0,0.0,0.0,0.0,10.0,0.0,0.0,0.0,10.0
1446038657276261743,68,1446038657271425008,robocape_mag,1.5,-16.05,9.9,10.0,0.0,0.0,0.0,10.0,0.0,0.0,0.0,10.0
1446038657310652118,69,1446038657305886030,robocape_mag,1.5,-16.05,9.9,10.0,0.0,0.0,0.0,10.0,0.0,0.0,0.0,10.0
1446038657343654576,70,1446038657338351011,robocape_mag,1.5,-16.05,9.3,10.0,0.0,0.0,0.0,10.0,0.0,0.0,0.0,10.0
1446038657382539660,71,1446038657373219966,robocape_mag,3.3,-15.45,9.3,10.0,0.0,0.0,0.0,10.0,0.0,0.0,0.0,10.0
1446038657412913118,72,1446038657407831907,robocape_mag,3.3,-15.45,9.3,10.0,0.0,0.0,0.0,10.0,0.0,0.0,0.0,10.0
1446038657445252785,73,1446038657440287113,robocape_mag,3.3,-15.45,9.3,10.0,0.0,0.0,0.0,10.0,0.0,0.0,0.0,10.0
1446038657477945410,74,1446038657472985982,robocape_mag,3.3,-15.45,9.3,10.0,0.0,0.0,0.0,10.0,0.0,0.0,0.0,10.0
1446038657511262493,75,1446038657506402015,robocape_mag,3.0,-13.95,10.2,10.0,0.0,0.0,0.0,10.0,0.0,0.0,0.0,10.0
1446038657544941785,76,1446038657539877891,robocape_mag,3.0,-13.95,10.2,10.0,0.0,0.0,0.0,10.0,0.0,0.0,0.0,10.0
1446038657580864035,77,1446038657575536966,robocape_mag,3.0,-13.95,10.2,10.0,0.0,0.0,0.0,10.0,0.0,0.0,0.0,10.0
1446038657614556618,78,1446038657608340024,robocape_mag,3.0,-13.95,10.2,10.0,0.0,0.0,0.0,10.0,0.0,0.0,0.0,10.0
1446038657649588785,79,1446038657640065908,robocape_mag,3.0,-13.95,10.2,10.0,0.0,0.0,0.0,10.0,0.0,0.0,0.0,10.0
1446038657677860826,80,1446038657673032999,robocape_mag,3.0,-13.35,8.4,10.0,0.0,0.0,0.0,10.0,0.0,0.0,0.0,10.0
1446038657711848702,81,1446038657706793069,robocape_mag,3.0,-13.35,8.4,10.0,0.0,0.0,0.0,10.0,0.0,0.0,0.0,10.0
1446038657749635993,82,1446038657741319894,robocape_mag,3.0,-13.35,8.4,10.0,0.0,0.0,0.0,10.0,0.0,0.0,0.0,10.0
1446038657780204493,83,1446038657774183988,robocape_mag,3.0,-13.35,8.4,10.0,0.0,0.0,0.0,10.0,0.0,0.0,0.0,10.0
1446038657815648202,84,1446038657808388948,robocape_mag,3.0,-13.35,8.4,10.0,0.0,0.0,0.0,10.0,0.0,0.0,0.0,10.0
1446038657849793285,85,1446038657842226028,robocape_mag,4.2,-15.75,10.2,10.0,0.0,0.0,0.0,10.0,0.0,0.0,0.0,10.0
1446038657881032618,86,1446038657875819921,robocape_mag,4.2,-15.75,10.2,10.0,0.0,0.0,0.0,10.0,0.0,0.0,0.0,10.0
1446038657912982077,87,1446038657907895088,robocape_mag,4.2,-15.75,10.2,10.0,0.0,0.0,0.0,10.0,0.0,0.0,0.0,10.0
1446038657948154452,88,1446038657941973924,robocape_mag,4.2,-15.75,10.2,10.0,0.0,0.0,0.0,10.0,0.0,0.0,0.0,10.0
1446038657983904993,89,1446038657975019931,robocape_mag,4.2,-15.75,10.2,10.0,0.0,0.0,0.0,10.0,0.0,0.0,0.0,10.0
1446038658013177077,90,1446038658008183956,robocape_mag,2.1,-14.25,8.7,10.0,0.0,0.0,0.0,10.0,0.0,0.0,0.0,10.0
1446038658045836743,91,1446038658040689945,robocape_mag,2.1,-14.25,8.7,10.0,0.0,0.0,0.0,10.0,0.0,0.0,0.0,10.0
1446038658080365993,92,1446038658075139999,robocape_mag,2.1,-14.25,8.7,10.0,0.0,0.0,0.0,10.0,0.0,0.0,0.0,10.0
1446038658112049827,93,1446038658107160091,robocape_mag,2.1,-14.25,8.7,10.0,0.0,0.0,0.0,10.0,0.0,0.0,0.0,10.0
1446038658146217368,94,1446038658141017913,robocape_mag,3.0,-13.95,6.6,10.0,0.0,0.0,0.0,10.0,0.0,0.0,0.0,10.0
1446038658179434785,95,1446038658174242019,robocape_mag,3.0,-13.95,6.6,10.0,0.0,0.0,0.0,10.0,0.0,0.0,0.0,10.0
1446038658211582243,96,1446038658206676959,robocape_mag,3.0,-13.95,6.6,10.0,0.0,0.0,0.0,10.0,0.0,0.0,0.0,10.0
1446038658245858785,97,1446038658241065979,robocape_mag,3.0,-13.95,6.6,10.0,0.0,0.0,0.0,10.0,0.0,0.0,0.0,10.0
1446038658278815035,98,1446038658273757934,robocape_mag,3.0,-13.95,6.6,10.0,0.0,0.0,0.0,10.0,0.0,0.0,0.0,10.0
1446038658311078743,99,1446038658306283950,robocape_mag,7.8,-8.55,2.4,10.0,0.0,0.0,0.0,10.0,0.0,0.0,0.0,10.0
1446038658345005452,100,1446038658340141057,robocape_mag,7.8,-8.55,2.4,10.0,0.0,0.0,0.0,10.0,0.0,0.0,0.0,10.0
1446038658385123119,101,1446038658374227046,robocape_mag,7.8,-8.55,2.4,10.0,0.0,0.0,0.0,10.0,0.0,0.0,0.0,10.0
1446038658413254035,102,1446038658408340930,robocape_mag,7.8,-8.55,2.4,10.0,0.0,0.0,0.0,10.0,0.0,0.0,0.0,10.0
1446038658443940702,103,1446038658439172029,robocape_mag,7.8,-8.55,2.4,10.0,0.0,0.0,0.0,10.0,0.0,0.0,0.0,10.0
1446038658476780535,104,1446038658471869945,robocape_mag,6.3,-11.25,3.9,10.0,0.0,0.0,0.0,10.0,0.0,0.0,0.0,10.0
1446038658509991160,105,1446038658505214929,robocape_mag,6.3,-11.25,3.9,10.0,0.0,0.0,0.0,10.0,0.0,0.0,0.0,10.0
1446038658543405702,106,1446038658538403034,robocape_mag,6.3,-11.25,3.9,10.0,0.0,0.0,0.0,10.0,0.0,0.0,0.0,10.0
1446038658576821577,107,1446038658572020053,robocape_mag,6.3,-11.25,3.9,10.0,0.0,0.0,0.0,10.0,0.0,0.0,0.0,10.0
1446038658609902910,108,1446038658605093002,robocape_mag,6.3,-11.25,3.9,10.0,0.0,0.0,0.0,10.0,0.0,0.0,0.0,10.0
1446038658643392369,109,1446038658638428926,robocape_mag,8.7,-14.85,6.9,10.0,0.0,0.0,0.0,10.0,0.0,0.0,0.0,10.0
1446038658676612494,110,1446038658671827077,robocape_mag,8.7,-14.85,6.9,10.0,0.0,0.0,0.0,10.0,0.0,0.0,0.0,10.0
1446038658709490994,111,1446038658704701900,robocape_mag,8.7,-14.85,6.9,10.0,0.0,0.0,0.0,10.0,0.0,0.0,0.0,10.0
1446038658742939202,112,1446038658738142967,robocape_mag,8.7,-14.85,6.9,10.0,0.0,0.0,0.0,10.0,0.0,0.0,0.0,10.0
1446038658776466202,113,1446038658771316051,robocape_mag,8.7,-14.85,6.9,10.0,0.0,0.0,0.0,10.0,0.0,0.0,0.0,10.0
1446038658809539910,114,1446038658804784059,robocape_mag,8.4,-9.75,6.0,10.0,0.0,0.0,0.0,10.0,0.0,0.0,0.0,10.0
1446038658843265994,115,1446038658838447093,robocape_mag,8.4,-9.75,6.0,10.0,0.0,0.0,0.0,10.0,0.0,0.0,0.0,10.0
1446038658876884869,116,1446038658871707916,robocape_mag,8.4,-9.75,6.0,10.0,0.0,0.0,0.0,10.0,0.0,0.0,0.0,10.0
1446038658909818702,117,1446038658904891967,robocape_mag,8.4,-9.75,6.0,10.0,0.0,0.0,0.0,10.0,0.0,0.0,0.0,10.0
1446038658943218369,118,1446038658938343048,robocape_mag,8.4,-9.75,4.5,10.0,0.0,0.0,0.0,10.0,0.0,0.0,0.0,10.0
1446038658976774077,119,1446038658972006082,robocape_mag,8.7,-10.65,4.5,10.0,0.0,0.0,0.0,10.0,0.0,0.0,0.0,10.0
1446038659011048202,120,1446038659006160974,robocape_mag,8.7,-10.65,4.5,10.0,0.0,0.0,0.0,10.0,0.0,0.0,0.0,10.0
1446038659043240744,121,1446038659038131952,robocape_mag,8.7,-10.65,4.5,10.0,0.0,0.0,0.0,10.0,0.0,0.0,0.0,10.0
1446038659076760202,122,1446038659071691989,robocape_mag,8.7,-10.65,4.5,10.0,0.0,0.0,0.0,10.0,0.0,0.0,0.0,10.0
1446038659109903411,123,1446038659105000019,robocape_mag,6.3,-11.25,3.9,10.0,0.0,0.0,0.0,10.0,0.0,0.0,0.0,10.0
1446038659147051661,124,1446038659141680002,robocape_mag,6.3,-11.25,3.9,10.0,0.0,0.0,0.0,10.0,0.0,0.0,0.0,10.0
1446038659179338619,125,1446038659174107074,robocape_mag,6.3,-11.25,3.9,10.0,0.0,0.0,0.0,10.0,0.0,0.0,0.0,10.0
1446038659212466786,126,1446038659207278966,robocape_mag,6.3,-11.25,3.9,10.0,0.0,0.0,0.0,10.0,0.0,0.0,0.0,10.0
1446038659246230202,127,1446038659241373062,robocape_mag,6.3,-11.25,3.9,10.0,0.0,0.0,0.0,10.0,0.0,0.0,0.0,10.0
1446038659279522994,128,1446038659274688959,robocape_mag,4.5,-11.25,6.9,10.0,0.0,0.0,0.0,10.0,0.0,0.0,0.0,10.0
1446038659312764244,129,1446038659307737112,robocape_mag,4.5,-11.25,6.9,10.0,0.0,0.0,0.0,10.0,0.0,0.0,0.0,10.0
1446038659345510327,130,1446038659340570926,robocape_mag,4.5,-11.25,6.9,10.0,0.0,0.0,0.0,10.0,0.0,0.0,0.0,10.0
1446038659387078827,131,1446038659375866889,robocape_mag,4.5,-11.25,6.9,10.0,0.0,0.0,0.0,10.0,0.0,0.0,0.0,10.0
1446038659412558744,132,1446038659407557010,robocape_mag,4.5,-11.25,6.9,10.0,0.0,0.0,0.0,10.0,0.0,0.0,0.0,10.0
1446038659445838369,133,1446038659440965890,robocape_mag,8.1,-10.65,6.3,10.0,0.0,0.0,0.0,10.0,0.0,0.0,0.0,10.0
1446038659478843411,134,1446038659473956108,robocape_mag,8.1,-10.65,6.3,10.0,0.0,0.0,0.0,10.0,0.0,0.0,0.0,10.0
1446038659511235327,135,1446038659506225109,robocape_mag,8.1,-10.65,6.3,10.0,0.0,0.0,0.0,10.0,0.0,0.0,0.0,10.0
1446038659548722494,136,1446038659539154052,robocape_mag,8.1,-10.65,6.3,10.0,0.0,0.0,0.0,10.0,0.0,0.0,0.0,10.0
1446038659579194619,137,1446038659574191093,robocape_mag,8.1,-10.65,6.3,10.0,0.0,0.0,0.0,10.0,0.0,0.0,0.0,10.0
1446038659615494286,138,1446038659605801105,robocape_mag,3.9,0.15,-10.5,10.0,0.0,0.0,0.0,10.0,0.0,0.0,0.0,10.0
1446038659643661619,139,1446038659638786077,robocape_mag,3.9,0.15,-10.5,10.0,0.0,0.0,0.0,10.0,0.0,0.0,0.0,10.0
1446038659683926869,140,1446038659672713994,robocape_mag,3.9,0.15,-10.5,10.0,0.0,0.0,0.0,10.0,0.0,0.0,0.0,10.0
1446038659710081036,141,1446038659705250024,robocape_mag,3.9,0.15,-10.5,10.0,0.0,0.0,0.0,10.0,0.0,0.0,0.0,10.0
1446038659743628161,142,1446038659738677024,robocape_mag,3.9,6.15,-5.1,10.0,0.0,0.0,0.0,10.0,0.0,0.0,0.0,10.0
1446038659776844869,143,1446038659772016048,robocape_mag,4.5,6.15,-5.1,10.0,0.0,0.0,0.0,10.0,0.0,0.0,0.0,10.0
1446038659809954828,144,1446038659805109977,robocape_mag,4.5,6.15,-5.1,10.0,0.0,0.0,0.0,10.0,0.0,0.0,0.0,10.0
1446038659843351453,145,1446038659838512897,robocape_mag,4.5,6.15,-5.1,10.0,0.0,0.0,0.0,10.0,0.0,0.0,0.0,10.0
1446038659877004619,146,1446038659871825933,robocape_mag,4.5,6.15,-5.1,10.0,0.0,0.0,0.0,10.0,0.0,0.0,0.0,10.0
1446038659909678369,147,1446038659904844999,robocape_mag,-6.6,-28.35,-9.6,10.0,0.0,0.0,0.0,10.0,0.0,0.0,0.0,10.0
1446038659943061828,148,1446038659938157081,robocape_mag,-6.6,-28.35,-9.6,10.0,0.0,0.0,0.0,10.0,0.0,0.0,0.0,10.0
1446038659976268828,149,1446038659971445083,robocape_mag,-6.6,-28.35,-9.6,10.0,0.0,0.0,0.0,10.0,0.0,0.0,0.0,10.0
1446038660009721661,150,1446038660004940986,robocape_mag,-6.6,-28.35,-9.6,10.0,0.0,0.0,0.0,10.0,0.0,0.0,0.0,10.0
1446038660043226078,151,1446038660038275003,robocape_mag,-6.6,-28.35,-9.6,10.0,0.0,0.0,0.0,10.0,0.0,0.0,0.0,10.0
1446038660076455161,152,1446038660071624994,robocape_mag,-15.6,-0.15,-12.6,10.0,0.0,0.0,0.0,10.0,0.0,0.0,0.0,10.0
1446038660109944078,153,1446038660105168104,robocape_mag,-15.6,-0.15,-12.6,10.0,0.0,0.0,0.0,10.0,0.0,0.0,0.0,10.0
1446038660143350661,154,1446038660138544082,robocape_mag,-15.6,-0.15,-12.6,10.0,0.0,0.0,0.0,10.0,0.0,0.0,0.0,10.0
1446038660176320036,155,1446038660171506881,robocape_mag,-15.6,-0.15,-12.6,10.0,0.0,0.0,0.0,10.0,0.0,0.0,0.0,10.0
1446038660213112869,156,1446038660206357955,robocape_mag,-15.6,-0.15,-12.6,10.0,0.0,0.0,0.0,10.0,0.0,0.0,0.0,10.0
1446038660242969453,157,1446038660238177061,robocape_mag,-21.9,-20.85,-14.7,10.0,0.0,0.0,0.0,10.0,0.0,0.0,0.0,10.0
1446038660276519328,158,1446038660271532058,robocape_mag,-21.9,-20.85,-14.7,10.0,0.0,0.0,0.0,10.0,0.0,0.0,0.0,10.0
1446038660309753661,159,1446038660304745912,robocape_mag,-21.9,-20.85,-14.7,10.0,0.0,0.0,0.0,10.0,0.0,0.0,0.0,10.0
1446038660345036203,160,1446038660338196039,robocape_mag,-21.9,-20.85,-14.7,10.0,0.0,0.0,0.0,10.0,0.0,0.0,0.0,10.0
1446038660382803078,161,1446038660372950077,robocape_mag,-21.9,-20.85,-14.7,10.0,0.0,0.0,0.0,10.0,0.0,0.0,0.0,10.0
1446038660410179494,162,1446038660405137062,robocape_mag,-10.8,-17.55,-12.6,10.0,0.0,0.0,0.0,10.0,0.0,0.0,0.0,10.0
1446038660443400119,163,1446038660438298940,robocape_mag,-10.8,-17.55,-12.6,10.0,0.0,0.0,0.0,10.0,0.0,0.0,0.0,10.0
1446038660476960411,164,1446038660471877098,robocape_mag,-10.8,-17.55,-12.6,10.0,0.0,0.0,0.0,10.0,0.0,0.0,0.0,10.0
1446038660510298953,165,1446038660504976034,robocape_mag,-10.8,-17.55,-12.6,10.0,0.0,0.0,0.0,10.0,0.0,0.0,0.0,10.0
1446038660543246245,166,1446038660538175106,robocape_mag,-10.8,-17.55,-14.7,10.0,0.0,0.0,0.0,10.0,0.0,0.0,0.0,10.0
1446038660576795828,167,1446038660571675062,robocape_mag,11.7,-29.25,-14.7,10.0,0.0,0.0,0.0,10.0,0.0,0.0,0.0,10.0
1446038660610164495,168,1446038660605156898,robocape_mag,11.7,-29.25,-14.7,10.0,0.0,0.0,0.0,10.0,0.0,0.0,0.0,10.0
1446038660643355661,169,1446038660638364076,robocape_mag,11.7,-29.25,-14.7,10.0,0.0,0.0,0.0,10.0,0.0,0.0,0.0,10.0
1446038660676328578,170,1446038660671531915,robocape_mag,11.7,-29.25,-14.7,10.0,0.0,0.0,0.0,10.0,0.0,0.0,0.0,10.0
1446038660709881203,171,1446038660704912900,robocape_mag,10.8,-18.15,-18.6,10.0,0.0,0.0,0.0,10.0,0.0,0.0,0.0,10.0
1446038660743374786,172,1446038660738507986,robocape_mag,10.8,-18.15,-18.6,10.0,0.0,0.0,0.0,10.0,0.0,0.0,0.0,10.0
1446038660777536745,173,1446038660771941900,robocape_mag,10.8,-18.15,-18.6,10.0,0.0,0.0,0.0,10.0,0.0,0.0,0.0,10.0
1446038660809823620,174,1446038660804941892,robocape_mag,10.8,-18.15,-18.6,10.0,0.0,0.0,0.0,10.0,0.0,0.0,0.0,10.0
1446038660844249411,175,1446038660839272975,robocape_mag,10.8,-18.15,-18.6,10.0,0.0,0.0,0.0,10.0,0.0,0.0,0.0,10.0
1446038660878866078,176,1446038660871989011,robocape_mag,20.4,-3.15,-6.0,10.0,0.0,0.0,0.0,10.0,0.0,0.0,0.0,10.0
1446038660910945078,177,1446038660905950069,robocape_mag,20.4,-3.15,-6.0,10.0,0.0,0.0,0.0,10.0,0.0,0.0,0.0,10.0
1446038660945175703,178,1446038660939939975,robocape_mag,20.4,-3.15,-6.0,10.0,0.0,0.0,0.0,10.0,0.0,0.0,0.0,10.0
1446038660977088078,179,1446038660972281932,robocape_mag,20.4,-3.15,-6.0,10.0,0.0,0.0,0.0,10.0,0.0,0.0,0.0,10.0
1446038661011659953,180,1446038661006362915,robocape_mag,20.4,-3.15,-6.0,10.0,0.0,0.0,0.0,10.0,0.0,0.0,0.0,10.0
1446038661047638828,181,1446038661039860010,robocape_mag,-8.4,-27.15,-12.0,10.0,0.0,0.0,0.0,10.0,0.0,0.0,0.0,10.0
1446038661077966203,182,1446038661072767972,robocape_mag,-8.4,-27.15,-12.0,10.0,0.0,0.0,0.0,10.0,0.0,0.0,0.0,10.0
1446038661109779786,183,1446038661104850053,robocape_mag,-8.4,-27.15,-12.0,10.0,0.0,0.0,0.0,10.0,0.0,0.0,0.0,10.0
1446038661143439578,184,1446038661138489961,robocape_mag,-8.4,-27.15,-12.0,10.0,0.0,0.0,0.0,10.0,0.0,0.0,0.0,10.0
1446038661176328745,185,1446038661171545028,robocape_mag,-8.4,-27.15,-12.0,10.0,0.0,0.0,0.0,10.0,0.0,0.0,0.0,10.0
1446038661210052953,186,1446038661204924106,robocape_mag,-3.9,-20.85,-7.5,10.0,0.0,0.0,0.0,10.0,0.0,0.0,0.0,10.0
1446038661243463245,187,1446038661238332033,robocape_mag,-3.9,-20.85,-7.5,10.0,0.0,0.0,0.0,10.0,0.0,0.0,0.0,10.0
1446038661276775703,188,1446038661271867990,robocape_mag,-3.9,-20.85,-7.5,10.0,0.0,0.0,0.0,10.0,0.0,0.0,0.0,10.0
1446038661310086078,189,1446038661304969072,robocape_mag,-3.9,-20.85,-7.5,10.0,0.0,0.0,0.0,10.0,0.0,0.0,0.0,10.0
1446038661344618912,190,1446038661339442014,robocape_mag,-3.9,-28.65,-14.1,10.0,0.0,0.0,0.0,10.0,0.0,0.0,0.0,10.0
1446038661381654370,191,1446038661373033046,robocape_mag,-17.1,-28.65,-14.1,10.0,0.0,0.0,0.0,10.0,0.0,0.0,0.0,10.0
1446038661412769120,192,1446038661405584096,robocape_mag,-17.1,-28.65,-14.1,10.0,0.0,0.0,0.0,10.0,0.0,0.0,0.0,10.0
1446038661445370120,193,1446038661438296079,robocape_mag,-17.1,-28.65,-14.1,10.0,0.0,0.0,0.0,10.0,0.0,0.0,0.0,10.0
1446038661477248828,194,1446038661471751928,robocape_mag,-17.1,-28.65,-14.1,10.0,0.0,0.0,0.0,10.0,0.0,0.0,0.0,10.0
1446038661510300745,195,1446038661504673957,robocape_mag,-37.5,-15.45,-24.3,10.0,0.0,0.0,0.0,10.0,0.0,0.0,0.0,10.0
1446038661543541453,196,1446038661538212060,robocape_mag,-37.5,-15.45,-24.3,10.0,0.0,0.0,0.0,10.0,0.0,0.0,0.0,10.0
1446038661576669662,197,1446038661571626901,robocape_mag,-37.5,-15.45,-24.3,10.0,0.0,0.0,0.0,10.0,0.0,0.0,0.0,10.0
1446038661610245120,198,1446038661605020046,robocape_mag,-37.5,-15.45,-24.3,10.0,0.0,0.0,0.0,10.0,0.0,0.0,0.0,10.0
1446038661645187787,199,1446038661638330936,robocape_mag,-37.5,-15.45,-24.3,10.0,0.0,0.0,0.0,10.0,0.0,0.0,0.0,10.0
1446038661676704620,200,1446038661671561002,robocape_mag,-30.0,-3.15,-18.6,10.0,0.0,0.0,0.0,10.0,0.0,0.0,0.0,10.0
1446038661710077287,201,1446038661704649925,robocape_mag,-30.0,-3.15,-18.6,10.0,0.0,0.0,0.0,10.0,0.0,0.0,0.0,10.0
1446038661743442870,202,1446038661738306045,robocape_mag,-30.0,-3.15,-18.6,10.0,0.0,0.0,0.0,10.0,0.0,0.0,0.0,10.0
1446038661776701912,203,1446038661771727085,robocape_mag,-30.0,-3.15,-18.6,10.0,0.0,0.0,0.0,10.0,0.0,0.0,0.0,10.0
1446038661811117037,204,1446038661804832935,robocape_mag,-30.0,-3.15,-18.6,10.0,0.0,0.0,0.0,10.0,0.0,0.0,0.0,10.0
1446038661843347245,205,1446038661838059902,robocape_mag,-15.6,-9.15,-11.4,10.0,0.0,0.0,0.0,10.0,0.0,0.0,0.0,10.0
1446038661876647120,206,1446038661871555089,robocape_mag,-15.6,-9.15,-11.4,10.0,0.0,0.0,0.0,10.0,0.0,0.0,0.0,10.0
1446038661909689370,207,1446038661904711008,robocape_mag,-15.6,-9.15,-11.4,10.0,0.0,0.0,0.0,10.0,0.0,0.0,0.0,10.0
1446038661943268537,208,1446038661938249111,robocape_mag,-15.6,-9.15,-11.4,10.0,0.0,0.0,0.0,10.0,0.0,0.0,0.0,10.0
1446038661976268079,209,1446038661971426963,robocape_mag,-15.6,-9.15,-11.4,10.0,0.0,0.0,0.0,10.0,0.0,0.0,0.0,10.0
1446038662011152079,210,1446038662005999088,robocape_mag,-15.9,-2.85,-9.9,10.0,0.0,0.0,0.0,10.0,0.0,0.0,0.0,10.0
1446038662045273620,211,1446038662038319110,robocape_mag,-15.9,-2.85,-9.9,10.0,0.0,0.0,0.0,10.0,0.0,0.0,0.0,10.0
1446038662080525829,212,1446038662073956966,robocape_mag,-15.9,-2.85,-9.9,10.0,0.0,0.0,0.0,10.0,0.0,0.0,0.0,10.0
1446038662111666870,213,1446038662106549024,robocape_mag,-15.9,-2.85,-9.9,10.0,0.0,0.0,0.0,10.0,0.0,0.0,0.0,10.0
1446038662145032912,214,1446038662139853000,robocape_mag,-15.9,-6.15,-13.2,10.0,0.0,0.0,0.0,10.0,0.0,0.0,0.0,10.0
1446038662181840329,215,1446038662174061059,robocape_mag,-25.2,-6.15,-13.2,10.0,0.0,0.0,0.0,10.0,0.0,0.0,0.0,10.0
1446038662214237829,216,1446038662206526994,robocape_mag,-25.2,-6.15,-13.2,10.0,0.0,0.0,0.0,10.0,0.0,0.0,0.0,10.0
1446038662248080662,217,1446038662240185976,robocape_mag,-25.2,-6.15,-13.2,10.0,0.0,0.0,0.0,10.0,0.0,0.0,0.0,10.0
1446038662282449662,218,1446038662275562047,robocape_mag,-25.2,-6.15,-13.2,10.0,0.0,0.0,0.0,10.0,0.0,0.0,0.0,10.0
1446038662315317454,219,1446038662308242082,robocape_mag,-9.3,-17.85,-7.5,10.0,0.0,0.0,0.0,10.0,0.0,0.0,0.0,10.0
1446038662350239829,220,1446038662342118978,robocape_mag,-9.3,-17.85,-7.5,10.0,0.0,0.0,0.0,10.0,0.0,0.0,0.0,10.0
1446038662383516579,221,1446038662373526096,robocape_mag,-9.3,-17.85,-7.5,10.0,0.0,0.0,0.0,10.0,0.0,0.0,0.0,10.0
1446038662414274745,222,1446038662408793926,robocape_mag,-9.3,-17.85,-7.5,10.0,0.0,0.0,0.0,10.0,0.0,0.0,0.0,10.0
1446038662451524287,223,1446038662442102909,robocape_mag,-9.3,-17.85,-7.5,10.0,0.0,0.0,0.0,10.0,0.0,0.0,0.0,10.0
1446038662481281329,224,1446038662475689888,robocape_mag,-27.9,-0.45,-17.1,10.0,0.0,0.0,0.0,10.0,0.0,0.0,0.0,10.0
1446038662514091537,225,1446038662508054018,robocape_mag,-27.9,-0.45,-17.1,10.0,0.0,0.0,0.0,10.0,0.0,0.0,0.0,10.0
1446038662549395870,226,1446038662542205095,robocape_mag,-27.9,-0.45,-17.1,10.0,0.0,0.0,0.0,10.0,0.0,0.0,0.0,10.0
1446038662586250579,227,1446038662576338052,robocape_mag,-27.9,-0.45,-17.1,10.0,0.0,0.0,0.0,10.0,0.0,0.0,0.0,10.0
1446038662614174329,228,1446038662609061956,robocape_mag,-27.9,-0.45,-17.1,10.0,0.0,0.0,0.0,10.0,0.0,0.0,0.0,10.0
1446038662646876496,229,1446038662641434907,robocape_mag,-45.9,-2.85,-30.9,10.0,0.0,0.0,0.0,10.0,0.0,0.0,0.0,10.0
1446038662685252662,230,1446038662675081968,robocape_mag,-45.9,-2.85,-30.9,10.0,0.0,0.0,0.0,10.0,0.0,0.0,0.0,10.0
1446038662713982579,231,1446038662707607984,robocape_mag,-45.9,-2.85,-30.9,10.0,0.0,0.0,0.0,10.0,0.0,0.0,0.0,10.0
1446038662746987079,232,1446038662741677045,robocape_mag,-45.9,-2.85,-30.9,10.0,0.0,0.0,0.0,10.0,0.0,0.0,0.0,10.0
1446038662779010329,233,1446038662773894071,robocape_mag,-45.9,-2.85,-30.9,10.0,0.0,0.0,0.0,10.0,0.0,0.0,0.0,10.0
1446038662813648287,234,1446038662806852102,robocape_mag,-38.1,0.75,-20.7,10.0,0.0,0.0,0.0,10.0,0.0,0.0,0.0,10.0
1446038662845416954,235,1446038662840015888,robocape_mag,-38.1,0.75,-20.7,10.0,0.0,0.0,0.0,10.0,0.0,0.0,0.0,10.0
1446038662879733371,236,1446038662874864101,robocape_mag,-38.1,0.75,-20.7,10.0,0.0,0.0,0.0,10.0,0.0,0.0,0.0,10.0
1446038662912872996,237,1446038662908067941,robocape_mag,-38.1,0.75,-20.7,10.0,0.0,0.0,0.0,10.0,0.0,0.0,0.0,10.0
1446038662945791954,238,1446038662940623044,robocape_mag,-10.2,5.85,-5.4,10.0,0.0,0.0,0.0,10.0,0.0,0.0,0.0,10.0
1446038662978512954,239,1446038662973695039,robocape_mag,-10.2,5.85,-5.4,10.0,0.0,0.0,0.0,10.0,0.0,0.0,0.0,10.0
1446038663011475787,240,1446038663006455898,robocape_mag,-10.2,5.85,-5.4,10.0,0.0,0.0,0.0,10.0,0.0,0.0,0.0,10.0
1446038663044325621,241,1446038663038980007,robocape_mag,-10.2,5.85,-5.4,10.0,0.0,0.0,0.0,10.0,0.0,0.0,0.0,10.0
1446038663078759746,242,1446038663073693990,robocape_mag,-10.2,5.85,-5.4,10.0,0.0,0.0,0.0,10.0,0.0,0.0,0.0,10.0
1446038663111124329,243,1446038663106153011,robocape_mag,2.1,6.15,-3.9,10.0,0.0,0.0,0.0,10.0,0.0,0.0,0.0,10.0
1446038663147645329,244,1446038663138386011,robocape_mag,2.1,6.15,-3.9,10.0,0.0,0.0,0.0,10.0,0.0,0.0,0.0,10.0
1446038663176362579,245,1446038663171399116,robocape_mag,2.1,6.15,-3.9,10.0,0.0,0.0,0.0,10.0,0.0,0.0,0.0,10.0
1446038663209563662,246,1446038663204622983,robocape_mag,2.1,6.15,-3.9,10.0,0.0,0.0,0.0,10.0,0.0,0.0,0.0,10.0
1446038663243550662,247,1446038663238289117,robocape_mag,2.1,6.15,-3.9,10.0,0.0,0.0,0.0,10.0,0.0,0.0,0.0,10.0
1446038663276774413,248,1446038663271708011,robocape_mag,8.4,4.05,-5.4,10.0,0.0,0.0,0.0,10.0,0.0,0.0,0.0,10.0
1446038663309517538,249,1446038663304721117,robocape_mag,8.4,4.05,-5.4,10.0,0.0,0.0,0.0,10.0,0.0,0.0,0.0,10.0
1446038663344920079,250,1446038663338114976,robocape_mag,8.4,4.05,-5.4,10.0,0.0,0.0,0.0,10.0,0.0,0.0,0.0,10.0
1446038663385053454,251,1446038663373267889,robocape_mag,8.4,4.05,-5.4,10.0,0.0,0.0,0.0,10.0,0.0,0.0,0.0,10.0
1446038663415928496,252,1446038663406359910,robocape_mag,8.4,4.05,-5.4,10.0,0.0,0.0,0.0,10.0,0.0,0.0,0.0,10.0
1446038663443685329,253,1446038663438591003,robocape_mag,-12.9,-6.45,-13.5,10.0,0.0,0.0,0.0,10.0,0.0,0.0,0.0,10.0
1446038663476615163,254,1446038663471580028,robocape_mag,-12.9,-6.45,-13.5,10.0,0.0,0.0,0.0,10.0,0.0,0.0,0.0,10.0
1446038663509834079,255,1446038663504936933,robocape_mag,-12.9,-6.45,-13.5,10.0,0.0,0.0,0.0,10.0,0.0,0.0,0.0,10.0
1446038663544654371,256,1446038663538240909,robocape_mag,-12.9,-6.45,-13.5,10.0,0.0,0.0,0.0,10.0,0.0,0.0,0.0,10.0
1446038663577002413,257,1446038663571865081,robocape_mag,-12.9,-6.45,-13.5,10.0,0.0,0.0,0.0,10.0,0.0,0.0,0.0,10.0
1446038663612195704,258,1446038663604691028,robocape_mag,-7.2,1.05,-6.6,10.0,0.0,0.0,0.0,10.0,0.0,0.0,0.0,10.0
1446038663643016538,259,1446038663638094902,robocape_mag,-7.2,1.05,-6.6,10.0,0.0,0.0,0.0,10.0,0.0,0.0,0.0,10.0
1446038663677113871,260,1446038663672106981,robocape_mag,-7.2,1.05,-6.6,10.0,0.0,0.0,0.0,10.0,0.0,0.0,0.0,10.0
1446038663711841329,261,1446038663704826116,robocape_mag,-7.2,1.05,-6.6,10.0,0.0,0.0,0.0,10.0,0.0,0.0,0.0,10.0
1446038663743384621,262,1446038663738096952,robocape_mag,-7.2,1.05,-6.6,10.0,0.0,0.0,0.0,10.0,0.0,0.0,0.0,10.0
1446038663776578121,263,1446038663771493911,robocape_mag,-5.7,-14.85,-5.7,10.0,0.0,0.0,0.0,10.0,0.0,0.0,0.0,10.0
1446038663810424704,264,1446038663804819107,robocape_mag,-5.7,-14.85,-5.7,10.0,0.0,0.0,0.0,10.0,0.0,0.0,0.0,10.0
1446038663843719329,265,1446038663837965965,robocape_mag,-5.7,-14.85,-5.7,10.0,0.0,0.0,0.0,10.0,0.0,0.0,0.0,10.0
1446038663878529746,266,1446038663871362924,robocape_mag,-5.7,-14.85,-5.7,10.0,0.0,0.0,0.0,10.0,0.0,0.0,0.0,10.0
1446038663909659954,267,1446038663904519081,robocape_mag,14.1,-1.05,-1.5,10.0,0.0,0.0,0.0,10.0,0.0,0.0,0.0,10.0
1446038663943809413,268,1446038663938570022,robocape_mag,14.1,-1.05,-1.5,10.0,0.0,0.0,0.0,10.0,0.0,0.0,0.0,10.0
1446038663976784830,269,1446038663971519947,robocape_mag,14.1,-1.05,-1.5,10.0,0.0,0.0,0.0,10.0,0.0,0.0,0.0,10.0
1446038664013006705,270,1446038664004899978,robocape_mag,14.1,-1.05,-1.5,10.0,0.0,0.0,0.0,10.0,0.0,0.0,0.0,10.0
1446038664045131955,271,1446038664037854909,robocape_mag,14.1,-1.05,-1.5,10.0,0.0,0.0,0.0,10.0,0.0,0.0,0.0,10.0
1446038664079002496,272,1446038664071854114,robocape_mag,13.8,-3.15,-3.0,10.0,0.0,0.0,0.0,10.0,0.0,0.0,0.0,10.0
1446038664109802830,273,1446038664104679107,robocape_mag,13.8,-3.15,-3.0,10.0,0.0,0.0,0.0,10.0,0.0,0.0,0.0,10.0
1446038664143113538,274,1446038664137907981,robocape_mag,13.8,-3.15,-3.0,10.0,0.0,0.0,0.0,10.0,0.0,0.0,0.0,10.0
1446038664176693246,275,1446038664171575069,robocape_mag,13.8,-3.15,-3.0,10.0,0.0,0.0,0.0,10.0,0.0,0.0,0.0,10.0
1446038664209513371,276,1446038664204721927,robocape_mag,13.8,-3.15,-3.0,10.0,0.0,0.0,0.0,10.0,0.0,0.0,0.0,10.0
1446038664243482788,277,1446038664238068103,robocape_mag,18.3,-6.45,-3.3,10.0,0.0,0.0,0.0,10.0,0.0,0.0,0.0,10.0
1446038664276339913,278,1446038664271531105,robocape_mag,18.3,-6.45,-3.3,10.0,0.0,0.0,0.0,10.0,0.0,0.0,0.0,10.0
1446038664310688996,279,1446038664305876016,robocape_mag,18.3,-6.45,-3.3,10.0,0.0,0.0,0.0,10.0,0.0,0.0,0.0,10.0
1446038664344195080,280,1446038664339091062,robocape_mag,18.3,-6.45,-3.3,10.0,0.0,0.0,0.0,10.0,0.0,0.0,0.0,10.0
1446038664382630371,281,1446038664373317003,robocape_mag,18.3,-6.45,-3.3,10.0,0.0,0.0,0.0,10.0,0.0,0.0,0.0,10.0
1446038664414748288,282,1446038664406263113,robocape_mag,23.7,-13.05,-3.3,10.0,0.0,0.0,0.0,10.0,0.0,0.0,0.0,10.0
1446038664444613913,283,1446038664439414024,robocape_mag,23.7,-13.05,-3.3,10.0,0.0,0.0,0.0,10.0,0.0,0.0,0.0,10.0
1446038664480886955,284,1446038664472982883,robocape_mag,23.7,-13.05,-3.3,10.0,0.0,0.0,0.0,10.0,0.0,0.0,0.0,10.0
1446038664510853288,285,1446038664505933046,robocape_mag,23.7,-13.05,-3.3,10.0,0.0,0.0,0.0,10.0,0.0,0.0,0.0,10.0
1446038664543880413,286,1446038664538865089,robocape_mag,23.7,-13.05,-6.3,10.0,0.0,0.0,0.0,10.0,0.0,0.0,0.0,10.0
1446038664578465330,287,1446038664572834014,robocape_mag,18.9,-21.45,-6.3,10.0,0.0,0.0,0.0,10.0,0.0,0.0,0.0,10.0
1446038664615170746,288,1446038664607628107,robocape_mag,18.9,-21.45,-6.3,10.0,0.0,0.0,0.0,10.0,0.0,0.0,0.0,10.0
1446038664648655163,289,1446038664640073060,robocape_mag,18.9,-21.45,-6.3,10.0,0.0,0.0,0.0,10.0,0.0,0.0,0.0,10.0
1446038664681516913,290,1446038664673258066,robocape_mag,18.9,-21.45,-6.3,10.0,0.0,0.0,0.0,10.0,0.0,0.0,0.0,10.0
1446038664714482413,291,1446038664707544088,robocape_mag,4.5,-16.65,-17.7,10.0,0.0,0.0,0.0,10.0,0.0,0.0,0.0,10.0
1446038664748610413,292,1446038664740811109,robocape_mag,4.5,-16.65,-17.7,10.0,0.0,0.0,0.0,10.0,0.0,0.0,0.0,10.0
1446038664780591913,293,1446038664774525880,robocape_mag,4.5,-16.65,-17.7,10.0,0.0,0.0,0.0,10.0,0.0,0.0,0.0,10.0
1446038664815489163,294,1446038664807780027,robocape_mag,4.5,-16.65,-17.7,10.0,0.0,0.0,0.0,10.0,0.0,0.0,0.0,10.0
1446038664846309830,295,1446038664840189933,robocape_mag,4.5,-16.65,-17.7,10.0,0.0,0.0,0.0,10.0,0.0,0.0,0.0,10.0
1446038664879823705,296,1446038664874468088,robocape_mag,25.2,-10.95,-3.6,10.0,0.0,0.0,0.0,10.0,0.0,0.0,0.0,10.0
1446038664915415955,297,1446038664907609939,robocape_mag,25.2,-10.95,-3.6,10.0,0.0,0.0,0.0,10.0,0.0,0.0,0.0,10.0
1446038664948037622,298,1446038664941108942,robocape_mag,25.2,-10.95,-3.6,10.0,0.0,0.0,0.0,10.0,0.0,0.0,0.0,10.0
1446038664979911580,299,1446038664974524021,robocape_mag,25.2,-10.95,-3.6,10.0,0.0,0.0,0.0,10.0,0.0,0.0,0.0,10.0
1446038665013789830,300,1446038665008644104,robocape_mag,25.2,-10.95,-3.6,10.0,0.0,0.0,0.0,10.0,0.0,0.0,0.0,10.0
1446038665045726038,301,1446038665040291070,robocape_mag,7.5,-13.05,-18.3,10.0,0.0,0.0,0.0,10.0,0.0,0.0,0.0,10.0
1446038665080154622,302,1446038665073856115,robocape_mag,7.5,-13.05,-18.3,10.0,0.0,0.0,0.0,10.0,0.0,0.0,0.0,10.0
1446038665111801913,303,1446038665106647014,robocape_mag,7.5,-13.05,-18.3,10.0,0.0,0.0,0.0,10.0,0.0,0.0,0.0,10.0
1446038665145212747,304,1446038665139889001,robocape_mag,7.5,-13.05,-18.3,10.0,0.0,0.0,0.0,10.0,0.0,0.0,0.0,10.0
1446038665178198747,305,1446038665173150062,robocape_mag,7.5,-13.05,-18.3,10.0,0.0,0.0,0.0,10.0,0.0,0.0,0.0,10.0
1446038665212019997,306,1446038665207176923,robocape_mag,10.5,-20.85,-20.1,10.0,0.0,0.0,0.0,10.0,0.0,0.0,0.0,10.0
1446038665246369330,307,1446038665240431070,robocape_mag,10.5,-20.85,-20.1,10.0,0.0,0.0,0.0,10.0,0.0,0.0,0.0,10.0
1446038665278978080,308,1446038665273849010,robocape_mag,10.5,-20.85,-20.1,10.0,0.0,0.0,0.0,10.0,0.0,0.0,0.0,10.0
1446038665311321538,309,1446038665306529998,robocape_mag,10.5,-20.85,-20.1,10.0,0.0,0.0,0.0,10.0,0.0,0.0,0.0,10.0
1446038665343933747,310,1446038665339005947,robocape_mag,10.5,-20.85,-18.9,10.0,0.0,0.0,0.0,10.0,0.0,0.0,0.0,10.0
1446038665383146789,311,1446038665374623060,robocape_mag,11.1,-20.85,-18.9,10.0,0.0,0.0,0.0,10.0,0.0,0.0,0.0,10.0
1446038665411733789,312,1446038665406774997,robocape_mag,11.1,-20.85,-18.9,10.0,0.0,0.0,0.0,10.0,0.0,0.0,0.0,10.0
1446038665443720872,313,1446038665438821077,robocape_mag,11.1,-20.85,-18.9,10.0,0.0,0.0,0.0,10.0,0.0,0.0,0.0,10.0
1446038665476572330,314,1446038665471757888,robocape_mag,11.1,-20.85,-18.9,10.0,0.0,0.0,0.0,10.0,0.0,0.0,0.0,10.0
1446038665509930789,315,1446038665505151987,robocape_mag,16.8,-8.55,-17.4,10.0,0.0,0.0,0.0,10.0,0.0,0.0,0.0,10.0
1446038665543074914,316,1446038665538186073,robocape_mag,16.8,-8.55,-17.4,10.0,0.0,0.0,0.0,10.0,0.0,0.0,0.0,10.0
1446038665576560580,317,1446038665571446895,robocape_mag,16.8,-8.55,-17.4,10.0,0.0,0.0,0.0,10.0,0.0,0.0,0.0,10.0
1446038665609996039,318,1446038665605201959,robocape_mag,16.8,-8.55,-17.4,10.0,0.0,0.0,0.0,10.0,0.0,0.0,0.0,10.0
1446038665642788997,319,1446038665638025999,robocape_mag,16.8,-8.55,-17.4,10.0,0.0,0.0,0.0,10.0,0.0,0.0,0.0,10.0
1446038665676276205,320,1446038665671446084,robocape_mag,35.4,-12.15,-7.8,10.0,0.0,0.0,0.0,10.0,0.0,0.0,0.0,10.0
1446038665710018705,321,1446038665705208063,robocape_mag,35.4,-12.15,-7.8,10.0,0.0,0.0,0.0,10.0,0.0,0.0,0.0,10.0
1446038665743045455,322,1446038665738022089,robocape_mag,35.4,-12.15,-7.8,10.0,0.0,0.0,0.0,10.0,0.0,0.0,0.0,10.0
1446038665776187622,323,1446038665771394968,robocape_mag,35.4,-12.15,-7.8,10.0,0.0,0.0,0.0,10.0,0.0,0.0,0.0,10.0
1446038665809829580,324,1446038665804963111,robocape_mag,35.4,-12.15,-7.8,10.0,0.0,0.0,0.0,10.0,0.0,0.0,0.0,10.0
1446038665842994164,325,1446038665838169097,robocape_mag,16.2,-18.15,-21.0,10.0,0.0,0.0,0.0,10.0,0.0,0.0,0.0,10.0
1446038665876785330,326,1446038665871618032,robocape_mag,16.2,-18.15,-21.0,10.0,0.0,0.0,0.0,10.0,0.0,0.0,0.0,10.0
1446038665909839955,327,1446038665905042886,robocape_mag,16.2,-18.15,-21.0,10.0,0.0,0.0,0.0,10.0,0.0,0.0,0.0,10.0
1446038665942963497,328,1446038665938129901,robocape_mag,16.2,-18.15,-21.0,10.0,0.0,0.0,0.0,10.0,0.0,0.0,0.0,10.0
1446038665976567247,329,1446038665971704006,robocape_mag,16.2,-18.15,-21.0,10.0,0.0,0.0,0.0,10.0,0.0,0.0,0.0,10.0
1446038666010306455,330,1446038666005505084,robocape_mag,37.5,-20.25,-13.5,10.0,0.0,0.0,0.0,10.0,0.0,0.0,0.0,10.0
1446038666042830080,331,1446038666038055896,robocape_mag,37.5,-20.25,-13.5,10.0,0.0,0.0,0.0,10.0,0.0,0.0,0.0,10.0
1446038666078397039,332,1446038666071362018,robocape_mag,37.5,-20.25,-13.5,10.0,0.0,0.0,0.0,10.0,0.0,0.0,0.0,10.0
1446038666109814706,333,1446038666104865074,robocape_mag,37.5,-20.25,-13.5,10.0,0.0,0.0,0.0,10.0,0.0,0.0,0.0,10.0
1446038666143831914,334,1446038666137942075,robocape_mag,37.5,-20.25,-13.5,10.0,0.0,0.0,0.0,10.0,0.0,0.0,0.0,10.0
1446038666178474414,335,1446038666171576023,robocape_mag,36.6,-5.55,-12.6,10.0,0.0,0.0,0.0,10.0,0.0,0.0,0.0,10.0
1446038666209875164,336,1446038666204724073,robocape_mag,36.6,-5.55,-12.6,10.0,0.0,0.0,0.0,10.0,0.0,0.0,0.0,10.0
1446038666243025289,337,1446038666237967967,robocape_mag,36.6,-5.55,-12.6,10.0,0.0,0.0,0.0,10.0,0.0,0.0,0.0,10.0
1446038666276243914,338,1446038666271296977,robocape_mag,36.6,-5.55,-12.6,10.0,0.0,0.0,0.0,10.0,0.0,0.0,0.0,10.0
1446038666309884414,339,1446038666304773092,robocape_mag,30.6,-3.15,-19.2,10.0,0.0,0.0,0.0,10.0,0.0,0.0,0.0,10.0
1446038666343064039,340,1446038666337922096,robocape_mag,30.6,-3.15,-19.2,10.0,0.0,0.0,0.0,10.0,0.0,0.0,0.0,10.0
1446038666382552956,341,1446038666373471975,robocape_mag,30.6,-3.15,-19.2,10.0,0.0,0.0,0.0,10.0,0.0,0.0,0.0,10.0
1446038666410186914,342,1446038666405184030,robocape_mag,30.6,-3.15,-19.2,10.0,0.0,0.0,0.0,10.0,0.0,0.0,0.0,10.0
1446038666442935789,343,1446038666437993049,robocape_mag,30.6,-3.15,-19.2,10.0,0.0,0.0,0.0,10.0,0.0,0.0,0.0,10.0
1446038666476689831,344,1446038666471771001,robocape_mag,43.8,-12.15,-15.6,10.0,0.0,0.0,0.0,10.0,0.0,0.0,0.0,10.0
1446038666509957664,345,1446038666505073070,robocape_mag,43.8,-12.15,-15.6,10.0,0.0,0.0,0.0,10.0,0.0,0.0,0.0,10.0
1446038666542796539,346,1446038666537970066,robocape_mag,43.8,-12.15,-15.6,10.0,0.0,0.0,0.0,10.0,0.0,0.0,0.0,10.0
1446038666576340164,347,1446038666571583032,robocape_mag,43.8,-12.15,-15.6,10.0,0.0,0.0,0.0,10.0,0.0,0.0,0.0,10.0
1446038666613111414,348,1446038666607928037,robocape_mag,43.8,-12.15,-15.6,10.0,0.0,0.0,0.0,10.0,0.0,0.0,0.0,10.0
1446038666643923956,349,1446038666639112949,robocape_mag,41.7,-14.85,-13.5,10.0,0.0,0.0,0.0,10.0,0.0,0.0,0.0,10.0
1446038666677447997,350,1446038666672622919,robocape_mag,41.7,-14.85,-13.5,10.0,0.0,0.0,0.0,10.0,0.0,0.0,0.0,10.0
1446038666710932247,351,1446038666706135034,robocape_mag,41.7,-14.85,-13.5,10.0,0.0,0.0,0.0,10.0,0.0,0.0,0.0,10.0
1446038666744510206,352,1446038666739439964,robocape_mag,41.7,-14.85,-13.5,10.0,0.0,0.0,0.0,10.0,0.0,0.0,0.0,10.0
1446038666777904914,353,1446038666772855997,robocape_mag,41.7,-14.85,-13.5,10.0,0.0,0.0,0.0,10.0,0.0,0.0,0.0,10.0
1446038666811392164,354,1446038666806580066,robocape_mag,24.3,-7.65,-26.7,10.0,0.0,0.0,0.0,10.0,0.0,0.0,0.0,10.0
1446038666843641164,355,1446038666838447093,robocape_mag,24.3,-7.65,-26.7,10.0,0.0,0.0,0.0,10.0,0.0,0.0,0.0,10.0
1446038666878098164,356,1446038666873244047,robocape_mag,24.3,-7.65,-26.7,10.0,0.0,0.0,0.0,10.0,0.0,0.0,0.0,10.0
1446038666911261373,357,1446038666906282901,robocape_mag,24.3,-7.65,-26.7,10.0,0.0,0.0,0.0,10.0,0.0,0.0,0.0,10.0
1446038666947483789,358,1446038666940824031,robocape_mag,24.3,-6.45,-15.3,10.0,0.0,0.0,0.0,10.0,0.0,0.0,0.0,10.0
1446038666981047623,359,1446038666974987983,robocape_mag,45.9,-6.45,-15.3,10.0,0.0,0.0,0.0,10.0,0.0,0.0,0.0,10.0
1446038667016678706,360,1446038667011472940,robocape_mag,45.9,-6.45,-15.3,10.0,0.0,0.0,0.0,10.0,0.0,0.0,0.0,10.0
1446038667045084581,361,1446038667038913965,robocape_mag,45.9,-6.45,-15.3,10.0,0.0,0.0,0.0,10.0,0.0,0.0,0.0,10.0
1446038667106932414,362,1446038667074476957,robocape_mag,45.9,-6.45,-15.3,10.0,0.0,0.0,0.0,10.0,0.0,0.0,0.0,10.0
1446038667128576873,363,1446038667123449087,robocape_mag,34.5,-16.65,-24.3,10.0,0.0,0.0,0.0,10.0,0.0,0.0,0.0,10.0
1446038667154118289,364,1446038667147109985,robocape_mag,34.5,-16.65,-24.3,10.0,0.0,0.0,0.0,10.0,0.0,0.0,0.0,10.0
1446038667182427498,365,1446038667175988912,robocape_mag,34.5,-16.65,-24.3,10.0,0.0,0.0,0.0,10.0,0.0,0.0,0.0,10.0
1446038667213441706,366,1446038667206753015,robocape_mag,34.5,-16.65,-24.3,10.0,0.0,0.0,0.0,10.0,0.0,0.0,0.0,10.0
1446038667246167539,367,1446038667241079092,robocape_mag,34.5,-16.65,-24.3,10.0,0.0,0.0,0.0,10.0,0.0,0.0,0.0,10.0
1446038667282547998,368,1446038667275396108,robocape_mag,42.0,5.85,-21.6,10.0,0.0,0.0,0.0,10.0,0.0,0.0,0.0,10.0
1446038667313413748,369,1446038667307876110,robocape_mag,42.0,5.85,-21.6,10.0,0.0,0.0,0.0,10.0,0.0,0.0,0.0,10.0
1446038667346598581,370,1446038667341535091,robocape_mag,42.0,5.85,-21.6,10.0,0.0,0.0,0.0,10.0,0.0,0.0,0.0,10.0
1446038667386253539,371,1446038667376065015,robocape_mag,42.0,5.85,-21.6,10.0,0.0,0.0,0.0,10.0,0.0,0.0,0.0,10.0
1446038667416335039,372,1446038667407572031,robocape_mag,42.0,5.85,-21.6,10.0,0.0,0.0,0.0,10.0,0.0,0.0,0.0,10.0
1446038667446067956,373,1446038667441205024,robocape_mag,28.2,-6.75,-29.4,10.0,0.0,0.0,0.0,10.0,0.0,0.0,0.0,10.0
1446038667479297040,374,1446038667474251985,robocape_mag,28.2,-6.75,-29.4,10.0,0.0,0.0,0.0,10.0,0.0,0.0,0.0,10.0
1446038667512483540,375,1446038667507189989,robocape_mag,28.2,-6.75,-29.4,10.0,0.0,0.0,0.0,10.0,0.0,0.0,0.0,10.0
1446038667545580581,376,1446038667540738105,robocape_mag,28.2,-6.75,-29.4,10.0,0.0,0.0,0.0,10.0,0.0,0.0,0.0,10.0
1446038667578876456,377,1446038667574091911,robocape_mag,28.2,-6.75,-29.4,10.0,0.0,0.0,0.0,10.0,0.0,0.0,0.0,10.0
1446038667612120206,378,1446038667606676101,robocape_mag,49.8,2.25,-18.0,10.0,0.0,0.0,0.0,10.0,0.0,0.0,0.0,10.0
1446038667644612581,379,1446038667639745950,robocape_mag,49.8,2.25,-18.0,10.0,0.0,0.0,0.0,10.0,0.0,0.0,0.0,10.0
1446038667677880831,380,1446038667672774076,robocape_mag,49.8,2.25,-18.0,10.0,0.0,0.0,0.0,10.0,0.0,0.0,0.0,10.0
1446038667711094123,381,1446038667706136941,robocape_mag,49.8,2.25,-18.0,10.0,0.0,0.0,0.0,10.0,0.0,0.0,0.0,10.0
1446038667743837331,382,1446038667738740921,robocape_mag,49.8,2.25,46.2,10.0,0.0,0.0,0.0,10.0,0.0,0.0,0.0,10.0
1446038667777922748,383,1446038667772681951,robocape_mag,28.8,-0.15,-30.6,10.0,0.0,0.0,0.0,10.0,0.0,0.0,0.0,10.0
1446038667813958790,384,1446038667805454015,robocape_mag,28.8,-0.15,-30.6,10.0,0.0,0.0,0.0,10.0,0.0,0.0,0.0,10.0
1446038667843063581,385,1446038667838222980,robocape_mag,28.8,-0.15,-30.6,10.0,0.0,0.0,0.0,10.0,0.0,0.0,0.0,10.0
1446038667877068915,386,1446038667871637105,robocape_mag,28.8,-0.15,-30.6,10.0,0.0,0.0,0.0,10.0,0.0,0.0,0.0,10.0
1446038667909472998,387,1446038667904637098,robocape_mag,37.5,17.55,-24.3,10.0,0.0,0.0,0.0,10.0,0.0,0.0,0.0,10.0
1446038667942890290,388,1446038667938080072,robocape_mag,37.5,17.55,-24.3,10.0,0.0,0.0,0.0,10.0,0.0,0.0,0.0,10.0
1446038667976933998,389,1446038667971478939,robocape_mag,37.5,17.55,-24.3,10.0,0.0,0.0,0.0,10.0,0.0,0.0,0.0,10.0
1446038668009472040,390,1446038668004650115,robocape_mag,37.5,17.55,-24.3,10.0,0.0,0.0,0.0,10.0,0.0,0.0,0.0,10.0
1446038668042970873,391,1446038668038113117,robocape_mag,37.5,17.55,-24.3,10.0,0.0,0.0,0.0,10.0,0.0,0.0,0.0,10.0
1446038668079756040,392,1446038668071376085,robocape_mag,25.8,6.45,-32.4,10.0,0.0,0.0,0.0,10.0,0.0,0.0,0.0,10.0
1446038668109598790,393,1446038668104784011,robocape_mag,25.8,6.45,-32.4,10.0,0.0,0.0,0.0,10.0,0.0,0.0,0.0,10.0
1446038668143112540,394,1446038668138302087,robocape_mag,25.8,6.45,-32.4,10.0,0.0,0.0,0.0,10.0,0.0,0.0,0.0,10.0
1446038668177069082,395,1446038668171468019,robocape_mag,25.8,6.45,-32.4,10.0,0.0,0.0,0.0,10.0,0.0,0.0,0.0,10.0
1446038668209588707,396,1446038668204777956,robocape_mag,25.8,6.45,-32.4,10.0,0.0,0.0,0.0,10.0,0.0,0.0,0.0,10.0
1446038668243096540,397,1446038668238332986,robocape_mag,29.4,4.65,-29.4,10.0,0.0,0.0,0.0,10.0,0.0,0.0,0.0,10.0
1446038668276574873,398,1446038668271538972,robocape_mag,29.4,4.65,-29.4,10.0,0.0,0.0,0.0,10.0,0.0,0.0,0.0,10.0
1446038668309644082,399,1446038668304733037,robocape_mag,29.4,4.65,-29.4,10.0,0.0,0.0,0.0,10.0,0.0,0.0,0.0,10.0
1446038668343145290,400,1446038668338314056,robocape_mag,29.4,4.65,-29.4,10.0,0.0,0.0,0.0,10.0,0.0,0.0,0.0,10.0
1446038668384095457,401,1446038668373485088,robocape_mag,29.4,4.65,-29.4,10.0,0.0,0.0,0.0,10.0,0.0,0.0,0.0,10.0
1446038668410180540,402,1446038668405303955,robocape_mag,27.3,7.95,-26.7,10.0,0.0,0.0,0.0,10.0,0.0,0.0,0.0,10.0
1446038668443028332,403,1446038668438031911,robocape_mag,27.3,7.95,-26.7,10.0,0.0,0.0,0.0,10.0,0.0,0.0,0.0,10.0
1446038668476332832,404,1446038668471241950,robocape_mag,27.3,7.95,-26.7,10.0,0.0,0.0,0.0,10.0,0.0,0.0,0.0,10.0
1446038668511353748,405,1446038668504544973,robocape_mag,27.3,7.95,-26.7,10.0,0.0,0.0,0.0,10.0,0.0,0.0,0.0,10.0
1446038668544791040,406,1446038668537946939,robocape_mag,27.3,7.95,-26.7,10.0,0.0,0.0,0.0,10.0,0.0,0.0,0.0,10.0
1446038668576294623,407,1446038668571341037,robocape_mag,36.6,15.45,-9.6,10.0,0.0,0.0,0.0,10.0,0.0,0.0,0.0,10.0
1446038668609611415,408,1446038668604680061,robocape_mag,36.6,15.45,-9.6,10.0,0.0,0.0,0.0,10.0,0.0,0.0,0.0,10.0
1446038668643073123,409,1446038668638022899,robocape_mag,36.6,15.45,-9.6,10.0,0.0,0.0,0.0,10.0,0.0,0.0,0.0,10.0
1446038668676473623,410,1446038668671381950,robocape_mag,36.6,15.45,-9.6,10.0,0.0,0.0,0.0,10.0,0.0,0.0,0.0,10.0
1446038668709652665,411,1446038668704562902,robocape_mag,7.8,10.65,-18.0,10.0,0.0,0.0,0.0,10.0,0.0,0.0,0.0,10.0
1446038668743054873,412,1446038668738151073,robocape_mag,7.8,10.65,-18.0,10.0,0.0,0.0,0.0,10.0,0.0,0.0,0.0,10.0
1446038668776267290,413,1446038668771294116,robocape_mag,7.8,10.65,-18.0,10.0,0.0,0.0,0.0,10.0,0.0,0.0,0.0,10.0
1446038668809517707,414,1446038668804670095,robocape_mag,7.8,10.65,-18.0,10.0,0.0,0.0,0.0,10.0,0.0,0.0,0.0,10.0
1446038668844007832,415,1446038668839210033,robocape_mag,7.8,10.65,-18.0,10.0,0.0,0.0,0.0,10.0,0.0,0.0,0.0,10.0
1446038668877138790,416,1446038668871958017,robocape_mag,12.9,16.35,-3.3,10.0,0.0,0.0,0.0,10.0,0.0,0.0,0.0,10.0
1446038668910468790,417,1446038668905586957,robocape_mag,12.9,16.35,-3.3,10.0,0.0,0.0,0.0,10.0,0.0,0.0,0.0,10.0
1446038668943589624,418,1446038668938667058,robocape_mag,12.9,16.35,-3.3,10.0,0.0,0.0,0.0,10.0,0.0,0.0,0.0,10.0
1446038668976578957,419,1446038668971776962,robocape_mag,12.9,16.35,-3.3,10.0,0.0,0.0,0.0,10.0,0.0,0.0,0.0,10.0
1446038669009873790,420,1446038669004965066,robocape_mag,12.9,16.35,-3.3,10.0,0.0,0.0,0.0,10.0,0.0,0.0,0.0,10.0
1446038669043366207,421,1446038669038407087,robocape_mag,3.6,22.05,-9.6,10.0,0.0,0.0,0.0,10.0,0.0,0.0,0.0,10.0
1446038669076386499,422,1446038669071603059,robocape_mag,3.6,22.05,-9.6,10.0,0.0,0.0,0.0,10.0,0.0,0.0,0.0,10.0
1446038669109573957,423,1446038669104800939,robocape_mag,3.6,22.05,-9.6,10.0,0.0,0.0,0.0,10.0,0.0,0.0,0.0,10.0
1446038669143363874,424,1446038669138483047,robocape_mag,3.6,22.05,-9.6,10.0,0.0,0.0,0.0,10.0,0.0,0.0,0.0,10.0
1446038669176167999,425,1446038669171387910,robocape_mag,3.6,22.05,-9.6,10.0,0.0,0.0,0.0,10.0,0.0,0.0,0.0,10.0
1446038669209410957,426,1446038669204629898,robocape_mag,21.0,12.45,-7.2,10.0,0.0,0.0,0.0,10.0,0.0,0.0,0.0,10.0
1446038669242926749,427,1446038669238147974,robocape_mag,21.0,12.45,-7.2,10.0,0.0,0.0,0.0,10.0,0.0,0.0,0.0,10.0
1446038669276423040,428,1446038669271537065,robocape_mag,21.0,12.45,-7.2,10.0,0.0,0.0,0.0,10.0,0.0,0.0,0.0,10.0
1446038669309389832,429,1446038669304652929,robocape_mag,21.0,12.45,-7.2,10.0,0.0,0.0,0.0,10.0,0.0,0.0,0.0,10.0
1446038669343230957,430,1446038669338402986,robocape_mag,21.0,12.45,-7.2,10.0,0.0,0.0,0.0,10.0,0.0,0.0,0.0,10.0
1446038669381969249,431,1446038669372973918,robocape_mag,27.0,13.65,-6.6,10.0,0.0,0.0,0.0,10.0,0.0,0.0,0.0,10.0
1446038669409907040,432,1446038669405067920,robocape_mag,27.0,13.65,-6.6,10.0,0.0,0.0,0.0,10.0,0.0,0.0,0.0,10.0
1446038669443240374,433,1446038669438256978,robocape_mag,27.0,13.65,-6.6,10.0,0.0,0.0,0.0,10.0,0.0,0.0,0.0,10.0
1446038669476572915,434,1446038669471780061,robocape_mag,27.0,13.65,-6.6,10.0,0.0,0.0,0.0,10.0,0.0,0.0,0.0,10.0
1446038669509472874,435,1446038669504648923,robocape_mag,19.8,11.85,-18.0,10.0,0.0,0.0,0.0,10.0,0.0,0.0,0.0,10.0
1446038669543389749,436,1446038669538410902,robocape_mag,19.8,11.85,-18.0,10.0,0.0,0.0,0.0,10.0,0.0,0.0,0.0,10.0
1446038669576240082,437,1446038669571316957,robocape_mag,19.8,11.85,-18.0,10.0,0.0,0.0,0.0,10.0,0.0,0.0,0.0,10.0
1446038669609479791,438,1446038669604693889,robocape_mag,19.8,11.85,-18.0,10.0,0.0,0.0,0.0,10.0,0.0,0.0,0.0,10.0
1446038669643860082,439,1446038669638103961,robocape_mag,19.8,11.85,-18.0,10.0,0.0,0.0,0.0,10.0,0.0,0.0,0.0,10.0
1446038669676946041,440,1446038669671375036,robocape_mag,31.5,16.95,-9.3,10.0,0.0,0.0,0.0,10.0,0.0,0.0,0.0,10.0
1446038669709788416,441,1446038669704574108,robocape_mag,31.5,16.95,-9.3,10.0,0.0,0.0,0.0,10.0,0.0,0.0,0.0,10.0
1446038669746870041,442,1446038669738127946,robocape_mag,31.5,16.95,-9.3,10.0,0.0,0.0,0.0,10.0,0.0,0.0,0.0,10.0
1446038669777186249,443,1446038669771367073,robocape_mag,31.5,16.95,-9.3,10.0,0.0,0.0,0.0,10.0,0.0,0.0,0.0,10.0
1446038669810126582,444,1446038669804744005,robocape_mag,31.5,16.95,-9.3,10.0,0.0,0.0,0.0,10.0,0.0,0.0,0.0,10.0
1446038669845297916,445,1446038669838135957,robocape_mag,24.3,13.95,-11.1,10.0,0.0,0.0,0.0,10.0,0.0,0.0,0.0,10.0
1446038669876952874,446,1446038669871313095,robocape_mag,24.3,13.95,-11.1,10.0,0.0,0.0,0.0,10.0,0.0,0.0,0.0,10.0
1446038669909500707,447,1446038669904512882,robocape_mag,24.3,13.95,-11.1,10.0,0.0,0.0,0.0,10.0,0.0,0.0,0.0,10.0
1446038669944978791,448,1446038669938010931,robocape_mag,24.3,13.95,-11.1,10.0,0.0,0.0,0.0,10.0,0.0,0.0,0.0,10.0
1446038669976567041,449,1446038669971450090,robocape_mag,24.3,13.95,-11.1,10.0,0.0,0.0,0.0,10.0,0.0,0.0,0.0,10.0
1446038670009572082,450,1446038670004735946,robocape_mag,9.3,13.95,-16.5,10.0,0.0,0.0,0.0,10.0,0.0,0.0,0.0,10.0
1446038670043413416,451,1446038670038197040,robocape_mag,9.3,13.95,-16.5,10.0,0.0,0.0,0.0,10.0,0.0,0.0,0.0,10.0
1446038670076639707,452,1446038670071696043,robocape_mag,9.3,13.95,-16.5,10.0,0.0,0.0,0.0,10.0,0.0,0.0,0.0,10.0
1446038670109654791,453,1446038670104851961,robocape_mag,9.3,13.95,-16.5,10.0,0.0,0.0,0.0,10.0,0.0,0.0,0.0,10.0
1446038670144067332,454,1446038670138212919,robocape_mag,9.3,13.95,-16.5,10.0,0.0,0.0,0.0,10.0,0.0,0.0,0.0,10.0
1446038670177862791,455,1446038670172920942,robocape_mag,9.0,18.45,-4.2,10.0,0.0,0.0,0.0,10.0,0.0,0.0,0.0,10.0
1446038670210081874,456,1446038670205023050,robocape_mag,9.0,18.45,-4.2,10.0,0.0,0.0,0.0,10.0,0.0,0.0,0.0,10.0
1446038670244656291,457,1446038670239500999,robocape_mag,9.0,18.45,-4.2,10.0,0.0,0.0,0.0,10.0,0.0,0.0,0.0,10.0
1446038670276861874,458,1446038670271886110,robocape_mag,9.0,18.45,-4.2,10.0,0.0,0.0,0.0,10.0,0.0,0.0,0.0,10.0
1446038670310856416,459,1446038670306062936,robocape_mag,-4.2,22.05,-7.8,10.0,0.0,0.0,0.0,10.0,0.0,0.0,0.0,10.0
1446038670344686249,460,1446038670339531898,robocape_mag,-4.2,22.05,-7.8,10.0,0.0,0.0,0.0,10.0,0.0,0.0,0.0,10.0
1446038670384420499,461,1446038670374738931,robocape_mag,-4.2,22.05,-7.8,10.0,0.0,0.0,0.0,10.0,0.0,0.0,0.0,10.0
1446038670410230249,462,1446038670405426025,robocape_mag,-4.2,22.05,-7.8,10.0,0.0,0.0,0.0,10.0,0.0,0.0,0.0,10.0
1446038670449172833,463,1446038670441749095,robocape_mag,-4.2,22.05,-7.8,10.0,0.0,0.0,0.0,10.0,0.0,0.0,0.0,10.0
1446038670480717583,464,1446038670474168062,robocape_mag,-8.7,19.95,-9.3,10.0,0.0,0.0,0.0,10.0,0.0,0.0,0.0,10.0
1446038670513386999,465,1446038670506448984,robocape_mag,-8.7,19.95,-9.3,10.0,0.0,0.0,0.0,10.0,0.0,0.0,0.0,10.0
1446038670547759666,466,1446038670540761947,robocape_mag,-8.7,19.95,-9.3,10.0,0.0,0.0,0.0,10.0,0.0,0.0,0.0,10.0
1446038670580561708,467,1446038670574424028,robocape_mag,-8.7,19.95,-9.3,10.0,0.0,0.0,0.0,10.0,0.0,0.0,0.0,10.0
1446038670617176333,468,1446038670607553958,robocape_mag,-8.7,19.95,-9.3,10.0,0.0,0.0,0.0,10.0,0.0,0.0,0.0,10.0
1446038670651717916,469,1446038670642014026,robocape_mag,-6.6,12.45,-16.2,10.0,0.0,0.0,0.0,10.0,0.0,0.0,0.0,10.0
1446038670680630041,470,1446038670675421953,robocape_mag,-6.6,12.45,-16.2,10.0,0.0,0.0,0.0,10.0,0.0,0.0,0.0,10.0
1446038670712859666,471,1446038670707783937,robocape_mag,-6.6,12.45,-16.2,10.0,0.0,0.0,0.0,10.0,0.0,0.0,0.0,10.0
1446038670747760499,472,1446038670741127014,robocape_mag,-6.6,12.45,-16.2,10.0,0.0,0.0,0.0,10.0,0.0,0.0,0.0,10.0
1446038670780520874,473,1446038670775083065,robocape_mag,-6.6,12.45,-16.2,10.0,0.0,0.0,0.0,10.0,0.0,0.0,0.0,10.0
1446038670813696249,474,1446038670808713912,robocape_mag,-4.8,10.05,-16.8,10.0,0.0,0.0,0.0,10.0,0.0,0.0,0.0,10.0
1446038670847989791,475,1446038670841788053,robocape_mag,-4.8,10.05,-16.8,10.0,0.0,0.0,0.0,10.0,0.0,0.0,0.0,10.0
1446038670879775041,476,1446038670874630928,robocape_mag,-4.8,10.05,-16.8,10.0,0.0,0.0,0.0,10.0,0.0,0.0,0.0,10.0
1446038670911732749,477,1446038670906491041,robocape_mag,-4.8,10.05,-16.8,10.0,0.0,0.0,0.0,10.0,0.0,0.0,0.0,10.0
1446038670946084541,478,1446038670941056013,robocape_mag,-4.8,13.35,-3.3,10.0,0.0,0.0,0.0,10.0,0.0,0.0,0.0,10.0
1446038670979107500,479,1446038670974260091,robocape_mag,-2.7,13.35,-3.3,10.0,0.0,0.0,0.0,10.0,0.0,0.0,0.0,10.0
1446038671011671458,480,1446038671006762981,robocape_mag,-2.7,13.35,-3.3,10.0,0.0,0.0,0.0,10.0,0.0,0.0,0.0,10.0
1446038671046105000,481,1446038671041085004,robocape_mag,-2.7,13.35,-3.3,10.0,0.0,0.0,0.0,10.0,0.0,0.0,0.0,10.0
1446038671082104583,482,1446038671073796033,robocape_mag,-2.7,13.35,-3.3,10.0,0.0,0.0,0.0,10.0,0.0,0.0,0.0,10.0
1446038671111895208,483,1446038671107085943,robocape_mag,-0.9,11.55,-2.7,10.0,0.0,0.0,0.0,10.0,0.0,0.0,0.0,10.0
1446038671144703291,484,1446038671139892101,robocape_mag,-0.9,11.55,-2.7,10.0,0.0,0.0,0.0,10.0,0.0,0.0,0.0,10.0
1446038671177360250,485,1446038671172489881,robocape_mag,-0.9,11.55,-2.7,10.0,0.0,0.0,0.0,10.0,0.0,0.0,0.0,10.0
1446038671210602958,486,1446038671205641031,robocape_mag,-0.9,11.55,-2.7,10.0,0.0,0.0,0.0,10.0,0.0,0.0,0.0,10.0
1446038671243963333,487,1446038671239083051,robocape_mag,-0.9,11.55,-2.7,10.0,0.0,0.0,0.0,10.0,0.0,0.0,0.0,10.0
1446038671276946625,488,1446038671272042036,robocape_mag,-2.7,6.15,-12.9,10.0,0.0,0.0,0.0,10.0,0.0,0.0,0.0,10.0
1446038671309842458,489,1446038671304986000,robocape_mag,-2.7,6.15,-12.9,10.0,0.0,0.0,0.0,10.0,0.0,0.0,0.0,10.0
1446038671343334208,490,1446038671338464021,robocape_mag,-2.7,6.15,-12.9,10.0,0.0,0.0,0.0,10.0,0.0,0.0,0.0,10.0
1446038671383351083,491,1446038671373040914,robocape_mag,-2.7,6.15,-12.9,10.0,0.0,0.0,0.0,10.0,0.0,0.0,0.0,10.0
1446038671411415166,492,1446038671406536102,robocape_mag,-2.7,6.15,-12.9,10.0,0.0,0.0,0.0,10.0,0.0,0.0,0.0,10.0
1446038671443188916,493,1446038671438255071,robocape_mag,4.2,10.05,-14.4,10.0,0.0,0.0,0.0,10.0,0.0,0.0,0.0,10.0
1446038671476325125,494,1446038671471476078,robocape_mag,4.2,10.05,-14.4,10.0,0.0,0.0,0.0,10.0,0.0,0.0,0.0,10.0
1446038671509439083,495,1446038671504652976,robocape_mag,4.2,10.05,-14.4,10.0,0.0,0.0,0.0,10.0,0.0,0.0,0.0,10.0
1446038671543131666,496,1446038671538199901,robocape_mag,4.2,10.05,-14.4,10.0,0.0,0.0,0.0,10.0,0.0,0.0,0.0,10.0
1446038671576226916,497,1446038671571427106,robocape_mag,4.2,10.05,-14.4,10.0,0.0,0.0,0.0,10.0,0.0,0.0,0.0,10.0
1446038671609609625,498,1446038671604784965,robocape_mag,20.1,11.55,-7.5,10.0,0.0,0.0,0.0,10.0,0.0,0.0,0.0,10.0
1446038671643162500,499,1446038671638379096,robocape_mag,20.1,11.55,-7.5,10.0,0.0,0.0,0.0,10.0,0.0,0.0,0.0,10.0
1446038671676916042,500,1446038671672075986,robocape_mag,20.1,11.55,-7.5,10.0,0.0,0.0,0.0,10.0,0.0,0.0,0.0,10.0
1446038671709422583,501,1446038671704643011,robocape_mag,20.1,11.55,-7.5,10.0,0.0,0.0,0.0,10.0,0.0,0.0,0.0,10.0
1446038671749222250,502,1446038671740581035,robocape_mag,20.1,11.55,-11.7,10.0,0.0,0.0,0.0,10.0,0.0,0.0,0.0,10.0
1446038671780481042,503,1446038671773417949,robocape_mag,24.3,6.75,-11.7,10.0,0.0,0.0,0.0,10.0,0.0,0.0,0.0,10.0
1446038671813395917,504,1446038671808095932,robocape_mag,24.3,6.75,-11.7,10.0,0.0,0.0,0.0,10.0,0.0,0.0,0.0,10.0
1446038671850256667,505,1446038671841881990,robocape_mag,24.3,6.75,-11.7,10.0,0.0,0.0,0.0,10.0,0.0,0.0,0.0,10.0
1446038671881937833,506,1446038671874654054,robocape_mag,24.3,6.75,-11.7,10.0,0.0,0.0,0.0,10.0,0.0,0.0,0.0,10.0
1446038671913062000,507,1446038671907887935,robocape_mag,26.1,5.55,-17.7,10.0,0.0,0.0,0.0,10.0,0.0,0.0,0.0,10.0
1446038671947440083,508,1446038671942348003,robocape_mag,26.1,5.55,-17.7,10.0,0.0,0.0,0.0,10.0,0.0,0.0,0.0,10.0
1446038671982565042,509,1446038671975495100,robocape_mag,26.1,5.55,-17.7,10.0,0.0,0.0,0.0,10.0,0.0,0.0,0.0,10.0
1446038672012444708,510,1446038672007287025,robocape_mag,26.1,5.55,-17.7,10.0,0.0,0.0,0.0,10.0,0.0,0.0,0.0,10.0
1446038672045795167,511,1446038672040623903,robocape_mag,26.1,5.55,-17.7,10.0,0.0,0.0,0.0,10.0,0.0,0.0,0.0,10.0
1446038672079401458,512,1446038672074455022,robocape_mag,26.7,7.95,-10.5,10.0,0.0,0.0,0.0,10.0,0.0,0.0,0.0,10.0
1446038672112671583,513,1446038672107778072,robocape_mag,26.7,7.95,-10.5,10.0,0.0,0.0,0.0,10.0,0.0,0.0,0.0,10.0
1446038672145387792,514,1446038672140532016,robocape_mag,26.7,7.95,-10.5,10.0,0.0,0.0,0.0,10.0,0.0,0.0,0.0,10.0
1446038672178863583,515,1446038672173939943,robocape_mag,26.7,7.95,-10.5,10.0,0.0,0.0,0.0,10.0,0.0,0.0,0.0,10.0
1446038672212149625,516,1446038672207273006,robocape_mag,26.7,7.95,-10.5,10.0,0.0,0.0,0.0,10.0,0.0,0.0,0.0,10.0
1446038672245090125,517,1446038672240298986,robocape_mag,18.3,6.75,-11.7,10.0,0.0,0.0,0.0,10.0,0.0,0.0,0.0,10.0
1446038672278190417,518,1446038672273384094,robocape_mag,18.3,6.75,-11.7,10.0,0.0,0.0,0.0,10.0,0.0,0.0,0.0,10.0
1446038672310904083,519,1446038672306097030,robocape_mag,18.3,6.75,-11.7,10.0,0.0,0.0,0.0,10.0,0.0,0.0,0.0,10.0
1446038672343823125,520,1446038672338926076,robocape_mag,18.3,6.75,-11.7,10.0,0.0,0.0,0.0,10.0,0.0,0.0,0.0,10.0
1446038672382225667,521,1446038672374772071,robocape_mag,18.3,6.75,-11.7,10.0,0.0,0.0,0.0,10.0,0.0,0.0,0.0,10.0
1446038672412361292,522,1446038672407536983,robocape_mag,16.8,6.45,-13.8,10.0,0.0,0.0,0.0,10.0,0.0,0.0,0.0,10.0
1446038672443802334,523,1446038672438731908,robocape_mag,16.8,6.45,-13.8,10.0,0.0,0.0,0.0,10.0,0.0,0.0,0.0,10.0
1446038672476647042,524,1446038672471621036,robocape_mag,16.8,6.45,-13.8,10.0,0.0,0.0,0.0,10.0,0.0,0.0,0.0,10.0
1446038672510468375,525,1446038672505611896,robocape_mag,16.8,6.45,-13.8,10.0,0.0,0.0,0.0,10.0,0.0,0.0,0.0,10.0
1446038672543282625,526,1446038672538208961,robocape_mag,16.8,6.45,-13.8,10.0,0.0,0.0,0.0,10.0,0.0,0.0,0.0,10.0
1446038672576597584,527,1446038672571670055,robocape_mag,15.3,9.75,-5.1,10.0,0.0,0.0,0.0,10.0,0.0,0.0,0.0,10.0
1446038672609680542,528,1446038672604790925,robocape_mag,15.3,9.75,-5.1,10.0,0.0,0.0,0.0,10.0,0.0,0.0,0.0,10.0
1446038672643002250,529,1446038672638112068,robocape_mag,15.3,9.75,-5.1,10.0,0.0,0.0,0.0,10.0,0.0,0.0,0.0,10.0
1446038672676404834,530,1446038672671459913,robocape_mag,15.3,9.75,-5.1,10.0,0.0,0.0,0.0,10.0,0.0,0.0,0.0,10.0
1446038672709427375,531,1446038672704622030,robocape_mag,21.0,10.65,-4.8,10.0,0.0,0.0,0.0,10.0,0.0,0.0,0.0,10.0
