%time,field.header.seq,field.header.stamp,field.header.frame_id,field.magnetic_field.x,field.magnetic_field.y,field.magnetic_field.z,field.magnetic_field_covariance0,field.magnetic_field_covariance1,field.magnetic_field_covariance2,field.magnetic_field_covariance3,field.magnetic_field_covariance4,field.magnetic_field_covariance5,field.magnetic_field_covariance6,field.magnetic_field_covariance7,field.magnetic_field_covariance8
1446035729687209006,1,1446035729626513957,robocape_mag,7.54999151451,26.9556903806,-28.9445472132,10.0,0.0,0.0,0.0,10.0,0.0,0.0,0.0,10.0
1446035729688257547,2,1446035729655832052,robocape_mag,7.54999151451,26.9556903806,-28.9445472132,10.0,0.0,0.0,0.0,10.0,0.0,0.0,0.0,10.0
1446035729688379381,3,1446035729679372072,robocape_mag,7.54999151451,26.9556903806,-28.9445472132,10.0,0.0,0.0,0.0,10.0,0.0,0.0,0.0,10.0
1446035729734941839,4,1446035729707638025,robocape_mag,7.54999151451,26.9556903806,-28.9445472132,10.0,0.0,0.0,0.0,10.0,0.0,0.0,0.0,10.0
1446035729745225256,5,1446035729742008924,robocape_mag,7.54999151451,26.9556903806,-28.9445472132,10.0,0.0,0.0,0.0,10.0,0.0,0.0,0.0,10.0
1446035729773633797,6,1446035729769903898,robocape_mag,7.54999151451,26.9556903806,-28.9445472132,10.0,0.0,0.0,0.0,10.0,0.0,0.0,0.0,10.0
1446035729806771672,7,1446035729803194999,robocape_mag,7.53309315598,26.9557642566,-28.9432921404,10.0,0.0,0.0,0.0,10.0,0.0,0.0,0.0,10.0
1446035729844737797,8,1446035729841587066,robocape_mag,7.53309315598,26.9557642566,-28.9432921404,10.0,0.0,0.0,0.0,10.0,0.0,0.0,0.0,10.0
1446035729873529506,9,1446035729869716882,robocape_mag,7.53309315598,26.9557642566,-28.9432921404,10.0,0.0,0.0,0.0,10.0,0.0,0.0,0.0,10.0
1446035729906778547,10,1446035729903045892,robocape_mag,7.53309315598,26.9557642566,-28.9432921404,10.0,0.0,0.0,0.0,10.0,0.0,0.0,0.0,10.0
1446035729942692256,11,1446035729938261985,robocape_mag,7.53309315598,26.9557642566,-28.9432921404,10.0,0.0,0.0,0.0,10.0,0.0,0.0,0.0,10.0
1446035729973828214,12,1446035729970074892,robocape_mag,7.53863984433,26.9606431802,-28.9372824685,10.0,0.0,0.0,0.0,10.0,0.0,0.0,0.0,10.0
1446035730006779714,13,1446035730003168106,robocape_mag,7.53863984433,26.9606431802,-28.9372824685,10.0,0.0,0.0,0.0,10.0,0.0,0.0,0.0,10.0
1446035730041603131,14,1446035730037580013,robocape_mag,7.53863984433,26.9606431802,-28.9372824685,10.0,0.0,0.0,0.0,10.0,0.0,0.0,0.0,10.0
1446035730073456797,15,1446035730069777965,robocape_mag,7.53863984433,26.9606431802,-28.9372824685,10.0,0.0,0.0,0.0,10.0,0.0,0.0,0.0,10.0
1446035730106741172,16,1446035730103118896,robocape_mag,7.53863984433,26.9606431802,-28.9372824685,10.0,0.0,0.0,0.0,10.0,0.0,0.0,0.0,10.0
1446035730141019672,17,1446035730137099981,robocape_mag,7.54551040992,26.9535678264,-28.9469870686,10.0,0.0,0.0,0.0,10.0,0.0,0.0,0.0,10.0
1446035730174999172,18,1446035730171119928,robocape_mag,7.54551040992,26.9535678264,-28.9469870686,10.0,0.0,0.0,0.0,10.0,0.0,0.0,0.0,10.0
1446035730206728589,19,1446035730203233003,robocape_mag,7.54551040992,26.9535678264,-28.9469870686,10.0,0.0,0.0,0.0,10.0,0.0,0.0,0.0,10.0
1446035730240122089,20,1446035730236745119,robocape_mag,7.54551040992,26.9535678264,-28.9469870686,10.0,0.0,0.0,0.0,10.0,0.0,0.0,0.0,10.0
1446035730275793464,21,1446035730271682977,robocape_mag,7.52277289952,26.9529485167,-28.9465181626,10.0,0.0,0.0,0.0,10.0,0.0,0.0,0.0,10.0
1446035730306608922,22,1446035730303108930,robocape_mag,7.52277289952,26.9529485167,-28.9465181626,10.0,0.0,0.0,0.0,10.0,0.0,0.0,0.0,10.0
1446035730340073923,23,1446035730336618900,robocape_mag,7.52277289952,26.9529485167,-28.9465181626,10.0,0.0,0.0,0.0,10.0,0.0,0.0,0.0,10.0
1446035730375546548,24,1446035730371643066,robocape_mag,7.52277289952,26.9529485167,-28.9465181626,10.0,0.0,0.0,0.0,10.0,0.0,0.0,0.0,10.0
1446035730406629506,25,1446035730403101921,robocape_mag,7.52277289952,26.9529485167,-28.9465181626,10.0,0.0,0.0,0.0,10.0,0.0,0.0,0.0,10.0
1446035730440219381,26,1446035730436634063,robocape_mag,7.54601654592,26.9677187193,-28.92877663,10.0,0.0,0.0,0.0,10.0,0.0,0.0,0.0,10.0
1446035730477657339,27,1446035730474102973,robocape_mag,7.54601654592,26.9677187193,-28.92877663,10.0,0.0,0.0,0.0,10.0,0.0,0.0,0.0,10.0
1446035730506988714,28,1446035730503482103,robocape_mag,7.54601654592,26.9677187193,-28.92877663,10.0,0.0,0.0,0.0,10.0,0.0,0.0,0.0,10.0
1446035730540207131,29,1446035730536609888,robocape_mag,7.54601654592,26.9677187193,-28.92877663,10.0,0.0,0.0,0.0,10.0,0.0,0.0,0.0,10.0
1446035730578120964,30,1446035730574371099,robocape_mag,7.54601654592,26.9677187193,-28.92877663,10.0,0.0,0.0,0.0,10.0,0.0,0.0,0.0,10.0
1446035730606551714,31,1446035730603069067,robocape_mag,7.55009052302,26.9652484727,-28.9322168828,10.0,0.0,0.0,0.0,10.0,0.0,0.0,0.0,10.0
1446035730640115256,32,1446035730636612892,robocape_mag,7.55009052302,26.9652484727,-28.9322168828,10.0,0.0,0.0,0.0,10.0,0.0,0.0,0.0,10.0
1446035730680525089,33,1446035730673696994,robocape_mag,7.55009052302,26.9652484727,-28.9322168828,10.0,0.0,0.0,0.0,10.0,0.0,0.0,0.0,10.0
1446035730706651839,34,1446035730703212022,robocape_mag,7.55009052302,26.9652484727,-28.9322168828,10.0,0.0,0.0,0.0,10.0,0.0,0.0,0.0,10.0
1446035730740366048,35,1446035730736901998,robocape_mag,7.55009052302,26.9652484727,-28.9322168828,10.0,0.0,0.0,0.0,10.0,0.0,0.0,0.0,10.0
1446035730777607381,36,1446035730773706912,robocape_mag,7.53344708166,26.9695680946,-28.9256544757,10.0,0.0,0.0,0.0,10.0,0.0,0.0,0.0,10.0
1446035730807168964,37,1446035730803545951,robocape_mag,7.53344708166,26.9695680946,-28.9256544757,10.0,0.0,0.0,0.0,10.0,0.0,0.0,0.0,10.0
1446035730840201506,38,1446035730836505889,robocape_mag,7.53344708166,26.9695680946,-28.9256544757,10.0,0.0,0.0,0.0,10.0,0.0,0.0,0.0,10.0
1446035730876854714,39,1446035730873217105,robocape_mag,7.53344708166,26.9695680946,-28.9256544757,10.0,0.0,0.0,0.0,10.0,0.0,0.0,0.0,10.0
1446035730906781923,40,1446035730903024911,robocape_mag,7.53344708166,26.9695680946,-28.9256544757,10.0,0.0,0.0,0.0,10.0,0.0,0.0,0.0,10.0
1446035730940203631,41,1446035730936377048,robocape_mag,7.52804434062,26.9591495944,-28.9386333744,10.0,0.0,0.0,0.0,10.0,0.0,0.0,0.0,10.0
1446035730976183631,42,1446035730972431898,robocape_mag,7.52804434062,26.9591495944,-28.9386333744,10.0,0.0,0.0,0.0,10.0,0.0,0.0,0.0,10.0
1446035731006725756,43,1446035731003000974,robocape_mag,7.52804434062,26.9591495944,-28.9386333744,10.0,0.0,0.0,0.0,10.0,0.0,0.0,0.0,10.0
1446035731040200923,44,1446035731036397933,robocape_mag,7.52804434062,26.9591495944,-28.9386333744,10.0,0.0,0.0,0.0,10.0,0.0,0.0,0.0,10.0
1446035731075717673,45,1446035731072211027,robocape_mag,7.55009052302,26.9652484727,-28.9322168828,10.0,0.0,0.0,0.0,10.0,0.0,0.0,0.0,10.0
1446035731106640173,46,1446035731103117942,robocape_mag,7.55009052302,26.9652484727,-28.9322168828,10.0,0.0,0.0,0.0,10.0,0.0,0.0,0.0,10.0
1446035731139940881,47,1446035731136488914,robocape_mag,7.55009052302,26.9652484727,-28.9322168828,10.0,0.0,0.0,0.0,10.0,0.0,0.0,0.0,10.0
1446035731174295256,48,1446035731170641899,robocape_mag,7.55009052302,26.9652484727,-28.9322168828,10.0,0.0,0.0,0.0,10.0,0.0,0.0,0.0,10.0
1446035731206750381,49,1446035731203310012,robocape_mag,7.55009052302,26.9652484727,-28.9322168828,10.0,0.0,0.0,0.0,10.0,0.0,0.0,0.0,10.0
1446035731239992881,50,1446035731236540079,robocape_mag,7.55510164609,26.9565362963,-28.943881893,10.0,0.0,0.0,0.0,10.0,0.0,0.0,0.0,10.0
1446035731273916340,51,1446035731270205974,robocape_mag,7.55510164609,26.9565362963,-28.943881893,10.0,0.0,0.0,0.0,10.0,0.0,0.0,0.0,10.0
1446035731307456173,52,1446035731303312063,robocape_mag,7.55510164609,26.9565362963,-28.943881893,10.0,0.0,0.0,0.0,10.0,0.0,0.0,0.0,10.0
1446035731340128256,53,1446035731336520910,robocape_mag,7.55510164609,26.9565362963,-28.943881893,10.0,0.0,0.0,0.0,10.0,0.0,0.0,0.0,10.0
1446035731373340256,54,1446035731369713068,robocape_mag,7.55510164609,26.9565362963,-28.943881893,10.0,0.0,0.0,0.0,10.0,0.0,0.0,0.0,10.0
1446035731408661631,55,1446035731404948949,robocape_mag,7.52168666829,26.9475932734,-28.9536166221,10.0,0.0,0.0,0.0,10.0,0.0,0.0,0.0,10.0
1446035731440270090,56,1446035731436583995,robocape_mag,7.52168666829,26.9475932734,-28.9536166221,10.0,0.0,0.0,0.0,10.0,0.0,0.0,0.0,10.0
1446035731473710673,57,1446035731470031976,robocape_mag,7.52168666829,26.9475932734,-28.9536166221,10.0,0.0,0.0,0.0,10.0,0.0,0.0,0.0,10.0
1446035731511356798,58,1446035731507330894,robocape_mag,7.52168666829,26.9475932734,-28.9536166221,10.0,0.0,0.0,0.0,10.0,0.0,0.0,0.0,10.0
1446035731540070423,59,1446035731536449909,robocape_mag,7.52168666829,26.9475932734,-28.9536166221,10.0,0.0,0.0,0.0,10.0,0.0,0.0,0.0,10.0
1446035731573454631,60,1446035731569849967,robocape_mag,7.55634361698,26.9499206389,-28.95275766,10.0,0.0,0.0,0.0,10.0,0.0,0.0,0.0,10.0
1446035731612400548,61,1446035731607923030,robocape_mag,7.55634361698,26.9499206389,-28.95275766,10.0,0.0,0.0,0.0,10.0,0.0,0.0,0.0,10.0
1446035731639951715,62,1446035731636523008,robocape_mag,7.55634361698,26.9499206389,-28.95275766,10.0,0.0,0.0,0.0,10.0,0.0,0.0,0.0,10.0
1446035731679176215,63,1446035731669891119,robocape_mag,7.55634361698,26.9499206389,-28.95275766,10.0,0.0,0.0,0.0,10.0,0.0,0.0,0.0,10.0
1446035731712306090,64,1446035731708436965,robocape_mag,7.55563976584,26.9654793016,-28.9323985992,10.0,0.0,0.0,0.0,10.0,0.0,0.0,0.0,10.0
1446035731739986548,65,1446035731736582040,robocape_mag,7.5278522359,26.9645669477,-28.9316803631,10.0,0.0,0.0,0.0,10.0,0.0,0.0,0.0,10.0
1446035731773259923,66,1446035731769807100,robocape_mag,7.5278522359,26.9645669477,-28.9316803631,10.0,0.0,0.0,0.0,10.0,0.0,0.0,0.0,10.0
1446035731811608757,67,1446035731807296037,robocape_mag,7.5278522359,26.9645669477,-28.9316803631,10.0,0.0,0.0,0.0,10.0,0.0,0.0,0.0,10.0
1446035731840095215,68,1446035731836488962,robocape_mag,7.5278522359,26.9645669477,-28.9316803631,10.0,0.0,0.0,0.0,10.0,0.0,0.0,0.0,10.0
1446035731873198257,69,1446035731869692087,robocape_mag,7.53871068036,26.9702562955,-28.925099017,10.0,0.0,0.0,0.0,10.0,0.0,0.0,0.0,10.0
1446035731911279715,70,1446035731907589912,robocape_mag,7.53871068036,26.9702562955,-28.925099017,10.0,0.0,0.0,0.0,10.0,0.0,0.0,0.0,10.0
1446035731940279340,71,1446035731936563014,robocape_mag,7.53871068036,26.9702562955,-28.925099017,10.0,0.0,0.0,0.0,10.0,0.0,0.0,0.0,10.0
1446035731975586757,72,1446035731971647977,robocape_mag,7.53871068036,26.9702562955,-28.925099017,10.0,0.0,0.0,0.0,10.0,0.0,0.0,0.0,10.0
1446035732010320215,73,1446035732006660938,robocape_mag,7.53871068036,26.9702562955,-28.925099017,10.0,0.0,0.0,0.0,10.0,0.0,0.0,0.0,10.0
1446035732040343132,74,1446035732036355972,robocape_mag,7.52823687308,26.9537201791,-28.9457309161,10.0,0.0,0.0,0.0,10.0,0.0,0.0,0.0,10.0
1446035732073576715,75,1446035732069802045,robocape_mag,7.52823687308,26.9537201791,-28.9457309161,10.0,0.0,0.0,0.0,10.0,0.0,0.0,0.0,10.0
1446035732110044215,76,1446035732106573104,robocape_mag,7.52823687308,26.9537201791,-28.9457309161,10.0,0.0,0.0,0.0,10.0,0.0,0.0,0.0,10.0
1446035732140170257,77,1446035732136570930,robocape_mag,7.52823687308,26.9537201791,-28.9457309161,10.0,0.0,0.0,0.0,10.0,0.0,0.0,0.0,10.0
1446035732173352632,78,1446035732169682025,robocape_mag,7.52823687308,26.9537201791,-28.9457309161,10.0,0.0,0.0,0.0,10.0,0.0,0.0,0.0,10.0
1446035732209175007,79,1446035732205670118,robocape_mag,7.56665843774,26.9612084868,-28.9389643207,10.0,0.0,0.0,0.0,10.0,0.0,0.0,0.0,10.0
1446035732240095382,80,1446035732236547946,robocape_mag,7.56665843774,26.9612084868,-28.9389643207,10.0,0.0,0.0,0.0,10.0,0.0,0.0,0.0,10.0
1446035732273194673,81,1446035732269742012,robocape_mag,7.56665843774,26.9612084868,-28.9389643207,10.0,0.0,0.0,0.0,10.0,0.0,0.0,0.0,10.0
1446035732308408007,82,1446035732304667949,robocape_mag,7.56665843774,26.9612084868,-28.9389643207,10.0,0.0,0.0,0.0,10.0,0.0,0.0,0.0,10.0
1446035732340211173,83,1446035732336561918,robocape_mag,7.56665843774,26.9612084868,-28.9389643207,10.0,0.0,0.0,0.0,10.0,0.0,0.0,0.0,10.0
1446035732373218465,84,1446035732369712114,robocape_mag,7.50551259205,26.9506741528,-28.9491274666,10.0,0.0,0.0,0.0,10.0,0.0,0.0,0.0,10.0
1446035732407766757,85,1446035732404263973,robocape_mag,7.50551259205,26.9506741528,-28.9491274666,10.0,0.0,0.0,0.0,10.0,0.0,0.0,0.0,10.0
1446035732441875465,86,1446035732436547040,robocape_mag,7.50551259205,26.9506741528,-28.9491274666,10.0,0.0,0.0,0.0,10.0,0.0,0.0,0.0,10.0
1446035732473310424,87,1446035732469816923,robocape_mag,7.50551259205,26.9506741528,-28.9491274666,10.0,0.0,0.0,0.0,10.0,0.0,0.0,0.0,10.0
1446035732507038049,88,1446035732503529071,robocape_mag,7.50551259205,26.9506741528,-28.9491274666,10.0,0.0,0.0,0.0,10.0,0.0,0.0,0.0,10.0
1446035732542647049,89,1446035732538093090,robocape_mag,7.55697288963,26.9637741231,-28.934692792,10.0,0.0,0.0,0.0,10.0,0.0,0.0,0.0,10.0
1446035732573339799,90,1446035732569809913,robocape_mag,7.55697288963,26.9637741231,-28.934692792,10.0,0.0,0.0,0.0,10.0,0.0,0.0,0.0,10.0
1446035732606790382,91,1446035732603334903,robocape_mag,7.55697288963,26.9637741231,-28.934692792,10.0,0.0,0.0,0.0,10.0,0.0,0.0,0.0,10.0
1446035732642267882,92,1446035732638477087,robocape_mag,7.55697288963,26.9637741231,-28.934692792,10.0,0.0,0.0,0.0,10.0,0.0,0.0,0.0,10.0
1446035732679253049,93,1446035732669718980,robocape_mag,7.54449390962,26.9602331043,-28.9382087428,10.0,0.0,0.0,0.0,10.0,0.0,0.0,0.0,10.0
1446035732706969299,94,1446035732703545093,robocape_mag,7.54449390962,26.9602331043,-28.9382087428,10.0,0.0,0.0,0.0,10.0,0.0,0.0,0.0,10.0
1446035732744838590,95,1446035732740694999,robocape_mag,7.54449390962,26.9602331043,-28.9382087428,10.0,0.0,0.0,0.0,10.0,0.0,0.0,0.0,10.0
1446035732773264674,96,1446035732769821882,robocape_mag,7.54449390962,26.9602331043,-28.9382087428,10.0,0.0,0.0,0.0,10.0,0.0,0.0,0.0,10.0
1446035732807056465,97,1446035732803304910,robocape_mag,7.54449390962,26.9602331043,-28.9382087428,10.0,0.0,0.0,0.0,10.0,0.0,0.0,0.0,10.0
1446035732842890674,98,1446035732837884902,robocape_mag,7.53978621598,26.9485919353,-28.9532067603,10.0,0.0,0.0,0.0,10.0,0.0,0.0,0.0,10.0
1446035732873440424,99,1446035732869951963,robocape_mag,7.53978621598,26.9485919353,-28.9532067603,10.0,0.0,0.0,0.0,10.0,0.0,0.0,0.0,10.0
1446035732906713924,100,1446035732903160095,robocape_mag,7.53978621598,26.9485919353,-28.9532067603,10.0,0.0,0.0,0.0,10.0,0.0,0.0,0.0,10.0
1446035732945654257,101,1446035732941276073,robocape_mag,7.53978621598,26.9485919353,-28.9532067603,10.0,0.0,0.0,0.0,10.0,0.0,0.0,0.0,10.0
1446035732973191215,102,1446035732969742059,robocape_mag,7.53978621598,26.9485919353,-28.9532067603,10.0,0.0,0.0,0.0,10.0,0.0,0.0,0.0,10.0
1446035733006835049,103,1446035733003343105,robocape_mag,7.53321462888,26.9749919929,-28.9189220513,10.0,0.0,0.0,0.0,10.0,0.0,0.0,0.0,10.0
1446035733045290465,104,1446035733041424036,robocape_mag,7.53321462888,26.9749919929,-28.9189220513,10.0,0.0,0.0,0.0,10.0,0.0,0.0,0.0,10.0
1446035733074563299,105,1446035733069641113,robocape_mag,7.53321462888,26.9749919929,-28.9189220513,10.0,0.0,0.0,0.0,10.0,0.0,0.0,0.0,10.0
1446035733106604632,106,1446035733103116035,robocape_mag,7.53321462888,26.9749919929,-28.9189220513,10.0,0.0,0.0,0.0,10.0,0.0,0.0,0.0,10.0
1446035733143794466,107,1446035733140151977,robocape_mag,7.53321462888,26.9749919929,-28.9189220513,10.0,0.0,0.0,0.0,10.0,0.0,0.0,0.0,10.0
1446035733173244341,108,1446035733169703960,robocape_mag,7.53951650169,26.9540247518,-28.9459620457,10.0,0.0,0.0,0.0,10.0,0.0,0.0,0.0,10.0
1446035733206960216,109,1446035733203236103,robocape_mag,7.53951650169,26.9540247518,-28.9459620457,10.0,0.0,0.0,0.0,10.0,0.0,0.0,0.0,10.0
1446035733243915799,110,1446035733240489006,robocape_mag,7.53951650169,26.9540247518,-28.9459620457,10.0,0.0,0.0,0.0,10.0,0.0,0.0,0.0,10.0
1446035733273300257,111,1446035733269701004,robocape_mag,7.53951650169,26.9540247518,-28.9459620457,10.0,0.0,0.0,0.0,10.0,0.0,0.0,0.0,10.0
1446035733306994216,112,1446035733303132057,robocape_mag,7.53951650169,26.9540247518,-28.9459620457,10.0,0.0,0.0,0.0,10.0,0.0,0.0,0.0,10.0
1446035733343235341,113,1446035733339596986,robocape_mag,7.52206881857,26.9555225316,-28.9431074894,10.0,0.0,0.0,0.0,10.0,0.0,0.0,0.0,10.0
1446035733373362257,114,1446035733369635105,robocape_mag,7.52206881857,26.9555225316,-28.9431074894,10.0,0.0,0.0,0.0,10.0,0.0,0.0,0.0,10.0
1446035733406751007,115,1446035733403134107,robocape_mag,7.52206881857,26.9555225316,-28.9431074894,10.0,0.0,0.0,0.0,10.0,0.0,0.0,0.0,10.0
1446035733442405841,116,1446035733438617944,robocape_mag,7.52206881857,26.9555225316,-28.9431074894,10.0,0.0,0.0,0.0,10.0,0.0,0.0,0.0,10.0
1446035733473530174,117,1446035733469887018,robocape_mag,7.55634361698,26.9499206389,-28.95275766,10.0,0.0,0.0,0.0,10.0,0.0,0.0,0.0,10.0
1446035733506690716,118,1446035733503173112,robocape_mag,7.55634361698,26.9499206389,-28.95275766,10.0,0.0,0.0,0.0,10.0,0.0,0.0,0.0,10.0
1446035733541722966,119,1446035733538172006,robocape_mag,7.55634361698,26.9499206389,-28.95275766,10.0,0.0,0.0,0.0,10.0,0.0,0.0,0.0,10.0
1446035733573467924,120,1446035733569775104,robocape_mag,7.55634361698,26.9499206389,-28.95275766,10.0,0.0,0.0,0.0,10.0,0.0,0.0,0.0,10.0
1446035733606691924,121,1446035733603221893,robocape_mag,7.55634361698,26.9499206389,-28.95275766,10.0,0.0,0.0,0.0,10.0,0.0,0.0,0.0,10.0
1446035733640574799,122,1446035733637147903,robocape_mag,7.58833444902,26.9439481527,-28.9647842752,10.0,0.0,0.0,0.0,10.0,0.0,0.0,0.0,10.0
1446035733676686299,123,1446035733670249938,robocape_mag,7.58833444902,26.9439481527,-28.9647842752,10.0,0.0,0.0,0.0,10.0,0.0,0.0,0.0,10.0
1446035733706939382,124,1446035733703480005,robocape_mag,7.58833444902,26.9439481527,-28.9647842752,10.0,0.0,0.0,0.0,10.0,0.0,0.0,0.0,10.0
1446035733740782757,125,1446035733737231969,robocape_mag,7.58833444902,26.9439481527,-28.9647842752,10.0,0.0,0.0,0.0,10.0,0.0,0.0,0.0,10.0
1446035733775598257,126,1446035733771764039,robocape_mag,7.58833444902,26.9439481527,-28.9647842752,10.0,0.0,0.0,0.0,10.0,0.0,0.0,0.0,10.0
1446035733806904299,127,1446035733803394079,robocape_mag,7.51679493273,26.9494415401,-28.9509807328,10.0,0.0,0.0,0.0,10.0,0.0,0.0,0.0,10.0
1446035733840645258,128,1446035733836991071,robocape_mag,7.51679493273,26.9494415401,-28.9509807328,10.0,0.0,0.0,0.0,10.0,0.0,0.0,0.0,10.0
1446035733878001716,129,1446035733873893976,robocape_mag,7.51679493273,26.9494415401,-28.9509807328,10.0,0.0,0.0,0.0,10.0,0.0,0.0,0.0,10.0
1446035733906843549,130,1446035733903228044,robocape_mag,7.51679493273,26.9494415401,-28.9509807328,10.0,0.0,0.0,0.0,10.0,0.0,0.0,0.0,10.0
1446035733940545424,131,1446035733936909914,robocape_mag,7.51679493273,26.9494415401,-28.9509807328,10.0,0.0,0.0,0.0,10.0,0.0,0.0,0.0,10.0
1446035733980831258,132,1446035733973917007,robocape_mag,7.68522706799,26.9603477628,-28.9650724169,10.0,0.0,0.0,0.0,10.0,0.0,0.0,0.0,10.0
1446035734007565966,133,1446035734003995895,robocape_mag,7.68522706799,26.9603477628,-28.9650724169,10.0,0.0,0.0,0.0,10.0,0.0,0.0,0.0,10.0
1446035734040894258,134,1446035734037285089,robocape_mag,7.68522706799,26.9603477628,-28.9650724169,10.0,0.0,0.0,0.0,10.0,0.0,0.0,0.0,10.0
1446035734078133383,135,1446035734074423074,robocape_mag,7.68522706799,26.9603477628,-28.9650724169,10.0,0.0,0.0,0.0,10.0,0.0,0.0,0.0,10.0
1446035734106987799,136,1446035734103260040,robocape_mag,7.68522706799,26.9603477628,-28.9650724169,10.0,0.0,0.0,0.0,10.0,0.0,0.0,0.0,10.0
1446035734140147383,137,1446035734136708974,robocape_mag,7.57390778999,26.9597551686,-28.9416820363,10.0,0.0,0.0,0.0,10.0,0.0,0.0,0.0,10.0
1446035734178249591,138,1446035734174258947,robocape_mag,7.57390778999,26.9597551686,-28.9416820363,10.0,0.0,0.0,0.0,10.0,0.0,0.0,0.0,10.0
1446035734206928549,139,1446035734203193902,robocape_mag,7.57390778999,26.9597551686,-28.9416820363,10.0,0.0,0.0,0.0,10.0,0.0,0.0,0.0,10.0
1446035734240391341,140,1446035734236804008,robocape_mag,7.57390778999,26.9597551686,-28.9416820363,10.0,0.0,0.0,0.0,10.0,0.0,0.0,0.0,10.0
1446035734277109591,141,1446035734273526906,robocape_mag,7.5611838574,26.9657341915,-28.9325992572,10.0,0.0,0.0,0.0,10.0,0.0,0.0,0.0,10.0
1446035734306650758,142,1446035734303069114,robocape_mag,7.5611838574,26.9657341915,-28.9325992572,10.0,0.0,0.0,0.0,10.0,0.0,0.0,0.0,10.0
1446035734340360424,143,1446035734336524963,robocape_mag,7.5611838574,26.9657341915,-28.9325992572,10.0,0.0,0.0,0.0,10.0,0.0,0.0,0.0,10.0
1446035734377658799,144,1446035734374147891,robocape_mag,7.5611838574,26.9657341915,-28.9325992572,10.0,0.0,0.0,0.0,10.0,0.0,0.0,0.0,10.0
1446035734407035424,145,1446035734403141975,robocape_mag,7.5611838574,26.9657341915,-28.9325992572,10.0,0.0,0.0,0.0,10.0,0.0,0.0,0.0,10.0
1446035734440329091,146,1446035734436531066,robocape_mag,7.61043152607,26.9548930123,-28.9536697592,10.0,0.0,0.0,0.0,10.0,0.0,0.0,0.0,10.0
1446035734476478924,147,1446035734473057031,robocape_mag,7.61043152607,26.9548930123,-28.9536697592,10.0,0.0,0.0,0.0,10.0,0.0,0.0,0.0,10.0
1446035734506989591,148,1446035734503150939,robocape_mag,7.61043152607,26.9548930123,-28.9536697592,10.0,0.0,0.0,0.0,10.0,0.0,0.0,0.0,10.0
1446035734540828341,149,1446035734537107944,robocape_mag,7.61043152607,26.9548930123,-28.9536697592,10.0,0.0,0.0,0.0,10.0,0.0,0.0,0.0,10.0
1446035734575486883,150,1446035734572005987,robocape_mag,7.61043152607,26.9548930123,-28.9536697592,10.0,0.0,0.0,0.0,10.0,0.0,0.0,0.0,10.0
1446035734606799300,151,1446035734603172063,robocape_mag,7.56270784556,26.9690022872,-28.9286222577,10.0,0.0,0.0,0.0,10.0,0.0,0.0,0.0,10.0
1446035734640220841,152,1446035734636720895,robocape_mag,7.56270784556,26.9690022872,-28.9286222577,10.0,0.0,0.0,0.0,10.0,0.0,0.0,0.0,10.0
1446035734681084966,153,1446035734671497106,robocape_mag,7.56270784556,26.9690022872,-28.9286222577,10.0,0.0,0.0,0.0,10.0,0.0,0.0,0.0,10.0
1446035734707122800,154,1446035734703399896,robocape_mag,7.56270784556,26.9690022872,-28.9286222577,10.0,0.0,0.0,0.0,10.0,0.0,0.0,0.0,10.0
1446035734740555883,155,1446035734736829042,robocape_mag,7.56270784556,26.9690022872,-28.9286222577,10.0,0.0,0.0,0.0,10.0,0.0,0.0,0.0,10.0
1446035734773869050,156,1446035734770328998,robocape_mag,7.61886813611,26.9632061467,-28.9443385446,10.0,0.0,0.0,0.0,10.0,0.0,0.0,0.0,10.0
1446035734807915258,157,1446035734804306983,robocape_mag,7.61886813611,26.9632061467,-28.9443385446,10.0,0.0,0.0,0.0,10.0,0.0,0.0,0.0,10.0
1446035734840286425,158,1446035734836587905,robocape_mag,7.61886813611,26.9632061467,-28.9443385446,10.0,0.0,0.0,0.0,10.0,0.0,0.0,0.0,10.0
1446035734873416466,159,1446035734869940042,robocape_mag,7.61886813611,26.9632061467,-28.9443385446,10.0,0.0,0.0,0.0,10.0,0.0,0.0,0.0,10.0
1446035734907637716,160,1446035734903815984,robocape_mag,7.61886813611,26.9632061467,-28.9443385446,10.0,0.0,0.0,0.0,10.0,0.0,0.0,0.0,10.0
1446035734941178758,161,1446035734937653064,robocape_mag,7.58202356566,26.9680420074,-28.9320891387,10.0,0.0,0.0,0.0,10.0,0.0,0.0,0.0,10.0
1446035734973542800,162,1446035734970036029,robocape_mag,7.58202356566,26.9680420074,-28.9320891387,10.0,0.0,0.0,0.0,10.0,0.0,0.0,0.0,10.0
1446035735011072841,163,1446035735006432056,robocape_mag,7.58202356566,26.9680420074,-28.9320891387,10.0,0.0,0.0,0.0,10.0,0.0,0.0,0.0,10.0
1446035735040658758,164,1446035735036708116,robocape_mag,7.58202356566,26.9680420074,-28.9320891387,10.0,0.0,0.0,0.0,10.0,0.0,0.0,0.0,10.0
1446035735074040925,165,1446035735070653915,robocape_mag,7.57797537322,26.9813856068,-28.9150576752,10.0,0.0,0.0,0.0,10.0,0.0,0.0,0.0,10.0
1446035735108149175,166,1446035735104268074,robocape_mag,7.57797537322,26.9813856068,-28.9150576752,10.0,0.0,0.0,0.0,10.0,0.0,0.0,0.0,10.0
1446035735140620841,167,1446035735136878013,robocape_mag,7.57797537322,26.9813856068,-28.9150576752,10.0,0.0,0.0,0.0,10.0,0.0,0.0,0.0,10.0
1446035735173317133,168,1446035735169749975,robocape_mag,7.57797537322,26.9813856068,-28.9150576752,10.0,0.0,0.0,0.0,10.0,0.0,0.0,0.0,10.0
1446035735211538550,169,1446035735207602977,robocape_mag,7.57797537322,26.9813856068,-28.9150576752,10.0,0.0,0.0,0.0,10.0,0.0,0.0,0.0,10.0
1446035735240460342,170,1446035735236500024,robocape_mag,7.59029322368,26.9712209458,-28.9292340872,10.0,0.0,0.0,0.0,10.0,0.0,0.0,0.0,10.0
1446035735273239133,171,1446035735269825935,robocape_mag,7.59029322368,26.9712209458,-28.9292340872,10.0,0.0,0.0,0.0,10.0,0.0,0.0,0.0,10.0
1446035735311758383,172,1446035735307590961,robocape_mag,7.59029322368,26.9712209458,-28.9292340872,10.0,0.0,0.0,0.0,10.0,0.0,0.0,0.0,10.0
1446035735340598133,173,1446035735336568117,robocape_mag,7.59029322368,26.9712209458,-28.9292340872,10.0,0.0,0.0,0.0,10.0,0.0,0.0,0.0,10.0
1446035735373227883,174,1446035735369709968,robocape_mag,7.59029322368,26.9712209458,-28.9292340872,10.0,0.0,0.0,0.0,10.0,0.0,0.0,0.0,10.0
1446035735411404800,175,1446035735407547950,robocape_mag,7.62238854189,26.9600375932,-28.9491835216,10.0,0.0,0.0,0.0,10.0,0.0,0.0,0.0,10.0
1446035735439972008,176,1446035735436440944,robocape_mag,7.62238854189,26.9600375932,-28.9491835216,10.0,0.0,0.0,0.0,10.0,0.0,0.0,0.0,10.0
1446035735473439800,177,1446035735469927072,robocape_mag,7.62238854189,26.9600375932,-28.9491835216,10.0,0.0,0.0,0.0,10.0,0.0,0.0,0.0,10.0
1446035735509602717,178,1446035735505865097,robocape_mag,7.62238854189,26.9600375932,-28.9491835216,10.0,0.0,0.0,0.0,10.0,0.0,0.0,0.0,10.0
1446035735540578883,179,1446035735536691904,robocape_mag,7.62238854189,26.9600375932,-28.9491835216,10.0,0.0,0.0,0.0,10.0,0.0,0.0,0.0,10.0
1446035735573491008,180,1446035735569664955,robocape_mag,7.61316243622,26.9578629465,-28.9502390881,10.0,0.0,0.0,0.0,10.0,0.0,0.0,0.0,10.0
1446035735609998967,181,1446035735606498956,robocape_mag,7.61316243622,26.9578629465,-28.9502390881,10.0,0.0,0.0,0.0,10.0,0.0,0.0,0.0,10.0
1446035735639950550,182,1446035735636318922,robocape_mag,7.61316243622,26.9578629465,-28.9502390881,10.0,0.0,0.0,0.0,10.0,0.0,0.0,0.0,10.0
1446035735676151717,183,1446035735669739007,robocape_mag,7.61316243622,26.9578629465,-28.9502390881,10.0,0.0,0.0,0.0,10.0,0.0,0.0,0.0,10.0
1446035735710087217,184,1446035735706547975,robocape_mag,7.61115915323,26.9496540968,-28.9608564879,10.0,0.0,0.0,0.0,10.0,0.0,0.0,0.0,10.0
1446035735740128258,185,1446035735736715078,robocape_mag,7.61115915323,26.9496540968,-28.9608564879,10.0,0.0,0.0,0.0,10.0,0.0,0.0,0.0,10.0
1446035735773248592,186,1446035735769767999,robocape_mag,7.61115915323,26.9496540968,-28.9608564879,10.0,0.0,0.0,0.0,10.0,0.0,0.0,0.0,10.0
1446035735809243508,187,1446035735805723905,robocape_mag,7.61115915323,26.9496540968,-28.9608564879,10.0,0.0,0.0,0.0,10.0,0.0,0.0,0.0,10.0
1446035735840199342,188,1446035735836585044,robocape_mag,7.61115915323,26.9496540968,-28.9608564879,10.0,0.0,0.0,0.0,10.0,0.0,0.0,0.0,10.0
1446035735873239883,189,1446035735869723081,robocape_mag,7.59156171301,26.9602802253,-28.9434036513,10.0,0.0,0.0,0.0,10.0,0.0,0.0,0.0,10.0
1446035735908201342,190,1446035735904711961,robocape_mag,7.59156171301,26.9602802253,-28.9434036513,10.0,0.0,0.0,0.0,10.0,0.0,0.0,0.0,10.0
1446035735941789842,191,1446035735937586069,robocape_mag,7.59156171301,26.9602802253,-28.9434036513,10.0,0.0,0.0,0.0,10.0,0.0,0.0,0.0,10.0
1446035735973314425,192,1446035735969803094,robocape_mag,7.59156171301,26.9602802253,-28.9434036513,10.0,0.0,0.0,0.0,10.0,0.0,0.0,0.0,10.0
1446035736007720467,193,1446035736004266023,robocape_mag,7.59156171301,26.9602802253,-28.9434036513,10.0,0.0,0.0,0.0,10.0,0.0,0.0,0.0,10.0
1446035736042582592,194,1446035736038125991,robocape_mag,7.59884739856,26.9592208115,-28.9459325643,10.0,0.0,0.0,0.0,10.0,0.0,0.0,0.0,10.0
1446035736073351550,195,1446035736069861888,robocape_mag,7.59884739856,26.9592208115,-28.9459325643,10.0,0.0,0.0,0.0,10.0,0.0,0.0,0.0,10.0
1446035736107045509,196,1446035736103347063,robocape_mag,7.59884739856,26.9592208115,-28.9459325643,10.0,0.0,0.0,0.0,10.0,0.0,0.0,0.0,10.0
1446035736142082259,197,1446035736137936115,robocape_mag,7.59884739856,26.9592208115,-28.9459325643,10.0,0.0,0.0,0.0,10.0,0.0,0.0,0.0,10.0
1446035736173188300,198,1446035736169714927,robocape_mag,7.59884739856,26.9592208115,-28.9459325643,10.0,0.0,0.0,0.0,10.0,0.0,0.0,0.0,10.0
1446035736206930300,199,1446035736203469991,robocape_mag,7.59513551237,26.9721272812,-28.9288210663,10.0,0.0,0.0,0.0,10.0,0.0,0.0,0.0,10.0
1446035736244906967,200,1446035736240318059,robocape_mag,7.59513551237,26.9721272812,-28.9288210663,10.0,0.0,0.0,0.0,10.0,0.0,0.0,0.0,10.0
1446035736276037509,201,1446035736272576093,robocape_mag,7.59513551237,26.9721272812,-28.9288210663,10.0,0.0,0.0,0.0,10.0,0.0,0.0,0.0,10.0
1446035736306808342,202,1446035736303177118,robocape_mag,7.59513551237,26.9721272812,-28.9288210663,10.0,0.0,0.0,0.0,10.0,0.0,0.0,0.0,10.0
1446035736343905550,203,1446035736339596986,robocape_mag,7.59513551237,26.9721272812,-28.9288210663,10.0,0.0,0.0,0.0,10.0,0.0,0.0,0.0,10.0
1446035736373243759,204,1446035736369739055,robocape_mag,7.64253906127,26.9824819778,-28.9250210391,10.0,0.0,0.0,0.0,10.0,0.0,0.0,0.0,10.0
1446035736406691967,205,1446035736403165102,robocape_mag,7.64253906127,26.9824819778,-28.9250210391,10.0,0.0,0.0,0.0,10.0,0.0,0.0,0.0,10.0
1446035736445836009,206,1446035736441097021,robocape_mag,7.64253906127,26.9824819778,-28.9250210391,10.0,0.0,0.0,0.0,10.0,0.0,0.0,0.0,10.0
1446035736473388175,207,1446035736469783067,robocape_mag,7.64253906127,26.9824819778,-28.9250210391,10.0,0.0,0.0,0.0,10.0,0.0,0.0,0.0,10.0
1446035736507109217,208,1446035736503501892,robocape_mag,7.64253906127,26.9824819778,-28.9250210391,10.0,0.0,0.0,0.0,10.0,0.0,0.0,0.0,10.0
1446035736543879675,209,1446035736538494110,robocape_mag,7.60713623288,26.9774913735,-28.92409885,10.0,0.0,0.0,0.0,10.0,0.0,0.0,0.0,10.0
1446035736573309009,210,1446035736569812059,robocape_mag,7.60713623288,26.9774913735,-28.92409885,10.0,0.0,0.0,0.0,10.0,0.0,0.0,0.0,10.0
1446035736606933550,211,1446035736603332042,robocape_mag,7.60713623288,26.9774913735,-28.92409885,10.0,0.0,0.0,0.0,10.0,0.0,0.0,0.0,10.0
1446035736644234801,212,1446035736640589952,robocape_mag,7.60713623288,26.9774913735,-28.92409885,10.0,0.0,0.0,0.0,10.0,0.0,0.0,0.0,10.0
1446035736677395592,213,1446035736669615983,robocape_mag,7.57784989442,26.9715010558,-28.9272008447,10.0,0.0,0.0,0.0,10.0,0.0,0.0,0.0,10.0
1446035736707444842,214,1446035736703515052,robocape_mag,7.57784989442,26.9715010558,-28.9272008447,10.0,0.0,0.0,0.0,10.0,0.0,0.0,0.0,10.0
1446035736743726967,215,1446035736740309000,robocape_mag,7.57784989442,26.9715010558,-28.9272008447,10.0,0.0,0.0,0.0,10.0,0.0,0.0,0.0,10.0
1446035736773356509,216,1446035736769706964,robocape_mag,7.57784989442,26.9715010558,-28.9272008447,10.0,0.0,0.0,0.0,10.0,0.0,0.0,0.0,10.0
1446035736806917259,217,1446035736803111076,robocape_mag,7.57784989442,26.9715010558,-28.9272008447,10.0,0.0,0.0,0.0,10.0,0.0,0.0,0.0,10.0
1446035736843107009,218,1446035736839545965,robocape_mag,7.60058534655,26.9676695268,-28.9353117711,10.0,0.0,0.0,0.0,10.0,0.0,0.0,0.0,10.0
1446035736873396301,219,1446035736869795083,robocape_mag,7.60058534655,26.9676695268,-28.9353117711,10.0,0.0,0.0,0.0,10.0,0.0,0.0,0.0,10.0
1446035736906955676,220,1446035736903259038,robocape_mag,7.60058534655,26.9676695268,-28.9353117711,10.0,0.0,0.0,0.0,10.0,0.0,0.0,0.0,10.0
1446035736941724092,221,1446035736938101053,robocape_mag,7.60058534655,26.9676695268,-28.9353117711,10.0,0.0,0.0,0.0,10.0,0.0,0.0,0.0,10.0
1446035736973732717,222,1446035736969857931,robocape_mag,7.60058534655,26.9676695268,-28.9353117711,10.0,0.0,0.0,0.0,10.0,0.0,0.0,0.0,10.0
1446035737006906217,223,1446035737003375053,robocape_mag,7.59513551237,26.9721272812,-28.9288210663,10.0,0.0,0.0,0.0,10.0,0.0,0.0,0.0,10.0
1446035737041088259,224,1446035737037247896,robocape_mag,7.59513551237,26.9721272812,-28.9288210663,10.0,0.0,0.0,0.0,10.0,0.0,0.0,0.0,10.0
1446035737073539217,225,1446035737069844961,robocape_mag,7.59513551237,26.9721272812,-28.9288210663,10.0,0.0,0.0,0.0,10.0,0.0,0.0,0.0,10.0
1446035737106782426,226,1446035737103283882,robocape_mag,7.59513551237,26.9721272812,-28.9288210663,10.0,0.0,0.0,0.0,10.0,0.0,0.0,0.0,10.0
1446035737141142592,227,1446035737137365102,robocape_mag,7.59513551237,26.9721272812,-28.9288210663,10.0,0.0,0.0,0.0,10.0,0.0,0.0,0.0,10.0
1446035737174602092,228,1446035737171108961,robocape_mag,7.57893119474,26.9606880526,-28.941102212,10.0,0.0,0.0,0.0,10.0,0.0,0.0,0.0,10.0
1446035737208163051,229,1446035737203831911,robocape_mag,7.57893119474,26.9606880526,-28.941102212,10.0,0.0,0.0,0.0,10.0,0.0,0.0,0.0,10.0
1446035737240404092,230,1446035737236736059,robocape_mag,7.57893119474,26.9606880526,-28.941102212,10.0,0.0,0.0,0.0,10.0,0.0,0.0,0.0,10.0
1446035737275602884,231,1446035737271490097,robocape_mag,7.57893119474,26.9606880526,-28.941102212,10.0,0.0,0.0,0.0,10.0,0.0,0.0,0.0,10.0
1446035737306740842,232,1446035737303121089,robocape_mag,7.57893119474,26.9606880526,-28.941102212,10.0,0.0,0.0,0.0,10.0,0.0,0.0,0.0,10.0
1446035737340258801,233,1446035737336528062,robocape_mag,7.60058534655,26.9676695268,-28.9353117711,10.0,0.0,0.0,0.0,10.0,0.0,0.0,0.0,10.0
1446035737377810801,234,1446035737373589038,robocape_mag,7.60058534655,26.9676695268,-28.9353117711,10.0,0.0,0.0,0.0,10.0,0.0,0.0,0.0,10.0
1446035737406672509,235,1446035737403189897,robocape_mag,7.60058534655,26.9676695268,-28.9353117711,10.0,0.0,0.0,0.0,10.0,0.0,0.0,0.0,10.0
1446035737440291051,236,1446035737436662912,robocape_mag,7.60058534655,26.9676695268,-28.9353117711,10.0,0.0,0.0,0.0,10.0,0.0,0.0,0.0,10.0
1446035737478728426,237,1446035737474222898,robocape_mag,7.58520114647,26.960469376,-28.9422318218,10.0,0.0,0.0,0.0,10.0,0.0,0.0,0.0,10.0
1446035737506645093,238,1446035737503125905,robocape_mag,7.58520114647,26.960469376,-28.9422318218,10.0,0.0,0.0,0.0,10.0,0.0,0.0,0.0,10.0
1446035737540181968,239,1446035737536448001,robocape_mag,7.58520114647,26.960469376,-28.9422318218,10.0,0.0,0.0,0.0,10.0,0.0,0.0,0.0,10.0
1446035737577135218,240,1446035737573290109,robocape_mag,7.58520114647,26.960469376,-28.9422318218,10.0,0.0,0.0,0.0,10.0,0.0,0.0,0.0,10.0
1446035737607660259,241,1446035737604149103,robocape_mag,7.58520114647,26.960469376,-28.9422318218,10.0,0.0,0.0,0.0,10.0,0.0,0.0,0.0,10.0
1446035737640236093,242,1446035737636539936,robocape_mag,7.59529082113,26.9820680886,-28.9165963066,10.0,0.0,0.0,0.0,10.0,0.0,0.0,0.0,10.0
1446035737678991093,243,1446035737675712108,robocape_mag,7.59529082113,26.9820680886,-28.9165963066,10.0,0.0,0.0,0.0,10.0,0.0,0.0,0.0,10.0
1446035737706717551,244,1446035737703258991,robocape_mag,7.59529082113,26.9820680886,-28.9165963066,10.0,0.0,0.0,0.0,10.0,0.0,0.0,0.0,10.0
1446035737740207718,245,1446035737736582040,robocape_mag,7.59529082113,26.9820680886,-28.9165963066,10.0,0.0,0.0,0.0,10.0,0.0,0.0,0.0,10.0
1446035737777029009,246,1446035737773180961,robocape_mag,7.59529082113,26.9820680886,-28.9165963066,10.0,0.0,0.0,0.0,10.0,0.0,0.0,0.0,10.0
1446035737806755468,247,1446035737803164005,robocape_mag,7.60789360779,26.9720303017,-28.9310314079,10.0,0.0,0.0,0.0,10.0,0.0,0.0,0.0,10.0
1446035737840393634,248,1446035737836447954,robocape_mag,7.60789360779,26.9720303017,-28.9310314079,10.0,0.0,0.0,0.0,10.0,0.0,0.0,0.0,10.0
1446035737876701843,249,1446035737873250961,robocape_mag,7.60789360779,26.9720303017,-28.9310314079,10.0,0.0,0.0,0.0,10.0,0.0,0.0,0.0,10.0
1446035737907041093,250,1446035737903156042,robocape_mag,7.60789360779,26.9720303017,-28.9310314079,10.0,0.0,0.0,0.0,10.0,0.0,0.0,0.0,10.0
1446035737940206009,251,1446035737936438083,robocape_mag,7.60789360779,26.9720303017,-28.9310314079,10.0,0.0,0.0,0.0,10.0,0.0,0.0,0.0,10.0
1446035737975827009,252,1446035737972340106,robocape_mag,7.6401663077,26.9736942958,-28.9354246508,10.0,0.0,0.0,0.0,10.0,0.0,0.0,0.0,10.0
1446035738007093218,253,1446035738003264904,robocape_mag,7.6401663077,26.9736942958,-28.9354246508,10.0,0.0,0.0,0.0,10.0,0.0,0.0,0.0,10.0
1446035738040125468,254,1446035738036474943,robocape_mag,7.6401663077,26.9736942958,-28.9354246508,10.0,0.0,0.0,0.0,10.0,0.0,0.0,0.0,10.0
1446035738076034051,255,1446035738072617053,robocape_mag,7.6401663077,26.9736942958,-28.9354246508,10.0,0.0,0.0,0.0,10.0,0.0,0.0,0.0,10.0
1446035738106843718,256,1446035738103163003,robocape_mag,7.6401663077,26.9736942958,-28.9354246508,10.0,0.0,0.0,0.0,10.0,0.0,0.0,0.0,10.0
1446035738140002801,257,1446035738136470079,robocape_mag,7.61043152607,26.9548930123,-28.9536697592,10.0,0.0,0.0,0.0,10.0,0.0,0.0,0.0,10.0
1446035738175012718,258,1446035738171526908,robocape_mag,7.61043152607,26.9548930123,-28.9536697592,10.0,0.0,0.0,0.0,10.0,0.0,0.0,0.0,10.0
1446035738206935301,259,1446035738203351974,robocape_mag,7.61043152607,26.9548930123,-28.9536697592,10.0,0.0,0.0,0.0,10.0,0.0,0.0,0.0,10.0
1446035738240083593,260,1446035738236525058,robocape_mag,7.61043152607,26.9548930123,-28.9536697592,10.0,0.0,0.0,0.0,10.0,0.0,0.0,0.0,10.0
1446035738274478843,261,1446035738270903110,robocape_mag,7.60147651372,26.9381878902,-28.9749664222,10.0,0.0,0.0,0.0,10.0,0.0,0.0,0.0,10.0
1446035738307582135,262,1446035738303550958,robocape_mag,7.60147651372,26.9381878902,-28.9749664222,10.0,0.0,0.0,0.0,10.0,0.0,0.0,0.0,10.0
1446035738340174801,263,1446035738336388111,robocape_mag,7.60147651372,26.9381878902,-28.9749664222,10.0,0.0,0.0,0.0,10.0,0.0,0.0,0.0,10.0
1446035738373727926,264,1446035738370194911,robocape_mag,7.60147651372,26.9381878902,-28.9749664222,10.0,0.0,0.0,0.0,10.0,0.0,0.0,0.0,10.0
1446035738409174593,265,1446035738405036926,robocape_mag,7.60147651372,26.9381878902,-28.9749664222,10.0,0.0,0.0,0.0,10.0,0.0,0.0,0.0,10.0
1446035738443484010,266,1446035738439804077,robocape_mag,7.6133950118,26.9675744186,-28.9376669363,10.0,0.0,0.0,0.0,10.0,0.0,0.0,0.0,10.0
1446035738474063968,267,1446035738470491886,robocape_mag,7.6133950118,26.9675744186,-28.9376669363,10.0,0.0,0.0,0.0,10.0,0.0,0.0,0.0,10.0
1446035738509137760,268,1446035738504988908,robocape_mag,7.6133950118,26.9675744186,-28.9376669363,10.0,0.0,0.0,0.0,10.0,0.0,0.0,0.0,10.0
1446035738540030010,269,1446035738536446094,robocape_mag,7.6133950118,26.9675744186,-28.9376669363,10.0,0.0,0.0,0.0,10.0,0.0,0.0,0.0,10.0
1446035738573687385,270,1446035738570169925,robocape_mag,7.6133950118,26.9675744186,-28.9376669363,10.0,0.0,0.0,0.0,10.0,0.0,0.0,0.0,10.0
1446035738611509843,271,1446035738607352018,robocape_mag,7.60127714275,26.9622888897,-28.9423371435,10.0,0.0,0.0,0.0,10.0,0.0,0.0,0.0,10.0
1446035738640122093,272,1446035738636513948,robocape_mag,7.60127714275,26.9622888897,-28.9423371435,10.0,0.0,0.0,0.0,10.0,0.0,0.0,0.0,10.0
1446035738678834676,273,1446035738669836044,robocape_mag,7.60127714275,26.9622888897,-28.9423371435,10.0,0.0,0.0,0.0,10.0,0.0,0.0,0.0,10.0
1446035738712379593,274,1446035738708070039,robocape_mag,7.60127714275,26.9622888897,-28.9423371435,10.0,0.0,0.0,0.0,10.0,0.0,0.0,0.0,10.0
1446035738740161843,275,1446035738736502885,robocape_mag,7.60127714275,26.9622888897,-28.9423371435,10.0,0.0,0.0,0.0,10.0,0.0,0.0,0.0,10.0
1446035738773630718,276,1446035738770112037,robocape_mag,7.58597012045,26.9648062332,-28.9367464741,10.0,0.0,0.0,0.0,10.0,0.0,0.0,0.0,10.0
1446035738811881135,277,1446035738808020114,robocape_mag,7.58597012045,26.9648062332,-28.9367464741,10.0,0.0,0.0,0.0,10.0,0.0,0.0,0.0,10.0
1446035738840168635,278,1446035738836426019,robocape_mag,7.58597012045,26.9648062332,-28.9367464741,10.0,0.0,0.0,0.0,10.0,0.0,0.0,0.0,10.0
1446035738873323552,279,1446035738869827032,robocape_mag,7.58597012045,26.9648062332,-28.9367464741,10.0,0.0,0.0,0.0,10.0,0.0,0.0,0.0,10.0
1446035738910892135,280,1446035738906955003,robocape_mag,7.59286013474,26.9361082308,-28.9764521089,10.0,0.0,0.0,0.0,10.0,0.0,0.0,0.0,10.0
1446035738939963427,281,1446035738936301946,robocape_mag,7.59286013474,26.9361082308,-28.9764521089,10.0,0.0,0.0,0.0,10.0,0.0,0.0,0.0,10.0
1446035738974125468,282,1446035738970273971,robocape_mag,7.59286013474,26.9361082308,-28.9764521089,10.0,0.0,0.0,0.0,10.0,0.0,0.0,0.0,10.0
1446035739009593802,283,1446035739005992889,robocape_mag,7.59286013474,26.9361082308,-28.9764521089,10.0,0.0,0.0,0.0,10.0,0.0,0.0,0.0,10.0
1446035739040038302,284,1446035739036334037,robocape_mag,7.59286013474,26.9361082308,-28.9764521089,10.0,0.0,0.0,0.0,10.0,0.0,0.0,0.0,10.0
1446035739073741218,285,1446035739069974899,robocape_mag,7.60058534655,26.9676695268,-28.9353117711,10.0,0.0,0.0,0.0,10.0,0.0,0.0,0.0,10.0
1446035739109858468,286,1446035739106355905,robocape_mag,7.60058534655,26.9676695268,-28.9353117711,10.0,0.0,0.0,0.0,10.0,0.0,0.0,0.0,10.0
1446035739140110093,287,1446035739136348962,robocape_mag,7.60058534655,26.9676695268,-28.9353117711,10.0,0.0,0.0,0.0,10.0,0.0,0.0,0.0,10.0
1446035739173477093,288,1446035739169733047,robocape_mag,7.60058534655,26.9676695268,-28.9353117711,10.0,0.0,0.0,0.0,10.0,0.0,0.0,0.0,10.0
1446035739209381885,289,1446035739205862998,robocape_mag,7.60058534655,26.9676695268,-28.9353117711,10.0,0.0,0.0,0.0,10.0,0.0,0.0,0.0,10.0
1446035739240335302,290,1446035739236516952,robocape_mag,7.63190927761,26.9345608293,-28.986387632,10.0,0.0,0.0,0.0,10.0,0.0,0.0,0.0,10.0
1446035739273426552,291,1446035739269967079,robocape_mag,7.63190927761,26.9345608293,-28.986387632,10.0,0.0,0.0,0.0,10.0,0.0,0.0,0.0,10.0
1446035739308264010,292,1446035739304579019,robocape_mag,7.63190927761,26.9345608293,-28.986387632,10.0,0.0,0.0,0.0,10.0,0.0,0.0,0.0,10.0
1446035739340094552,293,1446035739336448907,robocape_mag,7.63190927761,26.9345608293,-28.986387632,10.0,0.0,0.0,0.0,10.0,0.0,0.0,0.0,10.0
1446035739373349385,294,1446035739369826078,robocape_mag,7.63190927761,26.9345608293,-28.986387632,10.0,0.0,0.0,0.0,10.0,0.0,0.0,0.0,10.0
1446035739407976177,295,1446035739404217958,robocape_mag,7.7058467424,26.8442743334,-29.1794758637,10.0,0.0,0.0,0.0,10.0,0.0,0.0,0.0,10.0
1446035739442015385,296,1446035739437504053,robocape_mag,7.7058467424,26.8442743334,-29.1794758637,10.0,0.0,0.0,0.0,10.0,0.0,0.0,0.0,10.0
1446035739473378219,297,1446035739469871044,robocape_mag,7.7058467424,26.8442743334,-29.1794758637,10.0,0.0,0.0,0.0,10.0,0.0,0.0,0.0,10.0
1446035739507416010,298,1446035739503756046,robocape_mag,7.7058467424,26.8442743334,-29.1794758637,10.0,0.0,0.0,0.0,10.0,0.0,0.0,0.0,10.0
1446035739542091802,299,1446035739538033008,robocape_mag,7.7058467424,26.8442743334,-29.1794758637,10.0,0.0,0.0,0.0,10.0,0.0,0.0,0.0,10.0
1446035739577134469,300,1446035739573548078,robocape_mag,7.80231316171,27.0381012644,-28.9161175642,10.0,0.0,0.0,0.0,10.0,0.0,0.0,0.0,10.0
1446035739606750510,301,1446035739603271961,robocape_mag,7.80231316171,27.0381012644,-28.9161175642,10.0,0.0,0.0,0.0,10.0,0.0,0.0,0.0,10.0
1446035739642154969,302,1446035739638206005,robocape_mag,7.80231316171,27.0381012644,-28.9161175642,10.0,0.0,0.0,0.0,10.0,0.0,0.0,0.0,10.0
1446035739676916552,303,1446035739670270919,robocape_mag,7.80231316171,27.0381012644,-28.9161175642,10.0,0.0,0.0,0.0,10.0,0.0,0.0,0.0,10.0
1446035739707041885,304,1446035739703604936,robocape_mag,7.80231316171,27.0381012644,-28.9161175642,10.0,0.0,0.0,0.0,10.0,0.0,0.0,0.0,10.0
1446035739744577927,305,1446035739738491058,robocape_mag,7.98937622535,26.8854353352,-29.4358122141,10.0,0.0,0.0,0.0,10.0,0.0,0.0,0.0,10.0
1446035739773351260,306,1446035739769936084,robocape_mag,7.98937622535,26.8854353352,-29.4358122141,10.0,0.0,0.0,0.0,10.0,0.0,0.0,0.0,10.0
1446035739806752010,307,1446035739803128957,robocape_mag,7.98937622535,26.8854353352,-29.4358122141,10.0,0.0,0.0,0.0,10.0,0.0,0.0,0.0,10.0
1446035739843452260,308,1446035739839694976,robocape_mag,7.98937622535,26.8854353352,-29.4358122141,10.0,0.0,0.0,0.0,10.0,0.0,0.0,0.0,10.0
1446035739873492802,309,1446035739870006084,robocape_mag,8.03938552874,27.0705143339,-29.0526445125,10.0,0.0,0.0,0.0,10.0,0.0,0.0,0.0,10.0
1446035739906867927,310,1446035739903165102,robocape_mag,8.03938552874,27.0705143339,-29.0526445125,10.0,0.0,0.0,0.0,10.0,0.0,0.0,0.0,10.0
1446035739944847927,311,1446035739940339088,robocape_mag,8.03938552874,27.0705143339,-29.0526445125,10.0,0.0,0.0,0.0,10.0,0.0,0.0,0.0,10.0
1446035739974322594,312,1446035739969870090,robocape_mag,8.03938552874,27.0705143339,-29.0526445125,10.0,0.0,0.0,0.0,10.0,0.0,0.0,0.0,10.0
1446035740006973219,313,1446035740003246068,robocape_mag,8.03938552874,27.0705143339,-29.0526445125,10.0,0.0,0.0,0.0,10.0,0.0,0.0,0.0,10.0
1446035740044858052,314,1446035740040914058,robocape_mag,8.26294278057,27.2467824213,-29.144179372,10.0,0.0,0.0,0.0,10.0,0.0,0.0,0.0,10.0
1446035740073382635,315,1446035740069771051,robocape_mag,8.26294278057,27.2467824213,-29.144179372,10.0,0.0,0.0,0.0,10.0,0.0,0.0,0.0,10.0
1446035740106897719,316,1446035740103239059,robocape_mag,8.26294278057,27.2467824213,-29.144179372,10.0,0.0,0.0,0.0,10.0,0.0,0.0,0.0,10.0
1446035740146984761,317,1446035740143420934,robocape_mag,8.26294278057,27.2467824213,-29.144179372,10.0,0.0,0.0,0.0,10.0,0.0,0.0,0.0,10.0
1446035740173522761,318,1446035740169791936,robocape_mag,8.26294278057,27.2467824213,-29.144179372,10.0,0.0,0.0,0.0,10.0,0.0,0.0,0.0,10.0
1446035740207233094,319,1446035740203279972,robocape_mag,8.18117109516,27.2323099677,-29.0323099677,10.0,0.0,0.0,0.0,10.0,0.0,0.0,0.0,10.0
1446035740243984302,320,1446035740240463972,robocape_mag,8.18117109516,27.2323099677,-29.0323099677,10.0,0.0,0.0,0.0,10.0,0.0,0.0,0.0,10.0
1446035740273621427,321,1446035740269917011,robocape_mag,8.18117109516,27.2323099677,-29.0323099677,10.0,0.0,0.0,0.0,10.0,0.0,0.0,0.0,10.0
1446035740307097386,322,1446035740303100109,robocape_mag,8.18117109516,27.2323099677,-29.0323099677,10.0,0.0,0.0,0.0,10.0,0.0,0.0,0.0,10.0
1446035740342983011,323,1446035740339354991,robocape_mag,8.18117109516,27.2323099677,-29.0323099677,10.0,0.0,0.0,0.0,10.0,0.0,0.0,0.0,10.0
1446035740373802552,324,1446035740369900941,robocape_mag,8.32696096708,27.352422612,-29.152422612,10.0,0.0,0.0,0.0,10.0,0.0,0.0,0.0,10.0
1446035740407177052,325,1446035740403117895,robocape_mag,8.32696096708,27.352422612,-29.152422612,10.0,0.0,0.0,0.0,10.0,0.0,0.0,0.0,10.0
1446035740442019052,326,1446035740438395023,robocape_mag,8.32696096708,27.352422612,-29.152422612,10.0,0.0,0.0,0.0,10.0,0.0,0.0,0.0,10.0
1446035740478038177,327,1446035740474451065,robocape_mag,8.32696096708,27.352422612,-29.152422612,10.0,0.0,0.0,0.0,10.0,0.0,0.0,0.0,10.0
1446035740506601677,328,1446035740503076076,robocape_mag,8.32696096708,27.352422612,-29.152422612,10.0,0.0,0.0,0.0,10.0,0.0,0.0,0.0,10.0
1446035740540868469,329,1446035740537225961,robocape_mag,8.1441149341,27.118392152,-29.1185055296,10.0,0.0,0.0,0.0,10.0,0.0,0.0,0.0,10.0
1446035740573861594,330,1446035740569921970,robocape_mag,8.1441149341,27.118392152,-29.1185055296,10.0,0.0,0.0,0.0,10.0,0.0,0.0,0.0,10.0
1446035740606641636,331,1446035740603127002,robocape_mag,8.1441149341,27.118392152,-29.1185055296,10.0,0.0,0.0,0.0,10.0,0.0,0.0,0.0,10.0
1446035740640566011,332,1446035740637082099,robocape_mag,8.1441149341,27.118392152,-29.1185055296,10.0,0.0,0.0,0.0,10.0,0.0,0.0,0.0,10.0
1446035740681114927,333,1446035740671461105,robocape_mag,8.17120525512,27.1433337117,-29.1240428189,10.0,0.0,0.0,0.0,10.0,0.0,0.0,0.0,10.0
1446035740706837469,334,1446035740703329086,robocape_mag,8.17120525512,27.1433337117,-29.1240428189,10.0,0.0,0.0,0.0,10.0,0.0,0.0,0.0,10.0
1446035740740346344,335,1446035740736877918,robocape_mag,8.17120525512,27.1433337117,-29.1240428189,10.0,0.0,0.0,0.0,10.0,0.0,0.0,0.0,10.0
1446035740775982427,336,1446035740771986961,robocape_mag,8.17120525512,27.1433337117,-29.1240428189,10.0,0.0,0.0,0.0,10.0,0.0,0.0,0.0,10.0
1446035740806641386,337,1446035740803221940,robocape_mag,8.17120525512,27.1433337117,-29.1240428189,10.0,0.0,0.0,0.0,10.0,0.0,0.0,0.0,10.0
1446035740840229719,338,1446035740836744070,robocape_mag,8.40948571755,27.3477274711,-29.4450593403,10.0,0.0,0.0,0.0,10.0,0.0,0.0,0.0,10.0
1446035740875403844,339,1446035740871094942,robocape_mag,8.40948571755,27.3477274711,-29.4450593403,10.0,0.0,0.0,0.0,10.0,0.0,0.0,0.0,10.0
1446035740906636844,340,1446035740903098106,robocape_mag,8.40948571755,27.3477274711,-29.4450593403,10.0,0.0,0.0,0.0,10.0,0.0,0.0,0.0,10.0
1446035740940072428,341,1446035740936604022,robocape_mag,8.40948571755,27.3477274711,-29.4450593403,10.0,0.0,0.0,0.0,10.0,0.0,0.0,0.0,10.0
1446035740978360136,342,1446035740974339962,robocape_mag,8.40948571755,27.3477274711,-29.4450593403,10.0,0.0,0.0,0.0,10.0,0.0,0.0,0.0,10.0
1446035741006820886,343,1446035741003201007,robocape_mag,8.19931653203,27.0376121309,-29.4911789833,10.0,0.0,0.0,0.0,10.0,0.0,0.0,0.0,10.0
1446035741040142678,344,1446035741036607980,robocape_mag,8.19931653203,27.0376121309,-29.4911789833,10.0,0.0,0.0,0.0,10.0,0.0,0.0,0.0,10.0
1446035741076652219,345,1446035741072706937,robocape_mag,8.19931653203,27.0376121309,-29.4911789833,10.0,0.0,0.0,0.0,10.0,0.0,0.0,0.0,10.0
1446035741106750303,346,1446035741103156089,robocape_mag,8.19931653203,27.0376121309,-29.4911789833,10.0,0.0,0.0,0.0,10.0,0.0,0.0,0.0,10.0
1446035741140078803,347,1446035741136641979,robocape_mag,8.19931653203,27.0376121309,-29.4911789833,10.0,0.0,0.0,0.0,10.0,0.0,0.0,0.0,10.0
1446035741178498969,348,1446035741173710107,robocape_mag,8.18558318578,27.1108970302,-29.2013983801,10.0,0.0,0.0,0.0,10.0,0.0,0.0,0.0,10.0
1446035741206722594,349,1446035741203226089,robocape_mag,8.18558318578,27.1108970302,-29.2013983801,10.0,0.0,0.0,0.0,10.0,0.0,0.0,0.0,10.0
1446035741239851761,350,1446035741236438989,robocape_mag,8.18558318578,27.1108970302,-29.2013983801,10.0,0.0,0.0,0.0,10.0,0.0,0.0,0.0,10.0
1446035741277781594,351,1446035741273884057,robocape_mag,8.18558318578,27.1108970302,-29.2013983801,10.0,0.0,0.0,0.0,10.0,0.0,0.0,0.0,10.0
1446035741306445803,352,1446035741303107023,robocape_mag,8.18558318578,27.1108970302,-29.2013983801,10.0,0.0,0.0,0.0,10.0,0.0,0.0,0.0,10.0
1446035741340383969,353,1446035741336735010,robocape_mag,8.34867930894,27.2609305677,-29.7513815309,10.0,0.0,0.0,0.0,10.0,0.0,0.0,0.0,10.0
1446035741378013719,354,1446035741374247074,robocape_mag,8.34867930894,27.2609305677,-29.7513815309,10.0,0.0,0.0,0.0,10.0,0.0,0.0,0.0,10.0
1446035741406982636,355,1446035741403270959,robocape_mag,8.34867930894,27.2609305677,-29.7513815309,10.0,0.0,0.0,0.0,10.0,0.0,0.0,0.0,10.0
1446035741440213219,356,1446035741436511993,robocape_mag,8.34867930894,27.2609305677,-29.7513815309,10.0,0.0,0.0,0.0,10.0,0.0,0.0,0.0,10.0
1446035741477753636,357,1446035741473905086,robocape_mag,8.37168018397,27.6003175442,-29.0833429318,10.0,0.0,0.0,0.0,10.0,0.0,0.0,0.0,10.0
1446035741506935094,358,1446035741503279924,robocape_mag,8.37168018397,27.6003175442,-29.0833429318,10.0,0.0,0.0,0.0,10.0,0.0,0.0,0.0,10.0
1446035741540549011,359,1446035741536878108,robocape_mag,8.37168018397,27.6003175442,-29.0833429318,10.0,0.0,0.0,0.0,10.0,0.0,0.0,0.0,10.0
1446035741575846470,360,1446035741572407007,robocape_mag,8.37168018397,27.6003175442,-29.0833429318,10.0,0.0,0.0,0.0,10.0,0.0,0.0,0.0,10.0
1446035741606662470,361,1446035741603202104,robocape_mag,8.37168018397,27.6003175442,-29.0833429318,10.0,0.0,0.0,0.0,10.0,0.0,0.0,0.0,10.0
1446035741640470928,362,1446035741636930942,robocape_mag,8.49054891619,27.6959700591,-29.6760698621,10.0,0.0,0.0,0.0,10.0,0.0,0.0,0.0,10.0
1446035741680683553,363,1446035741671257019,robocape_mag,8.49054891619,27.6959700591,-29.6760698621,10.0,0.0,0.0,0.0,10.0,0.0,0.0,0.0,10.0
1446035741706832011,364,1446035741703310012,robocape_mag,8.49054891619,27.6959700591,-29.6760698621,10.0,0.0,0.0,0.0,10.0,0.0,0.0,0.0,10.0
1446035741739995803,365,1446035741736493110,robocape_mag,8.49054891619,27.6959700591,-29.6760698621,10.0,0.0,0.0,0.0,10.0,0.0,0.0,0.0,10.0
1446035741774177345,366,1446035741770169973,robocape_mag,8.49054891619,27.6959700591,-29.6760698621,10.0,0.0,0.0,0.0,10.0,0.0,0.0,0.0,10.0
1446035741807330803,367,1446035741803355932,robocape_mag,8.27377175243,27.3682726021,-29.0444691217,10.0,0.0,0.0,0.0,10.0,0.0,0.0,0.0,10.0
1446035741840552970,368,1446035741836514949,robocape_mag,8.27377175243,27.3682726021,-29.0444691217,10.0,0.0,0.0,0.0,10.0,0.0,0.0,0.0,10.0
1446035741873848053,369,1446035741869947910,robocape_mag,8.27377175243,27.3682726021,-29.0444691217,10.0,0.0,0.0,0.0,10.0,0.0,0.0,0.0,10.0
1446035741908762845,370,1446035741904812097,robocape_mag,8.27377175243,27.3682726021,-29.0444691217,10.0,0.0,0.0,0.0,10.0,0.0,0.0,0.0,10.0
1446035741940152678,371,1446035741936603069,robocape_mag,8.27377175243,27.3682726021,-29.0444691217,10.0,0.0,0.0,0.0,10.0,0.0,0.0,0.0,10.0
1446035741973439720,372,1446035741969811916,robocape_mag,8.49939675448,27.7170528542,-29.5390176181,10.0,0.0,0.0,0.0,10.0,0.0,0.0,0.0,10.0
1446035742010309928,373,1446035742005235910,robocape_mag,8.49939675448,27.7170528542,-29.5390176181,10.0,0.0,0.0,0.0,10.0,0.0,0.0,0.0,10.0
1446035742042601136,374,1446035742038891077,robocape_mag,8.49939675448,27.7170528542,-29.5390176181,10.0,0.0,0.0,0.0,10.0,0.0,0.0,0.0,10.0
1446035742073463345,375,1446035742069891929,robocape_mag,8.49939675448,27.7170528542,-29.5390176181,10.0,0.0,0.0,0.0,10.0,0.0,0.0,0.0,10.0
1446035742110076845,376,1446035742105547904,robocape_mag,8.49945702991,27.7170508671,-29.55,10.0,0.0,0.0,0.0,10.0,0.0,0.0,0.0,10.0
1446035742140291386,377,1446035742136842012,robocape_mag,8.48562225481,27.9189638151,-29.55,10.0,0.0,0.0,0.0,10.0,0.0,0.0,0.0,10.0
1446035742173749386,378,1446035742170072078,robocape_mag,8.48562225481,27.9189638151,-29.55,10.0,0.0,0.0,0.0,10.0,0.0,0.0,0.0,10.0
1446035742212349595,379,1446035742208620071,robocape_mag,8.48562225481,27.9189638151,-29.55,10.0,0.0,0.0,0.0,10.0,0.0,0.0,0.0,10.0
1446035742239979637,380,1446035742236615896,robocape_mag,8.48562225481,27.9189638151,-29.55,10.0,0.0,0.0,0.0,10.0,0.0,0.0,0.0,10.0
1446035742273425053,381,1446035742269861936,robocape_mag,7.75626912511,28.4211810419,-28.8544123747,10.0,0.0,0.0,0.0,10.0,0.0,0.0,0.0,10.0
1446035742311608928,382,1446035742307893037,robocape_mag,7.75626912511,28.4211810419,-28.8544123747,10.0,0.0,0.0,0.0,10.0,0.0,0.0,0.0,10.0
1446035742340083512,383,1446035742336514949,robocape_mag,7.75626912511,28.4211810419,-28.8544123747,10.0,0.0,0.0,0.0,10.0,0.0,0.0,0.0,10.0
1446035742373557012,384,1446035742369983911,robocape_mag,7.75626912511,28.4211810419,-28.8544123747,10.0,0.0,0.0,0.0,10.0,0.0,0.0,0.0,10.0
1446035742410370512,385,1446035742406683921,robocape_mag,7.75626912511,28.4211810419,-28.8544123747,10.0,0.0,0.0,0.0,10.0,0.0,0.0,0.0,10.0
1446035742440182012,386,1446035742436718940,robocape_mag,8.32344304282,27.3271508699,-29.1716613046,10.0,0.0,0.0,0.0,10.0,0.0,0.0,0.0,10.0
1446035742473685720,387,1446035742469980001,robocape_mag,8.32344304282,27.3271508699,-29.1716613046,10.0,0.0,0.0,0.0,10.0,0.0,0.0,0.0,10.0
1446035742510174137,388,1446035742506422996,robocape_mag,8.32344304282,27.3271508699,-29.1716613046,10.0,0.0,0.0,0.0,10.0,0.0,0.0,0.0,10.0
1446035742540478512,389,1446035742536710977,robocape_mag,8.32344304282,27.3271508699,-29.1716613046,10.0,0.0,0.0,0.0,10.0,0.0,0.0,0.0,10.0
1446035742573825137,390,1446035742569986104,robocape_mag,8.32344304282,27.3271508699,-29.1716613046,10.0,0.0,0.0,0.0,10.0,0.0,0.0,0.0,10.0
1446035742609651137,391,1446035742605871915,robocape_mag,7.66611387355,28.2815643953,-28.7194306323,10.0,0.0,0.0,0.0,10.0,0.0,0.0,0.0,10.0
1446035742640112887,392,1446035742636548042,robocape_mag,7.66611387355,28.2815643953,-28.7194306323,10.0,0.0,0.0,0.0,10.0,0.0,0.0,0.0,10.0
1446035742677397262,393,1446035742670133113,robocape_mag,7.66611387355,28.2815643953,-28.7194306323,10.0,0.0,0.0,0.0,10.0,0.0,0.0,0.0,10.0
1446035742710721262,394,1446035742707250118,robocape_mag,7.66611387355,28.2815643953,-28.7194306323,10.0,0.0,0.0,0.0,10.0,0.0,0.0,0.0,10.0
1446035742740124470,395,1446035742736696958,robocape_mag,7.66611387355,28.2815643953,-28.7194306323,10.0,0.0,0.0,0.0,10.0,0.0,0.0,0.0,10.0
1446035742773661637,396,1446035742769895076,robocape_mag,7.40407602692,27.9738226038,-28.58010205,10.0,0.0,0.0,0.0,10.0,0.0,0.0,0.0,10.0
1446035742808310595,397,1446035742804399013,robocape_mag,7.40407602692,27.9738226038,-28.58010205,10.0,0.0,0.0,0.0,10.0,0.0,0.0,0.0,10.0
1446035742840204220,398,1446035742836648941,robocape_mag,7.40407602692,27.9738226038,-28.58010205,10.0,0.0,0.0,0.0,10.0,0.0,0.0,0.0,10.0
1446035742873706720,399,1446035742870198965,robocape_mag,7.40407602692,27.9738226038,-28.58010205,10.0,0.0,0.0,0.0,10.0,0.0,0.0,0.0,10.0
1446035742907972595,400,1446035742904050111,robocape_mag,7.40407602692,27.9738226038,-28.58010205,10.0,0.0,0.0,0.0,10.0,0.0,0.0,0.0,10.0
1446035742940017054,401,1446035742936532974,robocape_mag,7.34590597823,27.7409356458,-28.5619853898,10.0,0.0,0.0,0.0,10.0,0.0,0.0,0.0,10.0
1446035742973612887,402,1446035742970069885,robocape_mag,7.34590597823,27.7409356458,-28.5619853898,10.0,0.0,0.0,0.0,10.0,0.0,0.0,0.0,10.0
1446035743007370970,403,1446035743003802061,robocape_mag,7.34590597823,27.7409356458,-28.5619853898,10.0,0.0,0.0,0.0,10.0,0.0,0.0,0.0,10.0
1446035743041520220,404,1446035743037822008,robocape_mag,7.34590597823,27.7409356458,-28.5619853898,10.0,0.0,0.0,0.0,10.0,0.0,0.0,0.0,10.0
1446035743073466095,405,1446035743069726943,robocape_mag,7.30593313944,27.5248824417,-28.595191046,10.0,0.0,0.0,0.0,10.0,0.0,0.0,0.0,10.0
1446035743106984179,406,1446035743103566884,robocape_mag,7.30593313944,27.5248824417,-28.595191046,10.0,0.0,0.0,0.0,10.0,0.0,0.0,0.0,10.0
1446035743142344512,407,1446035743138664007,robocape_mag,7.30593313944,27.5248824417,-28.595191046,10.0,0.0,0.0,0.0,10.0,0.0,0.0,0.0,10.0
1446035743173566512,408,1446035743170022010,robocape_mag,7.30593313944,27.5248824417,-28.595191046,10.0,0.0,0.0,0.0,10.0,0.0,0.0,0.0,10.0
1446035743207029804,409,1446035743203304052,robocape_mag,7.30593313944,27.5248824417,-28.595191046,10.0,0.0,0.0,0.0,10.0,0.0,0.0,0.0,10.0
1446035743243916387,410,1446035743238379001,robocape_mag,7.31121713293,27.3579125069,-28.6496509417,10.0,0.0,0.0,0.0,10.0,0.0,0.0,0.0,10.0
1446035743273368637,411,1446035743269790887,robocape_mag,7.31121713293,27.3579125069,-28.6496509417,10.0,0.0,0.0,0.0,10.0,0.0,0.0,0.0,10.0
1446035743306946054,412,1446035743303394079,robocape_mag,7.31121713293,27.3579125069,-28.6496509417,10.0,0.0,0.0,0.0,10.0,0.0,0.0,0.0,10.0
1446035743344847095,413,1446035743339767932,robocape_mag,7.31121713293,27.3579125069,-28.6496509417,10.0,0.0,0.0,0.0,10.0,0.0,0.0,0.0,10.0
1446035743373181095,414,1446035743369693994,robocape_mag,7.31121713293,27.3579125069,-28.6496509417,10.0,0.0,0.0,0.0,10.0,0.0,0.0,0.0,10.0
1446035743407037762,415,1446035743403553009,robocape_mag,7.59681197875,26.8141508721,-29.2111580744,10.0,0.0,0.0,0.0,10.0,0.0,0.0,0.0,10.0
1446035743443506262,416,1446035743439685106,robocape_mag,7.59681197875,26.8141508721,-29.2111580744,10.0,0.0,0.0,0.0,10.0,0.0,0.0,0.0,10.0
1446035743474326429,417,1446035743470918893,robocape_mag,7.59681197875,26.8141508721,-29.2111580744,10.0,0.0,0.0,0.0,10.0,0.0,0.0,0.0,10.0
1446035743507020595,418,1446035743503360033,robocape_mag,7.59681197875,26.8141508721,-29.2111580744,10.0,0.0,0.0,0.0,10.0,0.0,0.0,0.0,10.0
1446035743543913887,419,1446035743540237903,robocape_mag,7.59681197875,26.8141508721,-29.2111580744,10.0,0.0,0.0,0.0,10.0,0.0,0.0,0.0,10.0
1446035743573262554,420,1446035743569667100,robocape_mag,7.62866060289,26.8365097195,-29.1640181913,10.0,0.0,0.0,0.0,10.0,0.0,0.0,0.0,10.0
1446035743606850054,421,1446035743603130102,robocape_mag,7.62866060289,26.8365097195,-29.1640181913,10.0,0.0,0.0,0.0,10.0,0.0,0.0,0.0,10.0
1446035743646014887,422,1446035743642251968,robocape_mag,7.62866060289,26.8365097195,-29.1640181913,10.0,0.0,0.0,0.0,10.0,0.0,0.0,0.0,10.0
1446035743679320596,423,1446035743669656038,robocape_mag,7.62866060289,26.8365097195,-29.1640181913,10.0,0.0,0.0,0.0,10.0,0.0,0.0,0.0,10.0
1446035743707635429,424,1446035743703879117,robocape_mag,7.62866060289,26.8365097195,-29.1640181913,10.0,0.0,0.0,0.0,10.0,0.0,0.0,0.0,10.0
1446035743743757762,425,1446035743739758968,robocape_mag,7.82133841258,27.0002103706,-28.9715908574,10.0,0.0,0.0,0.0,10.0,0.0,0.0,0.0,10.0
1446035743773332429,426,1446035743769637107,robocape_mag,7.82133841258,27.0002103706,-28.9715908574,10.0,0.0,0.0,0.0,10.0,0.0,0.0,0.0,10.0
1446035743807037637,427,1446035743803280115,robocape_mag,7.82133841258,27.0002103706,-28.9715908574,10.0,0.0,0.0,0.0,10.0,0.0,0.0,0.0,10.0
1446035743843357262,428,1446035743839050054,robocape_mag,7.82133841258,27.0002103706,-28.9715908574,10.0,0.0,0.0,0.0,10.0,0.0,0.0,0.0,10.0
1446035743873349346,429,1446035743869646072,robocape_mag,7.82298708703,26.8334150233,-29.3143067203,10.0,0.0,0.0,0.0,10.0,0.0,0.0,0.0,10.0
1446035743907023346,430,1446035743903419017,robocape_mag,7.82298708703,26.8334150233,-29.3143067203,10.0,0.0,0.0,0.0,10.0,0.0,0.0,0.0,10.0
