%time,field.header.seq,field.header.stamp,field.header.frame_id,field.magnetic_field.x,field.magnetic_field.y,field.magnetic_field.z,field.magnetic_field_covariance0,field.magnetic_field_covariance1,field.magnetic_field_covariance2,field.magnetic_field_covariance3,field.magnetic_field_covariance4,field.magnetic_field_covariance5,field.magnetic_field_covariance6,field.magnetic_field_covariance7,field.magnetic_field_covariance8
1452010245817895289,1,1452010245392992973,robocape_mag,9.45,-11.7,2.25,10.0,0.0,0.0,0.0,10.0,0.0,0.0,0.0,10.0
1452010245826756873,2,1452010245420782089,robocape_mag,8.85,-12.3,2.25,10.0,0.0,0.0,0.0,10.0,0.0,0.0,0.0,10.0
1452010245829037206,3,1452010245457204103,robocape_mag,8.85,-12.3,2.25,10.0,0.0,0.0,0.0,10.0,0.0,0.0,0.0,10.0
1452010245829084206,4,1452010245499670028,robocape_mag,8.85,-12.3,2.25,10.0,0.0,0.0,0.0,10.0,0.0,0.0,0.0,10.0
1452010245829117581,5,1452010245539230108,robocape_mag,8.85,-12.3,2.25,10.0,0.0,0.0,0.0,10.0,0.0,0.0,0.0,10.0
1452010245829148998,6,1452010245569094896,robocape_mag,10.35,-11.4,1.95,10.0,0.0,0.0,0.0,10.0,0.0,0.0,0.0,10.0
1452010245829189331,7,1452010245592390060,robocape_mag,10.35,-11.4,1.95,10.0,0.0,0.0,0.0,10.0,0.0,0.0,0.0,10.0
1452010245830838623,8,1452010245619496107,robocape_mag,10.35,-11.4,1.95,10.0,0.0,0.0,0.0,10.0,0.0,0.0,0.0,10.0
1452010245834292581,9,1452010245653126955,robocape_mag,10.35,-11.4,1.95,10.0,0.0,0.0,0.0,10.0,0.0,0.0,0.0,10.0
1452010245834340581,10,1452010245709235906,robocape_mag,10.35,-11.4,1.95,10.0,0.0,0.0,0.0,10.0,0.0,0.0,0.0,10.0
1452010245834406331,11,1452010245746926069,robocape_mag,8.55,-10.8,1.95,10.0,0.0,0.0,0.0,10.0,0.0,0.0,0.0,10.0
1452010245838033914,12,1452010245771048069,robocape_mag,8.55,-10.8,1.95,10.0,0.0,0.0,0.0,10.0,0.0,0.0,0.0,10.0
1452010245838289456,13,1452010245794768095,robocape_mag,8.55,-10.8,1.95,10.0,0.0,0.0,0.0,10.0,0.0,0.0,0.0,10.0
1452010245842400456,14,1452010245831348896,robocape_mag,8.55,-10.8,1.95,10.0,0.0,0.0,0.0,10.0,0.0,0.0,0.0,10.0
1452010245862263164,15,1452010245856240034,robocape_mag,8.55,-10.8,1.95,10.0,0.0,0.0,0.0,10.0,0.0,0.0,0.0,10.0
1452010245891043623,16,1452010245885973930,robocape_mag,9.15,-12.0,2.55,10.0,0.0,0.0,0.0,10.0,0.0,0.0,0.0,10.0
1452010245930692373,17,1452010245920377969,robocape_mag,9.15,-12.0,2.55,10.0,0.0,0.0,0.0,10.0,0.0,0.0,0.0,10.0
1452010245956800748,18,1452010245952049970,robocape_mag,9.15,-12.0,2.55,10.0,0.0,0.0,0.0,10.0,0.0,0.0,0.0,10.0
1452010245991011581,19,1452010245985835075,robocape_mag,9.15,-12.0,2.55,10.0,0.0,0.0,0.0,10.0,0.0,0.0,0.0,10.0
1452010246023178664,20,1452010246018440961,robocape_mag,9.15,-12.0,2.55,10.0,0.0,0.0,0.0,10.0,0.0,0.0,0.0,10.0
1452010246056743206,21,1452010246052068948,robocape_mag,11.25,-10.5,0.45,10.0,0.0,0.0,0.0,10.0,0.0,0.0,0.0,10.0
1452010246091651331,22,1452010246085685014,robocape_mag,11.25,-10.5,0.45,10.0,0.0,0.0,0.0,10.0,0.0,0.0,0.0,10.0
1452010246124323789,23,1452010246118550062,robocape_mag,11.25,-10.5,0.45,10.0,0.0,0.0,0.0,10.0,0.0,0.0,0.0,10.0
1452010246157301456,24,1452010246151880979,robocape_mag,11.25,-10.5,0.45,10.0,0.0,0.0,0.0,10.0,0.0,0.0,0.0,10.0
1452010246190936164,25,1452010246185302019,robocape_mag,11.25,-10.5,0.45,10.0,0.0,0.0,0.0,10.0,0.0,0.0,0.0,10.0
1452010246223681789,26,1452010246218431949,robocape_mag,10.65,-11.7,3.45,10.0,0.0,0.0,0.0,10.0,0.0,0.0,0.0,10.0
1452010246256907623,27,1452010246251882076,robocape_mag,10.65,-11.7,3.45,10.0,0.0,0.0,0.0,10.0,0.0,0.0,0.0,10.0
1452010246292486123,28,1452010246285105943,robocape_mag,10.65,-11.7,3.45,10.0,0.0,0.0,0.0,10.0,0.0,0.0,0.0,10.0
1452010246323767248,29,1452010246318523883,robocape_mag,10.65,-11.7,3.45,10.0,0.0,0.0,0.0,10.0,0.0,0.0,0.0,10.0
1452010246357124498,30,1452010246352060079,robocape_mag,10.65,-11.7,3.45,10.0,0.0,0.0,0.0,10.0,0.0,0.0,0.0,10.0
1452010246392622289,31,1452010246385478973,robocape_mag,10.35,-12.0,1.95,10.0,0.0,0.0,0.0,10.0,0.0,0.0,0.0,10.0
1452010246423637581,32,1452010246418601036,robocape_mag,10.35,-12.0,1.95,10.0,0.0,0.0,0.0,10.0,0.0,0.0,0.0,10.0
1452010246456719456,33,1452010246451858043,robocape_mag,10.35,-12.0,1.95,10.0,0.0,0.0,0.0,10.0,0.0,0.0,0.0,10.0
1452010246493009165,34,1452010246485362052,robocape_mag,10.35,-12.0,1.95,10.0,0.0,0.0,0.0,10.0,0.0,0.0,0.0,10.0
1452010246523367623,35,1452010246518538951,robocape_mag,9.75,-10.2,3.75,10.0,0.0,0.0,0.0,10.0,0.0,0.0,0.0,10.0
1452010246557012665,36,1452010246552216053,robocape_mag,9.75,-10.2,3.75,10.0,0.0,0.0,0.0,10.0,0.0,0.0,0.0,10.0
1452010246590326956,37,1452010246585517883,robocape_mag,9.75,-10.2,3.75,10.0,0.0,0.0,0.0,10.0,0.0,0.0,0.0,10.0
1452010246624933415,38,1452010246619970083,robocape_mag,9.75,-10.2,3.75,10.0,0.0,0.0,0.0,10.0,0.0,0.0,0.0,10.0
1452010246658074915,39,1452010246653080940,robocape_mag,9.75,-10.2,3.75,10.0,0.0,0.0,0.0,10.0,0.0,0.0,0.0,10.0
1452010246691559665,40,1452010246686774015,robocape_mag,10.65,-12.3,3.45,10.0,0.0,0.0,0.0,10.0,0.0,0.0,0.0,10.0
1452010246725629248,41,1452010246718806982,robocape_mag,10.65,-12.3,3.45,10.0,0.0,0.0,0.0,10.0,0.0,0.0,0.0,10.0
1452010246758740998,42,1452010246753607034,robocape_mag,10.65,-12.3,3.45,10.0,0.0,0.0,0.0,10.0,0.0,0.0,0.0,10.0
1452010246798156248,43,1452010246786612033,robocape_mag,10.65,-12.3,3.45,10.0,0.0,0.0,0.0,10.0,0.0,0.0,0.0,10.0
1452010246828118956,44,1452010246822575092,robocape_mag,10.65,-12.3,3.45,10.0,0.0,0.0,0.0,10.0,0.0,0.0,0.0,10.0
1452010246858400665,45,1452010246853512048,robocape_mag,9.45,-10.5,3.45,10.0,0.0,0.0,0.0,10.0,0.0,0.0,0.0,10.0
1452010246896580331,46,1452010246888541936,robocape_mag,9.45,-10.5,3.45,10.0,0.0,0.0,0.0,10.0,0.0,0.0,0.0,10.0
1452010246924448581,47,1452010246919359922,robocape_mag,9.45,-10.5,3.45,10.0,0.0,0.0,0.0,10.0,0.0,0.0,0.0,10.0
1452010246963500081,48,1452010246957443952,robocape_mag,9.45,-10.5,3.45,10.0,0.0,0.0,0.0,10.0,0.0,0.0,0.0,10.0
1452010246990844123,49,1452010246986064910,robocape_mag,9.45,-10.5,3.45,10.0,0.0,0.0,0.0,10.0,0.0,0.0,0.0,10.0
1452010247029009498,50,1452010247023866891,robocape_mag,9.45,-11.1,1.65,10.0,0.0,0.0,0.0,10.0,0.0,0.0,0.0,10.0
1452010247061831581,51,1452010247056476116,robocape_mag,9.45,-11.1,1.65,10.0,0.0,0.0,0.0,10.0,0.0,0.0,0.0,10.0
1452010247094580206,52,1452010247089468002,robocape_mag,9.45,-11.1,1.65,10.0,0.0,0.0,0.0,10.0,0.0,0.0,0.0,10.0
1452010247159855457,53,1452010247122024059,robocape_mag,9.45,-11.1,1.65,10.0,0.0,0.0,0.0,10.0,0.0,0.0,0.0,10.0
1452010247177805832,54,1452010247171123027,robocape_mag,11.85,-9.9,2.25,10.0,0.0,0.0,0.0,10.0,0.0,0.0,0.0,10.0
1452010247199757665,55,1452010247194283962,robocape_mag,11.85,-9.9,2.25,10.0,0.0,0.0,0.0,10.0,0.0,0.0,0.0,10.0
1452010247228024123,56,1452010247222907066,robocape_mag,11.85,-9.9,2.25,10.0,0.0,0.0,0.0,10.0,0.0,0.0,0.0,10.0
1452010247261763998,57,1452010247256393909,robocape_mag,11.85,-9.9,2.25,10.0,0.0,0.0,0.0,10.0,0.0,0.0,0.0,10.0
1452010247294646457,58,1452010247289339065,robocape_mag,11.85,-9.9,2.25,10.0,0.0,0.0,0.0,10.0,0.0,0.0,0.0,10.0
1452010247330398165,59,1452010247325520992,robocape_mag,10.95,-11.4,1.35,10.0,0.0,0.0,0.0,10.0,0.0,0.0,0.0,10.0
1452010247361886748,60,1452010247355314970,robocape_mag,10.95,-11.4,1.35,10.0,0.0,0.0,0.0,10.0,0.0,0.0,0.0,10.0
1452010247396646832,61,1452010247388396978,robocape_mag,10.95,-11.4,1.35,10.0,0.0,0.0,0.0,10.0,0.0,0.0,0.0,10.0
1452010247427108873,62,1452010247422281026,robocape_mag,10.95,-11.4,1.35,10.0,0.0,0.0,0.0,10.0,0.0,0.0,0.0,10.0
1452010247459932290,63,1452010247454669952,robocape_mag,10.95,-11.4,1.35,10.0,0.0,0.0,0.0,10.0,0.0,0.0,0.0,10.0
1452010247497827915,64,1452010247488343000,robocape_mag,10.35,-11.4,1.95,10.0,0.0,0.0,0.0,10.0,0.0,0.0,0.0,10.0
1452010247526952790,65,1452010247522128105,robocape_mag,10.35,-11.4,1.95,10.0,0.0,0.0,0.0,10.0,0.0,0.0,0.0,10.0
1452010247559917290,66,1452010247554910898,robocape_mag,10.35,-11.4,1.95,10.0,0.0,0.0,0.0,10.0,0.0,0.0,0.0,10.0
1452010247592715623,67,1452010247587927103,robocape_mag,10.35,-11.4,1.95,10.0,0.0,0.0,0.0,10.0,0.0,0.0,0.0,10.0
1452010247625786498,68,1452010247620811939,robocape_mag,10.35,-11.4,1.95,10.0,0.0,0.0,0.0,10.0,0.0,0.0,0.0,10.0
1452010247658812540,69,1452010247654010057,robocape_mag,10.35,-11.4,1.95,10.0,0.0,0.0,0.0,10.0,0.0,0.0,0.0,10.0
1452010247691080582,70,1452010247686255931,robocape_mag,10.35,-11.4,1.95,10.0,0.0,0.0,0.0,10.0,0.0,0.0,0.0,10.0
1452010247725008915,71,1452010247719722032,robocape_mag,10.35,-11.4,1.95,10.0,0.0,0.0,0.0,10.0,0.0,0.0,0.0,10.0
1452010247756763123,72,1452010247751959085,robocape_mag,10.35,-11.4,1.95,10.0,0.0,0.0,0.0,10.0,0.0,0.0,0.0,10.0
1452010247799068457,73,1452010247786633968,robocape_mag,10.35,-11.4,1.95,10.0,0.0,0.0,0.0,10.0,0.0,0.0,0.0,10.0
1452010247824342582,74,1452010247819061994,robocape_mag,10.35,-11.4,1.35,10.0,0.0,0.0,0.0,10.0,0.0,0.0,0.0,10.0
1452010247858115540,75,1452010247853147029,robocape_mag,10.35,-11.4,1.35,10.0,0.0,0.0,0.0,10.0,0.0,0.0,0.0,10.0
1452010247890793540,76,1452010247885812044,robocape_mag,10.35,-11.4,1.35,10.0,0.0,0.0,0.0,10.0,0.0,0.0,0.0,10.0
1452010247923920540,77,1452010247918992996,robocape_mag,10.35,-11.4,1.35,10.0,0.0,0.0,0.0,10.0,0.0,0.0,0.0,10.0
1452010247958493332,78,1452010247953414916,robocape_mag,10.35,-11.4,1.35,10.0,0.0,0.0,0.0,10.0,0.0,0.0,0.0,10.0
1452010247995040540,79,1452010247987262964,robocape_mag,10.05,-11.1,1.05,10.0,0.0,0.0,0.0,10.0,0.0,0.0,0.0,10.0
1452010248029392082,80,1452010248021583080,robocape_mag,10.05,-11.1,1.05,10.0,0.0,0.0,0.0,10.0,0.0,0.0,0.0,10.0
1452010248060735624,81,1452010248053730010,robocape_mag,10.05,-11.1,1.05,10.0,0.0,0.0,0.0,10.0,0.0,0.0,0.0,10.0
1452010248094220749,82,1452010248089250087,robocape_mag,10.05,-11.1,1.05,10.0,0.0,0.0,0.0,10.0,0.0,0.0,0.0,10.0
1452010248133184957,83,1452010248119709968,robocape_mag,10.05,-11.1,1.65,10.0,0.0,0.0,0.0,10.0,0.0,0.0,0.0,10.0
1452010248162162957,84,1452010248152688980,robocape_mag,10.05,-11.1,1.65,10.0,0.0,0.0,0.0,10.0,0.0,0.0,0.0,10.0
1452010248195641915,85,1452010248187899112,robocape_mag,10.05,-11.1,1.65,10.0,0.0,0.0,0.0,10.0,0.0,0.0,0.0,10.0
1452010248228388999,86,1452010248223105907,robocape_mag,10.05,-11.1,1.65,10.0,0.0,0.0,0.0,10.0,0.0,0.0,0.0,10.0
1452010248261415624,87,1452010248256347894,robocape_mag,10.05,-11.1,1.65,10.0,0.0,0.0,0.0,10.0,0.0,0.0,0.0,10.0
1452010248296920957,88,1452010248289426088,robocape_mag,11.55,-10.8,1.35,10.0,0.0,0.0,0.0,10.0,0.0,0.0,0.0,10.0
1452010248326661249,89,1452010248320878028,robocape_mag,11.55,-10.8,1.35,10.0,0.0,0.0,0.0,10.0,0.0,0.0,0.0,10.0
1452010248359894957,90,1452010248353981971,robocape_mag,11.55,-10.8,1.35,10.0,0.0,0.0,0.0,10.0,0.0,0.0,0.0,10.0
1452010248394819915,91,1452010248389632940,robocape_mag,11.55,-10.8,1.35,10.0,0.0,0.0,0.0,10.0,0.0,0.0,0.0,10.0
1452010248427201207,92,1452010248421891927,robocape_mag,11.55,-10.8,1.35,10.0,0.0,0.0,0.0,10.0,0.0,0.0,0.0,10.0
1452010248460280957,93,1452010248454871892,robocape_mag,10.95,-10.8,3.75,10.0,0.0,0.0,0.0,10.0,0.0,0.0,0.0,10.0
1452010248494088707,94,1452010248488922119,robocape_mag,10.95,-10.8,3.75,10.0,0.0,0.0,0.0,10.0,0.0,0.0,0.0,10.0
1452010248526019999,95,1452010248521091938,robocape_mag,10.95,-10.8,3.75,10.0,0.0,0.0,0.0,10.0,0.0,0.0,0.0,10.0
1452010248560831249,96,1452010248555896997,robocape_mag,10.95,-10.8,3.75,10.0,0.0,0.0,0.0,10.0,0.0,0.0,0.0,10.0
1452010248594991874,97,1452010248590022087,robocape_mag,10.95,-10.8,3.75,10.0,0.0,0.0,0.0,10.0,0.0,0.0,0.0,10.0
1452010248627280582,98,1452010248622119903,robocape_mag,10.35,-12.6,1.95,10.0,0.0,0.0,0.0,10.0,0.0,0.0,0.0,10.0
1452010248660200374,99,1452010248655239105,robocape_mag,10.35,-12.6,1.95,10.0,0.0,0.0,0.0,10.0,0.0,0.0,0.0,10.0
1452010248693116457,100,1452010248688302993,robocape_mag,10.35,-12.6,1.95,10.0,0.0,0.0,0.0,10.0,0.0,0.0,0.0,10.0
1452010248730333041,101,1452010248721203088,robocape_mag,10.35,-12.6,1.95,10.0,0.0,0.0,0.0,10.0,0.0,0.0,0.0,10.0
1452010248759163541,102,1452010248754221916,robocape_mag,10.35,-12.6,1.95,10.0,0.0,0.0,0.0,10.0,0.0,0.0,0.0,10.0
1452010248798840166,103,1452010248787844896,robocape_mag,11.55,-10.2,3.15,10.0,0.0,0.0,0.0,10.0,0.0,0.0,0.0,10.0
1452010248828321791,104,1452010248823317050,robocape_mag,11.55,-10.2,3.15,10.0,0.0,0.0,0.0,10.0,0.0,0.0,0.0,10.0
1452010248860580999,105,1452010248852519989,robocape_mag,11.55,-10.2,3.15,10.0,0.0,0.0,0.0,10.0,0.0,0.0,0.0,10.0
1452010248890820332,106,1452010248885977983,robocape_mag,11.55,-10.2,3.15,10.0,0.0,0.0,0.0,10.0,0.0,0.0,0.0,10.0
1452010248924512374,107,1452010248919601917,robocape_mag,9.75,-10.2,4.35,10.0,0.0,0.0,0.0,10.0,0.0,0.0,0.0,10.0
1452010248957285749,108,1452010248952358007,robocape_mag,9.75,-10.2,4.35,10.0,0.0,0.0,0.0,10.0,0.0,0.0,0.0,10.0
1452010248990601291,109,1452010248985801935,robocape_mag,9.75,-10.2,4.35,10.0,0.0,0.0,0.0,10.0,0.0,0.0,0.0,10.0
1452010249023906374,110,1452010249018855094,robocape_mag,9.75,-10.2,4.35,10.0,0.0,0.0,0.0,10.0,0.0,0.0,0.0,10.0
1452010249056995124,111,1452010249052063941,robocape_mag,9.75,-10.2,4.35,10.0,0.0,0.0,0.0,10.0,0.0,0.0,0.0,10.0
1452010249090538624,112,1452010249085683107,robocape_mag,11.55,-11.4,1.95,10.0,0.0,0.0,0.0,10.0,0.0,0.0,0.0,10.0
1452010249126971457,113,1452010249118678092,robocape_mag,11.55,-11.4,1.95,10.0,0.0,0.0,0.0,10.0,0.0,0.0,0.0,10.0
1452010249157219749,114,1452010249152043104,robocape_mag,11.55,-11.4,1.95,10.0,0.0,0.0,0.0,10.0,0.0,0.0,0.0,10.0
1452010249189880874,115,1452010249185168027,robocape_mag,11.55,-11.4,1.95,10.0,0.0,0.0,0.0,10.0,0.0,0.0,0.0,10.0
1452010249223417916,116,1452010249218555927,robocape_mag,11.55,-11.4,1.95,10.0,0.0,0.0,0.0,10.0,0.0,0.0,0.0,10.0
1452010249261014208,117,1452010249251897096,robocape_mag,10.35,-10.2,2.55,10.0,0.0,0.0,0.0,10.0,0.0,0.0,0.0,10.0
1452010249290127999,118,1452010249285351991,robocape_mag,10.35,-10.2,2.55,10.0,0.0,0.0,0.0,10.0,0.0,0.0,0.0,10.0
1452010249323305958,119,1452010249318470954,robocape_mag,10.35,-10.2,2.55,10.0,0.0,0.0,0.0,10.0,0.0,0.0,0.0,10.0
1452010249360692041,120,1452010249351969957,robocape_mag,10.35,-10.2,2.55,10.0,0.0,0.0,0.0,10.0,0.0,0.0,0.0,10.0
1452010249390305666,121,1452010249385504007,robocape_mag,10.35,-10.2,2.55,10.0,0.0,0.0,0.0,10.0,0.0,0.0,0.0,10.0
1452010249423428208,122,1452010249418589115,robocape_mag,11.85,-11.7,2.25,10.0,0.0,0.0,0.0,10.0,0.0,0.0,0.0,10.0
1452010249456870374,123,1452010249451901912,robocape_mag,11.85,-11.7,2.25,10.0,0.0,0.0,0.0,10.0,0.0,0.0,0.0,10.0
1452010249490150749,124,1452010249485188007,robocape_mag,11.85,-11.7,2.25,10.0,0.0,0.0,0.0,10.0,0.0,0.0,0.0,10.0
1452010249523271749,125,1452010249518496990,robocape_mag,11.85,-11.7,2.25,10.0,0.0,0.0,0.0,10.0,0.0,0.0,0.0,10.0
1452010249556707291,126,1452010249551951885,robocape_mag,11.85,-11.7,2.25,10.0,0.0,0.0,0.0,10.0,0.0,0.0,0.0,10.0
1452010249590163416,127,1452010249585125923,robocape_mag,9.75,-12.6,2.55,10.0,0.0,0.0,0.0,10.0,0.0,0.0,0.0,10.0
1452010249624286833,128,1452010249618649959,robocape_mag,9.75,-12.6,2.55,10.0,0.0,0.0,0.0,10.0,0.0,0.0,0.0,10.0
1452010249658336416,129,1452010249651921987,robocape_mag,9.75,-12.6,2.55,10.0,0.0,0.0,0.0,10.0,0.0,0.0,0.0,10.0
1452010249690175583,130,1452010249685230016,robocape_mag,9.75,-12.6,2.55,10.0,0.0,0.0,0.0,10.0,0.0,0.0,0.0,10.0
1452010249723893833,131,1452010249718831062,robocape_mag,11.25,-12.3,1.05,10.0,0.0,0.0,0.0,10.0,0.0,0.0,0.0,10.0
1452010249756848291,132,1452010249751878023,robocape_mag,11.25,-12.3,1.05,10.0,0.0,0.0,0.0,10.0,0.0,0.0,0.0,10.0
1452010249790629749,133,1452010249785382986,robocape_mag,11.25,-12.3,1.05,10.0,0.0,0.0,0.0,10.0,0.0,0.0,0.0,10.0
1452010249826884833,134,1452010249819228887,robocape_mag,11.25,-12.3,1.05,10.0,0.0,0.0,0.0,10.0,0.0,0.0,0.0,10.0
1452010249856951374,135,1452010249851893901,robocape_mag,11.25,-12.3,1.05,10.0,0.0,0.0,0.0,10.0,0.0,0.0,0.0,10.0
1452010249890167583,136,1452010249885142087,robocape_mag,8.55,-12.6,0.75,10.0,0.0,0.0,0.0,10.0,0.0,0.0,0.0,10.0
1452010249923501541,137,1452010249918612003,robocape_mag,8.55,-12.6,0.75,10.0,0.0,0.0,0.0,10.0,0.0,0.0,0.0,10.0
1452010249956695708,138,1452010249951826095,robocape_mag,8.55,-12.6,0.75,10.0,0.0,0.0,0.0,10.0,0.0,0.0,0.0,10.0
1452010249990268291,139,1452010249985179901,robocape_mag,8.55,-12.6,0.75,10.0,0.0,0.0,0.0,10.0,0.0,0.0,0.0,10.0
1452010250023304875,140,1452010250018507957,robocape_mag,8.55,-12.6,0.75,10.0,0.0,0.0,0.0,10.0,0.0,0.0,0.0,10.0
1452010250056840291,141,1452010250052050113,robocape_mag,9.75,-11.4,2.55,10.0,0.0,0.0,0.0,10.0,0.0,0.0,0.0,10.0
1452010250090556291,142,1452010250085437059,robocape_mag,9.75,-11.4,2.55,10.0,0.0,0.0,0.0,10.0,0.0,0.0,0.0,10.0
1452010250126447333,143,1452010250119817018,robocape_mag,9.75,-11.4,2.55,10.0,0.0,0.0,0.0,10.0,0.0,0.0,0.0,10.0
1452010250158458291,144,1452010250153503894,robocape_mag,9.75,-11.4,2.55,10.0,0.0,0.0,0.0,10.0,0.0,0.0,0.0,10.0
1452010250191511166,145,1452010250186706066,robocape_mag,9.75,-11.4,2.55,10.0,0.0,0.0,0.0,10.0,0.0,0.0,0.0,10.0
1452010250224095416,146,1452010250219039916,robocape_mag,9.15,-10.2,1.95,10.0,0.0,0.0,0.0,10.0,0.0,0.0,0.0,10.0
1452010250258364666,147,1452010250253508090,robocape_mag,9.15,-10.2,1.95,10.0,0.0,0.0,0.0,10.0,0.0,0.0,0.0,10.0
1452010250290717916,148,1452010250285861015,robocape_mag,9.15,-10.2,1.95,10.0,0.0,0.0,0.0,10.0,0.0,0.0,0.0,10.0
1452010250328016916,149,1452010250320244073,robocape_mag,9.15,-10.2,1.95,10.0,0.0,0.0,0.0,10.0,0.0,0.0,0.0,10.0
1452010250361102958,150,1452010250353697061,robocape_mag,9.15,-10.2,1.95,10.0,0.0,0.0,0.0,10.0,0.0,0.0,0.0,10.0
1452010250394074875,151,1452010250385921001,robocape_mag,11.25,-10.5,1.65,10.0,0.0,0.0,0.0,10.0,0.0,0.0,0.0,10.0
1452010250433637541,152,1452010250420934915,robocape_mag,11.25,-10.5,1.65,10.0,0.0,0.0,0.0,10.0,0.0,0.0,0.0,10.0
1452010250463135833,153,1452010250454060077,robocape_mag,11.25,-10.5,1.65,10.0,0.0,0.0,0.0,10.0,0.0,0.0,0.0,10.0
1452010250493160333,154,1452010250486737966,robocape_mag,11.25,-10.5,1.65,10.0,0.0,0.0,0.0,10.0,0.0,0.0,0.0,10.0
1452010250529322916,155,1452010250523812055,robocape_mag,10.35,-12.0,3.15,10.0,0.0,0.0,0.0,10.0,0.0,0.0,0.0,10.0
1452010250561308000,156,1452010250556179046,robocape_mag,10.35,-12.0,3.15,10.0,0.0,0.0,0.0,10.0,0.0,0.0,0.0,10.0
1452010250594342666,157,1452010250589356899,robocape_mag,10.35,-12.0,3.15,10.0,0.0,0.0,0.0,10.0,0.0,0.0,0.0,10.0
1452010250628154500,158,1452010250622586011,robocape_mag,10.35,-12.0,3.15,10.0,0.0,0.0,0.0,10.0,0.0,0.0,0.0,10.0
1452010250665572167,159,1452010250656004905,robocape_mag,10.35,-12.0,3.15,10.0,0.0,0.0,0.0,10.0,0.0,0.0,0.0,10.0
1452010250694643333,160,1452010250689472913,robocape_mag,10.65,-12.3,2.85,10.0,0.0,0.0,0.0,10.0,0.0,0.0,0.0,10.0
1452010250731084125,161,1452010250722755908,robocape_mag,10.65,-12.3,2.85,10.0,0.0,0.0,0.0,10.0,0.0,0.0,0.0,10.0
1452010250760691458,162,1452010250755654096,robocape_mag,10.65,-12.3,2.85,10.0,0.0,0.0,0.0,10.0,0.0,0.0,0.0,10.0
1452010250803147208,163,1452010250788666963,robocape_mag,10.65,-12.3,2.85,10.0,0.0,0.0,0.0,10.0,0.0,0.0,0.0,10.0
1452010250827090833,164,1452010250821919918,robocape_mag,10.65,-12.3,2.85,10.0,0.0,0.0,0.0,10.0,0.0,0.0,0.0,10.0
1452010250860315750,165,1452010250855489015,robocape_mag,10.95,-11.4,1.95,10.0,0.0,0.0,0.0,10.0,0.0,0.0,0.0,10.0
1452010250893645125,166,1452010250888667106,robocape_mag,10.95,-11.4,1.95,10.0,0.0,0.0,0.0,10.0,0.0,0.0,0.0,10.0
1452010250926842875,167,1452010250921907901,robocape_mag,10.95,-11.4,1.95,10.0,0.0,0.0,0.0,10.0,0.0,0.0,0.0,10.0
1452010250959961792,168,1452010250955193996,robocape_mag,10.95,-11.4,1.95,10.0,0.0,0.0,0.0,10.0,0.0,0.0,0.0,10.0
1452010250993179000,169,1452010250988461971,robocape_mag,10.95,-11.4,1.95,10.0,0.0,0.0,0.0,10.0,0.0,0.0,0.0,10.0
1452010251030955458,170,1452010251021435022,robocape_mag,8.25,-11.1,1.65,10.0,0.0,0.0,0.0,10.0,0.0,0.0,0.0,10.0
1452010251059376417,171,1452010251054547071,robocape_mag,8.25,-11.1,1.65,10.0,0.0,0.0,0.0,10.0,0.0,0.0,0.0,10.0
1452010251093817333,172,1452010251088792085,robocape_mag,8.25,-11.1,1.65,10.0,0.0,0.0,0.0,10.0,0.0,0.0,0.0,10.0
1452010251126570417,173,1452010251121459960,robocape_mag,8.25,-11.1,1.65,10.0,0.0,0.0,0.0,10.0,0.0,0.0,0.0,10.0
1452010251162421958,174,1452010251153003931,robocape_mag,8.25,-11.1,1.65,10.0,0.0,0.0,0.0,10.0,0.0,0.0,0.0,10.0
1452010251192747917,175,1452010251187913894,robocape_mag,10.95,-11.4,1.95,10.0,0.0,0.0,0.0,10.0,0.0,0.0,0.0,10.0
1452010251224866750,176,1452010251219794988,robocape_mag,10.95,-11.4,1.95,10.0,0.0,0.0,0.0,10.0,0.0,0.0,0.0,10.0
1452010251257226542,177,1452010251252429008,robocape_mag,10.95,-11.4,1.95,10.0,0.0,0.0,0.0,10.0,0.0,0.0,0.0,10.0
1452010251291064750,178,1452010251286310911,robocape_mag,10.95,-11.4,1.95,10.0,0.0,0.0,0.0,10.0,0.0,0.0,0.0,10.0
1452010251323882167,179,1452010251318835973,robocape_mag,10.35,-11.4,1.35,10.0,0.0,0.0,0.0,10.0,0.0,0.0,0.0,10.0
1452010251356975625,180,1452010251352056980,robocape_mag,10.35,-11.4,1.35,10.0,0.0,0.0,0.0,10.0,0.0,0.0,0.0,10.0
1452010251390393042,181,1452010251385520935,robocape_mag,10.35,-11.4,1.35,10.0,0.0,0.0,0.0,10.0,0.0,0.0,0.0,10.0
1452010251424018334,182,1452010251418961048,robocape_mag,10.35,-11.4,1.35,10.0,0.0,0.0,0.0,10.0,0.0,0.0,0.0,10.0
1452010251457319459,183,1452010251452531099,robocape_mag,10.35,-11.4,1.35,10.0,0.0,0.0,0.0,10.0,0.0,0.0,0.0,10.0
1452010251490348250,184,1452010251485327959,robocape_mag,11.25,-9.9,1.65,10.0,0.0,0.0,0.0,10.0,0.0,0.0,0.0,10.0
1452010251523506625,185,1452010251518452882,robocape_mag,11.25,-9.9,1.65,10.0,0.0,0.0,0.0,10.0,0.0,0.0,0.0,10.0
1452010251556685375,186,1452010251551919937,robocape_mag,11.25,-9.9,1.65,10.0,0.0,0.0,0.0,10.0,0.0,0.0,0.0,10.0
1452010251590226667,187,1452010251585293054,robocape_mag,11.25,-9.9,1.65,10.0,0.0,0.0,0.0,10.0,0.0,0.0,0.0,10.0
1452010251624501792,188,1452010251619210004,robocape_mag,11.25,-9.9,1.65,10.0,0.0,0.0,0.0,10.0,0.0,0.0,0.0,10.0
1452010251657699875,189,1452010251652884960,robocape_mag,10.95,-12.0,1.95,10.0,0.0,0.0,0.0,10.0,0.0,0.0,0.0,10.0
1452010251690179042,190,1452010251685434103,robocape_mag,10.95,-12.0,1.95,10.0,0.0,0.0,0.0,10.0,0.0,0.0,0.0,10.0
1452010251724124500,191,1452010251718911886,robocape_mag,10.95,-12.0,1.95,10.0,0.0,0.0,0.0,10.0,0.0,0.0,0.0,10.0
1452010251756907667,192,1452010251752116918,robocape_mag,10.95,-12.0,1.95,10.0,0.0,0.0,0.0,10.0,0.0,0.0,0.0,10.0
1452010251800347834,193,1452010251785887002,robocape_mag,10.95,-12.0,1.95,10.0,0.0,0.0,0.0,10.0,0.0,0.0,0.0,10.0
1452010251825766750,194,1452010251819931983,robocape_mag,9.15,-10.8,2.55,10.0,0.0,0.0,0.0,10.0,0.0,0.0,0.0,10.0
1452010251856921209,195,1452010251851896047,robocape_mag,9.15,-10.8,2.55,10.0,0.0,0.0,0.0,10.0,0.0,0.0,0.0,10.0
1452010251890125625,196,1452010251885209083,robocape_mag,9.15,-10.8,2.55,10.0,0.0,0.0,0.0,10.0,0.0,0.0,0.0,10.0
1452010251923548167,197,1452010251918490886,robocape_mag,9.15,-10.8,2.55,10.0,0.0,0.0,0.0,10.0,0.0,0.0,0.0,10.0
1452010251958634792,198,1452010251951806068,robocape_mag,9.15,-10.8,2.55,10.0,0.0,0.0,0.0,10.0,0.0,0.0,0.0,10.0
1452010251992209459,199,1452010251985480070,robocape_mag,10.05,-11.1,1.05,10.0,0.0,0.0,0.0,10.0,0.0,0.0,0.0,10.0
1452010252023681500,200,1452010252018425941,robocape_mag,10.05,-11.1,1.05,10.0,0.0,0.0,0.0,10.0,0.0,0.0,0.0,10.0
1452010252057101792,201,1452010252051949024,robocape_mag,10.05,-11.1,1.05,10.0,0.0,0.0,0.0,10.0,0.0,0.0,0.0,10.0
1452010252090784584,202,1452010252085623025,robocape_mag,10.05,-11.1,1.05,10.0,0.0,0.0,0.0,10.0,0.0,0.0,0.0,10.0
1452010252124352834,203,1452010252118870019,robocape_mag,9.45,-11.7,4.05,10.0,0.0,0.0,0.0,10.0,0.0,0.0,0.0,10.0
1452010252157490459,204,1452010252152118921,robocape_mag,9.45,-11.7,4.05,10.0,0.0,0.0,0.0,10.0,0.0,0.0,0.0,10.0
1452010252190393751,205,1452010252185280084,robocape_mag,9.45,-11.7,4.05,10.0,0.0,0.0,0.0,10.0,0.0,0.0,0.0,10.0
1452010252223326626,206,1452010252218430995,robocape_mag,9.45,-11.7,4.05,10.0,0.0,0.0,0.0,10.0,0.0,0.0,0.0,10.0
1452010252256884792,207,1452010252251840114,robocape_mag,9.45,-11.7,4.05,10.0,0.0,0.0,0.0,10.0,0.0,0.0,0.0,10.0
1452010252290560209,208,1452010252285523891,robocape_mag,9.15,-12.0,3.75,10.0,0.0,0.0,0.0,10.0,0.0,0.0,0.0,10.0
1452010252323313501,209,1452010252318571090,robocape_mag,9.15,-12.0,3.75,10.0,0.0,0.0,0.0,10.0,0.0,0.0,0.0,10.0
1452010252356976626,210,1452010252352014064,robocape_mag,9.15,-12.0,3.75,10.0,0.0,0.0,0.0,10.0,0.0,0.0,0.0,10.0
1452010252390380959,211,1452010252385365962,robocape_mag,9.15,-12.0,3.75,10.0,0.0,0.0,0.0,10.0,0.0,0.0,0.0,10.0
1452010252423450126,212,1452010252418654918,robocape_mag,9.15,-12.0,3.75,10.0,0.0,0.0,0.0,10.0,0.0,0.0,0.0,10.0
1452010252459449834,213,1452010252452970027,robocape_mag,9.75,-11.4,2.55,10.0,0.0,0.0,0.0,10.0,0.0,0.0,0.0,10.0
1452010252494511959,214,1452010252489620923,robocape_mag,9.75,-11.4,2.55,10.0,0.0,0.0,0.0,10.0,0.0,0.0,0.0,10.0
1452010252525903292,215,1452010252520936965,robocape_mag,9.75,-11.4,2.55,10.0,0.0,0.0,0.0,10.0,0.0,0.0,0.0,10.0
1452010252557035876,216,1452010252552294969,robocape_mag,9.75,-11.4,2.55,10.0,0.0,0.0,0.0,10.0,0.0,0.0,0.0,10.0
1452010252592309001,217,1452010252587208032,robocape_mag,9.75,-11.4,2.55,10.0,0.0,0.0,0.0,10.0,0.0,0.0,0.0,10.0
1452010252623659959,218,1452010252618731975,robocape_mag,10.95,-12.0,0.75,10.0,0.0,0.0,0.0,10.0,0.0,0.0,0.0,10.0
1452010252657045209,219,1452010252652290105,robocape_mag,10.95,-12.0,0.75,10.0,0.0,0.0,0.0,10.0,0.0,0.0,0.0,10.0
1452010252690235834,220,1452010252685365915,robocape_mag,10.95,-12.0,0.75,10.0,0.0,0.0,0.0,10.0,0.0,0.0,0.0,10.0
1452010252723935126,221,1452010252719139099,robocape_mag,10.95,-12.0,0.75,10.0,0.0,0.0,0.0,10.0,0.0,0.0,0.0,10.0
1452010252756876959,222,1452010252752103090,robocape_mag,10.95,-12.0,0.75,10.0,0.0,0.0,0.0,10.0,0.0,0.0,0.0,10.0
1452010252800232459,223,1452010252786140918,robocape_mag,10.05,-10.5,1.65,10.0,0.0,0.0,0.0,10.0,0.0,0.0,0.0,10.0
1452010252824276459,224,1452010252819509029,robocape_mag,10.05,-10.5,1.65,10.0,0.0,0.0,0.0,10.0,0.0,0.0,0.0,10.0
1452010252857041001,225,1452010252852247953,robocape_mag,10.05,-10.5,1.65,10.0,0.0,0.0,0.0,10.0,0.0,0.0,0.0,10.0
1452010252890537459,226,1452010252885476112,robocape_mag,10.05,-10.5,1.65,10.0,0.0,0.0,0.0,10.0,0.0,0.0,0.0,10.0
1452010252923369376,227,1452010252918589115,robocape_mag,10.05,-11.1,2.85,10.0,0.0,0.0,0.0,10.0,0.0,0.0,0.0,10.0
1452010252956823459,228,1452010252952025890,robocape_mag,10.05,-11.1,2.85,10.0,0.0,0.0,0.0,10.0,0.0,0.0,0.0,10.0
1452010252990471126,229,1452010252985575914,robocape_mag,10.05,-11.1,2.85,10.0,0.0,0.0,0.0,10.0,0.0,0.0,0.0,10.0
1452010253023296626,230,1452010253018467903,robocape_mag,10.05,-11.1,2.85,10.0,0.0,0.0,0.0,10.0,0.0,0.0,0.0,10.0
1452010253056894876,231,1452010253052119016,robocape_mag,10.05,-11.1,2.85,10.0,0.0,0.0,0.0,10.0,0.0,0.0,0.0,10.0
1452010253091362209,232,1452010253085422039,robocape_mag,11.55,-11.4,1.35,10.0,0.0,0.0,0.0,10.0,0.0,0.0,0.0,10.0
1452010253125810959,233,1452010253118428945,robocape_mag,11.55,-11.4,1.35,10.0,0.0,0.0,0.0,10.0,0.0,0.0,0.0,10.0
1452010253158844168,234,1452010253152136087,robocape_mag,11.55,-11.4,1.35,10.0,0.0,0.0,0.0,10.0,0.0,0.0,0.0,10.0
1452010253190371876,235,1452010253185332059,robocape_mag,11.55,-11.4,1.35,10.0,0.0,0.0,0.0,10.0,0.0,0.0,0.0,10.0
1452010253223292959,236,1452010253218401908,robocape_mag,11.55,-11.4,1.35,10.0,0.0,0.0,0.0,10.0,0.0,0.0,0.0,10.0
1452010253257237043,237,1452010253252121925,robocape_mag,8.85,-11.7,1.05,10.0,0.0,0.0,0.0,10.0,0.0,0.0,0.0,10.0
1452010253292614626,238,1452010253285568952,robocape_mag,8.85,-11.7,1.05,10.0,0.0,0.0,0.0,10.0,0.0,0.0,0.0,10.0
1452010253323781126,239,1452010253318650007,robocape_mag,8.85,-11.7,1.05,10.0,0.0,0.0,0.0,10.0,0.0,0.0,0.0,10.0
1452010253356841793,240,1452010253351882934,robocape_mag,8.85,-11.7,1.05,10.0,0.0,0.0,0.0,10.0,0.0,0.0,0.0,10.0
1452010253390376709,241,1452010253385193109,robocape_mag,8.85,-11.7,1.05,10.0,0.0,0.0,0.0,10.0,0.0,0.0,0.0,10.0
1452010253423304876,242,1452010253418373107,robocape_mag,10.65,-11.7,2.25,10.0,0.0,0.0,0.0,10.0,0.0,0.0,0.0,10.0
1452010253457112751,243,1452010253452099084,robocape_mag,10.65,-11.7,2.25,10.0,0.0,0.0,0.0,10.0,0.0,0.0,0.0,10.0
1452010253490358668,244,1452010253485351085,robocape_mag,10.65,-11.7,2.25,10.0,0.0,0.0,0.0,10.0,0.0,0.0,0.0,10.0
1452010253523263918,245,1452010253518466949,robocape_mag,10.65,-11.7,2.25,10.0,0.0,0.0,0.0,10.0,0.0,0.0,0.0,10.0
1452010253556960668,246,1452010253552016973,robocape_mag,10.65,-11.7,2.25,10.0,0.0,0.0,0.0,10.0,0.0,0.0,0.0,10.0
1452010253591151335,247,1452010253585546970,robocape_mag,9.45,-10.5,1.05,10.0,0.0,0.0,0.0,10.0,0.0,0.0,0.0,10.0
1452010253627059460,248,1452010253618781089,robocape_mag,9.45,-10.5,1.05,10.0,0.0,0.0,0.0,10.0,0.0,0.0,0.0,10.0
1452010253657554043,249,1452010253652093887,robocape_mag,9.45,-10.5,1.05,10.0,0.0,0.0,0.0,10.0,0.0,0.0,0.0,10.0
1452010253691656001,250,1452010253686587095,robocape_mag,9.45,-10.5,1.05,10.0,0.0,0.0,0.0,10.0,0.0,0.0,0.0,10.0
1452010253724138668,251,1452010253718993902,robocape_mag,9.75,-12.0,1.35,10.0,0.0,0.0,0.0,10.0,0.0,0.0,0.0,10.0
1452010253758553418,252,1452010253753448009,robocape_mag,9.75,-12.0,1.35,10.0,0.0,0.0,0.0,10.0,0.0,0.0,0.0,10.0
1452010253802202251,253,1452010253787631988,robocape_mag,9.75,-12.0,1.35,10.0,0.0,0.0,0.0,10.0,0.0,0.0,0.0,10.0
1452010253830235918,254,1452010253823868036,robocape_mag,9.75,-12.0,1.35,10.0,0.0,0.0,0.0,10.0,0.0,0.0,0.0,10.0
1452010253861367335,255,1452010253853877067,robocape_mag,9.75,-12.0,1.35,10.0,0.0,0.0,0.0,10.0,0.0,0.0,0.0,10.0
1452010253895051835,256,1452010253889281988,robocape_mag,12.45,-6.9,3.45,10.0,0.0,0.0,0.0,10.0,0.0,0.0,0.0,10.0
1452010253926508001,257,1452010253920536041,robocape_mag,12.45,-6.9,3.45,10.0,0.0,0.0,0.0,10.0,0.0,0.0,0.0,10.0
1452010253962332126,258,1452010253956274986,robocape_mag,12.45,-6.9,3.45,10.0,0.0,0.0,0.0,10.0,0.0,0.0,0.0,10.0
1452010253995399710,259,1452010253990114927,robocape_mag,12.45,-6.9,3.45,10.0,0.0,0.0,0.0,10.0,0.0,0.0,0.0,10.0
1452010254027893335,260,1452010254021826982,robocape_mag,12.45,-6.9,3.45,10.0,0.0,0.0,0.0,10.0,0.0,0.0,0.0,10.0
1452010254063928876,261,1452010254055186033,robocape_mag,11.55,-10.8,3.75,10.0,0.0,0.0,0.0,10.0,0.0,0.0,0.0,10.0
1452010254094470710,262,1452010254088654041,robocape_mag,11.55,-10.8,3.75,10.0,0.0,0.0,0.0,10.0,0.0,0.0,0.0,10.0
1452010254123574751,263,1452010254118355989,robocape_mag,11.55,-10.8,3.75,10.0,0.0,0.0,0.0,10.0,0.0,0.0,0.0,10.0
1452010254156974627,264,1452010254152045965,robocape_mag,11.55,-10.8,3.75,10.0,0.0,0.0,0.0,10.0,0.0,0.0,0.0,10.0
1452010254190618877,265,1452010254185422897,robocape_mag,11.55,-10.8,3.75,10.0,0.0,0.0,0.0,10.0,0.0,0.0,0.0,10.0
1452010254223243627,266,1452010254218429088,robocape_mag,16.05,-9.3,1.05,10.0,0.0,0.0,0.0,10.0,0.0,0.0,0.0,10.0
1452010254256578502,267,1452010254251820087,robocape_mag,16.05,-9.3,1.05,10.0,0.0,0.0,0.0,10.0,0.0,0.0,0.0,10.0
1452010254291315668,268,1452010254285301923,robocape_mag,16.05,-9.3,1.05,10.0,0.0,0.0,0.0,10.0,0.0,0.0,0.0,10.0
1452010254324021460,269,1452010254318530082,robocape_mag,16.05,-9.3,1.05,10.0,0.0,0.0,0.0,10.0,0.0,0.0,0.0,10.0
1452010254357002627,270,1452010254351948976,robocape_mag,16.05,-9.3,1.05,10.0,0.0,0.0,0.0,10.0,0.0,0.0,0.0,10.0
1452010254392230752,271,1452010254385111093,robocape_mag,14.25,-8.1,2.25,10.0,0.0,0.0,0.0,10.0,0.0,0.0,0.0,10.0
1452010254423642335,272,1452010254418502092,robocape_mag,14.25,-8.1,2.25,10.0,0.0,0.0,0.0,10.0,0.0,0.0,0.0,10.0
1452010254459873918,273,1452010254451790094,robocape_mag,14.25,-8.1,2.25,10.0,0.0,0.0,0.0,10.0,0.0,0.0,0.0,10.0
1452010254492343210,274,1452010254485266923,robocape_mag,14.25,-8.1,2.25,10.0,0.0,0.0,0.0,10.0,0.0,0.0,0.0,10.0
1452010254523622752,275,1452010254518723964,robocape_mag,10.05,-12.9,2.25,10.0,0.0,0.0,0.0,10.0,0.0,0.0,0.0,10.0
1452010254558798710,276,1452010254551923990,robocape_mag,10.05,-12.9,2.25,10.0,0.0,0.0,0.0,10.0,0.0,0.0,0.0,10.0
1452010254592128835,277,1452010254586844921,robocape_mag,10.05,-12.9,2.25,10.0,0.0,0.0,0.0,10.0,0.0,0.0,0.0,10.0
1452010254625161668,278,1452010254618643999,robocape_mag,10.05,-12.9,2.25,10.0,0.0,0.0,0.0,10.0,0.0,0.0,0.0,10.0
1452010254656959043,279,1452010254652087926,robocape_mag,10.05,-12.9,2.25,10.0,0.0,0.0,0.0,10.0,0.0,0.0,0.0,10.0
1452010254690372502,280,1452010254685347080,robocape_mag,7.35,-10.8,0.15,10.0,0.0,0.0,0.0,10.0,0.0,0.0,0.0,10.0
1452010254723251293,281,1452010254718485116,robocape_mag,7.35,-10.8,0.15,10.0,0.0,0.0,0.0,10.0,0.0,0.0,0.0,10.0
1452010254756720460,282,1452010254751974105,robocape_mag,7.35,-10.8,0.15,10.0,0.0,0.0,0.0,10.0,0.0,0.0,0.0,10.0
1452010254799363252,283,1452010254786616086,robocape_mag,7.35,-10.8,0.15,10.0,0.0,0.0,0.0,10.0,0.0,0.0,0.0,10.0
1452010254824949168,284,1452010254820128917,robocape_mag,7.35,-10.8,0.15,10.0,0.0,0.0,0.0,10.0,0.0,0.0,0.0,10.0
1452010254859012085,285,1452010254853137016,robocape_mag,12.75,-10.2,3.75,10.0,0.0,0.0,0.0,10.0,0.0,0.0,0.0,10.0
1452010254895990127,286,1452010254886666059,robocape_mag,12.75,-10.2,3.75,10.0,0.0,0.0,0.0,10.0,0.0,0.0,0.0,10.0
1452010254925551460,287,1452010254920165061,robocape_mag,12.75,-10.2,3.75,10.0,0.0,0.0,0.0,10.0,0.0,0.0,0.0,10.0
1452010254958988752,288,1452010254953651905,robocape_mag,12.75,-10.2,3.75,10.0,0.0,0.0,0.0,10.0,0.0,0.0,0.0,10.0
1452010254992263627,289,1452010254986816883,robocape_mag,12.75,-10.2,3.75,10.0,0.0,0.0,0.0,10.0,0.0,0.0,0.0,10.0
1452010255024425252,290,1452010255019401073,robocape_mag,16.65,-9.9,1.05,10.0,0.0,0.0,0.0,10.0,0.0,0.0,0.0,10.0
1452010255062277419,291,1452010255054049968,robocape_mag,16.65,-9.9,1.05,10.0,0.0,0.0,0.0,10.0,0.0,0.0,0.0,10.0
1452010255096267752,292,1452010255087106943,robocape_mag,16.65,-9.9,1.05,10.0,0.0,0.0,0.0,10.0,0.0,0.0,0.0,10.0
1452010255129170169,293,1452010255121536016,robocape_mag,16.65,-9.9,1.05,10.0,0.0,0.0,0.0,10.0,0.0,0.0,0.0,10.0
1452010255166262210,294,1452010255154977083,robocape_mag,16.65,-9.9,1.05,10.0,0.0,0.0,0.0,10.0,0.0,0.0,0.0,10.0
1452010255195609669,295,1452010255188245058,robocape_mag,8.85,-12.3,4.05,10.0,0.0,0.0,0.0,10.0,0.0,0.0,0.0,10.0
1452010255227713085,296,1452010255221445083,robocape_mag,8.85,-12.3,4.05,10.0,0.0,0.0,0.0,10.0,0.0,0.0,0.0,10.0
1452010255264153752,297,1452010255254817962,robocape_mag,8.85,-12.3,4.05,10.0,0.0,0.0,0.0,10.0,0.0,0.0,0.0,10.0
1452010255295425377,298,1452010255288610935,robocape_mag,8.85,-12.3,4.05,10.0,0.0,0.0,0.0,10.0,0.0,0.0,0.0,10.0
1452010255326517210,299,1452010255320944070,robocape_mag,9.15,-12.0,4.35,10.0,0.0,0.0,0.0,10.0,0.0,0.0,0.0,10.0
1452010255361020335,300,1452010255355834960,robocape_mag,9.15,-12.0,4.35,10.0,0.0,0.0,0.0,10.0,0.0,0.0,0.0,10.0
1452010255395241419,301,1452010255389837980,robocape_mag,9.15,-12.0,4.35,10.0,0.0,0.0,0.0,10.0,0.0,0.0,0.0,10.0
1452010255427132044,302,1452010255421941995,robocape_mag,9.15,-12.0,4.35,10.0,0.0,0.0,0.0,10.0,0.0,0.0,0.0,10.0
1452010255461638419,303,1452010255456815958,robocape_mag,9.15,-12.0,4.35,10.0,0.0,0.0,0.0,10.0,0.0,0.0,0.0,10.0
1452010255494880294,304,1452010255489645957,robocape_mag,14.25,-10.5,2.25,10.0,0.0,0.0,0.0,10.0,0.0,0.0,0.0,10.0
1452010255526181210,305,1452010255521241903,robocape_mag,14.25,-10.5,2.25,10.0,0.0,0.0,0.0,10.0,0.0,0.0,0.0,10.0
1452010255560064836,306,1452010255555213928,robocape_mag,14.25,-10.5,2.25,10.0,0.0,0.0,0.0,10.0,0.0,0.0,0.0,10.0
1452010255593061419,307,1452010255588063001,robocape_mag,14.25,-10.5,2.25,10.0,0.0,0.0,0.0,10.0,0.0,0.0,0.0,10.0
1452010255627607711,308,1452010255621155977,robocape_mag,14.25,-10.5,2.25,10.0,0.0,0.0,0.0,10.0,0.0,0.0,0.0,10.0
1452010255660293127,309,1452010255655277967,robocape_mag,11.55,-11.4,4.95,10.0,0.0,0.0,0.0,10.0,0.0,0.0,0.0,10.0
1452010255692333836,310,1452010255687256097,robocape_mag,11.55,-11.4,4.95,10.0,0.0,0.0,0.0,10.0,0.0,0.0,0.0,10.0
1452010255726215877,311,1452010255721182107,robocape_mag,11.55,-11.4,4.95,10.0,0.0,0.0,0.0,10.0,0.0,0.0,0.0,10.0
1452010255759336169,312,1452010255754496097,robocape_mag,11.55,-11.4,4.95,10.0,0.0,0.0,0.0,10.0,0.0,0.0,0.0,10.0
1452010255801259961,313,1452010255787563085,robocape_mag,11.55,-11.4,4.95,10.0,0.0,0.0,0.0,10.0,0.0,0.0,0.0,10.0
1452010255825975086,314,1452010255821171045,robocape_mag,11.25,-9.9,2.25,10.0,0.0,0.0,0.0,10.0,0.0,0.0,0.0,10.0
1452010255857845252,315,1452010255853055953,robocape_mag,11.25,-9.9,2.25,10.0,0.0,0.0,0.0,10.0,0.0,0.0,0.0,10.0
1452010255891479586,316,1452010255886306047,robocape_mag,11.25,-9.9,2.25,10.0,0.0,0.0,0.0,10.0,0.0,0.0,0.0,10.0
1452010255924077544,317,1452010255919151067,robocape_mag,11.25,-9.9,2.25,10.0,0.0,0.0,0.0,10.0,0.0,0.0,0.0,10.0
1452010255957355836,318,1452010255952213048,robocape_mag,11.25,-9.9,2.25,10.0,0.0,0.0,0.0,10.0,0.0,0.0,0.0,10.0
1452010255990744336,319,1452010255985811948,robocape_mag,10.35,-11.4,0.75,10.0,0.0,0.0,0.0,10.0,0.0,0.0,0.0,10.0
1452010256023755419,320,1452010256018929004,robocape_mag,10.35,-11.4,0.75,10.0,0.0,0.0,0.0,10.0,0.0,0.0,0.0,10.0
1452010256057670336,321,1452010256052541017,robocape_mag,10.35,-11.4,0.75,10.0,0.0,0.0,0.0,10.0,0.0,0.0,0.0,10.0
1452010256090266252,322,1452010256085345983,robocape_mag,10.35,-11.4,0.75,10.0,0.0,0.0,0.0,10.0,0.0,0.0,0.0,10.0
1452010256127229669,323,1452010256118807077,robocape_mag,10.35,-10.2,2.55,10.0,0.0,0.0,0.0,10.0,0.0,0.0,0.0,10.0
1452010256157254586,324,1452010256152309894,robocape_mag,10.35,-10.2,2.55,10.0,0.0,0.0,0.0,10.0,0.0,0.0,0.0,10.0
1452010256190387586,325,1452010256185535907,robocape_mag,10.35,-10.2,2.55,10.0,0.0,0.0,0.0,10.0,0.0,0.0,0.0,10.0
1452010256223598544,326,1452010256218751907,robocape_mag,10.35,-10.2,2.55,10.0,0.0,0.0,0.0,10.0,0.0,0.0,0.0,10.0
1452010256256828294,327,1452010256251960039,robocape_mag,10.35,-10.2,2.55,10.0,0.0,0.0,0.0,10.0,0.0,0.0,0.0,10.0
1452010256290787503,328,1452010256285902976,robocape_mag,11.25,-9.3,2.85,10.0,0.0,0.0,0.0,10.0,0.0,0.0,0.0,10.0
1452010256323290211,329,1452010256318530082,robocape_mag,11.25,-9.3,2.85,10.0,0.0,0.0,0.0,10.0,0.0,0.0,0.0,10.0
1452010256357248003,330,1452010256352313041,robocape_mag,11.25,-9.3,2.85,10.0,0.0,0.0,0.0,10.0,0.0,0.0,0.0,10.0
1452010256390271961,331,1452010256385448932,robocape_mag,11.25,-9.3,2.85,10.0,0.0,0.0,0.0,10.0,0.0,0.0,0.0,10.0
1452010256423685461,332,1452010256418667078,robocape_mag,11.25,-9.3,2.85,10.0,0.0,0.0,0.0,10.0,0.0,0.0,0.0,10.0
1452010256457388461,333,1452010256452519893,robocape_mag,12.15,-10.8,2.55,10.0,0.0,0.0,0.0,10.0,0.0,0.0,0.0,10.0
1452010256490333711,334,1452010256485441923,robocape_mag,12.15,-10.8,2.55,10.0,0.0,0.0,0.0,10.0,0.0,0.0,0.0,10.0
1452010256523162669,335,1452010256518398046,robocape_mag,12.15,-10.8,2.55,10.0,0.0,0.0,0.0,10.0,0.0,0.0,0.0,10.0
1452010256558284503,336,1452010256552099943,robocape_mag,12.15,-10.8,2.55,10.0,0.0,0.0,0.0,10.0,0.0,0.0,0.0,10.0
1452010256589977503,337,1452010256585180044,robocape_mag,12.15,-10.8,2.55,10.0,0.0,0.0,0.0,10.0,0.0,0.0,0.0,10.0
1452010256624444461,338,1452010256618479967,robocape_mag,11.25,-11.7,2.85,10.0,0.0,0.0,0.0,10.0,0.0,0.0,0.0,10.0
1452010256657547211,339,1452010256651923894,robocape_mag,11.25,-11.7,2.85,10.0,0.0,0.0,0.0,10.0,0.0,0.0,0.0,10.0
1452010256690411253,340,1452010256685424089,robocape_mag,11.25,-11.7,2.85,10.0,0.0,0.0,0.0,10.0,0.0,0.0,0.0,10.0
1452010256723367086,341,1452010256718405961,robocape_mag,11.25,-11.7,2.85,10.0,0.0,0.0,0.0,10.0,0.0,0.0,0.0,10.0
1452010256759003794,342,1452010256752033948,robocape_mag,11.25,-11.7,2.85,10.0,0.0,0.0,0.0,10.0,0.0,0.0,0.0,10.0
1452010256793272253,343,1452010256785320997,robocape_mag,12.45,-11.1,2.25,10.0,0.0,0.0,0.0,10.0,0.0,0.0,0.0,10.0
1452010256824217128,344,1452010256819232940,robocape_mag,12.45,-11.1,2.25,10.0,0.0,0.0,0.0,10.0,0.0,0.0,0.0,10.0
1452010256860100253,345,1452010256851912975,robocape_mag,12.45,-11.1,2.25,10.0,0.0,0.0,0.0,10.0,0.0,0.0,0.0,10.0
1452010256890320836,346,1452010256885313987,robocape_mag,12.45,-11.1,2.25,10.0,0.0,0.0,0.0,10.0,0.0,0.0,0.0,10.0
1452010256923454294,347,1452010256918543100,robocape_mag,13.65,-11.1,2.85,10.0,0.0,0.0,0.0,10.0,0.0,0.0,0.0,10.0
1452010256957397920,348,1452010256951816082,robocape_mag,13.65,-11.1,2.85,10.0,0.0,0.0,0.0,10.0,0.0,0.0,0.0,10.0
1452010256990253628,349,1452010256985352039,robocape_mag,13.65,-11.1,2.85,10.0,0.0,0.0,0.0,10.0,0.0,0.0,0.0,10.0
1452010257023384420,350,1452010257018476963,robocape_mag,13.65,-11.1,2.85,10.0,0.0,0.0,0.0,10.0,0.0,0.0,0.0,10.0
1452010257063239503,351,1452010257056967020,robocape_mag,13.65,-11.1,2.85,10.0,0.0,0.0,0.0,10.0,0.0,0.0,0.0,10.0
1452010257093796753,352,1452010257088299036,robocape_mag,13.05,-11.7,3.45,10.0,0.0,0.0,0.0,10.0,0.0,0.0,0.0,10.0
1452010257126716378,353,1452010257119827032,robocape_mag,13.05,-11.7,3.45,10.0,0.0,0.0,0.0,10.0,0.0,0.0,0.0,10.0
1452010257158599420,354,1452010257153278112,robocape_mag,13.05,-11.7,3.45,10.0,0.0,0.0,0.0,10.0,0.0,0.0,0.0,10.0
1452010257190633045,355,1452010257185596942,robocape_mag,13.05,-11.7,3.45,10.0,0.0,0.0,0.0,10.0,0.0,0.0,0.0,10.0
1452010257223885753,356,1452010257218853950,robocape_mag,13.05,-11.7,3.45,10.0,0.0,0.0,0.0,10.0,0.0,0.0,0.0,10.0
1452010257259472003,357,1452010257253942012,robocape_mag,10.35,-9.6,2.55,10.0,0.0,0.0,0.0,10.0,0.0,0.0,0.0,10.0
1452010257292399378,358,1452010257287141084,robocape_mag,10.35,-9.6,2.55,10.0,0.0,0.0,0.0,10.0,0.0,0.0,0.0,10.0
1452010257324352461,359,1452010257319228887,robocape_mag,10.35,-9.6,2.55,10.0,0.0,0.0,0.0,10.0,0.0,0.0,0.0,10.0
1452010257361726003,360,1452010257353980064,robocape_mag,10.35,-9.6,2.55,10.0,0.0,0.0,0.0,10.0,0.0,0.0,0.0,10.0
1452010257395755295,361,1452010257387003898,robocape_mag,10.35,-9.6,2.55,10.0,0.0,0.0,0.0,10.0,0.0,0.0,0.0,10.0
1452010257424305836,362,1452010257419357061,robocape_mag,9.45,-11.7,1.65,10.0,0.0,0.0,0.0,10.0,0.0,0.0,0.0,10.0
1452010257469252128,363,1452010257455107927,robocape_mag,9.45,-11.7,1.65,10.0,0.0,0.0,0.0,10.0,0.0,0.0,0.0,10.0
1452010257496798378,364,1452010257489352941,robocape_mag,9.45,-11.7,1.65,10.0,0.0,0.0,0.0,10.0,0.0,0.0,0.0,10.0
1452010257525993586,365,1452010257519807100,robocape_mag,9.45,-11.7,1.65,10.0,0.0,0.0,0.0,10.0,0.0,0.0,0.0,10.0
1452010257566535795,366,1452010257555474042,robocape_mag,9.45,-11.7,1.65,10.0,0.0,0.0,0.0,10.0,0.0,0.0,0.0,10.0
1452010257594995711,367,1452010257588855981,robocape_mag,14.25,-9.9,6.45,10.0,0.0,0.0,0.0,10.0,0.0,0.0,0.0,10.0
1452010257628428545,368,1452010257621882915,robocape_mag,14.25,-9.9,6.45,10.0,0.0,0.0,0.0,10.0,0.0,0.0,0.0,10.0
1452010257662180462,369,1452010257655438899,robocape_mag,14.25,-9.9,6.45,10.0,0.0,0.0,0.0,10.0,0.0,0.0,0.0,10.0
1452010257694087462,370,1452010257688544988,robocape_mag,14.25,-9.9,6.45,10.0,0.0,0.0,0.0,10.0,0.0,0.0,0.0,10.0
1452010257727461003,371,1452010257722215890,robocape_mag,13.35,-11.4,1.95,10.0,0.0,0.0,0.0,10.0,0.0,0.0,0.0,10.0
1452010257762499587,372,1452010257756201982,robocape_mag,13.35,-11.4,1.95,10.0,0.0,0.0,0.0,10.0,0.0,0.0,0.0,10.0
1452010257799234795,373,1452010257789450883,robocape_mag,13.35,-11.4,1.95,10.0,0.0,0.0,0.0,10.0,0.0,0.0,0.0,10.0
1452010257827738753,374,1452010257822814941,robocape_mag,13.35,-11.4,1.95,10.0,0.0,0.0,0.0,10.0,0.0,0.0,0.0,10.0
1452010257861070170,375,1452010257855489015,robocape_mag,13.35,-11.4,1.95,10.0,0.0,0.0,0.0,10.0,0.0,0.0,0.0,10.0
1452010257894416628,376,1452010257889436006,robocape_mag,14.85,-9.3,-0.15,10.0,0.0,0.0,0.0,10.0,0.0,0.0,0.0,10.0
1452010257926437420,377,1452010257921652078,robocape_mag,14.85,-9.3,-0.15,10.0,0.0,0.0,0.0,10.0,0.0,0.0,0.0,10.0
1452010257960466878,378,1452010257954632997,robocape_mag,14.85,-9.3,-0.15,10.0,0.0,0.0,0.0,10.0,0.0,0.0,0.0,10.0
1452010257992648420,379,1452010257987607955,robocape_mag,14.85,-9.3,-0.15,10.0,0.0,0.0,0.0,10.0,0.0,0.0,0.0,10.0
1452010258026220962,380,1452010258021439075,robocape_mag,14.85,-9.3,-0.15,10.0,0.0,0.0,0.0,10.0,0.0,0.0,0.0,10.0
1452010258059555170,381,1452010258054548978,robocape_mag,8.85,-11.7,1.05,10.0,0.0,0.0,0.0,10.0,0.0,0.0,0.0,10.0
1452010258092420628,382,1452010258087436914,robocape_mag,8.85,-11.7,1.05,10.0,0.0,0.0,0.0,10.0,0.0,0.0,0.0,10.0
1452010258125596003,383,1452010258120454072,robocape_mag,8.85,-11.7,1.05,10.0,0.0,0.0,0.0,10.0,0.0,0.0,0.0,10.0
1452010258158180920,384,1452010258153356075,robocape_mag,8.85,-11.7,1.05,10.0,0.0,0.0,0.0,10.0,0.0,0.0,0.0,10.0
1452010258191715503,385,1452010258186911106,robocape_mag,8.85,-11.7,1.05,10.0,0.0,0.0,0.0,10.0,0.0,0.0,0.0,10.0
1452010258223904378,386,1452010258219089031,robocape_mag,10.35,-12.6,3.75,10.0,0.0,0.0,0.0,10.0,0.0,0.0,0.0,10.0
1452010258257690045,387,1452010258252872943,robocape_mag,10.35,-12.6,3.75,10.0,0.0,0.0,0.0,10.0,0.0,0.0,0.0,10.0
1452010258290605087,388,1452010258285753011,robocape_mag,10.35,-12.6,3.75,10.0,0.0,0.0,0.0,10.0,0.0,0.0,0.0,10.0
1452010258323726795,389,1452010258318790912,robocape_mag,10.35,-12.6,3.75,10.0,0.0,0.0,0.0,10.0,0.0,0.0,0.0,10.0
1452010258357140004,390,1452010258352283000,robocape_mag,10.35,-12.6,3.75,10.0,0.0,0.0,0.0,10.0,0.0,0.0,0.0,10.0
1452010258390453629,391,1452010258385600090,robocape_mag,12.45,-12.3,1.65,10.0,0.0,0.0,0.0,10.0,0.0,0.0,0.0,10.0
1452010258423572795,392,1452010258418746948,robocape_mag,12.45,-12.3,1.65,10.0,0.0,0.0,0.0,10.0,0.0,0.0,0.0,10.0
1452010258456815504,393,1452010258452023983,robocape_mag,12.45,-12.3,1.65,10.0,0.0,0.0,0.0,10.0,0.0,0.0,0.0,10.0
1452010258490244670,394,1452010258485419988,robocape_mag,12.45,-12.3,1.65,10.0,0.0,0.0,0.0,10.0,0.0,0.0,0.0,10.0
1452010258523478670,395,1452010258518682003,robocape_mag,12.15,-11.4,1.35,10.0,0.0,0.0,0.0,10.0,0.0,0.0,0.0,10.0
1452010258557307962,396,1452010258552454948,robocape_mag,12.15,-11.4,1.35,10.0,0.0,0.0,0.0,10.0,0.0,0.0,0.0,10.0
1452010258590307420,397,1452010258585232019,robocape_mag,12.15,-11.4,1.35,10.0,0.0,0.0,0.0,10.0,0.0,0.0,0.0,10.0
1452010258623625212,398,1452010258618820905,robocape_mag,12.15,-11.4,1.35,10.0,0.0,0.0,0.0,10.0,0.0,0.0,0.0,10.0
1452010258656621337,399,1452010258651880025,robocape_mag,12.15,-11.4,1.35,10.0,0.0,0.0,0.0,10.0,0.0,0.0,0.0,10.0
1452010258691086504,400,1452010258685756921,robocape_mag,12.15,-12.0,2.55,10.0,0.0,0.0,0.0,10.0,0.0,0.0,0.0,10.0
1452010258723537212,401,1452010258718684911,robocape_mag,12.15,-12.0,2.55,10.0,0.0,0.0,0.0,10.0,0.0,0.0,0.0,10.0
1452010258757174129,402,1452010258752352952,robocape_mag,12.15,-12.0,2.55,10.0,0.0,0.0,0.0,10.0,0.0,0.0,0.0,10.0
1452010258797102670,403,1452010258785342931,robocape_mag,12.15,-12.0,2.55,10.0,0.0,0.0,0.0,10.0,0.0,0.0,0.0,10.0
1452010258826370295,404,1452010258821161985,robocape_mag,12.15,-12.0,2.55,10.0,0.0,0.0,0.0,10.0,0.0,0.0,0.0,10.0
1452010258856695379,405,1452010258851825952,robocape_mag,11.55,-12.0,3.15,10.0,0.0,0.0,0.0,10.0,0.0,0.0,0.0,10.0
1452010258890868587,406,1452010258885452032,robocape_mag,11.55,-12.0,3.15,10.0,0.0,0.0,0.0,10.0,0.0,0.0,0.0,10.0
1452010258923285629,407,1452010258918370008,robocape_mag,11.55,-12.0,3.15,10.0,0.0,0.0,0.0,10.0,0.0,0.0,0.0,10.0
1452010258957368587,408,1452010258951781988,robocape_mag,11.55,-12.0,3.15,10.0,0.0,0.0,0.0,10.0,0.0,0.0,0.0,10.0
1452010258990642004,409,1452010258985255956,robocape_mag,11.55,-12.0,3.15,10.0,0.0,0.0,0.0,10.0,0.0,0.0,0.0,10.0
1452010259023450170,410,1452010259018425941,robocape_mag,12.45,-10.5,2.25,10.0,0.0,0.0,0.0,10.0,0.0,0.0,0.0,10.0
1452010259056970796,411,1452010259051889896,robocape_mag,12.45,-10.5,2.25,10.0,0.0,0.0,0.0,10.0,0.0,0.0,0.0,10.0
1452010259090816796,412,1452010259085304975,robocape_mag,12.45,-10.5,2.25,10.0,0.0,0.0,0.0,10.0,0.0,0.0,0.0,10.0
1452010259123430962,413,1452010259118438005,robocape_mag,12.45,-10.5,2.25,10.0,0.0,0.0,0.0,10.0,0.0,0.0,0.0,10.0
1452010259156966546,414,1452010259151842117,robocape_mag,12.45,-10.5,2.25,10.0,0.0,0.0,0.0,10.0,0.0,0.0,0.0,10.0
1452010259192377837,415,1452010259185523033,robocape_mag,12.45,-11.1,3.45,10.0,0.0,0.0,0.0,10.0,0.0,0.0,0.0,10.0
1452010259223314254,416,1452010259218417882,robocape_mag,12.45,-11.1,3.45,10.0,0.0,0.0,0.0,10.0,0.0,0.0,0.0,10.0
1452010259257126212,417,1452010259252254009,robocape_mag,12.45,-11.1,3.45,10.0,0.0,0.0,0.0,10.0,0.0,0.0,0.0,10.0
1452010259290543004,418,1452010259285382986,robocape_mag,12.45,-11.1,3.45,10.0,0.0,0.0,0.0,10.0,0.0,0.0,0.0,10.0
1452010259323452796,419,1452010259318617105,robocape_mag,13.05,-11.1,2.25,10.0,0.0,0.0,0.0,10.0,0.0,0.0,0.0,10.0
1452010259356871754,420,1452010259351824045,robocape_mag,13.05,-11.1,2.25,10.0,0.0,0.0,0.0,10.0,0.0,0.0,0.0,10.0
1452010259390571004,421,1452010259385288953,robocape_mag,13.05,-11.1,2.25,10.0,0.0,0.0,0.0,10.0,0.0,0.0,0.0,10.0
1452010259424537462,422,1452010259419715881,robocape_mag,13.05,-11.1,2.25,10.0,0.0,0.0,0.0,10.0,0.0,0.0,0.0,10.0
1452010259457955212,423,1452010259453212976,robocape_mag,13.05,-11.1,2.25,10.0,0.0,0.0,0.0,10.0,0.0,0.0,0.0,10.0
1452010259491005587,424,1452010259485589027,robocape_mag,12.45,-11.7,3.45,10.0,0.0,0.0,0.0,10.0,0.0,0.0,0.0,10.0
1452010259529211504,425,1452010259520443916,robocape_mag,12.45,-11.7,3.45,10.0,0.0,0.0,0.0,10.0,0.0,0.0,0.0,10.0
1452010259558717212,426,1452010259553675889,robocape_mag,12.45,-11.7,3.45,10.0,0.0,0.0,0.0,10.0,0.0,0.0,0.0,10.0
1452010259595859004,427,1452010259591047048,robocape_mag,12.45,-11.7,3.45,10.0,0.0,0.0,0.0,10.0,0.0,0.0,0.0,10.0
1452010259624629337,428,1452010259619036912,robocape_mag,12.45,-11.7,3.45,10.0,0.0,0.0,0.0,10.0,0.0,0.0,0.0,10.0
1452010259658755587,429,1452010259653641939,robocape_mag,11.25,-12.3,2.25,10.0,0.0,0.0,0.0,10.0,0.0,0.0,0.0,10.0
1452010259692709921,430,1452010259687580108,robocape_mag,11.25,-12.3,2.25,10.0,0.0,0.0,0.0,10.0,0.0,0.0,0.0,10.0
1452010259724269671,431,1452010259719444990,robocape_mag,11.25,-12.3,2.25,10.0,0.0,0.0,0.0,10.0,0.0,0.0,0.0,10.0
1452010259764094504,432,1452010259755359888,robocape_mag,11.25,-12.3,2.25,10.0,0.0,0.0,0.0,10.0,0.0,0.0,0.0,10.0
1452010259800584963,433,1452010259788606882,robocape_mag,11.25,-12.3,2.25,10.0,0.0,0.0,0.0,10.0,0.0,0.0,0.0,10.0
1452010259832351338,434,1452010259823148965,robocape_mag,11.55,-11.4,2.55,10.0,0.0,0.0,0.0,10.0,0.0,0.0,0.0,10.0
1452010259861576546,435,1452010259853326082,robocape_mag,11.55,-11.4,2.55,10.0,0.0,0.0,0.0,10.0,0.0,0.0,0.0,10.0
1452010259895992088,436,1452010259890368938,robocape_mag,11.55,-11.4,2.55,10.0,0.0,0.0,0.0,10.0,0.0,0.0,0.0,10.0
1452010259929338213,437,1452010259923919916,robocape_mag,11.55,-11.4,2.55,10.0,0.0,0.0,0.0,10.0,0.0,0.0,0.0,10.0
1452010259964894379,438,1452010259954037904,robocape_mag,11.55,-11.4,2.55,10.0,0.0,0.0,0.0,10.0,0.0,0.0,0.0,10.0
1452010259994381004,439,1452010259988886117,robocape_mag,12.45,-9.9,2.25,10.0,0.0,0.0,0.0,10.0,0.0,0.0,0.0,10.0
1452010260031412796,440,1452010260021306037,robocape_mag,12.45,-9.9,2.25,10.0,0.0,0.0,0.0,10.0,0.0,0.0,0.0,10.0
1452010260064965129,441,1452010260056162118,robocape_mag,12.45,-9.9,2.25,10.0,0.0,0.0,0.0,10.0,0.0,0.0,0.0,10.0
1452010260097814338,442,1452010260089731931,robocape_mag,12.45,-9.9,2.25,10.0,0.0,0.0,0.0,10.0,0.0,0.0,0.0,10.0
1452010260127399879,443,1452010260121470928,robocape_mag,11.25,-10.5,2.85,10.0,0.0,0.0,0.0,10.0,0.0,0.0,0.0,10.0
1452010260159693713,444,1452010260154640913,robocape_mag,11.25,-10.5,2.85,10.0,0.0,0.0,0.0,10.0,0.0,0.0,0.0,10.0
1452010260194130796,445,1452010260189033985,robocape_mag,11.25,-10.5,2.85,10.0,0.0,0.0,0.0,10.0,0.0,0.0,0.0,10.0
1452010260226706088,446,1452010260221393108,robocape_mag,11.25,-10.5,2.85,10.0,0.0,0.0,0.0,10.0,0.0,0.0,0.0,10.0
1452010260260824213,447,1452010260255867004,robocape_mag,11.25,-10.5,2.85,10.0,0.0,0.0,0.0,10.0,0.0,0.0,0.0,10.0
1452010260293573254,448,1452010260288558959,robocape_mag,12.45,-11.1,3.45,10.0,0.0,0.0,0.0,10.0,0.0,0.0,0.0,10.0
1452010260326181296,449,1452010260321177959,robocape_mag,12.45,-11.1,3.45,10.0,0.0,0.0,0.0,10.0,0.0,0.0,0.0,10.0
1452010260359691004,450,1452010260354844093,robocape_mag,12.45,-11.1,3.45,10.0,0.0,0.0,0.0,10.0,0.0,0.0,0.0,10.0
1452010260393022796,451,1452010260388241052,robocape_mag,12.45,-11.1,3.45,10.0,0.0,0.0,0.0,10.0,0.0,0.0,0.0,10.0
1452010260426004213,452,1452010260421094894,robocape_mag,12.45,-11.1,3.45,10.0,0.0,0.0,0.0,10.0,0.0,0.0,0.0,10.0
1452010260458053505,453,1452010260453140974,robocape_mag,13.35,-10.2,3.15,10.0,0.0,0.0,0.0,10.0,0.0,0.0,0.0,10.0
1452010260491668838,454,1452010260486754894,robocape_mag,13.35,-10.2,3.15,10.0,0.0,0.0,0.0,10.0,0.0,0.0,0.0,10.0
1452010260524001880,455,1452010260519244909,robocape_mag,13.35,-10.2,3.15,10.0,0.0,0.0,0.0,10.0,0.0,0.0,0.0,10.0
1452010260558009755,456,1452010260553020954,robocape_mag,13.35,-10.2,3.15,10.0,0.0,0.0,0.0,10.0,0.0,0.0,0.0,10.0
1452010260590757338,457,1452010260585906028,robocape_mag,13.35,-10.2,3.15,10.0,0.0,0.0,0.0,10.0,0.0,0.0,0.0,10.0
1452010260623935088,458,1452010260618922948,robocape_mag,13.05,-11.7,2.85,10.0,0.0,0.0,0.0,10.0,0.0,0.0,0.0,10.0
1452010260657226380,459,1452010260652163982,robocape_mag,13.05,-11.7,2.85,10.0,0.0,0.0,0.0,10.0,0.0,0.0,0.0,10.0
1452010260690959338,460,1452010260686079025,robocape_mag,13.05,-11.7,2.85,10.0,0.0,0.0,0.0,10.0,0.0,0.0,0.0,10.0
1452010260723964838,461,1452010260718935966,robocape_mag,13.05,-11.7,2.85,10.0,0.0,0.0,0.0,10.0,0.0,0.0,0.0,10.0
1452010260757075255,462,1452010260752011060,robocape_mag,13.05,-11.7,2.85,10.0,0.0,0.0,0.0,10.0,0.0,0.0,0.0,10.0
1452010260797332505,463,1452010260785320997,robocape_mag,12.15,-9.6,3.15,10.0,0.0,0.0,0.0,10.0,0.0,0.0,0.0,10.0
1452010260825526213,464,1452010260820532083,robocape_mag,12.15,-9.6,3.15,10.0,0.0,0.0,0.0,10.0,0.0,0.0,0.0,10.0
1452010260857395671,465,1452010260852216958,robocape_mag,12.15,-9.6,3.15,10.0,0.0,0.0,0.0,10.0,0.0,0.0,0.0,10.0
1452010260890342380,466,1452010260885387897,robocape_mag,12.15,-9.6,3.15,10.0,0.0,0.0,0.0,10.0,0.0,0.0,0.0,10.0
1452010260923528921,467,1452010260918720006,robocape_mag,11.55,-12.0,4.35,10.0,0.0,0.0,0.0,10.0,0.0,0.0,0.0,10.0
1452010260956998380,468,1452010260952013969,robocape_mag,11.55,-12.0,4.35,10.0,0.0,0.0,0.0,10.0,0.0,0.0,0.0,10.0
1452010260997614505,469,1452010260987618923,robocape_mag,11.55,-12.0,4.35,10.0,0.0,0.0,0.0,10.0,0.0,0.0,0.0,10.0
1452010261026821630,470,1452010261021826028,robocape_mag,11.55,-12.0,4.35,10.0,0.0,0.0,0.0,10.0,0.0,0.0,0.0,10.0
1452010261061205796,471,1452010261055983066,robocape_mag,11.55,-12.0,4.35,10.0,0.0,0.0,0.0,10.0,0.0,0.0,0.0,10.0
1452010261094713213,472,1452010261089669942,robocape_mag,13.35,-8.4,-0.45,10.0,0.0,0.0,0.0,10.0,0.0,0.0,0.0,10.0
1452010261127712797,473,1452010261121068000,robocape_mag,13.35,-8.4,-0.45,10.0,0.0,0.0,0.0,10.0,0.0,0.0,0.0,10.0
1452010261161813588,474,1452010261156591892,robocape_mag,13.35,-8.4,-0.45,10.0,0.0,0.0,0.0,10.0,0.0,0.0,0.0,10.0
1452010261195349463,475,1452010261190078973,robocape_mag,13.35,-8.4,-0.45,10.0,0.0,0.0,0.0,10.0,0.0,0.0,0.0,10.0
1452010261228250797,476,1452010261223125934,robocape_mag,13.35,-8.4,-0.45,10.0,0.0,0.0,0.0,10.0,0.0,0.0,0.0,10.0
1452010261261533755,477,1452010261256567001,robocape_mag,11.55,-10.8,3.15,10.0,0.0,0.0,0.0,10.0,0.0,0.0,0.0,10.0
1452010261294295463,478,1452010261288841962,robocape_mag,11.55,-10.8,3.15,10.0,0.0,0.0,0.0,10.0,0.0,0.0,0.0,10.0
1452010261329662963,479,1452010261322084903,robocape_mag,11.55,-10.8,3.15,10.0,0.0,0.0,0.0,10.0,0.0,0.0,0.0,10.0
1452010261360425380,480,1452010261355603933,robocape_mag,11.55,-10.8,3.15,10.0,0.0,0.0,0.0,10.0,0.0,0.0,0.0,10.0
1452010261393125547,481,1452010261388216018,robocape_mag,11.55,-10.8,3.15,10.0,0.0,0.0,0.0,10.0,0.0,0.0,0.0,10.0
1452010261426745755,482,1452010261421761989,robocape_mag,12.75,-10.8,1.95,10.0,0.0,0.0,0.0,10.0,0.0,0.0,0.0,10.0
1452010261459282505,483,1452010261454330921,robocape_mag,12.75,-10.8,1.95,10.0,0.0,0.0,0.0,10.0,0.0,0.0,0.0,10.0
1452010261496955088,484,1452010261489483118,robocape_mag,12.75,-10.8,1.95,10.0,0.0,0.0,0.0,10.0,0.0,0.0,0.0,10.0
1452010261526396880,485,1452010261521439075,robocape_mag,12.75,-10.8,1.95,10.0,0.0,0.0,0.0,10.0,0.0,0.0,0.0,10.0
1452010261559994630,486,1452010261554994106,robocape_mag,12.75,-10.8,1.95,10.0,0.0,0.0,0.0,10.0,0.0,0.0,0.0,10.0
1452010261592376338,487,1452010261587366104,robocape_mag,11.25,-9.9,2.85,10.0,0.0,0.0,0.0,10.0,0.0,0.0,0.0,10.0
1452010261628845922,488,1452010261620105028,robocape_mag,11.25,-9.9,2.85,10.0,0.0,0.0,0.0,10.0,0.0,0.0,0.0,10.0
1452010261657922463,489,1452010261653146982,robocape_mag,11.25,-9.9,2.85,10.0,0.0,0.0,0.0,10.0,0.0,0.0,0.0,10.0
1452010261691308338,490,1452010261686285972,robocape_mag,11.25,-9.9,2.85,10.0,0.0,0.0,0.0,10.0,0.0,0.0,0.0,10.0
1452010261724243047,491,1452010261719335079,robocape_mag,10.95,-12.0,2.55,10.0,0.0,0.0,0.0,10.0,0.0,0.0,0.0,10.0
1452010261757756130,492,1452010261752943038,robocape_mag,10.95,-12.0,2.55,10.0,0.0,0.0,0.0,10.0,0.0,0.0,0.0,10.0
1452010261797483338,493,1452010261785926103,robocape_mag,10.95,-12.0,2.55,10.0,0.0,0.0,0.0,10.0,0.0,0.0,0.0,10.0
1452010261826112839,494,1452010261821192026,robocape_mag,10.95,-12.0,2.55,10.0,0.0,0.0,0.0,10.0,0.0,0.0,0.0,10.0
1452010261857436547,495,1452010261852314949,robocape_mag,10.95,-12.0,2.55,10.0,0.0,0.0,0.0,10.0,0.0,0.0,0.0,10.0
1452010261890086505,496,1452010261885242938,robocape_mag,13.05,-12.3,3.45,10.0,0.0,0.0,0.0,10.0,0.0,0.0,0.0,10.0
1452010261923842714,497,1452010261918771028,robocape_mag,13.05,-12.3,3.45,10.0,0.0,0.0,0.0,10.0,0.0,0.0,0.0,10.0
1452010261958719880,498,1452010261953644037,robocape_mag,13.05,-12.3,3.45,10.0,0.0,0.0,0.0,10.0,0.0,0.0,0.0,10.0
1452010261994908797,499,1452010261987065076,robocape_mag,13.05,-12.3,3.45,10.0,0.0,0.0,0.0,10.0,0.0,0.0,0.0,10.0
1452010262024423880,500,1452010262019614934,robocape_mag,13.05,-12.3,3.45,10.0,0.0,0.0,0.0,10.0,0.0,0.0,0.0,10.0
1452010262061064505,501,1452010262056272983,robocape_mag,11.85,-11.7,2.85,10.0,0.0,0.0,0.0,10.0,0.0,0.0,0.0,10.0
1452010262094532464,502,1452010262089426040,robocape_mag,11.85,-11.7,2.85,10.0,0.0,0.0,0.0,10.0,0.0,0.0,0.0,10.0
1452010262131500422,503,1452010262122781991,robocape_mag,11.85,-11.7,2.85,10.0,0.0,0.0,0.0,10.0,0.0,0.0,0.0,10.0
1452010262164430130,504,1452010262156181097,robocape_mag,11.85,-11.7,2.85,10.0,0.0,0.0,0.0,10.0,0.0,0.0,0.0,10.0
1452010262194884797,505,1452010262188996076,robocape_mag,11.85,-11.7,2.85,10.0,0.0,0.0,0.0,10.0,0.0,0.0,0.0,10.0
1452010262228270255,506,1452010262223110914,robocape_mag,11.25,-11.7,2.85,10.0,0.0,0.0,0.0,10.0,0.0,0.0,0.0,10.0
1452010262260836714,507,1452010262255116939,robocape_mag,11.25,-11.7,2.85,10.0,0.0,0.0,0.0,10.0,0.0,0.0,0.0,10.0
1452010262294616339,508,1452010262288831949,robocape_mag,11.25,-11.7,2.85,10.0,0.0,0.0,0.0,10.0,0.0,0.0,0.0,10.0
1452010262327415130,509,1452010262320980072,robocape_mag,11.25,-11.7,2.85,10.0,0.0,0.0,0.0,10.0,0.0,0.0,0.0,10.0
1452010262360782839,510,1452010262354876995,robocape_mag,11.25,-11.7,2.85,10.0,0.0,0.0,0.0,10.0,0.0,0.0,0.0,10.0
1452010262395019089,511,1452010262389847993,robocape_mag,11.55,-12.0,3.15,10.0,0.0,0.0,0.0,10.0,0.0,0.0,0.0,10.0
1452010262432212005,512,1452010262421998977,robocape_mag,11.55,-12.0,3.15,10.0,0.0,0.0,0.0,10.0,0.0,0.0,0.0,10.0
1452010262464697672,513,1452010262455662012,robocape_mag,11.55,-12.0,3.15,10.0,0.0,0.0,0.0,10.0,0.0,0.0,0.0,10.0
1452010262493693922,514,1452010262488219976,robocape_mag,11.55,-12.0,3.15,10.0,0.0,0.0,0.0,10.0,0.0,0.0,0.0,10.0
1452010262526338214,515,1452010262521373987,robocape_mag,12.75,-12.0,3.75,10.0,0.0,0.0,0.0,10.0,0.0,0.0,0.0,10.0
1452010262560533797,516,1452010262555222034,robocape_mag,12.75,-12.0,3.75,10.0,0.0,0.0,0.0,10.0,0.0,0.0,0.0,10.0
1452010262593942297,517,1452010262587124109,robocape_mag,12.75,-12.0,3.75,10.0,0.0,0.0,0.0,10.0,0.0,0.0,0.0,10.0
1452010262625803631,518,1452010262620666027,robocape_mag,12.75,-12.0,3.75,10.0,0.0,0.0,0.0,10.0,0.0,0.0,0.0,10.0
1452010262659826506,519,1452010262654820919,robocape_mag,12.75,-12.0,3.75,10.0,0.0,0.0,0.0,10.0,0.0,0.0,0.0,10.0
1452010262694344881,520,1452010262688930034,robocape_mag,14.25,-9.9,-0.15,10.0,0.0,0.0,0.0,10.0,0.0,0.0,0.0,10.0
1452010262726366964,521,1452010262721257925,robocape_mag,14.25,-9.9,-0.15,10.0,0.0,0.0,0.0,10.0,0.0,0.0,0.0,10.0
1452010262759222131,522,1452010262753876924,robocape_mag,14.25,-9.9,-0.15,10.0,0.0,0.0,0.0,10.0,0.0,0.0,0.0,10.0
1452010262799153547,523,1452010262787312984,robocape_mag,14.25,-9.9,-0.15,10.0,0.0,0.0,0.0,10.0,0.0,0.0,0.0,10.0
1452010262830460131,524,1452010262821500062,robocape_mag,14.25,-9.9,-0.15,10.0,0.0,0.0,0.0,10.0,0.0,0.0,0.0,10.0
1452010262858653006,525,1452010262853480100,robocape_mag,12.15,-10.8,4.35,10.0,0.0,0.0,0.0,10.0,0.0,0.0,0.0,10.0
1452010262890463047,526,1452010262885662078,robocape_mag,12.15,-10.8,4.35,10.0,0.0,0.0,0.0,10.0,0.0,0.0,0.0,10.0
1452010262924874964,527,1452010262919827938,robocape_mag,12.15,-10.8,4.35,10.0,0.0,0.0,0.0,10.0,0.0,0.0,0.0,10.0
1452010262957156089,528,1452010262952193975,robocape_mag,12.15,-10.8,4.35,10.0,0.0,0.0,0.0,10.0,0.0,0.0,0.0,10.0
1452010262990378131,529,1452010262985614061,robocape_mag,12.15,-10.8,4.35,10.0,0.0,0.0,0.0,10.0,0.0,0.0,0.0,10.0
