%time,field.header.seq,field.header.stamp,field.header.frame_id,field.magnetic_field.x,field.magnetic_field.y,field.magnetic_field.z,field.magnetic_field_covariance0,field.magnetic_field_covariance1,field.magnetic_field_covariance2,field.magnetic_field_covariance3,field.magnetic_field_covariance4,field.magnetic_field_covariance5,field.magnetic_field_covariance6,field.magnetic_field_covariance7,field.magnetic_field_covariance8
1452007976570190332,1,1452007976201025009,robocape_mag,15.15,-4.5,19.65,10.0,0.0,0.0,0.0,10.0,0.0,0.0,0.0,10.0
1452007976602387624,2,1452007976228331089,robocape_mag,15.15,-4.5,19.65,10.0,0.0,0.0,0.0,10.0,0.0,0.0,0.0,10.0
1452007976609659540,3,1452007976259505033,robocape_mag,16.35,-5.1,20.25,10.0,0.0,0.0,0.0,10.0,0.0,0.0,0.0,10.0
1452007976609875415,4,1452007976293222904,robocape_mag,16.35,-5.1,20.25,10.0,0.0,0.0,0.0,10.0,0.0,0.0,0.0,10.0
1452007976609942249,5,1452007976337246894,robocape_mag,16.35,-5.1,20.25,10.0,0.0,0.0,0.0,10.0,0.0,0.0,0.0,10.0
1452007976610002165,6,1452007976361459016,robocape_mag,16.35,-5.1,20.25,10.0,0.0,0.0,0.0,10.0,0.0,0.0,0.0,10.0
1452007976610071374,7,1452007976396817922,robocape_mag,16.35,-6.0,19.35,10.0,0.0,0.0,0.0,10.0,0.0,0.0,0.0,10.0
1452007976610104499,8,1452007976429944992,robocape_mag,16.65,-6.0,19.35,10.0,0.0,0.0,0.0,10.0,0.0,0.0,0.0,10.0
1452007976610173457,9,1452007976493901014,robocape_mag,16.65,-6.0,19.35,10.0,0.0,0.0,0.0,10.0,0.0,0.0,0.0,10.0
1452007976610206165,10,1452007976525932073,robocape_mag,16.65,-6.0,19.35,10.0,0.0,0.0,0.0,10.0,0.0,0.0,0.0,10.0
1452007976610239207,11,1452007976550261974,robocape_mag,16.65,-6.0,19.35,10.0,0.0,0.0,0.0,10.0,0.0,0.0,0.0,10.0
1452007976610274832,12,1452007976574150085,robocape_mag,16.05,-3.6,18.15,10.0,0.0,0.0,0.0,10.0,0.0,0.0,0.0,10.0
1452007976618964499,13,1452007976604000091,robocape_mag,16.05,-3.6,18.15,10.0,0.0,0.0,0.0,10.0,0.0,0.0,0.0,10.0
1452007976646911791,14,1452007976638082981,robocape_mag,16.05,-3.6,18.15,10.0,0.0,0.0,0.0,10.0,0.0,0.0,0.0,10.0
1452007976665550832,15,1452007976659482002,robocape_mag,16.05,-3.6,18.15,10.0,0.0,0.0,0.0,10.0,0.0,0.0,0.0,10.0
1452007976703722124,16,1452007976694926023,robocape_mag,16.05,-3.6,18.15,10.0,0.0,0.0,0.0,10.0,0.0,0.0,0.0,10.0
1452007976736651791,17,1452007976726913928,robocape_mag,13.05,-5.4,18.75,10.0,0.0,0.0,0.0,10.0,0.0,0.0,0.0,10.0
1452007976768101124,18,1452007976759828090,robocape_mag,13.05,-5.4,18.75,10.0,0.0,0.0,0.0,10.0,0.0,0.0,0.0,10.0
1452007976801241457,19,1452007976793895006,robocape_mag,13.05,-5.4,18.75,10.0,0.0,0.0,0.0,10.0,0.0,0.0,0.0,10.0
1452007976832531374,20,1452007976826525926,robocape_mag,13.05,-5.4,18.75,10.0,0.0,0.0,0.0,10.0,0.0,0.0,0.0,10.0
1452007976869301166,21,1452007976862082004,robocape_mag,13.05,-5.4,18.75,10.0,0.0,0.0,0.0,10.0,0.0,0.0,0.0,10.0
1452007976906367832,22,1452007976896359920,robocape_mag,16.05,-5.4,21.15,10.0,0.0,0.0,0.0,10.0,0.0,0.0,0.0,10.0
1452007976939938832,23,1452007976929757118,robocape_mag,16.05,-5.4,21.15,10.0,0.0,0.0,0.0,10.0,0.0,0.0,0.0,10.0
1452007976968338916,24,1452007976962316036,robocape_mag,16.05,-5.4,21.15,10.0,0.0,0.0,0.0,10.0,0.0,0.0,0.0,10.0
1452007977001491374,25,1452007976995115041,robocape_mag,16.05,-5.4,21.15,10.0,0.0,0.0,0.0,10.0,0.0,0.0,0.0,10.0
1452007977034106291,26,1452007977028171062,robocape_mag,16.05,-5.4,21.15,10.0,0.0,0.0,0.0,10.0,0.0,0.0,0.0,10.0
1452007977067290541,27,1452007977062038898,robocape_mag,15.75,-4.5,19.65,10.0,0.0,0.0,0.0,10.0,0.0,0.0,0.0,10.0
1452007977105931666,28,1452007977095983028,robocape_mag,15.75,-4.5,19.65,10.0,0.0,0.0,0.0,10.0,0.0,0.0,0.0,10.0
1452007977133483499,29,1452007977128173112,robocape_mag,15.75,-4.5,19.65,10.0,0.0,0.0,0.0,10.0,0.0,0.0,0.0,10.0
1452007977166385957,30,1452007977161317110,robocape_mag,15.75,-4.5,19.65,10.0,0.0,0.0,0.0,10.0,0.0,0.0,0.0,10.0
1452007977200917082,31,1452007977195231914,robocape_mag,15.75,-4.8,20.55,10.0,0.0,0.0,0.0,10.0,0.0,0.0,0.0,10.0
1452007977235600916,32,1452007977230088949,robocape_mag,15.45,-4.8,20.55,10.0,0.0,0.0,0.0,10.0,0.0,0.0,0.0,10.0
1452007977267313082,33,1452007977262229919,robocape_mag,15.45,-4.8,20.55,10.0,0.0,0.0,0.0,10.0,0.0,0.0,0.0,10.0
1452007977300640041,34,1452007977294433116,robocape_mag,15.45,-4.8,20.55,10.0,0.0,0.0,0.0,10.0,0.0,0.0,0.0,10.0
1452007977333391666,35,1452007977327539920,robocape_mag,15.45,-4.8,20.55,10.0,0.0,0.0,0.0,10.0,0.0,0.0,0.0,10.0
1452007977367254083,36,1452007977362344026,robocape_mag,14.85,-3.0,19.95,10.0,0.0,0.0,0.0,10.0,0.0,0.0,0.0,10.0
1452007977399763124,37,1452007977394516944,robocape_mag,14.85,-3.0,19.95,10.0,0.0,0.0,0.0,10.0,0.0,0.0,0.0,10.0
1452007977433737749,38,1452007977427813053,robocape_mag,14.85,-3.0,19.95,10.0,0.0,0.0,0.0,10.0,0.0,0.0,0.0,10.0
1452007977465885708,39,1452007977461131095,robocape_mag,14.85,-3.0,19.95,10.0,0.0,0.0,0.0,10.0,0.0,0.0,0.0,10.0
1452007977499490708,40,1452007977494618892,robocape_mag,14.85,-3.0,19.95,10.0,0.0,0.0,0.0,10.0,0.0,0.0,0.0,10.0
1452007977532717208,41,1452007977527281045,robocape_mag,23.25,-10.8,21.75,10.0,0.0,0.0,0.0,10.0,0.0,0.0,0.0,10.0
1452007977565334791,42,1452007977560477018,robocape_mag,23.25,-10.8,21.75,10.0,0.0,0.0,0.0,10.0,0.0,0.0,0.0,10.0
1452007977600847249,43,1452007977594914913,robocape_mag,23.25,-10.8,21.75,10.0,0.0,0.0,0.0,10.0,0.0,0.0,0.0,10.0
1452007977631298291,44,1452007977626246929,robocape_mag,23.25,-10.8,21.75,10.0,0.0,0.0,0.0,10.0,0.0,0.0,0.0,10.0
1452007977664249291,45,1452007977659245014,robocape_mag,23.25,-10.8,21.75,10.0,0.0,0.0,0.0,10.0,0.0,0.0,0.0,10.0
1452007977698011374,46,1452007977692825078,robocape_mag,19.05,-6.0,19.35,10.0,0.0,0.0,0.0,10.0,0.0,0.0,0.0,10.0
1452007977733329874,47,1452007977725790977,robocape_mag,19.05,-6.0,19.35,10.0,0.0,0.0,0.0,10.0,0.0,0.0,0.0,10.0
1452007977763798708,48,1452007977758797883,robocape_mag,19.05,-6.0,19.35,10.0,0.0,0.0,0.0,10.0,0.0,0.0,0.0,10.0
1452007977797054249,49,1452007977791897058,robocape_mag,19.05,-6.0,19.35,10.0,0.0,0.0,0.0,10.0,0.0,0.0,0.0,10.0
1452007977831852999,50,1452007977825035095,robocape_mag,19.05,-6.0,19.35,10.0,0.0,0.0,0.0,10.0,0.0,0.0,0.0,10.0
1452007977864748624,51,1452007977859704971,robocape_mag,16.35,-2.7,20.25,10.0,0.0,0.0,0.0,10.0,0.0,0.0,0.0,10.0
1452007977900280041,52,1452007977891650915,robocape_mag,16.35,-2.7,20.25,10.0,0.0,0.0,0.0,10.0,0.0,0.0,0.0,10.0
1452007977930153958,53,1452007977925235033,robocape_mag,16.35,-2.7,20.25,10.0,0.0,0.0,0.0,10.0,0.0,0.0,0.0,10.0
1452007977963242124,54,1452007977958478927,robocape_mag,16.35,-2.7,20.25,10.0,0.0,0.0,0.0,10.0,0.0,0.0,0.0,10.0
1452007977996608749,55,1452007977991668939,robocape_mag,16.35,-2.7,20.25,10.0,0.0,0.0,0.0,10.0,0.0,0.0,0.0,10.0
1452007978030451333,56,1452007978025669097,robocape_mag,19.65,-6.6,20.55,10.0,0.0,0.0,0.0,10.0,0.0,0.0,0.0,10.0
1452007978063388041,57,1452007978058536052,robocape_mag,19.65,-6.6,20.55,10.0,0.0,0.0,0.0,10.0,0.0,0.0,0.0,10.0
1452007978096908166,58,1452007978091916084,robocape_mag,19.65,-6.6,20.55,10.0,0.0,0.0,0.0,10.0,0.0,0.0,0.0,10.0
1452007978129942708,59,1452007978125189065,robocape_mag,19.65,-6.6,20.55,10.0,0.0,0.0,0.0,10.0,0.0,0.0,0.0,10.0
1452007978163313583,60,1452007978158395051,robocape_mag,15.15,-5.7,20.25,10.0,0.0,0.0,0.0,10.0,0.0,0.0,0.0,10.0
1452007978196213583,61,1452007978191494941,robocape_mag,15.15,-5.7,20.25,10.0,0.0,0.0,0.0,10.0,0.0,0.0,0.0,10.0
1452007978229812416,62,1452007978225011110,robocape_mag,15.15,-5.7,20.25,10.0,0.0,0.0,0.0,10.0,0.0,0.0,0.0,10.0
1452007978265885791,63,1452007978260245084,robocape_mag,15.15,-5.7,20.25,10.0,0.0,0.0,0.0,10.0,0.0,0.0,0.0,10.0
1452007978297241208,64,1452007978292378902,robocape_mag,15.15,-5.7,20.25,10.0,0.0,0.0,0.0,10.0,0.0,0.0,0.0,10.0
1452007978329941583,65,1452007978325115919,robocape_mag,18.15,-5.1,18.45,10.0,0.0,0.0,0.0,10.0,0.0,0.0,0.0,10.0
1452007978363286041,66,1452007978358282089,robocape_mag,18.15,-5.1,18.45,10.0,0.0,0.0,0.0,10.0,0.0,0.0,0.0,10.0
1452007978396430833,67,1452007978391424894,robocape_mag,18.15,-5.1,18.45,10.0,0.0,0.0,0.0,10.0,0.0,0.0,0.0,10.0
1452007978431540458,68,1452007978424751996,robocape_mag,18.15,-5.1,18.45,10.0,0.0,0.0,0.0,10.0,0.0,0.0,0.0,10.0
1452007978465040458,69,1452007978458183050,robocape_mag,18.15,-5.1,18.45,10.0,0.0,0.0,0.0,10.0,0.0,0.0,0.0,10.0
1452007978496719375,70,1452007978491792917,robocape_mag,19.35,-4.5,19.65,10.0,0.0,0.0,0.0,10.0,0.0,0.0,0.0,10.0
1452007978529661250,71,1452007978524776935,robocape_mag,19.35,-4.5,19.65,10.0,0.0,0.0,0.0,10.0,0.0,0.0,0.0,10.0
1452007978563484875,72,1452007978558274984,robocape_mag,19.35,-4.5,19.65,10.0,0.0,0.0,0.0,10.0,0.0,0.0,0.0,10.0
1452007978597166833,73,1452007978591963052,robocape_mag,19.35,-4.5,19.65,10.0,0.0,0.0,0.0,10.0,0.0,0.0,0.0,10.0
1452007978630111041,74,1452007978624927997,robocape_mag,19.35,-4.5,19.65,10.0,0.0,0.0,0.0,10.0,0.0,0.0,0.0,10.0
1452007978663033958,75,1452007978658067941,robocape_mag,16.65,-4.2,19.35,10.0,0.0,0.0,0.0,10.0,0.0,0.0,0.0,10.0
1452007978696604666,76,1452007978691526889,robocape_mag,16.65,-4.2,19.35,10.0,0.0,0.0,0.0,10.0,0.0,0.0,0.0,10.0
1452007978735011208,77,1452007978727616071,robocape_mag,16.65,-4.2,19.35,10.0,0.0,0.0,0.0,10.0,0.0,0.0,0.0,10.0
1452007978763213917,78,1452007978758304119,robocape_mag,16.65,-4.2,19.35,10.0,0.0,0.0,0.0,10.0,0.0,0.0,0.0,10.0
1452007978796552417,79,1452007978791718959,robocape_mag,16.65,-4.2,19.35,10.0,0.0,0.0,0.0,10.0,0.0,0.0,0.0,10.0
1452007978829817625,80,1452007978824923038,robocape_mag,15.45,-6.6,19.95,10.0,0.0,0.0,0.0,10.0,0.0,0.0,0.0,10.0
1452007978864684375,81,1452007978859702110,robocape_mag,15.45,-6.6,19.95,10.0,0.0,0.0,0.0,10.0,0.0,0.0,0.0,10.0
1452007978897377083,82,1452007978892585039,robocape_mag,15.45,-6.6,19.95,10.0,0.0,0.0,0.0,10.0,0.0,0.0,0.0,10.0
1452007978931037667,83,1452007978926183938,robocape_mag,15.45,-6.6,19.95,10.0,0.0,0.0,0.0,10.0,0.0,0.0,0.0,10.0
1452007978964506917,84,1452007978959505081,robocape_mag,15.75,-4.5,20.85,10.0,0.0,0.0,0.0,10.0,0.0,0.0,0.0,10.0
1452007978999938167,85,1452007978992804050,robocape_mag,15.75,-4.5,20.85,10.0,0.0,0.0,0.0,10.0,0.0,0.0,0.0,10.0
1452007979030196750,86,1452007979025440931,robocape_mag,15.75,-4.5,20.85,10.0,0.0,0.0,0.0,10.0,0.0,0.0,0.0,10.0
1452007979068345292,87,1452007979059856891,robocape_mag,15.75,-4.5,20.85,10.0,0.0,0.0,0.0,10.0,0.0,0.0,0.0,10.0
1452007979098190875,88,1452007979093041896,robocape_mag,15.75,-4.5,20.85,10.0,0.0,0.0,0.0,10.0,0.0,0.0,0.0,10.0
1452007979131551625,89,1452007979126485109,robocape_mag,15.45,-4.2,19.95,10.0,0.0,0.0,0.0,10.0,0.0,0.0,0.0,10.0
1452007979164083792,90,1452007979158983945,robocape_mag,15.45,-4.2,19.95,10.0,0.0,0.0,0.0,10.0,0.0,0.0,0.0,10.0
1452007979202650917,91,1452007979196053028,robocape_mag,15.45,-4.2,19.95,10.0,0.0,0.0,0.0,10.0,0.0,0.0,0.0,10.0
1452007979235202500,92,1452007979227550983,robocape_mag,15.45,-4.2,19.95,10.0,0.0,0.0,0.0,10.0,0.0,0.0,0.0,10.0
1452007979271800792,93,1452007979261794090,robocape_mag,15.45,-4.2,19.95,10.0,0.0,0.0,0.0,10.0,0.0,0.0,0.0,10.0
1452007979300072500,94,1452007979294981002,robocape_mag,18.15,-5.1,17.85,10.0,0.0,0.0,0.0,10.0,0.0,0.0,0.0,10.0
1452007979337946625,95,1452007979329823017,robocape_mag,18.15,-5.1,17.85,10.0,0.0,0.0,0.0,10.0,0.0,0.0,0.0,10.0
1452007979369478792,96,1452007979362176895,robocape_mag,18.15,-5.1,17.85,10.0,0.0,0.0,0.0,10.0,0.0,0.0,0.0,10.0
1452007979403926958,97,1452007979398905038,robocape_mag,18.15,-5.1,17.85,10.0,0.0,0.0,0.0,10.0,0.0,0.0,0.0,10.0
1452007979434001875,98,1452007979428596019,robocape_mag,18.15,-5.1,17.85,10.0,0.0,0.0,0.0,10.0,0.0,0.0,0.0,10.0
1452007979469609875,99,1452007979461858034,robocape_mag,15.15,-5.7,20.85,10.0,0.0,0.0,0.0,10.0,0.0,0.0,0.0,10.0
1452007979501012500,100,1452007979495892047,robocape_mag,15.15,-5.7,20.85,10.0,0.0,0.0,0.0,10.0,0.0,0.0,0.0,10.0
1452007979534738459,101,1452007979529613971,robocape_mag,15.15,-5.7,20.85,10.0,0.0,0.0,0.0,10.0,0.0,0.0,0.0,10.0
1452007979574692209,102,1452007979562385082,robocape_mag,15.15,-5.7,20.85,10.0,0.0,0.0,0.0,10.0,0.0,0.0,0.0,10.0
1452007979603126584,103,1452007979595133066,robocape_mag,15.15,-5.1,20.25,10.0,0.0,0.0,0.0,10.0,0.0,0.0,0.0,10.0
1452007979633125917,104,1452007979628148078,robocape_mag,14.55,-5.1,20.25,10.0,0.0,0.0,0.0,10.0,0.0,0.0,0.0,10.0
1452007979666618584,105,1452007979661669969,robocape_mag,14.55,-5.1,20.25,10.0,0.0,0.0,0.0,10.0,0.0,0.0,0.0,10.0
1452007979699644334,106,1452007979694809913,robocape_mag,14.55,-5.1,20.25,10.0,0.0,0.0,0.0,10.0,0.0,0.0,0.0,10.0
1452007979734036084,107,1452007979729207992,robocape_mag,14.55,-5.1,20.25,10.0,0.0,0.0,0.0,10.0,0.0,0.0,0.0,10.0
1452007979765953750,108,1452007979761173963,robocape_mag,16.35,-5.7,19.65,10.0,0.0,0.0,0.0,10.0,0.0,0.0,0.0,10.0
1452007979799562667,109,1452007979794469118,robocape_mag,16.35,-5.7,19.65,10.0,0.0,0.0,0.0,10.0,0.0,0.0,0.0,10.0
1452007979833327959,110,1452007979828346014,robocape_mag,16.35,-5.7,19.65,10.0,0.0,0.0,0.0,10.0,0.0,0.0,0.0,10.0
1452007979865437459,111,1452007979860594034,robocape_mag,16.35,-5.7,19.65,10.0,0.0,0.0,0.0,10.0,0.0,0.0,0.0,10.0
1452007979898578584,112,1452007979893552064,robocape_mag,16.35,-5.7,19.65,10.0,0.0,0.0,0.0,10.0,0.0,0.0,0.0,10.0
1452007979931905417,113,1452007979927047967,robocape_mag,16.05,-4.2,19.35,10.0,0.0,0.0,0.0,10.0,0.0,0.0,0.0,10.0
1452007979964426792,114,1452007979959431886,robocape_mag,16.05,-4.2,19.35,10.0,0.0,0.0,0.0,10.0,0.0,0.0,0.0,10.0
1452007979997504834,115,1452007979992432117,robocape_mag,16.05,-4.2,19.35,10.0,0.0,0.0,0.0,10.0,0.0,0.0,0.0,10.0
1452007980030674584,116,1452007980025836944,robocape_mag,16.05,-4.2,19.35,10.0,0.0,0.0,0.0,10.0,0.0,0.0,0.0,10.0
1452007980064178625,117,1452007980059247016,robocape_mag,16.05,-4.2,19.35,10.0,0.0,0.0,0.0,10.0,0.0,0.0,0.0,10.0
1452007980096943084,118,1452007980092068910,robocape_mag,18.45,-7.2,18.15,10.0,0.0,0.0,0.0,10.0,0.0,0.0,0.0,10.0
1452007980130241292,119,1452007980125422000,robocape_mag,18.45,-7.2,18.15,10.0,0.0,0.0,0.0,10.0,0.0,0.0,0.0,10.0
1452007980163749792,120,1452007980158807992,robocape_mag,18.45,-7.2,18.15,10.0,0.0,0.0,0.0,10.0,0.0,0.0,0.0,10.0
1452007980196667334,121,1452007980191814899,robocape_mag,18.45,-7.2,18.15,10.0,0.0,0.0,0.0,10.0,0.0,0.0,0.0,10.0
1452007980230106626,122,1452007980225212097,robocape_mag,18.45,-7.2,18.15,10.0,0.0,0.0,0.0,10.0,0.0,0.0,0.0,10.0
1452007980263156376,123,1452007980258210897,robocape_mag,19.05,-8.4,15.75,10.0,0.0,0.0,0.0,10.0,0.0,0.0,0.0,10.0
1452007980296586834,124,1452007980291753053,robocape_mag,19.05,-8.4,15.75,10.0,0.0,0.0,0.0,10.0,0.0,0.0,0.0,10.0
1452007980330003584,125,1452007980325073003,robocape_mag,19.05,-8.4,15.75,10.0,0.0,0.0,0.0,10.0,0.0,0.0,0.0,10.0
1452007980363028417,126,1452007980358088970,robocape_mag,19.05,-8.4,15.75,10.0,0.0,0.0,0.0,10.0,0.0,0.0,0.0,10.0
1452007980396593417,127,1452007980391820907,robocape_mag,19.05,-8.4,15.75,10.0,0.0,0.0,0.0,10.0,0.0,0.0,0.0,10.0
1452007980430915292,128,1452007980425245046,robocape_mag,17.25,-1.2,21.15,10.0,0.0,0.0,0.0,10.0,0.0,0.0,0.0,10.0
1452007980463175959,129,1452007980458370923,robocape_mag,17.25,-1.2,21.15,10.0,0.0,0.0,0.0,10.0,0.0,0.0,0.0,10.0
1452007980496733626,130,1452007980491645097,robocape_mag,17.25,-1.2,21.15,10.0,0.0,0.0,0.0,10.0,0.0,0.0,0.0,10.0
1452007980530465376,131,1452007980525634050,robocape_mag,17.25,-1.2,21.15,10.0,0.0,0.0,0.0,10.0,0.0,0.0,0.0,10.0
1452007980563054001,132,1452007980558273077,robocape_mag,29.25,-9.0,6.15,10.0,0.0,0.0,0.0,10.0,0.0,0.0,0.0,10.0
1452007980598130626,133,1452007980593204021,robocape_mag,29.25,-9.0,6.15,10.0,0.0,0.0,0.0,10.0,0.0,0.0,0.0,10.0
1452007980631694501,134,1452007980625359058,robocape_mag,29.25,-9.0,6.15,10.0,0.0,0.0,0.0,10.0,0.0,0.0,0.0,10.0
1452007980662960959,135,1452007980658157110,robocape_mag,29.25,-9.0,6.15,10.0,0.0,0.0,0.0,10.0,0.0,0.0,0.0,10.0
1452007980696930876,136,1452007980691755056,robocape_mag,29.25,-9.0,6.15,10.0,0.0,0.0,0.0,10.0,0.0,0.0,0.0,10.0
1452007980730587417,137,1452007980725001096,robocape_mag,32.85,-7.8,3.15,10.0,0.0,0.0,0.0,10.0,0.0,0.0,0.0,10.0
1452007980766042959,138,1452007980758300065,robocape_mag,32.85,-7.8,3.15,10.0,0.0,0.0,0.0,10.0,0.0,0.0,0.0,10.0
1452007980796737042,139,1452007980791691064,robocape_mag,32.85,-7.8,3.15,10.0,0.0,0.0,0.0,10.0,0.0,0.0,0.0,10.0
1452007980829856876,140,1452007980824837923,robocape_mag,32.85,-7.8,3.15,10.0,0.0,0.0,0.0,10.0,0.0,0.0,0.0,10.0
1452007980863373376,141,1452007980858125925,robocape_mag,32.85,-7.8,3.15,10.0,0.0,0.0,0.0,10.0,0.0,0.0,0.0,10.0
1452007980896843834,142,1452007980891727924,robocape_mag,43.35,-8.7,-19.95,10.0,0.0,0.0,0.0,10.0,0.0,0.0,0.0,10.0
1452007980930202668,143,1452007980925051927,robocape_mag,43.35,-8.7,-19.95,10.0,0.0,0.0,0.0,10.0,0.0,0.0,0.0,10.0
1452007980963709209,144,1452007980958637952,robocape_mag,43.35,-8.7,-19.95,10.0,0.0,0.0,0.0,10.0,0.0,0.0,0.0,10.0
1452007980996530418,145,1452007980991632938,robocape_mag,43.35,-8.7,-19.95,10.0,0.0,0.0,0.0,10.0,0.0,0.0,0.0,10.0
1452007981029798543,146,1452007981024897098,robocape_mag,43.35,-8.7,-19.95,10.0,0.0,0.0,0.0,10.0,0.0,0.0,0.0,10.0
1452007981063192459,147,1452007981058247089,robocape_mag,34.65,19.2,-4.05,10.0,0.0,0.0,0.0,10.0,0.0,0.0,0.0,10.0
1452007981096951084,148,1452007981092071056,robocape_mag,34.65,19.2,-4.05,10.0,0.0,0.0,0.0,10.0,0.0,0.0,0.0,10.0
1452007981129867834,149,1452007981125113010,robocape_mag,34.65,19.2,-4.05,10.0,0.0,0.0,0.0,10.0,0.0,0.0,0.0,10.0
1452007981163326793,150,1452007981158327102,robocape_mag,34.65,19.2,-4.05,10.0,0.0,0.0,0.0,10.0,0.0,0.0,0.0,10.0
1452007981197713168,151,1452007981192976951,robocape_mag,34.65,19.2,-4.05,10.0,0.0,0.0,0.0,10.0,0.0,0.0,0.0,10.0
1452007981231192876,152,1452007981226351976,robocape_mag,42.45,15.6,-19.65,10.0,0.0,0.0,0.0,10.0,0.0,0.0,0.0,10.0
1452007981264565376,153,1452007981259633064,robocape_mag,42.45,15.6,-19.65,10.0,0.0,0.0,0.0,10.0,0.0,0.0,0.0,10.0
1452007981297797543,154,1452007981293014049,robocape_mag,42.45,15.6,-19.65,10.0,0.0,0.0,0.0,10.0,0.0,0.0,0.0,10.0
1452007981331274126,155,1452007981326234102,robocape_mag,42.45,15.6,-19.65,10.0,0.0,0.0,0.0,10.0,0.0,0.0,0.0,10.0
1452007981365065001,156,1452007981359951972,robocape_mag,40.65,13.8,-25.65,10.0,0.0,0.0,0.0,10.0,0.0,0.0,0.0,10.0
1452007981398187459,157,1452007981393287897,robocape_mag,40.65,13.8,-25.65,10.0,0.0,0.0,0.0,10.0,0.0,0.0,0.0,10.0
1452007981432026543,158,1452007981426958084,robocape_mag,40.65,13.8,-25.65,10.0,0.0,0.0,0.0,10.0,0.0,0.0,0.0,10.0
1452007981470108459,159,1452007981461962938,robocape_mag,40.65,13.8,-25.65,10.0,0.0,0.0,0.0,10.0,0.0,0.0,0.0,10.0
1452007981507670626,160,1452007981494477033,robocape_mag,40.65,13.8,-25.65,10.0,0.0,0.0,0.0,10.0,0.0,0.0,0.0,10.0
1452007981535706501,161,1452007981527756929,robocape_mag,36.75,17.7,-28.95,10.0,0.0,0.0,0.0,10.0,0.0,0.0,0.0,10.0
1452007981575273210,162,1452007981561909914,robocape_mag,36.75,17.7,-28.95,10.0,0.0,0.0,0.0,10.0,0.0,0.0,0.0,10.0
1452007981601813376,163,1452007981595055103,robocape_mag,36.75,17.7,-28.95,10.0,0.0,0.0,0.0,10.0,0.0,0.0,0.0,10.0
1452007981634754918,164,1452007981627511024,robocape_mag,36.75,17.7,-28.95,10.0,0.0,0.0,0.0,10.0,0.0,0.0,0.0,10.0
1452007981672004876,165,1452007981661866903,robocape_mag,36.75,17.7,-28.95,10.0,0.0,0.0,0.0,10.0,0.0,0.0,0.0,10.0
1452007981700814501,166,1452007981695131063,robocape_mag,37.65,20.4,-25.65,10.0,0.0,0.0,0.0,10.0,0.0,0.0,0.0,10.0
1452007981734614960,167,1452007981729407072,robocape_mag,37.65,20.4,-25.65,10.0,0.0,0.0,0.0,10.0,0.0,0.0,0.0,10.0
1452007981767123001,168,1452007981761692047,robocape_mag,37.65,20.4,-25.65,10.0,0.0,0.0,0.0,10.0,0.0,0.0,0.0,10.0
1452007981800040376,169,1452007981794748067,robocape_mag,37.65,20.4,-25.65,10.0,0.0,0.0,0.0,10.0,0.0,0.0,0.0,10.0
1452007981834732835,170,1452007981829591989,robocape_mag,37.65,20.4,-25.65,10.0,0.0,0.0,0.0,10.0,0.0,0.0,0.0,10.0
1452007981869607668,171,1452007981861941099,robocape_mag,33.15,26.1,-9.15,10.0,0.0,0.0,0.0,10.0,0.0,0.0,0.0,10.0
1452007981900412793,172,1452007981895332098,robocape_mag,33.15,26.1,-9.15,10.0,0.0,0.0,0.0,10.0,0.0,0.0,0.0,10.0
1452007981937192501,173,1452007981928611040,robocape_mag,33.15,26.1,-9.15,10.0,0.0,0.0,0.0,10.0,0.0,0.0,0.0,10.0
1452007981971086126,174,1452007981961750984,robocape_mag,33.15,26.1,-9.15,10.0,0.0,0.0,0.0,10.0,0.0,0.0,0.0,10.0
1452007982000505376,175,1452007981995400905,robocape_mag,33.15,26.7,-9.75,10.0,0.0,0.0,0.0,10.0,0.0,0.0,0.0,10.0
1452007982034994960,176,1452007982027599096,robocape_mag,34.95,26.7,-9.75,10.0,0.0,0.0,0.0,10.0,0.0,0.0,0.0,10.0
1452007982066706001,177,1452007982061706066,robocape_mag,34.95,26.7,-9.75,10.0,0.0,0.0,0.0,10.0,0.0,0.0,0.0,10.0
1452007982098723460,178,1452007982093868017,robocape_mag,34.95,26.7,-9.75,10.0,0.0,0.0,0.0,10.0,0.0,0.0,0.0,10.0
1452007982132226876,179,1452007982126934051,robocape_mag,34.95,26.7,-9.75,10.0,0.0,0.0,0.0,10.0,0.0,0.0,0.0,10.0
1452007982165495626,180,1452007982160456895,robocape_mag,33.45,5.4,-4.05,10.0,0.0,0.0,0.0,10.0,0.0,0.0,0.0,10.0
1452007982198726918,181,1452007982193840026,robocape_mag,33.45,5.4,-4.05,10.0,0.0,0.0,0.0,10.0,0.0,0.0,0.0,10.0
1452007982231857335,182,1452007982226620912,robocape_mag,33.45,5.4,-4.05,10.0,0.0,0.0,0.0,10.0,0.0,0.0,0.0,10.0
1452007982265494877,183,1452007982260508060,robocape_mag,33.45,5.4,-4.05,10.0,0.0,0.0,0.0,10.0,0.0,0.0,0.0,10.0
1452007982298250293,184,1452007982293401002,robocape_mag,33.45,5.4,-4.05,10.0,0.0,0.0,0.0,10.0,0.0,0.0,0.0,10.0
1452007982329639335,185,1452007982324856042,robocape_mag,35.85,28.2,-7.65,10.0,0.0,0.0,0.0,10.0,0.0,0.0,0.0,10.0
1452007982363161418,186,1452007982358201026,robocape_mag,35.85,28.2,-7.65,10.0,0.0,0.0,0.0,10.0,0.0,0.0,0.0,10.0
1452007982396674835,187,1452007982391864061,robocape_mag,35.85,28.2,-7.65,10.0,0.0,0.0,0.0,10.0,0.0,0.0,0.0,10.0
1452007982431325002,188,1452007982426110029,robocape_mag,35.85,28.2,-7.65,10.0,0.0,0.0,0.0,10.0,0.0,0.0,0.0,10.0
1452007982464558085,189,1452007982459619998,robocape_mag,35.85,28.2,-7.65,10.0,0.0,0.0,0.0,10.0,0.0,0.0,0.0,10.0
1452007982498631210,190,1452007982493254899,robocape_mag,37.05,12.0,0.15,10.0,0.0,0.0,0.0,10.0,0.0,0.0,0.0,10.0
1452007982531718043,191,1452007982526688098,robocape_mag,37.05,12.0,0.15,10.0,0.0,0.0,0.0,10.0,0.0,0.0,0.0,10.0
1452007982564928793,192,1452007982559817075,robocape_mag,37.05,12.0,0.15,10.0,0.0,0.0,0.0,10.0,0.0,0.0,0.0,10.0
1452007982599164585,193,1452007982594315052,robocape_mag,37.05,12.0,0.15,10.0,0.0,0.0,0.0,10.0,0.0,0.0,0.0,10.0
1452007982637304252,194,1452007982629291057,robocape_mag,37.05,12.0,0.15,10.0,0.0,0.0,0.0,10.0,0.0,0.0,0.0,10.0
1452007982665091960,195,1452007982660326004,robocape_mag,23.55,24.9,0.45,10.0,0.0,0.0,0.0,10.0,0.0,0.0,0.0,10.0
1452007982697962710,196,1452007982693155050,robocape_mag,23.55,24.9,0.45,10.0,0.0,0.0,0.0,10.0,0.0,0.0,0.0,10.0
1452007982735333335,197,1452007982729720115,robocape_mag,23.55,24.9,0.45,10.0,0.0,0.0,0.0,10.0,0.0,0.0,0.0,10.0
1452007982763578043,198,1452007982758599996,robocape_mag,23.55,24.9,0.45,10.0,0.0,0.0,0.0,10.0,0.0,0.0,0.0,10.0
1452007982796818293,199,1452007982791754961,robocape_mag,23.55,24.9,0.45,10.0,0.0,0.0,0.0,10.0,0.0,0.0,0.0,10.0
1452007982829920293,200,1452007982825092077,robocape_mag,36.15,32.1,-12.15,10.0,0.0,0.0,0.0,10.0,0.0,0.0,0.0,10.0
1452007982863438085,201,1452007982858329057,robocape_mag,36.15,32.1,-12.15,10.0,0.0,0.0,0.0,10.0,0.0,0.0,0.0,10.0
1452007982896807877,202,1452007982891802072,robocape_mag,36.15,32.1,-12.15,10.0,0.0,0.0,0.0,10.0,0.0,0.0,0.0,10.0
1452007982930384752,203,1452007982925403118,robocape_mag,36.15,32.1,-12.15,10.0,0.0,0.0,0.0,10.0,0.0,0.0,0.0,10.0
1452007982963303627,204,1452007982958223104,robocape_mag,25.05,10.8,-4.65,10.0,0.0,0.0,0.0,10.0,0.0,0.0,0.0,10.0
1452007982996424835,205,1452007982991509914,robocape_mag,25.05,10.8,-4.65,10.0,0.0,0.0,0.0,10.0,0.0,0.0,0.0,10.0
1452007983029789335,206,1452007983024986028,robocape_mag,25.05,10.8,-4.65,10.0,0.0,0.0,0.0,10.0,0.0,0.0,0.0,10.0
1452007983065290710,207,1452007983058258056,robocape_mag,25.05,10.8,-4.65,10.0,0.0,0.0,0.0,10.0,0.0,0.0,0.0,10.0
1452007983097240210,208,1452007983091810941,robocape_mag,25.05,10.8,-4.65,10.0,0.0,0.0,0.0,10.0,0.0,0.0,0.0,10.0
1452007983130163377,209,1452007983124864101,robocape_mag,29.55,30.3,-14.55,10.0,0.0,0.0,0.0,10.0,0.0,0.0,0.0,10.0
1452007983163310419,210,1452007983158164024,robocape_mag,29.55,30.3,-14.55,10.0,0.0,0.0,0.0,10.0,0.0,0.0,0.0,10.0
1452007983196938335,211,1452007983191626071,robocape_mag,29.55,30.3,-14.55,10.0,0.0,0.0,0.0,10.0,0.0,0.0,0.0,10.0
1452007983230114085,212,1452007983225007057,robocape_mag,29.55,30.3,-14.55,10.0,0.0,0.0,0.0,10.0,0.0,0.0,0.0,10.0
1452007983263609585,213,1452007983258224010,robocape_mag,29.55,30.3,-14.55,10.0,0.0,0.0,0.0,10.0,0.0,0.0,0.0,10.0
1452007983296805335,214,1452007983291434049,robocape_mag,26.55,13.5,-8.55,10.0,0.0,0.0,0.0,10.0,0.0,0.0,0.0,10.0
1452007983330093835,215,1452007983325115919,robocape_mag,26.55,13.5,-8.55,10.0,0.0,0.0,0.0,10.0,0.0,0.0,0.0,10.0
1452007983363640710,216,1452007983358305931,robocape_mag,26.55,13.5,-8.55,10.0,0.0,0.0,0.0,10.0,0.0,0.0,0.0,10.0
1452007983396843044,217,1452007983391653060,robocape_mag,26.55,13.5,-8.55,10.0,0.0,0.0,0.0,10.0,0.0,0.0,0.0,10.0
1452007983430253002,218,1452007983425231933,robocape_mag,26.55,13.5,-8.55,10.0,0.0,0.0,0.0,10.0,0.0,0.0,0.0,10.0
1452007983463285085,219,1452007983458355903,robocape_mag,8.55,39.9,4.05,10.0,0.0,0.0,0.0,10.0,0.0,0.0,0.0,10.0
1452007983496940127,220,1452007983491952896,robocape_mag,8.55,39.9,4.05,10.0,0.0,0.0,0.0,10.0,0.0,0.0,0.0,10.0
1452007983531172002,221,1452007983525582075,robocape_mag,8.55,39.9,4.05,10.0,0.0,0.0,0.0,10.0,0.0,0.0,0.0,10.0
1452007983566328044,222,1452007983558464050,robocape_mag,8.55,39.9,4.05,10.0,0.0,0.0,0.0,10.0,0.0,0.0,0.0,10.0
1452007983599780335,223,1452007983594507932,robocape_mag,8.55,39.9,8.25,10.0,0.0,0.0,0.0,10.0,0.0,0.0,0.0,10.0
1452007983632147711,224,1452007983627233982,robocape_mag,6.15,9.9,8.25,10.0,0.0,0.0,0.0,10.0,0.0,0.0,0.0,10.0
1452007983665282336,225,1452007983659931898,robocape_mag,6.15,9.9,8.25,10.0,0.0,0.0,0.0,10.0,0.0,0.0,0.0,10.0
1452007983698474836,226,1452007983693356037,robocape_mag,6.15,9.9,8.25,10.0,0.0,0.0,0.0,10.0,0.0,0.0,0.0,10.0
1452007983731404836,227,1452007983726603031,robocape_mag,6.15,9.9,8.25,10.0,0.0,0.0,0.0,10.0,0.0,0.0,0.0,10.0
1452007983765292336,228,1452007983759906053,robocape_mag,-3.45,30.9,11.25,10.0,0.0,0.0,0.0,10.0,0.0,0.0,0.0,10.0
1452007983798820794,229,1452007983793533086,robocape_mag,-3.45,30.9,11.25,10.0,0.0,0.0,0.0,10.0,0.0,0.0,0.0,10.0
1452007983830598752,230,1452007983825736999,robocape_mag,-3.45,30.9,11.25,10.0,0.0,0.0,0.0,10.0,0.0,0.0,0.0,10.0
1452007983864246169,231,1452007983859040021,robocape_mag,-3.45,30.9,11.25,10.0,0.0,0.0,0.0,10.0,0.0,0.0,0.0,10.0
1452007983901112961,232,1452007983895132064,robocape_mag,-3.45,30.9,11.25,10.0,0.0,0.0,0.0,10.0,0.0,0.0,0.0,10.0
1452007983933106669,233,1452007983926383018,robocape_mag,-11.25,28.5,8.25,10.0,0.0,0.0,0.0,10.0,0.0,0.0,0.0,10.0
1452007983973121586,234,1452007983961932897,robocape_mag,-11.25,28.5,8.25,10.0,0.0,0.0,0.0,10.0,0.0,0.0,0.0,10.0
1452007984004316086,235,1452007983995023965,robocape_mag,-11.25,28.5,8.25,10.0,0.0,0.0,0.0,10.0,0.0,0.0,0.0,10.0
1452007984033812086,236,1452007984028691053,robocape_mag,-11.25,28.5,8.25,10.0,0.0,0.0,0.0,10.0,0.0,0.0,0.0,10.0
1452007984067152711,237,1452007984061799049,robocape_mag,-11.25,28.5,8.25,10.0,0.0,0.0,0.0,10.0,0.0,0.0,0.0,10.0
1452007984100319502,238,1452007984095071077,robocape_mag,-12.15,12.0,10.35,10.0,0.0,0.0,0.0,10.0,0.0,0.0,0.0,10.0
1452007984133496711,239,1452007984128452062,robocape_mag,-12.15,12.0,10.35,10.0,0.0,0.0,0.0,10.0,0.0,0.0,0.0,10.0
1452007984170569377,240,1452007984161653995,robocape_mag,-12.15,12.0,10.35,10.0,0.0,0.0,0.0,10.0,0.0,0.0,0.0,10.0
1452007984201130752,241,1452007984195868015,robocape_mag,-12.15,12.0,10.35,10.0,0.0,0.0,0.0,10.0,0.0,0.0,0.0,10.0
1452007984234010169,242,1452007984229022026,robocape_mag,-12.15,12.0,10.35,10.0,0.0,0.0,0.0,10.0,0.0,0.0,0.0,10.0
1452007984266945752,243,1452007984261662006,robocape_mag,-11.85,-0.9,13.05,10.0,0.0,0.0,0.0,10.0,0.0,0.0,0.0,10.0
1452007984300370377,244,1452007984295223951,robocape_mag,-11.85,-0.9,13.05,10.0,0.0,0.0,0.0,10.0,0.0,0.0,0.0,10.0
1452007984332850836,245,1452007984327965021,robocape_mag,-11.85,-0.9,13.05,10.0,0.0,0.0,0.0,10.0,0.0,0.0,0.0,10.0
1452007984366219461,246,1452007984360943078,robocape_mag,-11.85,-0.9,13.05,10.0,0.0,0.0,0.0,10.0,0.0,0.0,0.0,10.0
1452007984399358419,247,1452007984394236087,robocape_mag,-11.85,-0.9,-3.75,10.0,0.0,0.0,0.0,10.0,0.0,0.0,0.0,10.0
1452007984431739878,248,1452007984426645994,robocape_mag,-0.45,-14.1,-3.75,10.0,0.0,0.0,0.0,10.0,0.0,0.0,0.0,10.0
1452007984467164753,249,1452007984461976051,robocape_mag,-0.45,-14.1,-3.75,10.0,0.0,0.0,0.0,10.0,0.0,0.0,0.0,10.0
1452007984499554669,250,1452007984494302988,robocape_mag,-0.45,-14.1,-3.75,10.0,0.0,0.0,0.0,10.0,0.0,0.0,0.0,10.0
1452007984532298044,251,1452007984527534961,robocape_mag,-0.45,-14.1,-3.75,10.0,0.0,0.0,0.0,10.0,0.0,0.0,0.0,10.0
1452007984565965836,252,1452007984560827016,robocape_mag,9.45,-42.0,6.15,10.0,0.0,0.0,0.0,10.0,0.0,0.0,0.0,10.0
1452007984599963919,253,1452007984594885110,robocape_mag,9.45,-42.0,6.15,10.0,0.0,0.0,0.0,10.0,0.0,0.0,0.0,10.0
1452007984630799544,254,1452007984625897884,robocape_mag,9.45,-42.0,6.15,10.0,0.0,0.0,0.0,10.0,0.0,0.0,0.0,10.0
1452007984665231503,255,1452007984660104990,robocape_mag,9.45,-42.0,6.15,10.0,0.0,0.0,0.0,10.0,0.0,0.0,0.0,10.0
1452007984701623461,256,1452007984692399024,robocape_mag,9.45,-42.0,6.15,10.0,0.0,0.0,0.0,10.0,0.0,0.0,0.0,10.0
1452007984731221919,257,1452007984726430892,robocape_mag,13.35,-21.9,-6.75,10.0,0.0,0.0,0.0,10.0,0.0,0.0,0.0,10.0
1452007984766506169,258,1452007984759114980,robocape_mag,13.35,-21.9,-6.75,10.0,0.0,0.0,0.0,10.0,0.0,0.0,0.0,10.0
1452007984796843211,259,1452007984791826963,robocape_mag,13.35,-21.9,-6.75,10.0,0.0,0.0,0.0,10.0,0.0,0.0,0.0,10.0
1452007984830007461,260,1452007984825170040,robocape_mag,13.35,-21.9,-6.75,10.0,0.0,0.0,0.0,10.0,0.0,0.0,0.0,10.0
1452007984863757753,261,1452007984858788013,robocape_mag,13.35,-21.9,-6.75,10.0,0.0,0.0,0.0,10.0,0.0,0.0,0.0,10.0
1452007984898640919,262,1452007984891484975,robocape_mag,17.85,-43.8,-5.25,10.0,0.0,0.0,0.0,10.0,0.0,0.0,0.0,10.0
1452007984930052628,263,1452007984925259113,robocape_mag,17.85,-43.8,-5.25,10.0,0.0,0.0,0.0,10.0,0.0,0.0,0.0,10.0
1452007984963586378,264,1452007984958739042,robocape_mag,17.85,-43.8,-5.25,10.0,0.0,0.0,0.0,10.0,0.0,0.0,0.0,10.0
1452007984996446336,265,1452007984991523981,robocape_mag,17.85,-43.8,-5.25,10.0,0.0,0.0,0.0,10.0,0.0,0.0,0.0,10.0
1452007985029973086,266,1452007985025176048,robocape_mag,17.85,-43.8,-5.25,10.0,0.0,0.0,0.0,10.0,0.0,0.0,0.0,10.0
1452007985063257961,267,1452007985058459997,robocape_mag,16.95,-37.5,17.25,10.0,0.0,0.0,0.0,10.0,0.0,0.0,0.0,10.0
1452007985096657753,268,1452007985091500997,robocape_mag,16.95,-37.5,17.25,10.0,0.0,0.0,0.0,10.0,0.0,0.0,0.0,10.0
1452007985129966961,269,1452007985125231027,robocape_mag,16.95,-37.5,17.25,10.0,0.0,0.0,0.0,10.0,0.0,0.0,0.0,10.0
1452007985163814170,270,1452007985158962965,robocape_mag,16.95,-37.5,17.25,10.0,0.0,0.0,0.0,10.0,0.0,0.0,0.0,10.0
1452007985196954378,271,1452007985191679000,robocape_mag,16.95,-37.5,17.25,10.0,0.0,0.0,0.0,10.0,0.0,0.0,0.0,10.0
1452007985230278128,272,1452007985225471973,robocape_mag,31.65,-46.8,-10.05,10.0,0.0,0.0,0.0,10.0,0.0,0.0,0.0,10.0
1452007985264919753,273,1452007985259947061,robocape_mag,31.65,-46.8,-10.05,10.0,0.0,0.0,0.0,10.0,0.0,0.0,0.0,10.0
1452007985296521836,274,1452007985291553974,robocape_mag,31.65,-46.8,-10.05,10.0,0.0,0.0,0.0,10.0,0.0,0.0,0.0,10.0
1452007985329984545,275,1452007985325088024,robocape_mag,31.65,-46.8,-10.05,10.0,0.0,0.0,0.0,10.0,0.0,0.0,0.0,10.0
1452007985363508045,276,1452007985358565092,robocape_mag,36.45,-42.6,0.75,10.0,0.0,0.0,0.0,10.0,0.0,0.0,0.0,10.0
1452007985396500836,277,1452007985391417026,robocape_mag,36.45,-42.6,0.75,10.0,0.0,0.0,0.0,10.0,0.0,0.0,0.0,10.0
1452007985430466211,278,1452007985425239086,robocape_mag,36.45,-42.6,0.75,10.0,0.0,0.0,0.0,10.0,0.0,0.0,0.0,10.0
1452007985463711670,279,1452007985458678960,robocape_mag,36.45,-42.6,0.75,10.0,0.0,0.0,0.0,10.0,0.0,0.0,0.0,10.0
1452007985496680920,280,1452007985491744041,robocape_mag,36.45,-42.6,0.75,10.0,0.0,0.0,0.0,10.0,0.0,0.0,0.0,10.0
1452007985530760586,281,1452007985525557994,robocape_mag,41.85,-21.0,1.95,10.0,0.0,0.0,0.0,10.0,0.0,0.0,0.0,10.0
1452007985564250461,282,1452007985559020042,robocape_mag,41.85,-21.0,1.95,10.0,0.0,0.0,0.0,10.0,0.0,0.0,0.0,10.0
1452007985599050878,283,1452007985592945098,robocape_mag,41.85,-21.0,1.95,10.0,0.0,0.0,0.0,10.0,0.0,0.0,0.0,10.0
1452007985630275878,284,1452007985624994993,robocape_mag,41.85,-21.0,1.95,10.0,0.0,0.0,0.0,10.0,0.0,0.0,0.0,10.0
1452007985663548170,285,1452007985658488988,robocape_mag,41.85,-21.0,1.95,10.0,0.0,0.0,0.0,10.0,0.0,0.0,0.0,10.0
1452007985696932961,286,1452007985691808938,robocape_mag,47.55,-13.5,-22.35,10.0,0.0,0.0,0.0,10.0,0.0,0.0,0.0,10.0
1452007985730020420,287,1452007985725135087,robocape_mag,47.55,-13.5,-22.35,10.0,0.0,0.0,0.0,10.0,0.0,0.0,0.0,10.0
1452007985763630712,288,1452007985758819103,robocape_mag,47.55,-13.5,-22.35,10.0,0.0,0.0,0.0,10.0,0.0,0.0,0.0,10.0
1452007985796623670,289,1452007985791635036,robocape_mag,47.55,-13.5,-22.35,10.0,0.0,0.0,0.0,10.0,0.0,0.0,0.0,10.0
1452007985829906462,290,1452007985825062036,robocape_mag,47.55,-13.5,-22.35,10.0,0.0,0.0,0.0,10.0,0.0,0.0,0.0,10.0
1452007985863288128,291,1452007985858414888,robocape_mag,44.25,-20.4,3.75,10.0,0.0,0.0,0.0,10.0,0.0,0.0,0.0,10.0
1452007985897327920,292,1452007985892606973,robocape_mag,44.25,-20.4,3.75,10.0,0.0,0.0,0.0,10.0,0.0,0.0,0.0,10.0
1452007985931430128,293,1452007985926615953,robocape_mag,44.25,-20.4,3.75,10.0,0.0,0.0,0.0,10.0,0.0,0.0,0.0,10.0
1452007985963950628,294,1452007985959006071,robocape_mag,44.25,-20.4,3.75,10.0,0.0,0.0,0.0,10.0,0.0,0.0,0.0,10.0
1452007985998184795,295,1452007985992790937,robocape_mag,44.25,-20.4,3.75,10.0,0.0,0.0,0.0,10.0,0.0,0.0,0.0,10.0
1452007986031806587,296,1452007986026746988,robocape_mag,50.55,-21.3,-22.95,10.0,0.0,0.0,0.0,10.0,0.0,0.0,0.0,10.0
1452007986070526587,297,1452007986060662031,robocape_mag,50.55,-21.3,-22.95,10.0,0.0,0.0,0.0,10.0,0.0,0.0,0.0,10.0
1452007986098319462,298,1452007986093312025,robocape_mag,50.55,-21.3,-22.95,10.0,0.0,0.0,0.0,10.0,0.0,0.0,0.0,10.0
1452007986131718962,299,1452007986126740932,robocape_mag,50.55,-21.3,-22.95,10.0,0.0,0.0,0.0,10.0,0.0,0.0,0.0,10.0
1452007986165346920,300,1452007986160391092,robocape_mag,46.05,-10.8,4.35,10.0,0.0,0.0,0.0,10.0,0.0,0.0,0.0,10.0
1452007986203960837,301,1452007986195401906,robocape_mag,46.05,-10.8,4.35,10.0,0.0,0.0,0.0,10.0,0.0,0.0,0.0,10.0
1452007986233473628,302,1452007986228410005,robocape_mag,46.05,-10.8,4.35,10.0,0.0,0.0,0.0,10.0,0.0,0.0,0.0,10.0
1452007986269012962,303,1452007986260571956,robocape_mag,46.05,-10.8,4.35,10.0,0.0,0.0,0.0,10.0,0.0,0.0,0.0,10.0
1452007986301429378,304,1452007986295042991,robocape_mag,46.05,-10.8,4.35,10.0,0.0,0.0,0.0,10.0,0.0,0.0,0.0,10.0
1452007986334491420,305,1452007986329000949,robocape_mag,50.25,6.0,-21.45,10.0,0.0,0.0,0.0,10.0,0.0,0.0,0.0,10.0
1452007986367686628,306,1452007986362322092,robocape_mag,50.25,6.0,-21.45,10.0,0.0,0.0,0.0,10.0,0.0,0.0,0.0,10.0
1452007986404679545,307,1452007986395751953,robocape_mag,50.25,6.0,-21.45,10.0,0.0,0.0,0.0,10.0,0.0,0.0,0.0,10.0
1452007986435846670,308,1452007986428603887,robocape_mag,50.25,6.0,-21.45,10.0,0.0,0.0,0.0,10.0,0.0,0.0,0.0,10.0
1452007986468955879,309,1452007986463913917,robocape_mag,50.25,6.0,-21.45,10.0,0.0,0.0,0.0,10.0,0.0,0.0,0.0,10.0
1452007986505144004,310,1452007986495718002,robocape_mag,40.95,12.9,-18.15,10.0,0.0,0.0,0.0,10.0,0.0,0.0,0.0,10.0
1452007986535764420,311,1452007986529104948,robocape_mag,40.95,12.9,-18.15,10.0,0.0,0.0,0.0,10.0,0.0,0.0,0.0,10.0
1452007986578989545,312,1452007986562984943,robocape_mag,40.95,12.9,-18.15,10.0,0.0,0.0,0.0,10.0,0.0,0.0,0.0,10.0
1452007986600857837,313,1452007986595767974,robocape_mag,40.95,12.9,-18.15,10.0,0.0,0.0,0.0,10.0,0.0,0.0,0.0,10.0
1452007986632447379,314,1452007986627310037,robocape_mag,40.95,12.9,-18.15,10.0,0.0,0.0,0.0,10.0,0.0,0.0,0.0,10.0
1452007986667520212,315,1452007986662559032,robocape_mag,37.05,11.4,-17.25,10.0,0.0,0.0,0.0,10.0,0.0,0.0,0.0,10.0
1452007986699896337,316,1452007986694983005,robocape_mag,37.05,11.4,-17.25,10.0,0.0,0.0,0.0,10.0,0.0,0.0,0.0,10.0
1452007986732832504,317,1452007986728044033,robocape_mag,37.05,11.4,-17.25,10.0,0.0,0.0,0.0,10.0,0.0,0.0,0.0,10.0
1452007986766636420,318,1452007986761873006,robocape_mag,37.05,11.4,-17.25,10.0,0.0,0.0,0.0,10.0,0.0,0.0,0.0,10.0
1452007986799288712,319,1452007986794500112,robocape_mag,37.05,11.4,-89.25,10.0,0.0,0.0,0.0,10.0,0.0,0.0,0.0,10.0
1452007986832491004,320,1452007986827685117,robocape_mag,32.85,15.6,-12.45,10.0,0.0,0.0,0.0,10.0,0.0,0.0,0.0,10.0
1452007986866556587,321,1452007986861701011,robocape_mag,32.85,15.6,-12.45,10.0,0.0,0.0,0.0,10.0,0.0,0.0,0.0,10.0
1452007986898315337,322,1452007986893500089,robocape_mag,32.85,15.6,-12.45,10.0,0.0,0.0,0.0,10.0,0.0,0.0,0.0,10.0
1452007986931616837,323,1452007986926588058,robocape_mag,32.85,15.6,-12.45,10.0,0.0,0.0,0.0,10.0,0.0,0.0,0.0,10.0
1452007986965047629,324,1452007986959830999,robocape_mag,33.15,-9.9,-3.15,10.0,0.0,0.0,0.0,10.0,0.0,0.0,0.0,10.0
1452007986996927712,325,1452007986992149114,robocape_mag,33.15,-9.9,-3.15,10.0,0.0,0.0,0.0,10.0,0.0,0.0,0.0,10.0
1452007987030697045,326,1452007987025757074,robocape_mag,33.15,-9.9,-3.15,10.0,0.0,0.0,0.0,10.0,0.0,0.0,0.0,10.0
1452007987064238045,327,1452007987058629989,robocape_mag,33.15,-9.9,-3.15,10.0,0.0,0.0,0.0,10.0,0.0,0.0,0.0,10.0
1452007987096608129,328,1452007987091809034,robocape_mag,33.15,-9.9,-3.15,10.0,0.0,0.0,0.0,10.0,0.0,0.0,0.0,10.0
1452007987130360837,329,1452007987125256061,robocape_mag,35.25,16.8,-12.45,10.0,0.0,0.0,0.0,10.0,0.0,0.0,0.0,10.0
1452007987166589087,330,1452007987158660888,robocape_mag,35.25,16.8,-12.45,10.0,0.0,0.0,0.0,10.0,0.0,0.0,0.0,10.0
1452007987196686504,331,1452007987191895961,robocape_mag,35.25,16.8,-12.45,10.0,0.0,0.0,0.0,10.0,0.0,0.0,0.0,10.0
1452007987230353212,332,1452007987225244045,robocape_mag,35.25,16.8,-12.45,10.0,0.0,0.0,0.0,10.0,0.0,0.0,0.0,10.0
1452007987263688379,333,1452007987258305072,robocape_mag,35.25,16.8,-12.45,10.0,0.0,0.0,0.0,10.0,0.0,0.0,0.0,10.0
1452007987296539462,334,1452007987291712999,robocape_mag,35.55,-4.5,-0.15,10.0,0.0,0.0,0.0,10.0,0.0,0.0,0.0,10.0
1452007987330123754,335,1452007987325186967,robocape_mag,35.55,-4.5,-0.15,10.0,0.0,0.0,0.0,10.0,0.0,0.0,0.0,10.0
1452007987363784546,336,1452007987358411073,robocape_mag,35.55,-4.5,-0.15,10.0,0.0,0.0,0.0,10.0,0.0,0.0,0.0,10.0
1452007987396585837,337,1452007987391737937,robocape_mag,35.55,-4.5,-0.15,10.0,0.0,0.0,0.0,10.0,0.0,0.0,0.0,10.0
1452007987430273754,338,1452007987425246953,robocape_mag,35.55,-4.5,-0.15,10.0,0.0,0.0,0.0,10.0,0.0,0.0,0.0,10.0
1452007987464337379,339,1452007987458997011,robocape_mag,36.45,15.0,-22.05,10.0,0.0,0.0,0.0,10.0,0.0,0.0,0.0,10.0
1452007987496432129,340,1452007987491648912,robocape_mag,36.45,15.0,-22.05,10.0,0.0,0.0,0.0,10.0,0.0,0.0,0.0,10.0
1452007987530286962,341,1452007987525146961,robocape_mag,36.45,15.0,-22.05,10.0,0.0,0.0,0.0,10.0,0.0,0.0,0.0,10.0
1452007987563383254,342,1452007987558608055,robocape_mag,36.45,15.0,-22.05,10.0,0.0,0.0,0.0,10.0,0.0,0.0,0.0,10.0
1452007987597818629,343,1452007987593022108,robocape_mag,36.45,15.0,-22.05,10.0,0.0,0.0,0.0,10.0,0.0,0.0,0.0,10.0
1452007987632228379,344,1452007987625073909,robocape_mag,38.85,0.6,7.95,10.0,0.0,0.0,0.0,10.0,0.0,0.0,0.0,10.0
1452007987663423712,345,1452007987658504962,robocape_mag,38.85,0.6,7.95,10.0,0.0,0.0,0.0,10.0,0.0,0.0,0.0,10.0
1452007987696488462,346,1452007987691663026,robocape_mag,38.85,0.6,7.95,10.0,0.0,0.0,0.0,10.0,0.0,0.0,0.0,10.0
1452007987730536421,347,1452007987724895954,robocape_mag,38.85,0.6,7.95,10.0,0.0,0.0,0.0,10.0,0.0,0.0,0.0,10.0
1452007987765308046,348,1452007987758236885,robocape_mag,36.45,1.2,3.15,10.0,0.0,0.0,0.0,10.0,0.0,0.0,0.0,10.0
1452007987798333504,349,1452007987791635036,robocape_mag,36.45,1.2,3.15,10.0,0.0,0.0,0.0,10.0,0.0,0.0,0.0,10.0
1452007987831724504,350,1452007987824927091,robocape_mag,36.45,1.2,3.15,10.0,0.0,0.0,0.0,10.0,0.0,0.0,0.0,10.0
1452007987863525588,351,1452007987858258962,robocape_mag,36.45,1.2,3.15,10.0,0.0,0.0,0.0,10.0,0.0,0.0,0.0,10.0
1452007987896497546,352,1452007987891477108,robocape_mag,36.45,1.2,3.15,10.0,0.0,0.0,0.0,10.0,0.0,0.0,0.0,10.0
1452007987930990129,353,1452007987925467967,robocape_mag,43.05,-1.2,-22.05,10.0,0.0,0.0,0.0,10.0,0.0,0.0,0.0,10.0
1452007987963667171,354,1452007987958442926,robocape_mag,43.05,-1.2,-22.05,10.0,0.0,0.0,0.0,10.0,0.0,0.0,0.0,10.0
1452007987996806004,355,1452007987991838932,robocape_mag,43.05,-1.2,-22.05,10.0,0.0,0.0,0.0,10.0,0.0,0.0,0.0,10.0
1452007988030124921,356,1452007988024796962,robocape_mag,43.05,-1.2,-22.05,10.0,0.0,0.0,0.0,10.0,0.0,0.0,0.0,10.0
1452007988063324338,357,1452007988058403015,robocape_mag,43.05,-1.2,-22.05,10.0,0.0,0.0,0.0,10.0,0.0,0.0,0.0,10.0
1452007988096415588,358,1452007988091484069,robocape_mag,40.95,10.5,-22.95,10.0,0.0,0.0,0.0,10.0,0.0,0.0,0.0,10.0
1452007988129963004,359,1452007988124816894,robocape_mag,40.95,10.5,-22.95,10.0,0.0,0.0,0.0,10.0,0.0,0.0,0.0,10.0
1452007988163896213,360,1452007988158900976,robocape_mag,40.95,10.5,-22.95,10.0,0.0,0.0,0.0,10.0,0.0,0.0,0.0,10.0
1452007988197274629,361,1452007988192188024,robocape_mag,40.95,10.5,-22.95,10.0,0.0,0.0,0.0,10.0,0.0,0.0,0.0,10.0
1452007988231404129,362,1452007988226258039,robocape_mag,40.95,10.5,-22.95,10.0,0.0,0.0,0.0,10.0,0.0,0.0,0.0,10.0
1452007988264025796,363,1452007988258399963,robocape_mag,39.45,12.6,-23.25,10.0,0.0,0.0,0.0,10.0,0.0,0.0,0.0,10.0
1452007988297512588,364,1452007988292748928,robocape_mag,39.45,12.6,-23.25,10.0,0.0,0.0,0.0,10.0,0.0,0.0,0.0,10.0
1452007988332406546,365,1452007988325257062,robocape_mag,39.45,12.6,-23.25,10.0,0.0,0.0,0.0,10.0,0.0,0.0,0.0,10.0
1452007988365168129,366,1452007988359626054,robocape_mag,39.45,12.6,-23.25,10.0,0.0,0.0,0.0,10.0,0.0,0.0,0.0,10.0
1452007988396696254,367,1452007988391943931,robocape_mag,39.45,12.6,-23.25,10.0,0.0,0.0,0.0,10.0,0.0,0.0,0.0,10.0
1452007988434863838,368,1452007988426727056,robocape_mag,36.75,-3.3,-4.95,10.0,0.0,0.0,0.0,10.0,0.0,0.0,0.0,10.0
1452007988465556129,369,1452007988460324048,robocape_mag,36.75,-3.3,-4.95,10.0,0.0,0.0,0.0,10.0,0.0,0.0,0.0,10.0
1452007988500334921,370,1452007988494746923,robocape_mag,36.75,-3.3,-4.95,10.0,0.0,0.0,0.0,10.0,0.0,0.0,0.0,10.0
1452007988536096713,371,1452007988529251098,robocape_mag,36.75,-3.3,-4.95,10.0,0.0,0.0,0.0,10.0,0.0,0.0,0.0,10.0
1452007988572273296,372,1452007988559961080,robocape_mag,30.45,9.6,0.75,10.0,0.0,0.0,0.0,10.0,0.0,0.0,0.0,10.0
1452007988601878546,373,1452007988596626996,robocape_mag,30.45,9.6,0.75,10.0,0.0,0.0,0.0,10.0,0.0,0.0,0.0,10.0
1452007988639121380,374,1452007988628451108,robocape_mag,30.45,9.6,0.75,10.0,0.0,0.0,0.0,10.0,0.0,0.0,0.0,10.0
1452007988672811130,375,1452007988663620948,robocape_mag,30.45,9.6,0.75,10.0,0.0,0.0,0.0,10.0,0.0,0.0,0.0,10.0
1452007988700787005,376,1452007988695755004,robocape_mag,30.45,9.6,0.75,10.0,0.0,0.0,0.0,10.0,0.0,0.0,0.0,10.0
1452007988738716921,377,1452007988729202985,robocape_mag,32.55,24.3,-3.15,10.0,0.0,0.0,0.0,10.0,0.0,0.0,0.0,10.0
1452007988771970671,378,1452007988761311054,robocape_mag,32.55,24.3,-3.15,10.0,0.0,0.0,0.0,10.0,0.0,0.0,0.0,10.0
1452007988799517255,379,1452007988794583082,robocape_mag,32.55,24.3,-3.15,10.0,0.0,0.0,0.0,10.0,0.0,0.0,0.0,10.0
1452007988829903130,380,1452007988825011014,robocape_mag,32.55,24.3,-3.15,10.0,0.0,0.0,0.0,10.0,0.0,0.0,0.0,10.0
1452007988863230671,381,1452007988858175992,robocape_mag,32.55,24.3,-3.15,10.0,0.0,0.0,0.0,10.0,0.0,0.0,0.0,10.0
1452007988898493921,382,1452007988891765117,robocape_mag,34.35,33.9,-11.55,10.0,0.0,0.0,0.0,10.0,0.0,0.0,0.0,10.0
1452007988931781463,383,1452007988924997091,robocape_mag,34.35,33.9,-11.55,10.0,0.0,0.0,0.0,10.0,0.0,0.0,0.0,10.0
1452007988963708505,384,1452007988958611011,robocape_mag,34.35,33.9,-11.55,10.0,0.0,0.0,0.0,10.0,0.0,0.0,0.0,10.0
1452007988996882463,385,1452007988992153882,robocape_mag,34.35,33.9,-11.55,10.0,0.0,0.0,0.0,10.0,0.0,0.0,0.0,10.0
1452007989032251213,386,1452007989027251005,robocape_mag,34.35,33.9,-11.55,10.0,0.0,0.0,0.0,10.0,0.0,0.0,0.0,10.0
1452007989070152505,387,1452007989061069011,robocape_mag,24.45,35.4,-2.25,10.0,0.0,0.0,0.0,10.0,0.0,0.0,0.0,10.0
1452007989098575588,388,1452007989093775987,robocape_mag,24.45,35.4,-2.25,10.0,0.0,0.0,0.0,10.0,0.0,0.0,0.0,10.0
1452007989132101630,389,1452007989126996040,robocape_mag,24.45,35.4,-2.25,10.0,0.0,0.0,0.0,10.0,0.0,0.0,0.0,10.0
1452007989167220296,390,1452007989161942005,robocape_mag,24.45,35.4,-2.25,10.0,0.0,0.0,0.0,10.0,0.0,0.0,0.0,10.0
1452007989199277296,391,1452007989194330930,robocape_mag,24.45,35.4,-11.25,10.0,0.0,0.0,0.0,10.0,0.0,0.0,0.0,10.0
1452007989260111630,392,1452007989226886034,robocape_mag,26.85,40.2,-11.25,10.0,0.0,0.0,0.0,10.0,0.0,0.0,0.0,10.0
1452007989280498838,393,1452007989274466991,robocape_mag,26.85,40.2,-11.25,10.0,0.0,0.0,0.0,10.0,0.0,0.0,0.0,10.0
1452007989302799130,394,1452007989298027038,robocape_mag,26.85,40.2,-11.25,10.0,0.0,0.0,0.0,10.0,0.0,0.0,0.0,10.0
1452007989332526713,395,1452007989327718973,robocape_mag,26.85,40.2,-11.25,10.0,0.0,0.0,0.0,10.0,0.0,0.0,0.0,10.0
1452007989364145880,396,1452007989359260082,robocape_mag,14.25,40.8,0.75,10.0,0.0,0.0,0.0,10.0,0.0,0.0,0.0,10.0
1452007989397255380,397,1452007989392497062,robocape_mag,14.25,40.8,0.75,10.0,0.0,0.0,0.0,10.0,0.0,0.0,0.0,10.0
1452007989434203172,398,1452007989425180912,robocape_mag,14.25,40.8,0.75,10.0,0.0,0.0,0.0,10.0,0.0,0.0,0.0,10.0
1452007989463685088,399,1452007989458575963,robocape_mag,14.25,40.8,0.75,10.0,0.0,0.0,0.0,10.0,0.0,0.0,0.0,10.0
1452007989496724172,400,1452007989491962909,robocape_mag,14.25,40.8,0.75,10.0,0.0,0.0,0.0,10.0,0.0,0.0,0.0,10.0
1452007989530004505,401,1452007989525005102,robocape_mag,10.05,11.4,3.75,10.0,0.0,0.0,0.0,10.0,0.0,0.0,0.0,10.0
1452007989563142005,402,1452007989558381080,robocape_mag,10.05,11.4,3.75,10.0,0.0,0.0,0.0,10.0,0.0,0.0,0.0,10.0
1452007989598460297,403,1452007989593683004,robocape_mag,10.05,11.4,3.75,10.0,0.0,0.0,0.0,10.0,0.0,0.0,0.0,10.0
1452007989630482797,404,1452007989625359058,robocape_mag,10.05,11.4,3.75,10.0,0.0,0.0,0.0,10.0,0.0,0.0,0.0,10.0
1452007989664047088,405,1452007989659081935,robocape_mag,10.05,11.4,3.75,10.0,0.0,0.0,0.0,10.0,0.0,0.0,0.0,10.0
1452007989696608755,406,1452007989691716909,robocape_mag,6.45,42.0,1.35,10.0,0.0,0.0,0.0,10.0,0.0,0.0,0.0,10.0
1452007989734646797,407,1452007989725086927,robocape_mag,6.45,42.0,1.35,10.0,0.0,0.0,0.0,10.0,0.0,0.0,0.0,10.0
1452007989763364463,408,1452007989758440971,robocape_mag,6.45,42.0,1.35,10.0,0.0,0.0,0.0,10.0,0.0,0.0,0.0,10.0
1452007989796375838,409,1452007989791503906,robocape_mag,6.45,42.0,1.35,10.0,0.0,0.0,0.0,10.0,0.0,0.0,0.0,10.0
1452007989830831338,410,1452007989825031042,robocape_mag,6.45,42.0,1.35,10.0,0.0,0.0,0.0,10.0,0.0,0.0,0.0,10.0
1452007989863366588,411,1452007989858593940,robocape_mag,7.05,21.0,-12.45,10.0,0.0,0.0,0.0,10.0,0.0,0.0,0.0,10.0
1452007989897231463,412,1452007989892338991,robocape_mag,7.05,21.0,-12.45,10.0,0.0,0.0,0.0,10.0,0.0,0.0,0.0,10.0
1452007989930233297,413,1452007989925194978,robocape_mag,7.05,21.0,-12.45,10.0,0.0,0.0,0.0,10.0,0.0,0.0,0.0,10.0
1452007989963494672,414,1452007989958358049,robocape_mag,7.05,21.0,-12.45,10.0,0.0,0.0,0.0,10.0,0.0,0.0,0.0,10.0
1452007989996374755,415,1452007989991575002,robocape_mag,7.05,21.0,-12.45,10.0,0.0,0.0,0.0,10.0,0.0,0.0,0.0,10.0
1452007990032209047,416,1452007990025154113,robocape_mag,-3.15,6.6,10.95,10.0,0.0,0.0,0.0,10.0,0.0,0.0,0.0,10.0
1452007990064255714,417,1452007990058511972,robocape_mag,-3.15,6.6,10.95,10.0,0.0,0.0,0.0,10.0,0.0,0.0,0.0,10.0
1452007990098388464,418,1452007990091708898,robocape_mag,-3.15,6.6,10.95,10.0,0.0,0.0,0.0,10.0,0.0,0.0,0.0,10.0
1452007990130343214,419,1452007990124851942,robocape_mag,-3.15,6.6,10.95,10.0,0.0,0.0,0.0,10.0,0.0,0.0,0.0,10.0
1452007990164405630,420,1452007990159118890,robocape_mag,-6.75,24.6,12.15,10.0,0.0,0.0,0.0,10.0,0.0,0.0,0.0,10.0
1452007990196998839,421,1452007990191916942,robocape_mag,-6.75,24.6,12.15,10.0,0.0,0.0,0.0,10.0,0.0,0.0,0.0,10.0
1452007990230164964,422,1452007990224997043,robocape_mag,-6.75,24.6,12.15,10.0,0.0,0.0,0.0,10.0,0.0,0.0,0.0,10.0
1452007990263346005,423,1452007990258182048,robocape_mag,-6.75,24.6,12.15,10.0,0.0,0.0,0.0,10.0,0.0,0.0,0.0,10.0
1452007990296619047,424,1452007990291424036,robocape_mag,-6.75,24.6,12.15,10.0,0.0,0.0,0.0,10.0,0.0,0.0,0.0,10.0
1452007990330028547,425,1452007990324877023,robocape_mag,-2.85,12.3,-12.75,10.0,0.0,0.0,0.0,10.0,0.0,0.0,0.0,10.0
1452007990363108839,426,1452007990358156919,robocape_mag,-2.85,12.3,-12.75,10.0,0.0,0.0,0.0,10.0,0.0,0.0,0.0,10.0
1452007990396437380,427,1452007990391526937,robocape_mag,-2.85,12.3,-12.75,10.0,0.0,0.0,0.0,10.0,0.0,0.0,0.0,10.0
1452007990430198672,428,1452007990425030946,robocape_mag,-2.85,12.3,-12.75,10.0,0.0,0.0,0.0,10.0,0.0,0.0,0.0,10.0
1452007990463454422,429,1452007990458492040,robocape_mag,-2.85,12.3,-12.75,10.0,0.0,0.0,0.0,10.0,0.0,0.0,0.0,10.0
1452007990496400922,430,1452007990491616010,robocape_mag,-6.75,-3.6,4.95,10.0,0.0,0.0,0.0,10.0,0.0,0.0,0.0,10.0
1452007990529936422,431,1452007990524996995,robocape_mag,-6.75,-3.6,4.95,10.0,0.0,0.0,0.0,10.0,0.0,0.0,0.0,10.0
1452007990564377047,432,1452007990558536052,robocape_mag,-6.75,-3.6,4.95,10.0,0.0,0.0,0.0,10.0,0.0,0.0,0.0,10.0
1452007990599126505,433,1452007990593786954,robocape_mag,-6.75,-3.6,4.95,10.0,0.0,0.0,0.0,10.0,0.0,0.0,0.0,10.0
1452007990632740756,434,1452007990626271009,robocape_mag,-6.75,-3.6,4.95,10.0,0.0,0.0,0.0,10.0,0.0,0.0,0.0,10.0
1452007990665916214,435,1452007990659575939,robocape_mag,-14.55,4.2,21.15,10.0,0.0,0.0,0.0,10.0,0.0,0.0,0.0,10.0
1452007990697152256,436,1452007990692231893,robocape_mag,-14.55,4.2,21.15,10.0,0.0,0.0,0.0,10.0,0.0,0.0,0.0,10.0
1452007990734907214,437,1452007990727086067,robocape_mag,-14.55,4.2,21.15,10.0,0.0,0.0,0.0,10.0,0.0,0.0,0.0,10.0
1452007990764606006,438,1452007990759805917,robocape_mag,-14.55,4.2,21.15,10.0,0.0,0.0,0.0,10.0,0.0,0.0,0.0,10.0
1452007990798573922,439,1452007990793730020,robocape_mag,-14.55,4.2,21.15,10.0,0.0,0.0,0.0,10.0,0.0,0.0,0.0,10.0
1452007990834011964,440,1452007990828762054,robocape_mag,-13.65,-9.3,16.65,10.0,0.0,0.0,0.0,10.0,0.0,0.0,0.0,10.0
1452007990871938714,441,1452007990861355066,robocape_mag,-13.65,-9.3,16.65,10.0,0.0,0.0,0.0,10.0,0.0,0.0,0.0,10.0
1452007990899364672,442,1452007990893776893,robocape_mag,-13.65,-9.3,16.65,10.0,0.0,0.0,0.0,10.0,0.0,0.0,0.0,10.0
1452007990935174797,443,1452007990928049087,robocape_mag,-13.65,-9.3,16.65,10.0,0.0,0.0,0.0,10.0,0.0,0.0,0.0,10.0
1452007990968757006,444,1452007990962205886,robocape_mag,-6.15,-26.4,-1.65,10.0,0.0,0.0,0.0,10.0,0.0,0.0,0.0,10.0
1452007990999814589,445,1452007990994754076,robocape_mag,-6.15,-26.4,-1.65,10.0,0.0,0.0,0.0,10.0,0.0,0.0,0.0,10.0
1452007991037455131,446,1452007991028892040,robocape_mag,-6.15,-26.4,-1.65,10.0,0.0,0.0,0.0,10.0,0.0,0.0,0.0,10.0
1452007991066764797,447,1452007991061500072,robocape_mag,-6.15,-26.4,-1.65,10.0,0.0,0.0,0.0,10.0,0.0,0.0,0.0,10.0
1452007991101234214,448,1452007991096008062,robocape_mag,-6.15,-26.4,-1.65,10.0,0.0,0.0,0.0,10.0,0.0,0.0,0.0,10.0
1452007991134579089,449,1452007991127428054,robocape_mag,7.35,-22.5,-11.55,10.0,0.0,0.0,0.0,10.0,0.0,0.0,0.0,10.0
1452007991169499547,450,1452007991160835027,robocape_mag,7.35,-22.5,-11.55,10.0,0.0,0.0,0.0,10.0,0.0,0.0,0.0,10.0
1452007991201865047,451,1452007991194834947,robocape_mag,7.35,-22.5,-11.55,10.0,0.0,0.0,0.0,10.0,0.0,0.0,0.0,10.0
1452007991234732339,452,1452007991228044033,robocape_mag,7.35,-22.5,-11.55,10.0,0.0,0.0,0.0,10.0,0.0,0.0,0.0,10.0
1452007991266822422,453,1452007991261671066,robocape_mag,7.35,-22.5,-11.55,10.0,0.0,0.0,0.0,10.0,0.0,0.0,0.0,10.0
1452007991299682381,454,1452007991294346094,robocape_mag,19.95,-46.5,-1.35,10.0,0.0,0.0,0.0,10.0,0.0,0.0,0.0,10.0
1452007991332349631,455,1452007991327234983,robocape_mag,19.95,-46.5,-1.35,10.0,0.0,0.0,0.0,10.0,0.0,0.0,0.0,10.0
1452007991366593256,456,1452007991361706972,robocape_mag,19.95,-46.5,-1.35,10.0,0.0,0.0,0.0,10.0,0.0,0.0,0.0,10.0
1452007991399983798,457,1452007991394898891,robocape_mag,19.95,-46.5,-1.35,10.0,0.0,0.0,0.0,10.0,0.0,0.0,0.0,10.0
1452007991431957714,458,1452007991427006959,robocape_mag,19.95,-46.5,-1.35,10.0,0.0,0.0,0.0,10.0,0.0,0.0,0.0,10.0
1452007991466312006,459,1452007991461242914,robocape_mag,37.35,-26.7,-22.35,10.0,0.0,0.0,0.0,10.0,0.0,0.0,0.0,10.0
1452007991499635839,460,1452007991494604110,robocape_mag,37.35,-26.7,-22.35,10.0,0.0,0.0,0.0,10.0,0.0,0.0,0.0,10.0
1452007991532984964,461,1452007991528000116,robocape_mag,37.35,-26.7,-22.35,10.0,0.0,0.0,0.0,10.0,0.0,0.0,0.0,10.0
1452007991564863756,462,1452007991559894084,robocape_mag,37.35,-26.7,-22.35,10.0,0.0,0.0,0.0,10.0,0.0,0.0,0.0,10.0
1452007991600252506,463,1452007991595457077,robocape_mag,37.35,-9.9,-1.35,10.0,0.0,0.0,0.0,10.0,0.0,0.0,0.0,10.0
1452007991632726673,464,1452007991627541065,robocape_mag,33.15,-9.9,-1.35,10.0,0.0,0.0,0.0,10.0,0.0,0.0,0.0,10.0
1452007991669863298,465,1452007991659563064,robocape_mag,33.15,-9.9,-1.35,10.0,0.0,0.0,0.0,10.0,0.0,0.0,0.0,10.0
1452007991698471798,466,1452007991693548917,robocape_mag,33.15,-9.9,-1.35,10.0,0.0,0.0,0.0,10.0,0.0,0.0,0.0,10.0
1452007991730273381,467,1452007991725387096,robocape_mag,33.15,-9.9,-1.35,10.0,0.0,0.0,0.0,10.0,0.0,0.0,0.0,10.0
1452007991767515381,468,1452007991758459091,robocape_mag,40.05,-24.0,-20.85,10.0,0.0,0.0,0.0,10.0,0.0,0.0,0.0,10.0
1452007991801182381,469,1452007991792013883,robocape_mag,40.05,-24.0,-20.85,10.0,0.0,0.0,0.0,10.0,0.0,0.0,0.0,10.0
1452007991830271464,470,1452007991825397014,robocape_mag,40.05,-24.0,-20.85,10.0,0.0,0.0,0.0,10.0,0.0,0.0,0.0,10.0
1452007991866292673,471,1452007991858588933,robocape_mag,40.05,-24.0,-20.85,10.0,0.0,0.0,0.0,10.0,0.0,0.0,0.0,10.0
1452007991896918798,472,1452007991892127990,robocape_mag,40.05,-24.0,-20.85,10.0,0.0,0.0,0.0,10.0,0.0,0.0,0.0,10.0
1452007991929907964,473,1452007991925138950,robocape_mag,35.25,-3.0,-2.25,10.0,0.0,0.0,0.0,10.0,0.0,0.0,0.0,10.0
1452007991966663339,474,1452007991958511114,robocape_mag,35.25,-3.0,-2.25,10.0,0.0,0.0,0.0,10.0,0.0,0.0,0.0,10.0
1452007991996691089,475,1452007991991906881,robocape_mag,35.25,-3.0,-2.25,10.0,0.0,0.0,0.0,10.0,0.0,0.0,0.0,10.0
1452007992029948298,476,1452007992025165081,robocape_mag,35.25,-3.0,-2.25,10.0,0.0,0.0,0.0,10.0,0.0,0.0,0.0,10.0
1452007992067994881,477,1452007992058522939,robocape_mag,35.25,-3.0,-2.25,10.0,0.0,0.0,0.0,10.0,0.0,0.0,0.0,10.0
1452007992096702965,478,1452007992091737031,robocape_mag,40.05,-1.2,-19.65,10.0,0.0,0.0,0.0,10.0,0.0,0.0,0.0,10.0
1452007992130116631,479,1452007992125247955,robocape_mag,40.05,-1.2,-19.65,10.0,0.0,0.0,0.0,10.0,0.0,0.0,0.0,10.0
1452007992163449715,480,1452007992158284902,robocape_mag,40.05,-1.2,-19.65,10.0,0.0,0.0,0.0,10.0,0.0,0.0,0.0,10.0
1452007992196659423,481,1452007992191761016,robocape_mag,40.05,-1.2,-19.65,10.0,0.0,0.0,0.0,10.0,0.0,0.0,0.0,10.0
1452007992230039006,482,1452007992225157976,robocape_mag,40.05,-1.2,-19.65,10.0,0.0,0.0,0.0,10.0,0.0,0.0,0.0,10.0
1452007992263287256,483,1452007992258443117,robocape_mag,37.65,-20.4,-3.45,10.0,0.0,0.0,0.0,10.0,0.0,0.0,0.0,10.0
1452007992296808673,484,1452007992291950941,robocape_mag,37.65,-20.4,-3.45,10.0,0.0,0.0,0.0,10.0,0.0,0.0,0.0,10.0
1452007992329768548,485,1452007992324873924,robocape_mag,37.65,-20.4,-3.45,10.0,0.0,0.0,0.0,10.0,0.0,0.0,0.0,10.0
1452007992362949298,486,1452007992358120918,robocape_mag,37.65,-20.4,-3.45,10.0,0.0,0.0,0.0,10.0,0.0,0.0,0.0,10.0
1452007992399077465,487,1452007992392345905,robocape_mag,37.65,-20.4,-3.45,10.0,0.0,0.0,0.0,10.0,0.0,0.0,0.0,10.0
1452007992430409548,488,1452007992424973011,robocape_mag,37.65,-16.8,-14.85,10.0,0.0,0.0,0.0,10.0,0.0,0.0,0.0,10.0
1452007992464804256,489,1452007992458136081,robocape_mag,37.65,-16.8,-14.85,10.0,0.0,0.0,0.0,10.0,0.0,0.0,0.0,10.0
1452007992497007465,490,1452007992491740942,robocape_mag,37.65,-16.8,-14.85,10.0,0.0,0.0,0.0,10.0,0.0,0.0,0.0,10.0
1452007992529861215,491,1452007992524904012,robocape_mag,37.65,-16.8,-14.85,10.0,0.0,0.0,0.0,10.0,0.0,0.0,0.0,10.0
1452007992563146965,492,1452007992558126926,robocape_mag,35.25,9.6,-9.45,10.0,0.0,0.0,0.0,10.0,0.0,0.0,0.0,10.0
1452007992597864215,493,1452007992592499017,robocape_mag,35.25,9.6,-9.45,10.0,0.0,0.0,0.0,10.0,0.0,0.0,0.0,10.0
1452007992630284215,494,1452007992624993085,robocape_mag,35.25,9.6,-9.45,10.0,0.0,0.0,0.0,10.0,0.0,0.0,0.0,10.0
1452007992663406256,495,1452007992658061981,robocape_mag,35.25,9.6,-9.45,10.0,0.0,0.0,0.0,10.0,0.0,0.0,0.0,10.0
1452007992697109715,496,1452007992691767930,robocape_mag,35.25,9.6,-9.45,10.0,0.0,0.0,0.0,10.0,0.0,0.0,0.0,10.0
1452007992731329507,497,1452007992724878072,robocape_mag,33.75,3.9,-1.35,10.0,0.0,0.0,0.0,10.0,0.0,0.0,0.0,10.0
1452007992763236215,498,1452007992758383035,robocape_mag,33.75,3.9,-1.35,10.0,0.0,0.0,0.0,10.0,0.0,0.0,0.0,10.0
1452007992800436548,499,1452007992791796922,robocape_mag,33.75,3.9,-1.35,10.0,0.0,0.0,0.0,10.0,0.0,0.0,0.0,10.0
1452007992831437340,500,1452007992824975013,robocape_mag,33.75,3.9,-1.35,10.0,0.0,0.0,0.0,10.0,0.0,0.0,0.0,10.0
1452007992863150548,501,1452007992858304977,robocape_mag,33.75,3.9,-1.35,10.0,0.0,0.0,0.0,10.0,0.0,0.0,0.0,10.0
1452007992897174632,502,1452007992891901969,robocape_mag,32.55,3.3,-0.75,10.0,0.0,0.0,0.0,10.0,0.0,0.0,0.0,10.0
1452007992931490965,503,1452007992926322937,robocape_mag,32.55,3.3,-0.75,10.0,0.0,0.0,0.0,10.0,0.0,0.0,0.0,10.0
1452007992964422257,504,1452007992959503889,robocape_mag,32.55,3.3,-0.75,10.0,0.0,0.0,0.0,10.0,0.0,0.0,0.0,10.0
1452007992998893632,505,1452007992993113994,robocape_mag,32.55,3.3,-0.75,10.0,0.0,0.0,0.0,10.0,0.0,0.0,0.0,10.0
1452007993032103298,506,1452007993027033090,robocape_mag,32.55,3.3,-0.75,10.0,0.0,0.0,0.0,10.0,0.0,0.0,0.0,10.0
1452007993067866048,507,1452007993060452938,robocape_mag,34.65,9.0,-9.45,10.0,0.0,0.0,0.0,10.0,0.0,0.0,0.0,10.0
1452007993104121590,508,1452007993095980882,robocape_mag,34.65,9.0,-9.45,10.0,0.0,0.0,0.0,10.0,0.0,0.0,0.0,10.0
1452007993131524965,509,1452007993126585960,robocape_mag,34.65,9.0,-9.45,10.0,0.0,0.0,0.0,10.0,0.0,0.0,0.0,10.0
1452007993164571923,510,1452007993159147024,robocape_mag,34.65,9.0,-9.45,10.0,0.0,0.0,0.0,10.0,0.0,0.0,0.0,10.0
1452007993198047465,511,1452007993193216085,robocape_mag,34.65,9.0,-9.45,10.0,0.0,0.0,0.0,10.0,0.0,0.0,0.0,10.0
1452007993234247882,512,1452007993229068040,robocape_mag,38.55,-1.5,-20.55,10.0,0.0,0.0,0.0,10.0,0.0,0.0,0.0,10.0
1452007993266120673,513,1452007993261293888,robocape_mag,38.55,-1.5,-20.55,10.0,0.0,0.0,0.0,10.0,0.0,0.0,0.0,10.0
1452007993305366798,514,1452007993296164035,robocape_mag,38.55,-1.5,-20.55,10.0,0.0,0.0,0.0,10.0,0.0,0.0,0.0,10.0
1452007993338505382,515,1452007993329411029,robocape_mag,38.55,-1.5,-20.55,10.0,0.0,0.0,0.0,10.0,0.0,0.0,0.0,10.0
1452007993367819965,516,1452007993361150026,robocape_mag,37.35,0.9,-26.55,10.0,0.0,0.0,0.0,10.0,0.0,0.0,0.0,10.0
1452007993404969757,517,1452007993395437955,robocape_mag,37.35,0.9,-26.55,10.0,0.0,0.0,0.0,10.0,0.0,0.0,0.0,10.0
1452007993434040799,518,1452007993429004907,robocape_mag,37.35,0.9,-26.55,10.0,0.0,0.0,0.0,10.0,0.0,0.0,0.0,10.0
1452007993466734007,519,1452007993461431026,robocape_mag,37.35,0.9,-26.55,10.0,0.0,0.0,0.0,10.0,0.0,0.0,0.0,10.0
1452007993501305007,520,1452007993495148897,robocape_mag,37.35,0.9,-26.55,10.0,0.0,0.0,0.0,10.0,0.0,0.0,0.0,10.0
1452007993534801299,521,1452007993529719114,robocape_mag,38.85,4.2,-23.25,10.0,0.0,0.0,0.0,10.0,0.0,0.0,0.0,10.0
1452007993578781257,522,1452007993563354015,robocape_mag,38.85,4.2,-23.25,10.0,0.0,0.0,0.0,10.0,0.0,0.0,0.0,10.0
1452007993602271049,523,1452007993597085952,robocape_mag,38.85,4.2,-23.25,10.0,0.0,0.0,0.0,10.0,0.0,0.0,0.0,10.0
1452007993636771674,524,1452007993628732919,robocape_mag,38.85,4.2,-23.25,10.0,0.0,0.0,0.0,10.0,0.0,0.0,0.0,10.0
1452007993670399465,525,1452007993661737918,robocape_mag,38.85,4.2,-23.25,10.0,0.0,0.0,0.0,10.0,0.0,0.0,0.0,10.0
1452007993699653799,526,1452007993694353103,robocape_mag,39.15,-9.3,-3.75,10.0,0.0,0.0,0.0,10.0,0.0,0.0,0.0,10.0
1452007993733241507,527,1452007993728363990,robocape_mag,39.15,-9.3,-3.75,10.0,0.0,0.0,0.0,10.0,0.0,0.0,0.0,10.0
