%time,field.header.seq,field.header.stamp,field.header.frame_id,field.magnetic_field.x,field.magnetic_field.y,field.magnetic_field.z,field.magnetic_field_covariance0,field.magnetic_field_covariance1,field.magnetic_field_covariance2,field.magnetic_field_covariance3,field.magnetic_field_covariance4,field.magnetic_field_covariance5,field.magnetic_field_covariance6,field.magnetic_field_covariance7,field.magnetic_field_covariance8
1446037376350193337,1,1446037375978285074,robocape_mag,17.55,9.9,-8.55,10.0,0.0,0.0,0.0,10.0,0.0,0.0,0.0,10.0
1446037376379027754,2,1446037376020294904,robocape_mag,17.55,9.9,-8.55,10.0,0.0,0.0,0.0,10.0,0.0,0.0,0.0,10.0
1446037376383436212,3,1446037376049524068,robocape_mag,12.45,13.8,-7.65,10.0,0.0,0.0,0.0,10.0,0.0,0.0,0.0,10.0
1446037376383505337,4,1446037376081399917,robocape_mag,12.45,13.8,-7.65,10.0,0.0,0.0,0.0,10.0,0.0,0.0,0.0,10.0
1446037376383882670,5,1446037376122558116,robocape_mag,12.45,13.8,-7.65,10.0,0.0,0.0,0.0,10.0,0.0,0.0,0.0,10.0
1446037376383992295,6,1446037376149077892,robocape_mag,12.45,13.8,-7.65,10.0,0.0,0.0,0.0,10.0,0.0,0.0,0.0,10.0
1446037376384466004,7,1446037376177427053,robocape_mag,12.45,13.8,-7.65,10.0,0.0,0.0,0.0,10.0,0.0,0.0,0.0,10.0
1446037376384565754,8,1446037376210750102,robocape_mag,19.65,9.0,-5.85,10.0,0.0,0.0,0.0,10.0,0.0,0.0,0.0,10.0
1446037376385066129,9,1446037376243957996,robocape_mag,19.65,9.0,-5.85,10.0,0.0,0.0,0.0,10.0,0.0,0.0,0.0,10.0
1446037376385156462,10,1446037376312719106,robocape_mag,19.65,9.0,-5.85,10.0,0.0,0.0,0.0,10.0,0.0,0.0,0.0,10.0
1446037376385905087,11,1446037376342375993,robocape_mag,19.65,9.0,-5.85,10.0,0.0,0.0,0.0,10.0,0.0,0.0,0.0,10.0
1446037376386231337,12,1446037376362967967,robocape_mag,16.65,9.0,-7.05,10.0,0.0,0.0,0.0,10.0,0.0,0.0,0.0,10.0
1446037376391854212,13,1446037376386440038,robocape_mag,16.65,9.0,-7.05,10.0,0.0,0.0,0.0,10.0,0.0,0.0,0.0,10.0
1446037376417642170,14,1446037376410633087,robocape_mag,16.65,9.0,-7.05,10.0,0.0,0.0,0.0,10.0,0.0,0.0,0.0,10.0
1446037376448228337,15,1446037376443187952,robocape_mag,16.65,9.0,-7.05,10.0,0.0,0.0,0.0,10.0,0.0,0.0,0.0,10.0
1446037376479871587,16,1446037376474879980,robocape_mag,16.65,9.0,-7.05,10.0,0.0,0.0,0.0,10.0,0.0,0.0,0.0,10.0
1446037376513239795,17,1446037376508455038,robocape_mag,16.05,8.4,-8.25,10.0,0.0,0.0,0.0,10.0,0.0,0.0,0.0,10.0
1446037376546903795,18,1446037376542081117,robocape_mag,16.05,8.4,-8.25,10.0,0.0,0.0,0.0,10.0,0.0,0.0,0.0,10.0
1446037376579898129,19,1446037376574867963,robocape_mag,16.05,8.4,-8.25,10.0,0.0,0.0,0.0,10.0,0.0,0.0,0.0,10.0
1446037376613107504,20,1446037376608268976,robocape_mag,16.05,8.4,-8.25,10.0,0.0,0.0,0.0,10.0,0.0,0.0,0.0,10.0
1446037376646659754,21,1446037376641726970,robocape_mag,16.05,8.4,-8.25,10.0,0.0,0.0,0.0,10.0,0.0,0.0,0.0,10.0
1446037376679914712,22,1446037376674978971,robocape_mag,12.15,14.1,-6.75,10.0,0.0,0.0,0.0,10.0,0.0,0.0,0.0,10.0
1446037376713173837,23,1446037376708380937,robocape_mag,12.15,14.1,-6.75,10.0,0.0,0.0,0.0,10.0,0.0,0.0,0.0,10.0
1446037376746303545,24,1446037376741297960,robocape_mag,12.15,14.1,-6.75,10.0,0.0,0.0,0.0,10.0,0.0,0.0,0.0,10.0
1446037376779681045,25,1446037376774771928,robocape_mag,12.15,14.1,-6.75,10.0,0.0,0.0,0.0,10.0,0.0,0.0,0.0,10.0
1446037376815217004,26,1446037376808383941,robocape_mag,12.15,14.1,-6.75,10.0,0.0,0.0,0.0,10.0,0.0,0.0,0.0,10.0
1446037376848166296,27,1446037376841378927,robocape_mag,13.65,10.2,-4.05,10.0,0.0,0.0,0.0,10.0,0.0,0.0,0.0,10.0
1446037376881696171,28,1446037376874790906,robocape_mag,13.65,10.2,-4.05,10.0,0.0,0.0,0.0,10.0,0.0,0.0,0.0,10.0
1446037376913156379,29,1446037376908226966,robocape_mag,13.65,10.2,-4.05,10.0,0.0,0.0,0.0,10.0,0.0,0.0,0.0,10.0
1446037376946390587,30,1446037376941452980,robocape_mag,13.65,10.2,-4.05,10.0,0.0,0.0,0.0,10.0,0.0,0.0,0.0,10.0
1446037376979959421,31,1446037376974726915,robocape_mag,13.65,10.2,-4.05,10.0,0.0,0.0,0.0,10.0,0.0,0.0,0.0,10.0
1446037377013382212,32,1446037377008212089,robocape_mag,18.45,10.2,-5.85,10.0,0.0,0.0,0.0,10.0,0.0,0.0,0.0,10.0
1446037377049800837,33,1446037377045030117,robocape_mag,18.45,10.2,-5.85,10.0,0.0,0.0,0.0,10.0,0.0,0.0,0.0,10.0
1446037377081948837,34,1446037377076700925,robocape_mag,18.45,10.2,-5.85,10.0,0.0,0.0,0.0,10.0,0.0,0.0,0.0,10.0
1446037377115987754,35,1446037377111197948,robocape_mag,18.45,10.2,-5.85,10.0,0.0,0.0,0.0,10.0,0.0,0.0,0.0,10.0
1446037377149500921,36,1446037377144640922,robocape_mag,18.45,10.2,-5.85,10.0,0.0,0.0,0.0,10.0,0.0,0.0,0.0,10.0
1446037377181535629,37,1446037377176263093,robocape_mag,12.15,12.3,-7.35,10.0,0.0,0.0,0.0,10.0,0.0,0.0,0.0,10.0
1446037377215217379,38,1446037377210450887,robocape_mag,12.15,12.3,-7.35,10.0,0.0,0.0,0.0,10.0,0.0,0.0,0.0,10.0
1446037377248254254,39,1446037377243262052,robocape_mag,12.15,12.3,-7.35,10.0,0.0,0.0,0.0,10.0,0.0,0.0,0.0,10.0
1446037377280808087,40,1446037377275749921,robocape_mag,12.15,12.3,-7.35,10.0,0.0,0.0,0.0,10.0,0.0,0.0,0.0,10.0
1446037377314005587,41,1446037377309195041,robocape_mag,12.45,11.4,-7.05,10.0,0.0,0.0,0.0,10.0,0.0,0.0,0.0,10.0
1446037377346843296,42,1446037377341890096,robocape_mag,12.45,11.4,-7.05,10.0,0.0,0.0,0.0,10.0,0.0,0.0,0.0,10.0
1446037377381690754,43,1446037377376744985,robocape_mag,12.45,11.4,-7.05,10.0,0.0,0.0,0.0,10.0,0.0,0.0,0.0,10.0
1446037377413535504,44,1446037377408664941,robocape_mag,12.45,11.4,-7.05,10.0,0.0,0.0,0.0,10.0,0.0,0.0,0.0,10.0
1446037377446210712,45,1446037377441495895,robocape_mag,12.45,11.4,-7.05,10.0,0.0,0.0,0.0,10.0,0.0,0.0,0.0,10.0
1446037377479554879,46,1446037377474829912,robocape_mag,12.75,11.7,-6.75,10.0,0.0,0.0,0.0,10.0,0.0,0.0,0.0,10.0
1446037377513292713,47,1446037377508198022,robocape_mag,12.75,11.7,-6.75,10.0,0.0,0.0,0.0,10.0,0.0,0.0,0.0,10.0
1446037377546537046,48,1446037377541625022,robocape_mag,12.75,11.7,-6.75,10.0,0.0,0.0,0.0,10.0,0.0,0.0,0.0,10.0
1446037377579747879,49,1446037377574898958,robocape_mag,12.75,11.7,-6.75,10.0,0.0,0.0,0.0,10.0,0.0,0.0,0.0,10.0
1446037377613267463,50,1446037377608406066,robocape_mag,12.75,11.7,-6.75,10.0,0.0,0.0,0.0,10.0,0.0,0.0,0.0,10.0
1446037377646711296,51,1446037377641913890,robocape_mag,13.65,12.6,-7.65,10.0,0.0,0.0,0.0,10.0,0.0,0.0,0.0,10.0
1446037377680079629,52,1446037377674932003,robocape_mag,13.65,12.6,-7.65,10.0,0.0,0.0,0.0,10.0,0.0,0.0,0.0,10.0
1446037377713162921,53,1446037377708414077,robocape_mag,13.65,12.6,-7.65,10.0,0.0,0.0,0.0,10.0,0.0,0.0,0.0,10.0
1446037377746558879,54,1446037377741803884,robocape_mag,13.65,12.6,-7.65,10.0,0.0,0.0,0.0,10.0,0.0,0.0,0.0,10.0
1446037377779830088,55,1446037377775110960,robocape_mag,13.65,12.6,-7.65,10.0,0.0,0.0,0.0,10.0,0.0,0.0,0.0,10.0
1446037377813223171,56,1446037377808430910,robocape_mag,11.55,11.1,-6.15,10.0,0.0,0.0,0.0,10.0,0.0,0.0,0.0,10.0
1446037377847813379,57,1446037377843069076,robocape_mag,11.55,11.1,-6.15,10.0,0.0,0.0,0.0,10.0,0.0,0.0,0.0,10.0
1446037377884442671,58,1446037377878880977,robocape_mag,11.55,11.1,-6.15,10.0,0.0,0.0,0.0,10.0,0.0,0.0,0.0,10.0
1446037377917596963,59,1446037377912328004,robocape_mag,11.55,11.1,-6.15,10.0,0.0,0.0,0.0,10.0,0.0,0.0,0.0,10.0
1446037377950246713,60,1446037377945139884,robocape_mag,11.55,11.1,-6.15,10.0,0.0,0.0,0.0,10.0,0.0,0.0,0.0,10.0
1446037377983655546,61,1446037377978492021,robocape_mag,13.65,11.4,-8.25,10.0,0.0,0.0,0.0,10.0,0.0,0.0,0.0,10.0
1446037378017067213,62,1446037378012141942,robocape_mag,13.65,11.4,-8.25,10.0,0.0,0.0,0.0,10.0,0.0,0.0,0.0,10.0
1446037378049447171,63,1446037378044205904,robocape_mag,13.65,11.4,-8.25,10.0,0.0,0.0,0.0,10.0,0.0,0.0,0.0,10.0
1446037378084023921,64,1446037378078105926,robocape_mag,13.65,11.4,-8.25,10.0,0.0,0.0,0.0,10.0,0.0,0.0,0.0,10.0
1446037378116201213,65,1446037378111325025,robocape_mag,10.35,11.7,-7.95,10.0,0.0,0.0,0.0,10.0,0.0,0.0,0.0,10.0
1446037378150497588,66,1446037378145653963,robocape_mag,10.35,11.7,-7.95,10.0,0.0,0.0,0.0,10.0,0.0,0.0,0.0,10.0
1446037378187516588,67,1446037378177877902,robocape_mag,10.35,11.7,-7.95,10.0,0.0,0.0,0.0,10.0,0.0,0.0,0.0,10.0
1446037378216286380,68,1446037378211438894,robocape_mag,10.35,11.7,-7.95,10.0,0.0,0.0,0.0,10.0,0.0,0.0,0.0,10.0
1446037378249045796,69,1446037378244239091,robocape_mag,10.35,11.7,-7.95,10.0,0.0,0.0,0.0,10.0,0.0,0.0,0.0,10.0
1446037378283339130,70,1446037378278165102,robocape_mag,12.45,13.2,-8.25,10.0,0.0,0.0,0.0,10.0,0.0,0.0,0.0,10.0
1446037378315312921,71,1446037378310472011,robocape_mag,12.45,13.2,-8.25,10.0,0.0,0.0,0.0,10.0,0.0,0.0,0.0,10.0
1446037378348012963,72,1446037378343146085,robocape_mag,12.45,13.2,-8.25,10.0,0.0,0.0,0.0,10.0,0.0,0.0,0.0,10.0
1446037378383078380,73,1446037378378042936,robocape_mag,12.45,13.2,-8.25,10.0,0.0,0.0,0.0,10.0,0.0,0.0,0.0,10.0
1446037378415056505,74,1446037378410093069,robocape_mag,12.45,13.2,-8.25,10.0,0.0,0.0,0.0,10.0,0.0,0.0,0.0,10.0
1446037378446982546,75,1446037378442123889,robocape_mag,12.75,12.9,-7.95,10.0,0.0,0.0,0.0,10.0,0.0,0.0,0.0,10.0
1446037378480388046,76,1446037378475569963,robocape_mag,12.75,12.9,-7.95,10.0,0.0,0.0,0.0,10.0,0.0,0.0,0.0,10.0
1446037378519750880,77,1446037378508825063,robocape_mag,12.75,12.9,-7.95,10.0,0.0,0.0,0.0,10.0,0.0,0.0,0.0,10.0
1446037378546541588,78,1446037378541699886,robocape_mag,12.75,12.9,-7.95,10.0,0.0,0.0,0.0,10.0,0.0,0.0,0.0,10.0
1446037378580529921,79,1446037378575145959,robocape_mag,12.75,12.9,-7.95,10.0,0.0,0.0,0.0,10.0,0.0,0.0,0.0,10.0
1446037378613497046,80,1446037378608444929,robocape_mag,15.15,11.1,-5.55,10.0,0.0,0.0,0.0,10.0,0.0,0.0,0.0,10.0
1446037378646361088,81,1446037378641519069,robocape_mag,15.15,11.1,-5.55,10.0,0.0,0.0,0.0,10.0,0.0,0.0,0.0,10.0
1446037378679713838,82,1446037378674725055,robocape_mag,15.15,11.1,-5.55,10.0,0.0,0.0,0.0,10.0,0.0,0.0,0.0,10.0
1446037378713737921,83,1446037378708688974,robocape_mag,15.15,11.1,-5.55,10.0,0.0,0.0,0.0,10.0,0.0,0.0,0.0,10.0
1446037378746151380,84,1446037378741342067,robocape_mag,15.15,11.1,-5.55,10.0,0.0,0.0,0.0,10.0,0.0,0.0,0.0,10.0
1446037378779787213,85,1446037378775057077,robocape_mag,13.95,9.9,-7.35,10.0,0.0,0.0,0.0,10.0,0.0,0.0,0.0,10.0
1446037378814034213,86,1446037378808696985,robocape_mag,13.95,9.9,-7.35,10.0,0.0,0.0,0.0,10.0,0.0,0.0,0.0,10.0
1446037378846618130,87,1446037378841881990,robocape_mag,13.95,9.9,-7.35,10.0,0.0,0.0,0.0,10.0,0.0,0.0,0.0,10.0
1446037378880399588,88,1446037378875575065,robocape_mag,13.95,9.9,-7.35,10.0,0.0,0.0,0.0,10.0,0.0,0.0,0.0,10.0
1446037378913709547,89,1446037378908303976,robocape_mag,10.65,9.6,-7.65,10.0,0.0,0.0,0.0,10.0,0.0,0.0,0.0,10.0
1446037378946510672,90,1446037378941715002,robocape_mag,10.65,9.6,-7.65,10.0,0.0,0.0,0.0,10.0,0.0,0.0,0.0,10.0
1446037378979886297,91,1446037378975006103,robocape_mag,10.65,9.6,-7.65,10.0,0.0,0.0,0.0,10.0,0.0,0.0,0.0,10.0
1446037379013770422,92,1446037379008383035,robocape_mag,10.65,9.6,-7.65,10.0,0.0,0.0,0.0,10.0,0.0,0.0,0.0,10.0
1446037379046459922,93,1446037379041640043,robocape_mag,10.65,9.6,-7.65,10.0,0.0,0.0,0.0,10.0,0.0,0.0,0.0,10.0
1446037379080004838,94,1446037379075016021,robocape_mag,10.65,4.8,-3.45,10.0,0.0,0.0,0.0,10.0,0.0,0.0,0.0,10.0
1446037379115621672,95,1446037379108228921,robocape_mag,10.65,4.8,-3.45,10.0,0.0,0.0,0.0,10.0,0.0,0.0,0.0,10.0
1446037379147338130,96,1446037379141736984,robocape_mag,10.65,4.8,-3.45,10.0,0.0,0.0,0.0,10.0,0.0,0.0,0.0,10.0
1446037379180512713,97,1446037379174952030,robocape_mag,10.65,4.8,-3.45,10.0,0.0,0.0,0.0,10.0,0.0,0.0,0.0,10.0
1446037379214881047,98,1446037379208444118,robocape_mag,10.65,4.8,-3.45,10.0,0.0,0.0,0.0,10.0,0.0,0.0,0.0,10.0
1446037379246329797,99,1446037379241323947,robocape_mag,7.95,9.3,-2.55,10.0,0.0,0.0,0.0,10.0,0.0,0.0,0.0,10.0
1446037379279721047,100,1446037379274801969,robocape_mag,7.95,9.3,-2.55,10.0,0.0,0.0,0.0,10.0,0.0,0.0,0.0,10.0
1446037379316263172,101,1446037379310724973,robocape_mag,7.95,9.3,-2.55,10.0,0.0,0.0,0.0,10.0,0.0,0.0,0.0,10.0
1446037379348444755,102,1446037379343523979,robocape_mag,7.95,9.3,-2.55,10.0,0.0,0.0,0.0,10.0,0.0,0.0,0.0,10.0
1446037379383338005,103,1446037379378608942,robocape_mag,7.95,9.3,-2.55,10.0,0.0,0.0,0.0,10.0,0.0,0.0,0.0,10.0
1446037379418214797,104,1446037379410855054,robocape_mag,15.15,3.9,-3.75,10.0,0.0,0.0,0.0,10.0,0.0,0.0,0.0,10.0
1446037379449241380,105,1446037379444427967,robocape_mag,15.15,3.9,-3.75,10.0,0.0,0.0,0.0,10.0,0.0,0.0,0.0,10.0
1446037379481889463,106,1446037379476978063,robocape_mag,15.15,3.9,-3.75,10.0,0.0,0.0,0.0,10.0,0.0,0.0,0.0,10.0
1446037379515529422,107,1446037379510195970,robocape_mag,15.15,3.9,-3.75,10.0,0.0,0.0,0.0,10.0,0.0,0.0,0.0,10.0
1446037379547734630,108,1446037379542959928,robocape_mag,15.15,3.9,-3.75,10.0,0.0,0.0,0.0,10.0,0.0,0.0,0.0,10.0
1446037379580468297,109,1446037379575576066,robocape_mag,11.85,6.6,-5.85,10.0,0.0,0.0,0.0,10.0,0.0,0.0,0.0,10.0
1446037379616956630,110,1446037379609237909,robocape_mag,11.85,6.6,-5.85,10.0,0.0,0.0,0.0,10.0,0.0,0.0,0.0,10.0
1446037379647375297,111,1446037379642379999,robocape_mag,11.85,6.6,-5.85,10.0,0.0,0.0,0.0,10.0,0.0,0.0,0.0,10.0
1446037379680175380,112,1446037379675265073,robocape_mag,11.85,6.6,-5.85,10.0,0.0,0.0,0.0,10.0,0.0,0.0,0.0,10.0
1446037379713502255,113,1446037379708532094,robocape_mag,11.55,10.5,-4.95,10.0,0.0,0.0,0.0,10.0,0.0,0.0,0.0,10.0
1446037379747073380,114,1446037379742136955,robocape_mag,11.55,10.5,-4.95,10.0,0.0,0.0,0.0,10.0,0.0,0.0,0.0,10.0
1446037379779845130,115,1446037379775019884,robocape_mag,11.55,10.5,-4.95,10.0,0.0,0.0,0.0,10.0,0.0,0.0,0.0,10.0
1446037379818615297,116,1446037379809705018,robocape_mag,11.55,10.5,-4.95,10.0,0.0,0.0,0.0,10.0,0.0,0.0,0.0,10.0
1446037379848416380,117,1446037379843337059,robocape_mag,11.55,10.5,-4.95,10.0,0.0,0.0,0.0,10.0,0.0,0.0,0.0,10.0
1446037379884339880,118,1446037379876667976,robocape_mag,15.45,5.4,-1.65,10.0,0.0,0.0,0.0,10.0,0.0,0.0,0.0,10.0
1446037379919768839,119,1446037379910094976,robocape_mag,15.45,5.4,-1.65,10.0,0.0,0.0,0.0,10.0,0.0,0.0,0.0,10.0
1446037379951677505,120,1446037379944236993,robocape_mag,15.45,5.4,-1.65,10.0,0.0,0.0,0.0,10.0,0.0,0.0,0.0,10.0
1446037379983758005,121,1446037379975684881,robocape_mag,15.45,5.4,-1.65,10.0,0.0,0.0,0.0,10.0,0.0,0.0,0.0,10.0
1446037380018907214,122,1446037380011771917,robocape_mag,15.45,5.4,-1.65,10.0,0.0,0.0,0.0,10.0,0.0,0.0,0.0,10.0
1446037380051451797,123,1446037380045350074,robocape_mag,12.45,10.2,-5.25,10.0,0.0,0.0,0.0,10.0,0.0,0.0,0.0,10.0
1446037380088688880,124,1446037380079163074,robocape_mag,12.45,10.2,-5.25,10.0,0.0,0.0,0.0,10.0,0.0,0.0,0.0,10.0
1446037380123294380,125,1446037380112888097,robocape_mag,12.45,10.2,-5.25,10.0,0.0,0.0,0.0,10.0,0.0,0.0,0.0,10.0
1446037380150855172,126,1446037380145062923,robocape_mag,12.45,10.2,-5.25,10.0,0.0,0.0,0.0,10.0,0.0,0.0,0.0,10.0
1446037380188348339,127,1446037380178456068,robocape_mag,12.45,10.2,-5.25,10.0,0.0,0.0,0.0,10.0,0.0,0.0,0.0,10.0
1446037380220099505,128,1446037380212953090,robocape_mag,16.05,4.2,-4.65,10.0,0.0,0.0,0.0,10.0,0.0,0.0,0.0,10.0
1446037380252798630,129,1446037380244807958,robocape_mag,16.05,4.2,-4.65,10.0,0.0,0.0,0.0,10.0,0.0,0.0,0.0,10.0
1446037380284423964,130,1446037380279498100,robocape_mag,16.05,4.2,-4.65,10.0,0.0,0.0,0.0,10.0,0.0,0.0,0.0,10.0
1446037380317445339,131,1446037380312294960,robocape_mag,16.05,4.2,-4.65,10.0,0.0,0.0,0.0,10.0,0.0,0.0,0.0,10.0
1446037380356205131,132,1446037380345674037,robocape_mag,16.05,4.2,-4.65,10.0,0.0,0.0,0.0,10.0,0.0,0.0,0.0,10.0
1446037380383563381,133,1446037380378720045,robocape_mag,12.75,6.3,-4.95,10.0,0.0,0.0,0.0,10.0,0.0,0.0,0.0,10.0
1446037380415727297,134,1446037380410594940,robocape_mag,12.75,6.3,-4.95,10.0,0.0,0.0,0.0,10.0,0.0,0.0,0.0,10.0
1446037380449277214,135,1446037380444344043,robocape_mag,12.75,6.3,-4.95,10.0,0.0,0.0,0.0,10.0,0.0,0.0,0.0,10.0
1446037380483117464,136,1446037380478254079,robocape_mag,12.75,6.3,-4.95,10.0,0.0,0.0,0.0,10.0,0.0,0.0,0.0,10.0
1446037380516063506,137,1446037380511130094,robocape_mag,10.35,9.3,-4.95,10.0,0.0,0.0,0.0,10.0,0.0,0.0,0.0,10.0
1446037380548327881,138,1446037380543462038,robocape_mag,10.35,9.3,-4.95,10.0,0.0,0.0,0.0,10.0,0.0,0.0,0.0,10.0
1446037380583009256,139,1446037380578052043,robocape_mag,10.35,9.3,-4.95,10.0,0.0,0.0,0.0,10.0,0.0,0.0,0.0,10.0
1446037380615608089,140,1446037380610846042,robocape_mag,10.35,9.3,-4.95,10.0,0.0,0.0,0.0,10.0,0.0,0.0,0.0,10.0
1446037380649092089,141,1446037380644290924,robocape_mag,10.35,9.3,-4.95,10.0,0.0,0.0,0.0,10.0,0.0,0.0,0.0,10.0
1446037380682219256,142,1446037380677295923,robocape_mag,17.85,6.0,-4.65,10.0,0.0,0.0,0.0,10.0,0.0,0.0,0.0,10.0
1446037380714918672,143,1446037380709949970,robocape_mag,17.85,6.0,-4.65,10.0,0.0,0.0,0.0,10.0,0.0,0.0,0.0,10.0
1446037380747724256,144,1446037380742680072,robocape_mag,17.85,6.0,-4.65,10.0,0.0,0.0,0.0,10.0,0.0,0.0,0.0,10.0
1446037380781129714,145,1446037380776058912,robocape_mag,17.85,6.0,-4.65,10.0,0.0,0.0,0.0,10.0,0.0,0.0,0.0,10.0
1446037380813902339,146,1446037380808937072,robocape_mag,17.85,6.0,-4.65,10.0,0.0,0.0,0.0,10.0,0.0,0.0,0.0,10.0
1446037380846805964,147,1446037380841912984,robocape_mag,12.15,8.1,-6.15,10.0,0.0,0.0,0.0,10.0,0.0,0.0,0.0,10.0
1446037380880624297,148,1446037380875101089,robocape_mag,12.15,8.1,-6.15,10.0,0.0,0.0,0.0,10.0,0.0,0.0,0.0,10.0
1446037380913266797,149,1446037380908258914,robocape_mag,12.15,8.1,-6.15,10.0,0.0,0.0,0.0,10.0,0.0,0.0,0.0,10.0
1446037380951443964,150,1446037380941781044,robocape_mag,12.15,8.1,-6.15,10.0,0.0,0.0,0.0,10.0,0.0,0.0,0.0,10.0
1446037380980286922,151,1446037380975039005,robocape_mag,12.15,8.1,-6.15,10.0,0.0,0.0,0.0,10.0,0.0,0.0,0.0,10.0
1446037381013268048,152,1446037381008132934,robocape_mag,11.85,6.6,-0.45,10.0,0.0,0.0,0.0,10.0,0.0,0.0,0.0,10.0
1446037381050633714,153,1446037381041451930,robocape_mag,11.85,6.6,-0.45,10.0,0.0,0.0,0.0,10.0,0.0,0.0,0.0,10.0
1446037381080170798,154,1446037381074736118,robocape_mag,11.85,6.6,-0.45,10.0,0.0,0.0,0.0,10.0,0.0,0.0,0.0,10.0
1446037381114374714,155,1446037381108223915,robocape_mag,11.85,6.6,-0.45,10.0,0.0,0.0,0.0,10.0,0.0,0.0,0.0,10.0
1446037381146515548,156,1446037381141473054,robocape_mag,11.85,6.6,-0.45,10.0,0.0,0.0,0.0,10.0,0.0,0.0,0.0,10.0
1446037381180699923,157,1446037381175357103,robocape_mag,11.25,11.4,-5.25,10.0,0.0,0.0,0.0,10.0,0.0,0.0,0.0,10.0
1446037381217582714,158,1446037381208348035,robocape_mag,11.25,11.4,-5.25,10.0,0.0,0.0,0.0,10.0,0.0,0.0,0.0,10.0
1446037381246649548,159,1446037381241806030,robocape_mag,11.25,11.4,-5.25,10.0,0.0,0.0,0.0,10.0,0.0,0.0,0.0,10.0
1446037381283013548,160,1446037381275223016,robocape_mag,11.25,11.4,-5.25,10.0,0.0,0.0,0.0,10.0,0.0,0.0,0.0,10.0
1446037381314275173,161,1446037381308233022,robocape_mag,8.55,8.1,-3.15,10.0,0.0,0.0,0.0,10.0,0.0,0.0,0.0,10.0
1446037381358409048,162,1446037381343377113,robocape_mag,8.55,8.1,-3.15,10.0,0.0,0.0,0.0,10.0,0.0,0.0,0.0,10.0
1446037381383961131,163,1446037381376909971,robocape_mag,8.55,8.1,-3.15,10.0,0.0,0.0,0.0,10.0,0.0,0.0,0.0,10.0
1446037381413436756,164,1446037381408297061,robocape_mag,8.55,8.1,-3.15,10.0,0.0,0.0,0.0,10.0,0.0,0.0,0.0,10.0
1446037381445990756,165,1446037381441287040,robocape_mag,8.55,8.1,-3.15,10.0,0.0,0.0,0.0,10.0,0.0,0.0,0.0,10.0
1446037381481835173,166,1446037381474912881,robocape_mag,9.75,9.3,-3.75,10.0,0.0,0.0,0.0,10.0,0.0,0.0,0.0,10.0
1446037381513878673,167,1446037381508069038,robocape_mag,9.75,9.3,-3.75,10.0,0.0,0.0,0.0,10.0,0.0,0.0,0.0,10.0
1446037381551244048,168,1446037381544045925,robocape_mag,9.75,9.3,-3.75,10.0,0.0,0.0,0.0,10.0,0.0,0.0,0.0,10.0
1446037381579930256,169,1446037381574812889,robocape_mag,9.75,9.3,-3.75,10.0,0.0,0.0,0.0,10.0,0.0,0.0,0.0,10.0
1446037381612973464,170,1446037381607942104,robocape_mag,9.75,9.3,-3.75,10.0,0.0,0.0,0.0,10.0,0.0,0.0,0.0,10.0
1446037381646600839,171,1446037381641463994,robocape_mag,15.15,5.7,-1.35,10.0,0.0,0.0,0.0,10.0,0.0,0.0,0.0,10.0
1446037381680101673,172,1446037381674808979,robocape_mag,15.15,5.7,-1.35,10.0,0.0,0.0,0.0,10.0,0.0,0.0,0.0,10.0
1446037381713325256,173,1446037381708107948,robocape_mag,15.15,5.7,-1.35,10.0,0.0,0.0,0.0,10.0,0.0,0.0,0.0,10.0
1446037381746483006,174,1446037381741580009,robocape_mag,15.15,5.7,-1.35,10.0,0.0,0.0,0.0,10.0,0.0,0.0,0.0,10.0
1446037381780026381,175,1446037381775034904,robocape_mag,15.15,5.7,-1.35,10.0,0.0,0.0,0.0,10.0,0.0,0.0,0.0,10.0
1446037381813046131,176,1446037381808232069,robocape_mag,12.15,7.5,-4.35,10.0,0.0,0.0,0.0,10.0,0.0,0.0,0.0,10.0
1446037381846426506,177,1446037381841540098,robocape_mag,12.15,7.5,-4.35,10.0,0.0,0.0,0.0,10.0,0.0,0.0,0.0,10.0
1446037381879829965,178,1446037381874919891,robocape_mag,12.15,7.5,-4.35,10.0,0.0,0.0,0.0,10.0,0.0,0.0,0.0,10.0
1446037381912874340,179,1446037381908129930,robocape_mag,12.15,7.5,-4.35,10.0,0.0,0.0,0.0,10.0,0.0,0.0,0.0,10.0
1446037381946362548,180,1446037381941582918,robocape_mag,12.15,7.5,-4.35,10.0,0.0,0.0,0.0,10.0,0.0,0.0,0.0,10.0
1446037381983279173,181,1446037381975836038,robocape_mag,10.05,9.6,-3.45,10.0,0.0,0.0,0.0,10.0,0.0,0.0,0.0,10.0
1446037382013981715,182,1446037382009287118,robocape_mag,10.05,9.6,-3.45,10.0,0.0,0.0,0.0,10.0,0.0,0.0,0.0,10.0
1446037382049068673,183,1446037382042572975,robocape_mag,10.05,9.6,-3.45,10.0,0.0,0.0,0.0,10.0,0.0,0.0,0.0,10.0
1446037382080924590,184,1446037382075998067,robocape_mag,10.05,9.6,-3.45,10.0,0.0,0.0,0.0,10.0,0.0,0.0,0.0,10.0
1446037382115122506,185,1446037382110074043,robocape_mag,11.25,6.6,-4.05,10.0,0.0,0.0,0.0,10.0,0.0,0.0,0.0,10.0
1446037382148218215,186,1446037382142900943,robocape_mag,11.25,6.6,-4.05,10.0,0.0,0.0,0.0,10.0,0.0,0.0,0.0,10.0
1446037382185335465,187,1446037382176433086,robocape_mag,11.25,6.6,-4.05,10.0,0.0,0.0,0.0,10.0,0.0,0.0,0.0,10.0
1446037382218568590,188,1446037382213184118,robocape_mag,11.25,6.6,-4.05,10.0,0.0,0.0,0.0,10.0,0.0,0.0,0.0,10.0
1446037382247833673,189,1446037382242085933,robocape_mag,11.25,6.6,-4.05,10.0,0.0,0.0,0.0,10.0,0.0,0.0,0.0,10.0
1446037382283829548,190,1446037382278399944,robocape_mag,13.05,8.4,-2.85,10.0,0.0,0.0,0.0,10.0,0.0,0.0,0.0,10.0
1446037382316829090,191,1446037382311976909,robocape_mag,13.05,8.4,-2.85,10.0,0.0,0.0,0.0,10.0,0.0,0.0,0.0,10.0
1446037382359625465,192,1446037382344721078,robocape_mag,13.05,8.4,-2.85,10.0,0.0,0.0,0.0,10.0,0.0,0.0,0.0,10.0
1446037382389176215,193,1446037382378179073,robocape_mag,13.05,8.4,-2.85,10.0,0.0,0.0,0.0,10.0,0.0,0.0,0.0,10.0
1446037382416293548,194,1446037382411494970,robocape_mag,13.05,8.4,-2.85,10.0,0.0,0.0,0.0,10.0,0.0,0.0,0.0,10.0
1446037382450937173,195,1446037382445281028,robocape_mag,-1.05,27.9,13.65,10.0,0.0,0.0,0.0,10.0,0.0,0.0,0.0,10.0
1446037382485346840,196,1446037382477957010,robocape_mag,-1.05,27.9,13.65,10.0,0.0,0.0,0.0,10.0,0.0,0.0,0.0,10.0
1446037382518609798,197,1446037382511956930,robocape_mag,-1.05,27.9,13.65,10.0,0.0,0.0,0.0,10.0,0.0,0.0,0.0,10.0
1446037382550513757,198,1446037382545186996,robocape_mag,-1.05,27.9,13.65,10.0,0.0,0.0,0.0,10.0,0.0,0.0,0.0,10.0
1446037382585676382,199,1446037382579159975,robocape_mag,-1.05,27.9,13.65,10.0,0.0,0.0,0.0,10.0,0.0,0.0,0.0,10.0
1446037382615523965,200,1446037382610418081,robocape_mag,9.15,20.7,14.85,10.0,0.0,0.0,0.0,10.0,0.0,0.0,0.0,10.0
1446037382653265507,201,1446037382645680904,robocape_mag,9.15,20.7,14.85,10.0,0.0,0.0,0.0,10.0,0.0,0.0,0.0,10.0
1446037382685859507,202,1446037382678713083,robocape_mag,9.15,20.7,14.85,10.0,0.0,0.0,0.0,10.0,0.0,0.0,0.0,10.0
1446037382716673798,203,1446037382711395025,robocape_mag,9.15,20.7,14.85,10.0,0.0,0.0,0.0,10.0,0.0,0.0,0.0,10.0
1446037382750066840,204,1446037382745182991,robocape_mag,9.15,20.7,14.85,10.0,0.0,0.0,0.0,10.0,0.0,0.0,0.0,10.0
1446037382782457673,205,1446037382777415037,robocape_mag,-10.05,15.3,11.25,10.0,0.0,0.0,0.0,10.0,0.0,0.0,0.0,10.0
1446037382817861465,206,1446037382812788009,robocape_mag,-10.05,15.3,11.25,10.0,0.0,0.0,0.0,10.0,0.0,0.0,0.0,10.0
1446037382849578173,207,1446037382844759941,robocape_mag,-10.05,15.3,11.25,10.0,0.0,0.0,0.0,10.0,0.0,0.0,0.0,10.0
1446037382881805715,208,1446037382876616954,robocape_mag,-10.05,15.3,11.25,10.0,0.0,0.0,0.0,10.0,0.0,0.0,0.0,10.0
1446037382915166632,209,1446037382910358905,robocape_mag,0.15,11.1,16.05,10.0,0.0,0.0,0.0,10.0,0.0,0.0,0.0,10.0
1446037382949114007,210,1446037382944199085,robocape_mag,0.15,11.1,16.05,10.0,0.0,0.0,0.0,10.0,0.0,0.0,0.0,10.0
1446037382982663632,211,1446037382977494955,robocape_mag,0.15,11.1,16.05,10.0,0.0,0.0,0.0,10.0,0.0,0.0,0.0,10.0
1446037383014541590,212,1446037383009768962,robocape_mag,0.15,11.1,16.05,10.0,0.0,0.0,0.0,10.0,0.0,0.0,0.0,10.0
1446037383048456548,213,1446037383043369054,robocape_mag,0.15,11.1,16.05,10.0,0.0,0.0,0.0,10.0,0.0,0.0,0.0,10.0
1446037383080594548,214,1446037383075421094,robocape_mag,8.85,-10.2,8.55,10.0,0.0,0.0,0.0,10.0,0.0,0.0,0.0,10.0
1446037383113441965,215,1446037383108620882,robocape_mag,8.85,-10.2,8.55,10.0,0.0,0.0,0.0,10.0,0.0,0.0,0.0,10.0
1446037383147989715,216,1446037383143080949,robocape_mag,8.85,-10.2,8.55,10.0,0.0,0.0,0.0,10.0,0.0,0.0,0.0,10.0
1446037383180261507,217,1446037383175301074,robocape_mag,8.85,-10.2,8.55,10.0,0.0,0.0,0.0,10.0,0.0,0.0,0.0,10.0
1446037383213473424,218,1446037383208631992,robocape_mag,8.85,-10.2,8.55,10.0,0.0,0.0,0.0,10.0,0.0,0.0,0.0,10.0
1446037383247049007,219,1446037383242310047,robocape_mag,2.55,-0.9,5.85,10.0,0.0,0.0,0.0,10.0,0.0,0.0,0.0,10.0
1446037383280131924,220,1446037383275036096,robocape_mag,2.55,-0.9,5.85,10.0,0.0,0.0,0.0,10.0,0.0,0.0,0.0,10.0
1446037383313739340,221,1446037383308166027,robocape_mag,2.55,-0.9,5.85,10.0,0.0,0.0,0.0,10.0,0.0,0.0,0.0,10.0
1446037383348811257,222,1446037383341861963,robocape_mag,2.55,-0.9,5.85,10.0,0.0,0.0,0.0,10.0,0.0,0.0,0.0,10.0
1446037383382395132,223,1446037383377132892,robocape_mag,2.55,-0.9,5.85,10.0,0.0,0.0,0.0,10.0,0.0,0.0,0.0,10.0
1446037383412865424,224,1446037383408088922,robocape_mag,-0.75,4.8,24.75,10.0,0.0,0.0,0.0,10.0,0.0,0.0,0.0,10.0
1446037383451848674,225,1446037383441905021,robocape_mag,-0.75,4.8,24.75,10.0,0.0,0.0,0.0,10.0,0.0,0.0,0.0,10.0
1446037383484684465,226,1446037383474737882,robocape_mag,-0.75,4.8,24.75,10.0,0.0,0.0,0.0,10.0,0.0,0.0,0.0,10.0
1446037383512861799,227,1446037383508143901,robocape_mag,-0.75,4.8,24.75,10.0,0.0,0.0,0.0,10.0,0.0,0.0,0.0,10.0
1446037383546838882,228,1446037383541842937,robocape_mag,-0.75,4.8,24.75,10.0,0.0,0.0,0.0,10.0,0.0,0.0,0.0,10.0
1446037383579723715,229,1446037383574745893,robocape_mag,1.65,-8.4,15.15,10.0,0.0,0.0,0.0,10.0,0.0,0.0,0.0,10.0
1446037383613510340,230,1446037383608746051,robocape_mag,1.65,-8.4,15.15,10.0,0.0,0.0,0.0,10.0,0.0,0.0,0.0,10.0
1446037383649598965,231,1446037383641660928,robocape_mag,1.65,-8.4,15.15,10.0,0.0,0.0,0.0,10.0,0.0,0.0,0.0,10.0
1446037383679796674,232,1446037383674933910,robocape_mag,1.65,-8.4,15.15,10.0,0.0,0.0,0.0,10.0,0.0,0.0,0.0,10.0
1446037383714386465,233,1446037383709507942,robocape_mag,-7.65,2.1,21.45,10.0,0.0,0.0,0.0,10.0,0.0,0.0,0.0,10.0
1446037383747240007,234,1446037383742146015,robocape_mag,-7.65,2.1,21.45,10.0,0.0,0.0,0.0,10.0,0.0,0.0,0.0,10.0
1446037383787759965,235,1446037383778341054,robocape_mag,-7.65,2.1,21.45,10.0,0.0,0.0,0.0,10.0,0.0,0.0,0.0,10.0
1446037383816784299,236,1446037383811621904,robocape_mag,-7.65,2.1,21.45,10.0,0.0,0.0,0.0,10.0,0.0,0.0,0.0,10.0
1446037383849952716,237,1446037383844755887,robocape_mag,-7.65,2.1,21.45,10.0,0.0,0.0,0.0,10.0,0.0,0.0,0.0,10.0
1446037383883258591,238,1446037383878128051,robocape_mag,-9.15,-9.0,16.95,10.0,0.0,0.0,0.0,10.0,0.0,0.0,0.0,10.0
1446037383918946341,239,1446037383910839080,robocape_mag,-9.15,-9.0,16.95,10.0,0.0,0.0,0.0,10.0,0.0,0.0,0.0,10.0
1446037383949701216,240,1446037383944660902,robocape_mag,-9.15,-9.0,16.95,10.0,0.0,0.0,0.0,10.0,0.0,0.0,0.0,10.0
1446037383983428341,241,1446037383978462934,robocape_mag,-9.15,-9.0,16.95,10.0,0.0,0.0,0.0,10.0,0.0,0.0,0.0,10.0
1446037384015840424,242,1446037384010807991,robocape_mag,-9.15,-9.0,16.95,10.0,0.0,0.0,0.0,10.0,0.0,0.0,0.0,10.0
1446037384049230466,243,1446037384044190883,robocape_mag,-0.45,-0.9,20.25,10.0,0.0,0.0,0.0,10.0,0.0,0.0,0.0,10.0
1446037384082334007,244,1446037384077292919,robocape_mag,-0.45,-0.9,20.25,10.0,0.0,0.0,0.0,10.0,0.0,0.0,0.0,10.0
1446037384114949674,245,1446037384110121011,robocape_mag,-0.45,-0.9,20.25,10.0,0.0,0.0,0.0,10.0,0.0,0.0,0.0,10.0
1446037384148496132,246,1446037384143441915,robocape_mag,-0.45,-0.9,20.25,10.0,0.0,0.0,0.0,10.0,0.0,0.0,0.0,10.0
1446037384181350216,247,1446037384176028013,robocape_mag,-0.45,-0.9,20.25,10.0,0.0,0.0,0.0,10.0,0.0,0.0,0.0,10.0
1446037384213918966,248,1446037384209157943,robocape_mag,11.25,-11.4,22.35,10.0,0.0,0.0,0.0,10.0,0.0,0.0,0.0,10.0
1446037384248083924,249,1446037384242686986,robocape_mag,11.25,-11.4,22.35,10.0,0.0,0.0,0.0,10.0,0.0,0.0,0.0,10.0
1446037384279563841,250,1446037384274775028,robocape_mag,11.25,-11.4,22.35,10.0,0.0,0.0,0.0,10.0,0.0,0.0,0.0,10.0
1446037384312739257,251,1446037384308044910,robocape_mag,11.25,-11.4,22.35,10.0,0.0,0.0,0.0,10.0,0.0,0.0,0.0,10.0
1446037384348458632,252,1446037384342267036,robocape_mag,11.25,-11.4,22.35,10.0,0.0,0.0,0.0,10.0,0.0,0.0,0.0,10.0
1446037384380941757,253,1446037384376072883,robocape_mag,-13.35,-5.4,12.15,10.0,0.0,0.0,0.0,10.0,0.0,0.0,0.0,10.0
1446037384413324132,254,1446037384408442020,robocape_mag,-13.35,-5.4,12.15,10.0,0.0,0.0,0.0,10.0,0.0,0.0,0.0,10.0
1446037384449861757,255,1446037384443357944,robocape_mag,-13.35,-5.4,12.15,10.0,0.0,0.0,0.0,10.0,0.0,0.0,0.0,10.0
1446037384479746007,256,1446037384474704027,robocape_mag,-13.35,-5.4,12.15,10.0,0.0,0.0,0.0,10.0,0.0,0.0,0.0,10.0
1446037384512893341,257,1446037384508176088,robocape_mag,-13.35,-11.7,12.45,10.0,0.0,0.0,0.0,10.0,0.0,0.0,0.0,10.0
1446037384547060508,258,1446037384542184114,robocape_mag,-16.05,-11.7,12.45,10.0,0.0,0.0,0.0,10.0,0.0,0.0,0.0,10.0
1446037384579714591,259,1446037384574791908,robocape_mag,-16.05,-11.7,12.45,10.0,0.0,0.0,0.0,10.0,0.0,0.0,0.0,10.0
1446037384619246966,260,1446037384612020969,robocape_mag,-16.05,-11.7,12.45,10.0,0.0,0.0,0.0,10.0,0.0,0.0,0.0,10.0
1446037384647116758,261,1446037384642065048,robocape_mag,-16.05,-11.7,12.45,10.0,0.0,0.0,0.0,10.0,0.0,0.0,0.0,10.0
1446037384680037924,262,1446037384675182104,robocape_mag,4.35,-11.1,23.25,10.0,0.0,0.0,0.0,10.0,0.0,0.0,0.0,10.0
1446037384712661508,263,1446037384707870006,robocape_mag,4.35,-11.1,23.25,10.0,0.0,0.0,0.0,10.0,0.0,0.0,0.0,10.0
1446037384749968174,264,1446037384744436025,robocape_mag,4.35,-11.1,23.25,10.0,0.0,0.0,0.0,10.0,0.0,0.0,0.0,10.0
1446037384779538133,265,1446037384774718046,robocape_mag,4.35,-11.1,23.25,10.0,0.0,0.0,0.0,10.0,0.0,0.0,0.0,10.0
1446037384812693091,266,1446037384807984113,robocape_mag,4.35,-11.1,23.25,10.0,0.0,0.0,0.0,10.0,0.0,0.0,0.0,10.0
1446037384846658008,267,1446037384841504096,robocape_mag,-23.85,-9.3,8.25,10.0,0.0,0.0,0.0,10.0,0.0,0.0,0.0,10.0
1446037384879605716,268,1446037384874732971,robocape_mag,-23.85,-9.3,8.25,10.0,0.0,0.0,0.0,10.0,0.0,0.0,0.0,10.0
1446037384912883424,269,1446037384908075094,robocape_mag,-23.85,-9.3,8.25,10.0,0.0,0.0,0.0,10.0,0.0,0.0,0.0,10.0
1446037384955076091,270,1446037384945708036,robocape_mag,-23.85,-9.3,8.25,10.0,0.0,0.0,0.0,10.0,0.0,0.0,0.0,10.0
1446037384979407091,271,1446037384974632024,robocape_mag,-23.85,-9.3,8.25,10.0,0.0,0.0,0.0,10.0,0.0,0.0,0.0,10.0
1446037385012674383,272,1446037385007895946,robocape_mag,-20.25,-6.3,16.05,10.0,0.0,0.0,0.0,10.0,0.0,0.0,0.0,10.0
1446037385051868299,273,1446037385045532941,robocape_mag,-20.25,-6.3,16.05,10.0,0.0,0.0,0.0,10.0,0.0,0.0,0.0,10.0
1446037385079472591,274,1446037385074574947,robocape_mag,-20.25,-6.3,16.05,10.0,0.0,0.0,0.0,10.0,0.0,0.0,0.0,10.0
1446037385112958299,275,1446037385107912063,robocape_mag,-20.25,-6.3,16.05,10.0,0.0,0.0,0.0,10.0,0.0,0.0,0.0,10.0
1446037385150626299,276,1446037385145210981,robocape_mag,-20.25,-6.3,16.05,10.0,0.0,0.0,0.0,10.0,0.0,0.0,0.0,10.0
1446037385179376424,277,1446037385174618005,robocape_mag,-9.45,-15.9,17.25,10.0,0.0,0.0,0.0,10.0,0.0,0.0,0.0,10.0
1446037385212715175,278,1446037385207964897,robocape_mag,-9.45,-15.9,17.25,10.0,0.0,0.0,0.0,10.0,0.0,0.0,0.0,10.0
1446037385246347133,279,1446037385241661071,robocape_mag,-9.45,-15.9,17.25,10.0,0.0,0.0,0.0,10.0,0.0,0.0,0.0,10.0
1446037385279610383,280,1446037385274740934,robocape_mag,-9.45,-15.9,17.25,10.0,0.0,0.0,0.0,10.0,0.0,0.0,0.0,10.0
1446037385341607216,281,1446037385307962894,robocape_mag,-9.45,-15.6,9.15,10.0,0.0,0.0,0.0,10.0,0.0,0.0,0.0,10.0
1446037385363062716,282,1446037385358082056,robocape_mag,-24.15,-15.6,9.15,10.0,0.0,0.0,0.0,10.0,0.0,0.0,0.0,10.0
1446037385384484300,283,1446037385379697084,robocape_mag,-24.15,-15.6,9.15,10.0,0.0,0.0,0.0,10.0,0.0,0.0,0.0,10.0
1446037385412972133,284,1446037385408256053,robocape_mag,-24.15,-15.6,9.15,10.0,0.0,0.0,0.0,10.0,0.0,0.0,0.0,10.0
1446037385446360383,285,1446037385441641092,robocape_mag,-24.15,-15.6,9.15,10.0,0.0,0.0,0.0,10.0,0.0,0.0,0.0,10.0
1446037385480620675,286,1446037385475759029,robocape_mag,-11.25,-16.5,16.05,10.0,0.0,0.0,0.0,10.0,0.0,0.0,0.0,10.0
1446037385513457300,287,1446037385508639097,robocape_mag,-11.25,-16.5,16.05,10.0,0.0,0.0,0.0,10.0,0.0,0.0,0.0,10.0
1446037385547399133,288,1446037385542547941,robocape_mag,-11.25,-16.5,16.05,10.0,0.0,0.0,0.0,10.0,0.0,0.0,0.0,10.0
1446037385579456633,289,1446037385574670076,robocape_mag,-11.25,-16.5,16.05,10.0,0.0,0.0,0.0,10.0,0.0,0.0,0.0,10.0
1446037385614117758,290,1446037385609313011,robocape_mag,-11.25,-16.5,16.05,10.0,0.0,0.0,0.0,10.0,0.0,0.0,0.0,10.0
1446037385650378091,291,1446037385641464948,robocape_mag,-6.45,-16.5,12.45,10.0,0.0,0.0,0.0,10.0,0.0,0.0,0.0,10.0
1446037385679641050,292,1446037385674813032,robocape_mag,-6.45,-16.5,12.45,10.0,0.0,0.0,0.0,10.0,0.0,0.0,0.0,10.0
1446037385714540175,293,1446037385709681987,robocape_mag,-6.45,-16.5,12.45,10.0,0.0,0.0,0.0,10.0,0.0,0.0,0.0,10.0
1446037385746446258,294,1446037385741580963,robocape_mag,-6.45,-16.5,12.45,10.0,0.0,0.0,0.0,10.0,0.0,0.0,0.0,10.0
1446037385779579091,295,1446037385774755954,robocape_mag,-6.45,-16.5,12.45,10.0,0.0,0.0,0.0,10.0,0.0,0.0,0.0,10.0
1446037385812771716,296,1446037385808100938,robocape_mag,13.05,-15.0,19.95,10.0,0.0,0.0,0.0,10.0,0.0,0.0,0.0,10.0
1446037385846320175,297,1446037385841625928,robocape_mag,13.05,-15.0,19.95,10.0,0.0,0.0,0.0,10.0,0.0,0.0,0.0,10.0
1446037385879695841,298,1446037385874823093,robocape_mag,13.05,-15.0,19.95,10.0,0.0,0.0,0.0,10.0,0.0,0.0,0.0,10.0
1446037385912702842,299,1446037385908035039,robocape_mag,13.05,-15.0,19.95,10.0,0.0,0.0,0.0,10.0,0.0,0.0,0.0,10.0
1446037385946419967,300,1446037385941739082,robocape_mag,13.05,-15.0,19.95,10.0,0.0,0.0,0.0,10.0,0.0,0.0,0.0,10.0
1446037385979883675,301,1446037385974941015,robocape_mag,19.65,-16.2,4.35,10.0,0.0,0.0,0.0,10.0,0.0,0.0,0.0,10.0
1446037386012640925,302,1446037386007946968,robocape_mag,19.65,-16.2,4.35,10.0,0.0,0.0,0.0,10.0,0.0,0.0,0.0,10.0
1446037386046063717,303,1446037386041398048,robocape_mag,19.65,-16.2,4.35,10.0,0.0,0.0,0.0,10.0,0.0,0.0,0.0,10.0
1446037386081319258,304,1446037386076257944,robocape_mag,19.65,-16.2,4.35,10.0,0.0,0.0,0.0,10.0,0.0,0.0,0.0,10.0
1446037386112747133,305,1446037386108000040,robocape_mag,19.65,-13.8,4.35,10.0,0.0,0.0,0.0,10.0,0.0,0.0,0.0,10.0
1446037386146263467,306,1446037386141431093,robocape_mag,20.25,-13.8,4.35,10.0,0.0,0.0,0.0,10.0,0.0,0.0,0.0,10.0
1446037386183487842,307,1446037386174634933,robocape_mag,20.25,-13.8,4.35,10.0,0.0,0.0,0.0,10.0,0.0,0.0,0.0,10.0
1446037386212752592,308,1446037386208033084,robocape_mag,20.25,-13.8,4.35,10.0,0.0,0.0,0.0,10.0,0.0,0.0,0.0,10.0
1446037386246049300,309,1446037386241316080,robocape_mag,20.25,-13.8,4.35,10.0,0.0,0.0,0.0,10.0,0.0,0.0,0.0,10.0
1446037386279628967,310,1446037386274874925,robocape_mag,18.75,-12.9,0.45,10.0,0.0,0.0,0.0,10.0,0.0,0.0,0.0,10.0
1446037386316039425,311,1446037386311223030,robocape_mag,18.75,-12.9,0.45,10.0,0.0,0.0,0.0,10.0,0.0,0.0,0.0,10.0
1446037386346212133,312,1446037386341535091,robocape_mag,18.75,-12.9,0.45,10.0,0.0,0.0,0.0,10.0,0.0,0.0,0.0,10.0
1446037386380008508,313,1446037386374851942,robocape_mag,18.75,-12.9,0.45,10.0,0.0,0.0,0.0,10.0,0.0,0.0,0.0,10.0
1446037386413201133,314,1446037386408308982,robocape_mag,18.75,-12.9,0.45,10.0,0.0,0.0,0.0,10.0,0.0,0.0,0.0,10.0
1446037386446336092,315,1446037386441515922,robocape_mag,22.95,-7.5,7.65,10.0,0.0,0.0,0.0,10.0,0.0,0.0,0.0,10.0
1446037386479507800,316,1446037386474710941,robocape_mag,22.95,-7.5,7.65,10.0,0.0,0.0,0.0,10.0,0.0,0.0,0.0,10.0
1446037386512818550,317,1446037386507982015,robocape_mag,22.95,-7.5,7.65,10.0,0.0,0.0,0.0,10.0,0.0,0.0,0.0,10.0
1446037386548841217,318,1446037386541362047,robocape_mag,22.95,-7.5,7.65,10.0,0.0,0.0,0.0,10.0,0.0,0.0,0.0,10.0
1446037386579287050,319,1446037386574615001,robocape_mag,22.95,-7.5,7.65,10.0,0.0,0.0,0.0,10.0,0.0,0.0,0.0,10.0
1446037386612787509,320,1446037386607888936,robocape_mag,19.35,-7.5,21.45,10.0,0.0,0.0,0.0,10.0,0.0,0.0,0.0,10.0
1446037386646359050,321,1446037386641428947,robocape_mag,19.35,-7.5,21.45,10.0,0.0,0.0,0.0,10.0,0.0,0.0,0.0,10.0
1446037386680755759,322,1446037386675982952,robocape_mag,19.35,-7.5,21.45,10.0,0.0,0.0,0.0,10.0,0.0,0.0,0.0,10.0
1446037386713528634,323,1446037386708467960,robocape_mag,19.35,-7.5,21.45,10.0,0.0,0.0,0.0,10.0,0.0,0.0,0.0,10.0
1446037386746609300,324,1446037386741667985,robocape_mag,19.35,-7.5,21.45,10.0,0.0,0.0,0.0,10.0,0.0,0.0,0.0,10.0
1446037386780045550,325,1446037386775238990,robocape_mag,28.05,-9.6,13.95,10.0,0.0,0.0,0.0,10.0,0.0,0.0,0.0,10.0
1446037386812851134,326,1446037386807998895,robocape_mag,28.05,-9.6,13.95,10.0,0.0,0.0,0.0,10.0,0.0,0.0,0.0,10.0
1446037386846287592,327,1446037386841586112,robocape_mag,28.05,-9.6,13.95,10.0,0.0,0.0,0.0,10.0,0.0,0.0,0.0,10.0
1446037386879427925,328,1446037386874625921,robocape_mag,28.05,-9.6,13.95,10.0,0.0,0.0,0.0,10.0,0.0,0.0,0.0,10.0
1446037386912576759,329,1446037386907924890,robocape_mag,28.05,-10.5,2.85,10.0,0.0,0.0,0.0,10.0,0.0,0.0,0.0,10.0
1446037386946182009,330,1446037386941493988,robocape_mag,25.35,-10.5,2.85,10.0,0.0,0.0,0.0,10.0,0.0,0.0,0.0,10.0
1446037386983119759,331,1446037386978336095,robocape_mag,25.35,-10.5,2.85,10.0,0.0,0.0,0.0,10.0,0.0,0.0,0.0,10.0
1446037387021900592,332,1446037387012113094,robocape_mag,25.35,-10.5,2.85,10.0,0.0,0.0,0.0,10.0,0.0,0.0,0.0,10.0
1446037387046251009,333,1446037387041374921,robocape_mag,25.35,-10.5,2.85,10.0,0.0,0.0,0.0,10.0,0.0,0.0,0.0,10.0
1446037387079362800,334,1446037387074603080,robocape_mag,8.85,-4.8,8.55,10.0,0.0,0.0,0.0,10.0,0.0,0.0,0.0,10.0
1446037387116431717,335,1446037387111318111,robocape_mag,8.85,-4.8,8.55,10.0,0.0,0.0,0.0,10.0,0.0,0.0,0.0,10.0
1446037387146407300,336,1446037387141449928,robocape_mag,8.85,-4.8,8.55,10.0,0.0,0.0,0.0,10.0,0.0,0.0,0.0,10.0
1446037387179725717,337,1446037387174911022,robocape_mag,8.85,-4.8,8.55,10.0,0.0,0.0,0.0,10.0,0.0,0.0,0.0,10.0
1446037387215317967,338,1446037387209562063,robocape_mag,8.85,-4.8,8.55,10.0,0.0,0.0,0.0,10.0,0.0,0.0,0.0,10.0
1446037387246544842,339,1446037387241549968,robocape_mag,10.65,-5.4,24.15,10.0,0.0,0.0,0.0,10.0,0.0,0.0,0.0,10.0
1446037387279594842,340,1446037387274782896,robocape_mag,10.65,-5.4,24.15,10.0,0.0,0.0,0.0,10.0,0.0,0.0,0.0,10.0
1446037387313033967,341,1446037387308207988,robocape_mag,10.65,-5.4,24.15,10.0,0.0,0.0,0.0,10.0,0.0,0.0,0.0,10.0
1446037387347208551,342,1446037387341708898,robocape_mag,10.65,-5.4,24.15,10.0,0.0,0.0,0.0,10.0,0.0,0.0,0.0,10.0
1446037387381189926,343,1446037387376099109,robocape_mag,10.65,-5.4,24.15,10.0,0.0,0.0,0.0,10.0,0.0,0.0,0.0,10.0
1446037387414773092,344,1446037387407999038,robocape_mag,-1.35,-10.2,13.95,10.0,0.0,0.0,0.0,10.0,0.0,0.0,0.0,10.0
1446037387446461134,345,1446037387441593885,robocape_mag,-1.35,-10.2,13.95,10.0,0.0,0.0,0.0,10.0,0.0,0.0,0.0,10.0
1446037387479748092,346,1446037387474752902,robocape_mag,-1.35,-10.2,13.95,10.0,0.0,0.0,0.0,10.0,0.0,0.0,0.0,10.0
1446037387513246967,347,1446037387508064985,robocape_mag,-1.35,-10.2,13.95,10.0,0.0,0.0,0.0,10.0,0.0,0.0,0.0,10.0
1446037387546950467,348,1446037387541692018,robocape_mag,-1.35,-10.2,13.95,10.0,0.0,0.0,0.0,10.0,0.0,0.0,0.0,10.0
1446037387582052509,349,1446037387575373888,robocape_mag,7.95,-8.7,10.65,10.0,0.0,0.0,0.0,10.0,0.0,0.0,0.0,10.0
1446037387613307134,350,1446037387608159065,robocape_mag,7.95,-8.7,10.65,10.0,0.0,0.0,0.0,10.0,0.0,0.0,0.0,10.0
1446037387647070301,351,1446037387641809940,robocape_mag,7.95,-8.7,10.65,10.0,0.0,0.0,0.0,10.0,0.0,0.0,0.0,10.0
1446037387679933009,352,1446037387675169944,robocape_mag,7.95,-8.7,10.65,10.0,0.0,0.0,0.0,10.0,0.0,0.0,0.0,10.0
1446037387714555551,353,1446037387709779024,robocape_mag,3.75,-3.9,17.85,10.0,0.0,0.0,0.0,10.0,0.0,0.0,0.0,10.0
1446037387746557884,354,1446037387741348028,robocape_mag,3.75,-3.9,17.85,10.0,0.0,0.0,0.0,10.0,0.0,0.0,0.0,10.0
1446037387779564801,355,1446037387774796009,robocape_mag,3.75,-3.9,17.85,10.0,0.0,0.0,0.0,10.0,0.0,0.0,0.0,10.0
1446037387812924426,356,1446037387808217048,robocape_mag,3.75,-3.9,17.85,10.0,0.0,0.0,0.0,10.0,0.0,0.0,0.0,10.0
1446037387846296634,357,1446037387841514110,robocape_mag,3.75,-3.9,17.85,10.0,0.0,0.0,0.0,10.0,0.0,0.0,0.0,10.0
1446037387879348717,358,1446037387874636888,robocape_mag,2.55,-7.5,8.25,10.0,0.0,0.0,0.0,10.0,0.0,0.0,0.0,10.0
1446037387912997967,359,1446037387908308982,robocape_mag,2.55,-7.5,8.25,10.0,0.0,0.0,0.0,10.0,0.0,0.0,0.0,10.0
1446037387946177217,360,1446037387941466093,robocape_mag,2.55,-7.5,8.25,10.0,0.0,0.0,0.0,10.0,0.0,0.0,0.0,10.0
1446037387979450967,361,1446037387974734067,robocape_mag,2.55,-7.5,8.25,10.0,0.0,0.0,0.0,10.0,0.0,0.0,0.0,10.0
1446037388012788718,362,1446037388008107900,robocape_mag,2.55,-7.5,8.25,10.0,0.0,0.0,0.0,10.0,0.0,0.0,0.0,10.0
1446037388046446176,363,1446037388041657924,robocape_mag,8.55,-7.5,5.85,10.0,0.0,0.0,0.0,10.0,0.0,0.0,0.0,10.0
1446037388083474676,364,1446037388076755046,robocape_mag,8.55,-7.5,5.85,10.0,0.0,0.0,0.0,10.0,0.0,0.0,0.0,10.0
1446037388112729551,365,1446037388107940912,robocape_mag,8.55,-7.5,5.85,10.0,0.0,0.0,0.0,10.0,0.0,0.0,0.0,10.0
1446037388146440759,366,1446037388141546010,robocape_mag,8.55,-7.5,5.85,10.0,0.0,0.0,0.0,10.0,0.0,0.0,0.0,10.0
1446037388179695384,367,1446037388174689054,robocape_mag,8.55,-7.5,5.85,10.0,0.0,0.0,0.0,10.0,0.0,0.0,0.0,10.0
1446037388212767343,368,1446037388208017110,robocape_mag,19.95,-9.9,11.85,10.0,0.0,0.0,0.0,10.0,0.0,0.0,0.0,10.0
1446037388246498468,369,1446037388241619110,robocape_mag,19.95,-9.9,11.85,10.0,0.0,0.0,0.0,10.0,0.0,0.0,0.0,10.0
1446037388280140426,370,1446037388275253057,robocape_mag,19.95,-9.9,11.85,10.0,0.0,0.0,0.0,10.0,0.0,0.0,0.0,10.0
1446037388312692968,371,1446037388308024883,robocape_mag,19.95,-9.9,11.85,10.0,0.0,0.0,0.0,10.0,0.0,0.0,0.0,10.0
1446037388346405426,372,1446037388341641902,robocape_mag,19.95,-9.9,11.85,10.0,0.0,0.0,0.0,10.0,0.0,0.0,0.0,10.0
1446037388387471801,373,1446037388382682085,robocape_mag,19.65,-9.0,3.15,10.0,0.0,0.0,0.0,10.0,0.0,0.0,0.0,10.0
1446037388412779176,374,1446037388408091068,robocape_mag,19.65,-9.0,3.15,10.0,0.0,0.0,0.0,10.0,0.0,0.0,0.0,10.0
1446037388446278801,375,1446037388441267967,robocape_mag,19.65,-9.0,3.15,10.0,0.0,0.0,0.0,10.0,0.0,0.0,0.0,10.0
1446037388479501051,376,1446037388474713087,robocape_mag,19.65,-9.0,3.15,10.0,0.0,0.0,0.0,10.0,0.0,0.0,0.0,10.0
1446037388513049593,377,1446037388508133888,robocape_mag,19.65,-4.2,22.35,10.0,0.0,0.0,0.0,10.0,0.0,0.0,0.0,10.0
1446037388546434843,378,1446037388541366100,robocape_mag,11.85,-4.2,22.35,10.0,0.0,0.0,0.0,10.0,0.0,0.0,0.0,10.0
1446037388579760926,379,1446037388574671030,robocape_mag,11.85,-4.2,22.35,10.0,0.0,0.0,0.0,10.0,0.0,0.0,0.0,10.0
1446037388613273343,380,1446037388607953071,robocape_mag,11.85,-4.2,22.35,10.0,0.0,0.0,0.0,10.0,0.0,0.0,0.0,10.0
1446037388646675759,381,1446037388641510009,robocape_mag,11.85,-4.2,22.35,10.0,0.0,0.0,0.0,10.0,0.0,0.0,0.0,10.0
1446037388679493676,382,1446037388674712896,robocape_mag,-7.65,-8.1,14.25,10.0,0.0,0.0,0.0,10.0,0.0,0.0,0.0,10.0
1446037388713036885,383,1446037388708261013,robocape_mag,-7.65,-8.1,14.25,10.0,0.0,0.0,0.0,10.0,0.0,0.0,0.0,10.0
1446037388746641426,384,1446037388741627931,robocape_mag,-7.65,-8.1,14.25,10.0,0.0,0.0,0.0,10.0,0.0,0.0,0.0,10.0
1446037388779899218,385,1446037388774904012,robocape_mag,-7.65,-8.1,14.25,10.0,0.0,0.0,0.0,10.0,0.0,0.0,0.0,10.0
1446037388812924676,386,1446037388808166027,robocape_mag,-7.65,-8.1,14.25,10.0,0.0,0.0,0.0,10.0,0.0,0.0,0.0,10.0
1446037388847827718,387,1446037388841433048,robocape_mag,-1.35,-7.8,10.95,10.0,0.0,0.0,0.0,10.0,0.0,0.0,0.0,10.0
1446037388880487760,388,1446037388875633001,robocape_mag,-1.35,-7.8,10.95,10.0,0.0,0.0,0.0,10.0,0.0,0.0,0.0,10.0
1446037388913925260,389,1446037388909121990,robocape_mag,-1.35,-7.8,10.95,10.0,0.0,0.0,0.0,10.0,0.0,0.0,0.0,10.0
1446037388947612885,390,1446037388942548990,robocape_mag,-1.35,-7.8,10.95,10.0,0.0,0.0,0.0,10.0,0.0,0.0,0.0,10.0
1446037388980089676,391,1446037388975218057,robocape_mag,-1.35,-7.8,10.95,10.0,0.0,0.0,0.0,10.0,0.0,0.0,0.0,10.0
1446037389013124926,392,1446037389008268117,robocape_mag,15.75,-6.9,20.85,10.0,0.0,0.0,0.0,10.0,0.0,0.0,0.0,10.0
1446037389046814301,393,1446037389041660070,robocape_mag,15.75,-6.9,20.85,10.0,0.0,0.0,0.0,10.0,0.0,0.0,0.0,10.0
1446037389079748718,394,1446037389074852943,robocape_mag,15.75,-6.9,20.85,10.0,0.0,0.0,0.0,10.0,0.0,0.0,0.0,10.0
1446037389113065926,395,1446037389108248949,robocape_mag,15.75,-6.9,20.85,10.0,0.0,0.0,0.0,10.0,0.0,0.0,0.0,10.0
1446037389147446010,396,1446037389141594886,robocape_mag,15.75,-6.9,20.85,10.0,0.0,0.0,0.0,10.0,0.0,0.0,0.0,10.0
1446037389179632968,397,1446037389174746990,robocape_mag,6.75,-5.1,7.65,10.0,0.0,0.0,0.0,10.0,0.0,0.0,0.0,10.0
1446037389213008760,398,1446037389208095073,robocape_mag,6.75,-5.1,7.65,10.0,0.0,0.0,0.0,10.0,0.0,0.0,0.0,10.0
1446037389252025551,399,1446037389242067098,robocape_mag,6.75,-5.1,7.65,10.0,0.0,0.0,0.0,10.0,0.0,0.0,0.0,10.0
1446037389283549385,400,1446037389278032064,robocape_mag,6.75,-5.1,7.65,10.0,0.0,0.0,0.0,10.0,0.0,0.0,0.0,10.0
1446037389318109760,401,1446037389309993028,robocape_mag,4.35,-3.9,23.25,10.0,0.0,0.0,0.0,10.0,0.0,0.0,0.0,10.0
1446037389359713760,402,1446037389344197034,robocape_mag,4.35,-3.9,23.25,10.0,0.0,0.0,0.0,10.0,0.0,0.0,0.0,10.0
1446037389379933135,403,1446037389375155925,robocape_mag,4.35,-3.9,23.25,10.0,0.0,0.0,0.0,10.0,0.0,0.0,0.0,10.0
1446037389412941093,404,1446037389408246040,robocape_mag,4.35,-3.9,23.25,10.0,0.0,0.0,0.0,10.0,0.0,0.0,0.0,10.0
1446037389446507552,405,1446037389441567897,robocape_mag,4.35,-3.9,23.25,10.0,0.0,0.0,0.0,10.0,0.0,0.0,0.0,10.0
1446037389479540427,406,1446037389474750041,robocape_mag,14.85,-10.8,13.95,10.0,0.0,0.0,0.0,10.0,0.0,0.0,0.0,10.0
1446037389513146427,407,1446037389508251905,robocape_mag,14.85,-10.8,13.95,10.0,0.0,0.0,0.0,10.0,0.0,0.0,0.0,10.0
1446037389553373510,408,1446037389543525934,robocape_mag,14.85,-10.8,13.95,10.0,0.0,0.0,0.0,10.0,0.0,0.0,0.0,10.0
1446037389579702468,409,1446037389574577093,robocape_mag,14.85,-10.8,13.95,10.0,0.0,0.0,0.0,10.0,0.0,0.0,0.0,10.0
1446037389612825385,410,1446037389608053922,robocape_mag,14.85,-10.8,13.95,10.0,0.0,0.0,0.0,10.0,0.0,0.0,0.0,10.0
1446037389646775385,411,1446037389641450881,robocape_mag,2.25,-4.2,16.35,10.0,0.0,0.0,0.0,10.0,0.0,0.0,0.0,10.0
1446037389679856760,412,1446037389674642086,robocape_mag,2.25,-4.2,16.35,10.0,0.0,0.0,0.0,10.0,0.0,0.0,0.0,10.0
1446037389713934635,413,1446037389708175897,robocape_mag,2.25,-4.2,16.35,10.0,0.0,0.0,0.0,10.0,0.0,0.0,0.0,10.0
1446037389747968260,414,1446037389742574930,robocape_mag,2.25,-4.2,16.35,10.0,0.0,0.0,0.0,10.0,0.0,0.0,0.0,10.0
1446037389780115760,415,1446037389774799108,robocape_mag,2.25,-4.2,16.35,10.0,0.0,0.0,0.0,10.0,0.0,0.0,0.0,10.0
1446037389813118427,416,1446037389808449029,robocape_mag,3.45,-6.0,24.75,10.0,0.0,0.0,0.0,10.0,0.0,0.0,0.0,10.0
1446037389846546802,417,1446037389841558933,robocape_mag,3.45,-6.0,24.75,10.0,0.0,0.0,0.0,10.0,0.0,0.0,0.0,10.0
1446037389882577510,418,1446037389877115964,robocape_mag,3.45,-6.0,24.75,10.0,0.0,0.0,0.0,10.0,0.0,0.0,0.0,10.0
1446037389913036302,419,1446037389908077001,robocape_mag,3.45,-6.0,24.75,10.0,0.0,0.0,0.0,10.0,0.0,0.0,0.0,10.0
1446037389946513385,420,1446037389941468954,robocape_mag,3.45,-6.0,24.75,10.0,0.0,0.0,0.0,10.0,0.0,0.0,0.0,10.0
1446037389979945260,421,1446037389974622011,robocape_mag,-15.75,-7.2,16.95,10.0,0.0,0.0,0.0,10.0,0.0,0.0,0.0,10.0
1446037390013095343,422,1446037390008203029,robocape_mag,-15.75,-7.2,16.95,10.0,0.0,0.0,0.0,10.0,0.0,0.0,0.0,10.0
1446037390046565885,423,1446037390041420936,robocape_mag,-15.75,-7.2,16.95,10.0,0.0,0.0,0.0,10.0,0.0,0.0,0.0,10.0
1446037390079599968,424,1446037390074765920,robocape_mag,-15.75,-7.2,16.95,10.0,0.0,0.0,0.0,10.0,0.0,0.0,0.0,10.0
1446037390112950094,425,1446037390108141899,robocape_mag,-15.75,-14.7,18.45,10.0,0.0,0.0,0.0,10.0,0.0,0.0,0.0,10.0
1446037390146678635,426,1446037390141547918,robocape_mag,-15.45,-14.7,18.45,10.0,0.0,0.0,0.0,10.0,0.0,0.0,0.0,10.0
1446037390181861052,427,1446037390176139116,robocape_mag,-15.45,-14.7,18.45,10.0,0.0,0.0,0.0,10.0,0.0,0.0,0.0,10.0
1446037390214097094,428,1446037390209342002,robocape_mag,-15.45,-14.7,18.45,10.0,0.0,0.0,0.0,10.0,0.0,0.0,0.0,10.0
1446037390249173885,429,1446037390241949081,robocape_mag,-15.45,-14.7,18.45,10.0,0.0,0.0,0.0,10.0,0.0,0.0,0.0,10.0
1446037390285703969,430,1446037390276592969,robocape_mag,-4.05,-13.5,17.85,10.0,0.0,0.0,0.0,10.0,0.0,0.0,0.0,10.0
1446037390313609635,431,1446037390308794021,robocape_mag,-4.05,-13.5,17.85,10.0,0.0,0.0,0.0,10.0,0.0,0.0,0.0,10.0
1446037390347270385,432,1446037390342077970,robocape_mag,-4.05,-13.5,17.85,10.0,0.0,0.0,0.0,10.0,0.0,0.0,0.0,10.0
1446037390380629344,433,1446037390375761985,robocape_mag,-4.05,-13.5,17.85,10.0,0.0,0.0,0.0,10.0,0.0,0.0,0.0,10.0
1446037390414561635,434,1446037390409744977,robocape_mag,-4.05,-13.5,17.85,10.0,0.0,0.0,0.0,10.0,0.0,0.0,0.0,10.0
1446037390457052927,435,1446037390445921897,robocape_mag,13.65,-8.4,6.75,10.0,0.0,0.0,0.0,10.0,0.0,0.0,0.0,10.0
1446037390484761094,436,1446037390477431058,robocape_mag,13.65,-8.4,6.75,10.0,0.0,0.0,0.0,10.0,0.0,0.0,0.0,10.0
1446037390516083427,437,1446037390509633064,robocape_mag,13.65,-8.4,6.75,10.0,0.0,0.0,0.0,10.0,0.0,0.0,0.0,10.0
1446037390552861427,438,1446037390544353961,robocape_mag,13.65,-8.4,6.75,10.0,0.0,0.0,0.0,10.0,0.0,0.0,0.0,10.0
1446037390579754177,439,1446037390574713945,robocape_mag,13.65,-8.4,6.75,10.0,0.0,0.0,0.0,10.0,0.0,0.0,0.0,10.0
1446037390613286469,440,1446037390608249902,robocape_mag,27.75,-13.5,4.05,10.0,0.0,0.0,0.0,10.0,0.0,0.0,0.0,10.0
1446037390646915052,441,1446037390641380071,robocape_mag,27.75,-13.5,4.05,10.0,0.0,0.0,0.0,10.0,0.0,0.0,0.0,10.0
1446037390679467927,442,1446037390674635887,robocape_mag,27.75,-13.5,4.05,10.0,0.0,0.0,0.0,10.0,0.0,0.0,0.0,10.0
1446037390712681885,443,1446037390707866907,robocape_mag,27.75,-13.5,4.05,10.0,0.0,0.0,0.0,10.0,0.0,0.0,0.0,10.0
1446037390748894427,444,1446037390743041992,robocape_mag,27.75,-13.5,4.05,10.0,0.0,0.0,0.0,10.0,0.0,0.0,0.0,10.0
1446037390780401260,445,1446037390775286912,robocape_mag,23.55,-13.5,-3.15,10.0,0.0,0.0,0.0,10.0,0.0,0.0,0.0,10.0
1446037390814388094,446,1446037390809201955,robocape_mag,23.55,-13.5,-3.15,10.0,0.0,0.0,0.0,10.0,0.0,0.0,0.0,10.0
1446037390847158594,447,1446037390841447114,robocape_mag,23.55,-13.5,-3.15,10.0,0.0,0.0,0.0,10.0,0.0,0.0,0.0,10.0
1446037390881636136,448,1446037390874819993,robocape_mag,23.55,-13.5,-3.15,10.0,0.0,0.0,0.0,10.0,0.0,0.0,0.0,10.0
1446037390913125802,449,1446037390908214092,robocape_mag,23.55,-8.4,-3.45,10.0,0.0,0.0,0.0,10.0,0.0,0.0,0.0,10.0
1446037390946398052,450,1446037390941344976,robocape_mag,20.25,-8.4,-3.45,10.0,0.0,0.0,0.0,10.0,0.0,0.0,0.0,10.0
1446037390979733219,451,1446037390974590063,robocape_mag,20.25,-8.4,-3.45,10.0,0.0,0.0,0.0,10.0,0.0,0.0,0.0,10.0
1446037391013350469,452,1446037391008080005,robocape_mag,20.25,-8.4,-3.45,10.0,0.0,0.0,0.0,10.0,0.0,0.0,0.0,10.0
1446037391048475386,453,1446037391041418075,robocape_mag,20.25,-8.4,-3.45,10.0,0.0,0.0,0.0,10.0,0.0,0.0,0.0,10.0
1446037391079858094,454,1446037391074675083,robocape_mag,20.55,-6.3,-6.15,10.0,0.0,0.0,0.0,10.0,0.0,0.0,0.0,10.0
1446037391113433511,455,1446037391108180999,robocape_mag,20.55,-6.3,-6.15,10.0,0.0,0.0,0.0,10.0,0.0,0.0,0.0,10.0
1446037391146747386,456,1446037391141464948,robocape_mag,20.55,-6.3,-6.15,10.0,0.0,0.0,0.0,10.0,0.0,0.0,0.0,10.0
1446037391181162219,457,1446037391174715995,robocape_mag,20.55,-6.3,-6.15,10.0,0.0,0.0,0.0,10.0,0.0,0.0,0.0,10.0
1446037391213339594,458,1446037391208106040,robocape_mag,20.55,-6.3,-6.15,10.0,0.0,0.0,0.0,10.0,0.0,0.0,0.0,10.0
1446037391248362302,459,1446037391241657018,robocape_mag,46.95,-5.7,-5.55,10.0,0.0,0.0,0.0,10.0,0.0,0.0,0.0,10.0
1446037391281597136,460,1446037391276356935,robocape_mag,46.95,-5.7,-5.55,10.0,0.0,0.0,0.0,10.0,0.0,0.0,0.0,10.0
1446037391314240969,461,1446037391308327913,robocape_mag,46.95,-5.7,-5.55,10.0,0.0,0.0,0.0,10.0,0.0,0.0,0.0,10.0
1446037391355570011,462,1446037391342714071,robocape_mag,46.95,-5.7,-5.55,10.0,0.0,0.0,0.0,10.0,0.0,0.0,0.0,10.0
1446037391381858177,463,1446037391376912117,robocape_mag,46.95,-5.7,-5.55,10.0,0.0,0.0,0.0,10.0,0.0,0.0,0.0,10.0
1446037391414440927,464,1446037391409198999,robocape_mag,16.05,-9.6,12.75,10.0,0.0,0.0,0.0,10.0,0.0,0.0,0.0,10.0
1446037391448165302,465,1446037391443057060,robocape_mag,16.05,-9.6,12.75,10.0,0.0,0.0,0.0,10.0,0.0,0.0,0.0,10.0
1446037391480659552,466,1446037391475596904,robocape_mag,16.05,-9.6,12.75,10.0,0.0,0.0,0.0,10.0,0.0,0.0,0.0,10.0
1446037391518351303,467,1446037391509884119,robocape_mag,16.05,-9.6,12.75,10.0,0.0,0.0,0.0,10.0,0.0,0.0,0.0,10.0
1446037391549976886,468,1446037391542951107,robocape_mag,16.05,-9.6,12.75,10.0,0.0,0.0,0.0,10.0,0.0,0.0,0.0,10.0
1446037391579547719,469,1446037391574748039,robocape_mag,-22.05,-1.5,14.85,10.0,0.0,0.0,0.0,10.0,0.0,0.0,0.0,10.0
1446037391618558636,470,1446037391609622955,robocape_mag,-22.05,-1.5,14.85,10.0,0.0,0.0,0.0,10.0,0.0,0.0,0.0,10.0
1446037391649874011,471,1446037391644233942,robocape_mag,-22.05,-1.5,14.85,10.0,0.0,0.0,0.0,10.0,0.0,0.0,0.0,10.0
1446037391687861303,472,1446037391678514003,robocape_mag,-22.05,-1.5,14.85,10.0,0.0,0.0,0.0,10.0,0.0,0.0,0.0,10.0
1446037391717500219,473,1446037391712009906,robocape_mag,36.75,-6.3,-24.15,10.0,0.0,0.0,0.0,10.0,0.0,0.0,0.0,10.0
1446037391753310386,474,1446037391745487928,robocape_mag,36.75,-6.3,-24.15,10.0,0.0,0.0,0.0,10.0,0.0,0.0,0.0,10.0
1446037391790110094,475,1446037391779427051,robocape_mag,36.75,-6.3,-24.15,10.0,0.0,0.0,0.0,10.0,0.0,0.0,0.0,10.0
1446037391820928678,476,1446037391811178922,robocape_mag,36.75,-6.3,-24.15,10.0,0.0,0.0,0.0,10.0,0.0,0.0,0.0,10.0
1446037391846063553,477,1446037391841279983,robocape_mag,36.75,-6.3,-24.15,10.0,0.0,0.0,0.0,10.0,0.0,0.0,0.0,10.0
1446037391880309969,478,1446037391875416994,robocape_mag,30.15,4.5,4.05,10.0,0.0,0.0,0.0,10.0,0.0,0.0,0.0,10.0
1446037391913261011,479,1446037391908129930,robocape_mag,30.15,4.5,4.05,10.0,0.0,0.0,0.0,10.0,0.0,0.0,0.0,10.0
1446037391946389553,480,1446037391941509962,robocape_mag,30.15,4.5,4.05,10.0,0.0,0.0,0.0,10.0,0.0,0.0,0.0,10.0
1446037391981202886,481,1446037391974587917,robocape_mag,30.15,4.5,4.05,10.0,0.0,0.0,0.0,10.0,0.0,0.0,0.0,10.0
1446037392013486136,482,1446037392008263111,robocape_mag,30.15,4.5,4.05,10.0,0.0,0.0,0.0,10.0,0.0,0.0,0.0,10.0
1446037392045940553,483,1446037392041315078,robocape_mag,33.75,6.9,-9.15,10.0,0.0,0.0,0.0,10.0,0.0,0.0,0.0,10.0
1446037392079348511,484,1446037392074578046,robocape_mag,33.75,6.9,-9.15,10.0,0.0,0.0,0.0,10.0,0.0,0.0,0.0,10.0
1446037392113151219,485,1446037392108114957,robocape_mag,33.75,6.9,-9.15,10.0,0.0,0.0,0.0,10.0,0.0,0.0,0.0,10.0
1446037392145916178,486,1446037392141204118,robocape_mag,33.75,6.9,-9.15,10.0,0.0,0.0,0.0,10.0,0.0,0.0,0.0,10.0
1446037392179778844,487,1446037392174634933,robocape_mag,33.75,6.9,-9.15,10.0,0.0,0.0,0.0,10.0,0.0,0.0,0.0,10.0
1446037392213052345,488,1446037392207998037,robocape_mag,29.25,4.8,1.95,10.0,0.0,0.0,0.0,10.0,0.0,0.0,0.0,10.0
1446037392246021470,489,1446037392241210937,robocape_mag,29.25,4.8,1.95,10.0,0.0,0.0,0.0,10.0,0.0,0.0,0.0,10.0
1446037392280900970,490,1446037392275043964,robocape_mag,29.25,4.8,1.95,10.0,0.0,0.0,0.0,10.0,0.0,0.0,0.0,10.0
1446037392313177011,491,1446037392308099031,robocape_mag,29.25,4.8,1.95,10.0,0.0,0.0,0.0,10.0,0.0,0.0,0.0,10.0
1446037392346331428,492,1446037392341439008,robocape_mag,29.25,4.8,1.95,10.0,0.0,0.0,0.0,10.0,0.0,0.0,0.0,10.0
1446037392379694136,493,1446037392374871969,robocape_mag,35.85,4.2,-17.85,10.0,0.0,0.0,0.0,10.0,0.0,0.0,0.0,10.0
1446037392413189761,494,1446037392408148050,robocape_mag,35.85,4.2,-17.85,10.0,0.0,0.0,0.0,10.0,0.0,0.0,0.0,10.0
1446037392446127761,495,1446037392441242933,robocape_mag,35.85,4.2,-17.85,10.0,0.0,0.0,0.0,10.0,0.0,0.0,0.0,10.0
1446037392479350386,496,1446037392474649906,robocape_mag,35.85,4.2,-17.85,10.0,0.0,0.0,0.0,10.0,0.0,0.0,0.0,10.0
1446037392513131178,497,1446037392508028984,robocape_mag,35.85,1.8,-20.85,10.0,0.0,0.0,0.0,10.0,0.0,0.0,0.0,10.0
1446037392546118886,498,1446037392541269063,robocape_mag,36.45,1.8,-20.85,10.0,0.0,0.0,0.0,10.0,0.0,0.0,0.0,10.0
1446037392580019011,499,1446037392574780941,robocape_mag,36.45,1.8,-20.85,10.0,0.0,0.0,0.0,10.0,0.0,0.0,0.0,10.0
1446037392613179136,500,1446037392608011007,robocape_mag,36.45,1.8,-20.85,10.0,0.0,0.0,0.0,10.0,0.0,0.0,0.0,10.0
1446037392646693428,501,1446037392641290903,robocape_mag,36.45,1.8,-20.85,10.0,0.0,0.0,0.0,10.0,0.0,0.0,0.0,10.0
1446037392679902303,502,1446037392675143003,robocape_mag,33.45,4.2,-17.25,10.0,0.0,0.0,0.0,10.0,0.0,0.0,0.0,10.0
1446037392714102553,503,1446037392707866907,robocape_mag,33.45,4.2,-17.25,10.0,0.0,0.0,0.0,10.0,0.0,0.0,0.0,10.0
1446037392746391470,504,1446037392741461992,robocape_mag,33.45,4.2,-17.25,10.0,0.0,0.0,0.0,10.0,0.0,0.0,0.0,10.0
1446037392779953803,505,1446037392775064945,robocape_mag,33.45,4.2,-17.25,10.0,0.0,0.0,0.0,10.0,0.0,0.0,0.0,10.0
1446037392813518386,506,1446037392808294057,robocape_mag,33.45,4.2,-17.25,10.0,0.0,0.0,0.0,10.0,0.0,0.0,0.0,10.0
1446037392846037803,507,1446037392841300964,robocape_mag,31.95,13.5,-13.35,10.0,0.0,0.0,0.0,10.0,0.0,0.0,0.0,10.0
1446037392879452595,508,1446037392874737024,robocape_mag,31.95,13.5,-13.35,10.0,0.0,0.0,0.0,10.0,0.0,0.0,0.0,10.0
1446037392913213303,509,1446037392908047914,robocape_mag,31.95,13.5,-13.35,10.0,0.0,0.0,0.0,10.0,0.0,0.0,0.0,10.0
1446037392950783178,510,1446037392941330909,robocape_mag,31.95,13.5,-13.35,10.0,0.0,0.0,0.0,10.0,0.0,0.0,0.0,10.0
1446037392979347512,511,1446037392974642992,robocape_mag,31.95,13.5,-13.35,10.0,0.0,0.0,0.0,10.0,0.0,0.0,0.0,10.0
1446037393013576928,512,1446037393008044004,robocape_mag,25.05,10.8,-7.65,10.0,0.0,0.0,0.0,10.0,0.0,0.0,0.0,10.0
1446037393046092803,513,1446037393041307926,robocape_mag,25.05,10.8,-7.65,10.0,0.0,0.0,0.0,10.0,0.0,0.0,0.0,10.0
1446037393079264012,514,1446037393074593067,robocape_mag,25.05,10.8,-7.65,10.0,0.0,0.0,0.0,10.0,0.0,0.0,0.0,10.0
1446037393114123137,515,1446037393107877016,robocape_mag,25.05,10.8,-7.65,10.0,0.0,0.0,0.0,10.0,0.0,0.0,0.0,10.0
1446037393146168762,516,1446037393141258955,robocape_mag,25.05,10.8,-7.65,10.0,0.0,0.0,0.0,10.0,0.0,0.0,0.0,10.0
1446037393179560762,517,1446037393174758911,robocape_mag,27.75,11.1,-9.75,10.0,0.0,0.0,0.0,10.0,0.0,0.0,0.0,10.0
1446037393214121595,518,1446037393207864046,robocape_mag,27.75,11.1,-9.75,10.0,0.0,0.0,0.0,10.0,0.0,0.0,0.0,10.0
1446037393246258095,519,1446037393241221904,robocape_mag,27.75,11.1,-9.75,10.0,0.0,0.0,0.0,10.0,0.0,0.0,0.0,10.0
1446037393281059678,520,1446037393274751901,robocape_mag,27.75,11.1,-9.75,10.0,0.0,0.0,0.0,10.0,0.0,0.0,0.0,10.0
1446037393312893845,521,1446037393307935953,robocape_mag,27.75,10.8,-8.25,10.0,0.0,0.0,0.0,10.0,0.0,0.0,0.0,10.0
1446037393346025303,522,1446037393341363906,robocape_mag,28.05,10.8,-8.25,10.0,0.0,0.0,0.0,10.0,0.0,0.0,0.0,10.0
1446037393379700470,523,1446037393374865055,robocape_mag,28.05,10.8,-8.25,10.0,0.0,0.0,0.0,10.0,0.0,0.0,0.0,10.0
1446037393412782470,524,1446037393407938003,robocape_mag,28.05,10.8,-8.25,10.0,0.0,0.0,0.0,10.0,0.0,0.0,0.0,10.0
1446037393448688970,525,1446037393443761110,robocape_mag,28.05,10.8,-8.25,10.0,0.0,0.0,0.0,10.0,0.0,0.0,0.0,10.0
1446037393479269720,526,1446037393474597930,robocape_mag,28.95,11.7,-9.15,10.0,0.0,0.0,0.0,10.0,0.0,0.0,0.0,10.0
1446037393513912637,527,1446037393507848978,robocape_mag,28.95,11.7,-9.15,10.0,0.0,0.0,0.0,10.0,0.0,0.0,0.0,10.0
1446037393546093012,528,1446037393541333913,robocape_mag,28.95,11.7,-9.15,10.0,0.0,0.0,0.0,10.0,0.0,0.0,0.0,10.0
1446037393579275845,529,1446037393574605941,robocape_mag,28.95,11.7,-9.15,10.0,0.0,0.0,0.0,10.0,0.0,0.0,0.0,10.0
