%time,field.header.seq,field.header.stamp,field.header.frame_id,field.orientation.x,field.orientation.y,field.orientation.z,field.orientation.w,field.orientation_covariance0,field.orientation_covariance1,field.orientation_covariance2,field.orientation_covariance3,field.orientation_covariance4,field.orientation_covariance5,field.orientation_covariance6,field.orientation_covariance7,field.orientation_covariance8,field.angular_velocity.x,field.angular_velocity.y,field.angular_velocity.z,field.angular_velocity_covariance0,field.angular_velocity_covariance1,field.angular_velocity_covariance2,field.angular_velocity_covariance3,field.angular_velocity_covariance4,field.angular_velocity_covariance5,field.angular_velocity_covariance6,field.angular_velocity_covariance7,field.angular_velocity_covariance8,field.linear_acceleration.x,field.linear_acceleration.y,field.linear_acceleration.z,field.linear_acceleration_covariance0,field.linear_acceleration_covariance1,field.linear_acceleration_covariance2,field.linear_acceleration_covariance3,field.linear_acceleration_covariance4,field.linear_acceleration_covariance5,field.linear_acceleration_covariance6,field.linear_acceleration_covariance7,field.linear_acceleration_covariance8
1452010576491775989,1,1452010576488401889,robocape,5.67222206668,-4.03547134043,-13.8758018872,0.0,10.0,0.0,0.0,0.0,10.0,0.0,0.0,0.0,10.0,0.00372842552611,0.0119842249054,0.00359526747161,1.0,0.0,0.0,0.0,1.0,0.0,0.0,0.0,1.0,0.298179931641,-0.680185546875,10.4722229004,0.1,0.0,0.0,0.0,0.1,0.0,0.0,0.0,0.1
1452010576520381614,2,1452010576517311096,robocape,5.66780671965,-4.00774422158,-13.8430253699,0.0,10.0,0.0,0.0,0.0,10.0,0.0,0.0,0.0,10.0,0.0033289513626,0.0121173829599,0.00386158358061,1.0,0.0,0.0,0.0,1.0,0.0,0.0,0.0,1.0,0.310155029297,-0.689765625,10.4614453125,0.1,0.0,0.0,0.0,0.1,0.0,0.0,0.0,0.1
1452010576552913280,3,1452010576549813985,robocape,5.66291568338,-3.98081983926,-13.8104007474,0.0,10.0,0.0,0.0,0.0,10.0,0.0,0.0,0.0,10.0,0.00306263525359,0.0117179087963,0.00386158358061,1.0,0.0,0.0,0.0,1.0,0.0,0.0,0.0,1.0,0.299377441406,-0.684975585938,10.4351000977,0.1,0.0,0.0,0.0,0.1,0.0,0.0,0.0,0.1
1452010576587932197,4,1452010576584588050,robocape,5.65856019363,-3.95419092491,-13.7778741049,0.0,10.0,0.0,0.0,0.0,10.0,0.0,0.0,0.0,10.0,0.0033289513626,0.0115847507418,0.00386158358061,1.0,0.0,0.0,0.0,1.0,0.0,0.0,0.0,1.0,0.288599853516,-0.698148193359,10.4506677246,0.1,0.0,0.0,0.0,0.1,0.0,0.0,0.0,0.1
1452010576620556405,5,1452010576617566108,robocape,5.65347263525,-3.92785835383,-13.7454518962,0.0,10.0,0.0,0.0,0.0,10.0,0.0,0.0,0.0,10.0,0.00292947719909,0.0114515926873,0.00386158358061,1.0,0.0,0.0,0.0,1.0,0.0,0.0,0.0,1.0,0.302969970703,-0.686173095703,10.4722229004,0.1,0.0,0.0,0.0,0.1,0.0,0.0,0.0,0.1
1452010576652672530,6,1452010576649554014,robocape,5.6486616869,-3.90055843001,-13.7130091901,0.0,10.0,0.0,0.0,0.0,10.0,0.0,0.0,0.0,10.0,0.00306263525359,0.0119842249054,0.00386158358061,1.0,0.0,0.0,0.0,1.0,0.0,0.0,0.0,1.0,0.311352539063,-0.684975585938,10.4770129395,0.1,0.0,0.0,0.0,0.1,0.0,0.0,0.0,0.1
1452010576687480447,7,1452010576684137105,robocape,5.64438820957,-3.87405920851,-13.6807112847,0.0,10.0,0.0,0.0,0.0,10.0,0.0,0.0,0.0,10.0,0.0033289513626,0.0115847507418,0.00386158358061,1.0,0.0,0.0,0.0,1.0,0.0,0.0,0.0,1.0,0.301772460938,-0.683778076172,10.459050293,0.1,0.0,0.0,0.0,0.1,0.0,0.0,0.0,0.1
1452010576719286072,8,1452010576716337919,robocape,5.63960122558,-3.84715005175,-13.6479445701,0.0,10.0,0.0,0.0,0.0,10.0,0.0,0.0,0.0,10.0,0.00306263525359,0.0118510668509,0.00412789968962,1.0,0.0,0.0,0.0,1.0,0.0,0.0,0.0,1.0,0.299377441406,-0.689765625,10.4542602539,0.1,0.0,0.0,0.0,0.1,0.0,0.0,0.0,0.1
1452010576752149197,9,1452010576748966932,robocape,5.63514334701,-3.82071142692,-13.6160494733,0.0,10.0,0.0,0.0,0.0,10.0,0.0,0.0,0.0,10.0,0.0031957933081,0.0115847507418,0.00372842552611,1.0,0.0,0.0,0.0,1.0,0.0,0.0,0.0,1.0,0.308957519531,-0.695753173828,10.4482727051,0.1,0.0,0.0,0.0,0.1,0.0,0.0,0.0,0.1
1452010576784219030,10,1452010576781286001,robocape,5.62993753758,-3.79459419073,-13.5840069728,0.0,10.0,0.0,0.0,0.0,10.0,0.0,0.0,0.0,10.0,0.00279631914458,0.0114515926873,0.00386158358061,1.0,0.0,0.0,0.0,1.0,0.0,0.0,0.0,1.0,0.298179931641,-0.693358154297,10.4698278809,0.1,0.0,0.0,0.0,0.1,0.0,0.0,0.0,0.1
1452010576817666697,11,1452010576814569950,robocape,5.62428068956,-3.76796292044,-13.5524938656,0.0,10.0,0.0,0.0,0.0,10.0,0.0,0.0,0.0,10.0,0.00253000303558,0.0117179087963,0.00359526747161,1.0,0.0,0.0,0.0,1.0,0.0,0.0,0.0,1.0,0.289797363281,-0.696950683594,10.4626428223,0.1,0.0,0.0,0.0,0.1,0.0,0.0,0.0,0.1
1452010576850768780,12,1452010576847623109,robocape,5.61939455105,-3.74089413063,-13.5207531784,0.0,10.0,0.0,0.0,0.0,10.0,0.0,0.0,0.0,10.0,0.00292947719909,0.0119842249054,0.00372842552611,1.0,0.0,0.0,0.0,1.0,0.0,0.0,0.0,1.0,0.300574951172,-0.683778076172,10.4554577637,0.1,0.0,0.0,0.0,0.1,0.0,0.0,0.0,0.1
1452010576883866405,13,1452010576880816936,robocape,5.61425425383,-3.714424901,-13.4886358305,0.0,10.0,0.0,0.0,0.0,10.0,0.0,0.0,0.0,10.0,0.00279631914458,0.0117179087963,0.00399474163512,1.0,0.0,0.0,0.0,1.0,0.0,0.0,0.0,1.0,0.3065625,-0.677790527344,10.4398901367,0.1,0.0,0.0,0.0,0.1,0.0,0.0,0.0,0.1
1452010576917512947,14,1452010576914340972,robocape,5.60840997185,-3.68769479368,-13.4570728977,0.0,10.0,0.0,0.0,0.0,10.0,0.0,0.0,0.0,10.0,0.00239684498107,0.0118510668509,0.00372842552611,1.0,0.0,0.0,0.0,1.0,0.0,0.0,0.0,1.0,0.300574951172,-0.686173095703,10.4398901367,0.1,0.0,0.0,0.0,0.1,0.0,0.0,0.0,0.1
1452010576950253905,15,1452010576947249889,robocape,5.60387716773,-3.66148511345,-13.4258737749,0.0,10.0,0.0,0.0,0.0,10.0,0.0,0.0,0.0,10.0,0.00306263525359,0.0115847507418,0.00359526747161,1.0,0.0,0.0,0.0,1.0,0.0,0.0,0.0,1.0,0.304167480469,-0.686173095703,10.463840332,0.1,0.0,0.0,0.0,0.1,0.0,0.0,0.0,0.1
1452010576983600072,16,1452010576980488061,robocape,5.5993386282,-3.63486339186,-13.3941996542,0.0,10.0,0.0,0.0,0.0,10.0,0.0,0.0,0.0,10.0,0.00306263525359,0.0118510668509,0.00386158358061,1.0,0.0,0.0,0.0,1.0,0.0,0.0,0.0,1.0,0.304167480469,-0.688568115234,10.4542602539,0.1,0.0,0.0,0.0,0.1,0.0,0.0,0.0,0.1
1452010577017130739,17,1452010577013989925,robocape,5.59457170551,-3.60803177004,-13.3625760556,0.0,10.0,0.0,0.0,0.0,10.0,0.0,0.0,0.0,10.0,0.00292947719909,0.0119842249054,0.00386158358061,1.0,0.0,0.0,0.0,1.0,0.0,0.0,0.0,1.0,0.293389892578,-0.677790527344,10.463840332,0.1,0.0,0.0,0.0,0.1,0.0,0.0,0.0,0.1
1452010577050365155,18,1452010577047039031,robocape,5.5905930211,-3.58174693453,-13.3310683901,0.0,10.0,0.0,0.0,0.0,10.0,0.0,0.0,0.0,10.0,0.0033289513626,0.0117179087963,0.00386158358061,1.0,0.0,0.0,0.0,1.0,0.0,0.0,0.0,1.0,0.307760009766,-0.690963134766,10.4422851563,0.1,0.0,0.0,0.0,0.1,0.0,0.0,0.0,0.1
1452010577083493322,19,1452010577080384969,robocape,5.58616087367,-3.55545347127,-13.300134853,0.0,10.0,0.0,0.0,0.0,10.0,0.0,0.0,0.0,10.0,0.00306263525359,0.0117179087963,0.00359526747161,1.0,0.0,0.0,0.0,1.0,0.0,0.0,0.0,1.0,0.300574951172,-0.687370605469,10.479407959,0.1,0.0,0.0,0.0,0.1,0.0,0.0,0.0,0.1
1452010577118477531,20,1452010577115300893,robocape,5.58174056254,-3.52947959444,-13.2690459538,0.0,10.0,0.0,0.0,0.0,10.0,0.0,0.0,0.0,10.0,0.00306263525359,0.0115847507418,0.00372842552611,1.0,0.0,0.0,0.0,1.0,0.0,0.0,0.0,1.0,0.301772460938,-0.681383056641,10.4734204102,0.1,0.0,0.0,0.0,0.1,0.0,0.0,0.0,0.1
1452010577150451406,21,1452010577147192955,robocape,5.5773021024,-3.50337053103,-13.2372548564,0.0,10.0,0.0,0.0,0.0,10.0,0.0,0.0,0.0,10.0,0.00306263525359,0.0117179087963,0.00412789968962,1.0,0.0,0.0,0.0,1.0,0.0,0.0,0.0,1.0,0.304167480469,-0.684975585938,10.4554577637,0.1,0.0,0.0,0.0,0.1,0.0,0.0,0.0,0.1
1452010577183760822,22,1452010577180716991,robocape,5.57318127766,-3.47646887761,-13.2062130284,0.0,10.0,0.0,0.0,0.0,10.0,0.0,0.0,0.0,10.0,0.0031957933081,0.0121173829599,0.00372842552611,1.0,0.0,0.0,0.0,1.0,0.0,0.0,0.0,1.0,0.300574951172,-0.692160644531,10.4530627441,0.1,0.0,0.0,0.0,0.1,0.0,0.0,0.0,0.1
1452010577217316864,23,1452010577214299917,robocape,5.56880608934,-3.45016564568,-13.1747907217,0.0,10.0,0.0,0.0,0.0,10.0,0.0,0.0,0.0,10.0,0.00306263525359,0.0118510668509,0.00399474163512,1.0,0.0,0.0,0.0,1.0,0.0,0.0,0.0,1.0,0.290994873047,-0.695753173828,10.4518652344,0.1,0.0,0.0,0.0,0.1,0.0,0.0,0.0,0.1
1452010577250275447,24,1452010577247272968,robocape,5.56396305948,-3.42387890725,-13.1436921464,0.0,10.0,0.0,0.0,0.0,10.0,0.0,0.0,0.0,10.0,0.00279631914458,0.0118510668509,0.00386158358061,1.0,0.0,0.0,0.0,1.0,0.0,0.0,0.0,1.0,0.300574951172,-0.694555664063,10.4542602539,0.1,0.0,0.0,0.0,0.1,0.0,0.0,0.0,0.1
1452010577283761364,25,1452010577280706882,robocape,5.5593989668,-3.39763315151,-13.1126628282,0.0,10.0,0.0,0.0,0.0,10.0,0.0,0.0,0.0,10.0,0.00292947719909,0.0118510668509,0.00386158358061,1.0,0.0,0.0,0.0,1.0,0.0,0.0,0.0,1.0,0.301772460938,-0.678988037109,10.4422851563,0.1,0.0,0.0,0.0,0.1,0.0,0.0,0.0,0.1
1452010577317218572,26,1452010577314135074,robocape,5.55460753404,-3.37168124858,-13.0817286648,0.0,10.0,0.0,0.0,0.0,10.0,0.0,0.0,0.0,10.0,0.00279631914458,0.0117179087963,0.00386158358061,1.0,0.0,0.0,0.0,1.0,0.0,0.0,0.0,1.0,0.304167480469,-0.682580566406,10.4303100586,0.1,0.0,0.0,0.0,0.1,0.0,0.0,0.0,0.1
1452010577350483031,27,1452010577347471952,robocape,5.54957463664,-3.3457953217,-13.0506159254,0.0,10.0,0.0,0.0,0.0,10.0,0.0,0.0,0.0,10.0,0.00266316109008,0.0117179087963,0.00399474163512,1.0,0.0,0.0,0.0,1.0,0.0,0.0,0.0,1.0,0.302969970703,-0.686173095703,10.4602478027,0.1,0.0,0.0,0.0,0.1,0.0,0.0,0.0,0.1
1452010577383674822,28,1452010577380620002,robocape,5.54456833809,-3.32020218276,-13.0195970274,0.0,10.0,0.0,0.0,0.0,10.0,0.0,0.0,0.0,10.0,0.00266316109008,0.0115847507418,0.00399474163512,1.0,0.0,0.0,0.0,1.0,0.0,0.0,0.0,1.0,0.294587402344,-0.692160644531,10.4758154297,0.1,0.0,0.0,0.0,0.1,0.0,0.0,0.0,0.1
1452010577419273489,29,1452010577415870904,robocape,5.54034381944,-3.2936381452,-12.9885496599,0.0,10.0,0.0,0.0,0.0,10.0,0.0,0.0,0.0,10.0,0.00306263525359,0.0121173829599,0.00399474163512,1.0,0.0,0.0,0.0,1.0,0.0,0.0,0.0,1.0,0.161663818359,-0.692160644531,10.4662353516,0.1,0.0,0.0,0.0,0.1,0.0,0.0,0.0,0.1
1452010577450556822,30,1452010577447295904,robocape,5.53563800905,-3.26736851622,-12.9575981033,0.0,10.0,0.0,0.0,0.0,10.0,0.0,0.0,0.0,10.0,0.00279631914458,0.0119842249054,0.00399474163512,1.0,0.0,0.0,0.0,1.0,0.0,0.0,0.0,1.0,0.310155029297,-0.689765625,10.4698278809,0.1,0.0,0.0,0.0,0.1,0.0,0.0,0.0,0.1
1452010577483468197,31,1452010577480401992,robocape,5.53149064771,-3.2413416147,-12.9272366394,0.0,10.0,0.0,0.0,0.0,10.0,0.0,0.0,0.0,10.0,0.00306263525359,0.0118510668509,0.00372842552611,1.0,0.0,0.0,0.0,1.0,0.0,0.0,0.0,1.0,0.305364990234,-0.687370605469,10.4758154297,0.1,0.0,0.0,0.0,0.1,0.0,0.0,0.0,0.1
1452010577517173572,32,1452010577514090061,robocape,5.54782149414,-3.21247302736,-12.9202845444,0.0,10.0,0.0,0.0,0.0,10.0,0.0,0.0,0.0,10.0,0.0131826473959,0.0121173829599,-0.00878843159726,1.0,0.0,0.0,0.0,1.0,0.0,0.0,0.0,1.0,0.379610595703,-0.901724853516,10.4806054688,0.1,0.0,0.0,0.0,0.1,0.0,0.0,0.0,0.1
1452010577550173531,33,1452010577546961069,robocape,5.6133640784,-3.19079626806,-12.9351995984,0.0,10.0,0.0,0.0,0.0,10.0,0.0,0.0,0.0,10.0,0.0384826777516,0.00719053494321,-0.0201068662301,1.0,0.0,0.0,0.0,1.0,0.0,0.0,0.0,1.0,0.229921875,-0.376018066406,10.3345092773,0.1,0.0,0.0,0.0,0.1,0.0,0.0,0.0,0.1
1452010577583632072,34,1452010577580564975,robocape,5.62974446014,-3.18983172963,-12.9527762246,0.0,10.0,0.0,0.0,0.0,10.0,0.0,0.0,0.0,10.0,0.0126500151779,-0.00372842552611,-0.0203731823391,1.0,0.0,0.0,0.0,1.0,0.0,0.0,0.0,1.0,0.0838256835938,-0.2682421875,10.3692370605,0.1,0.0,0.0,0.0,0.1,0.0,0.0,0.0,0.1
1452010577616908281,35,1452010577613749027,robocape,5.51613963326,-3.20123509592,-12.9559944837,0.0,10.0,0.0,0.0,0.0,10.0,0.0,0.0,0.0,10.0,-0.0552605926191,-0.00932106381528,-0.0118510668509,1.0,0.0,0.0,0.0,1.0,0.0,0.0,0.0,1.0,0.195194091797,-0.559237060547,10.4087548828,0.1,0.0,0.0,0.0,0.1,0.0,0.0,0.0,0.1
1452010577650568614,36,1452010577647109985,robocape,5.43866074036,-3.21244943371,-12.9683240991,0.0,10.0,0.0,0.0,0.0,10.0,0.0,0.0,0.0,10.0,-0.0366184649886,-0.00972053797879,-0.0167779148675,1.0,0.0,0.0,0.0,1.0,0.0,0.0,0.0,1.0,0.414338378906,-0.917292480469,10.5141357422,0.1,0.0,0.0,0.0,0.1,0.0,0.0,0.0,0.1
1452010577684313281,37,1452010577680988073,robocape,5.40741949149,-3.21245270731,-12.9851685919,0.0,10.0,0.0,0.0,0.0,10.0,0.0,0.0,0.0,10.0,-0.0125168571234,-0.00412789968962,-0.0198405501211,1.0,0.0,0.0,0.0,1.0,0.0,0.0,0.0,1.0,0.422720947266,-0.965192871094,10.5392834473,0.1,0.0,0.0,0.0,0.1,0.0,0.0,0.0,0.1
1452010577717775364,38,1452010577714569091,robocape,5.37634274454,-3.20092179733,-12.9741962908,0.0,10.0,0.0,0.0,0.0,10.0,0.0,0.0,0.0,10.0,-0.0117179087963,0.0033289513626,-0.00572579634367,1.0,0.0,0.0,0.0,1.0,0.0,0.0,0.0,1.0,0.384400634766,-0.890947265625,10.5344934082,0.1,0.0,0.0,0.0,0.1,0.0,0.0,0.0,0.1
1452010577750419656,39,1452010577747064113,robocape,5.37342244731,-3.17717776001,-12.9524258377,0.0,10.0,0.0,0.0,0.0,10.0,0.0,0.0,0.0,10.0,0.0033289513626,0.0102531701968,-0.00066579027252,1.0,0.0,0.0,0.0,1.0,0.0,0.0,0.0,1.0,0.432301025391,-0.97716796875,10.5656286621,0.1,0.0,0.0,0.0,0.1,0.0,0.0,0.0,0.1
1452010577783613114,40,1452010577780471086,robocape,5.39155031425,-3.14324478353,-12.9203377599,0.0,10.0,0.0,0.0,0.0,10.0,0.0,0.0,0.0,10.0,0.0146473859954,0.016112124595,0.00426105774413,1.0,0.0,0.0,0.0,1.0,0.0,0.0,0.0,1.0,0.370030517578,-0.866997070313,10.5285058594,0.1,0.0,0.0,0.0,0.1,0.0,0.0,0.0,0.1
1452010577817200739,41,1452010577814068078,robocape,5.41717039296,-3.10497732851,-12.8810556833,0.0,10.0,0.0,0.0,0.0,10.0,0.0,0.0,0.0,10.0,0.0187752856851,0.0187752856851,0.00785632521573,1.0,0.0,0.0,0.0,1.0,0.0,0.0,0.0,1.0,0.347277832031,-0.743653564453,10.4937780762,0.1,0.0,0.0,0.0,0.1,0.0,0.0,0.0,0.1
1452010577880738073,42,1452010577847409009,robocape,5.41624711153,-3.07351355117,-12.8229135659,0.0,10.0,0.0,0.0,0.0,10.0,0.0,0.0,0.0,10.0,0.00532632218016,0.0162452826495,0.018242653467,1.0,0.0,0.0,0.0,1.0,0.0,0.0,0.0,1.0,0.282612304688,-0.573607177734,10.5069506836,0.1,0.0,0.0,0.0,0.1,0.0,0.0,0.0,0.1
1452010577903723073,43,1452010577900191068,robocape,5.35264591865,-3.03911134681,-12.7255855494,0.0,10.0,0.0,0.0,0.0,10.0,0.0,0.0,0.0,10.0,-0.0266316109008,0.0198405501211,0.0390153099697,1.0,0.0,0.0,0.0,1.0,0.0,0.0,0.0,1.0,0.371228027344,-0.942440185547,10.5225183105,0.1,0.0,0.0,0.0,0.1,0.0,0.0,0.0,0.1
1452010577928676114,44,1452010577925590038,robocape,5.32459051395,-2.9944401492,-12.6417661513,0.0,10.0,0.0,0.0,0.0,10.0,0.0,0.0,0.0,10.0,-0.00838895743375,0.0245010820287,0.0314253008629,1.0,0.0,0.0,0.0,1.0,0.0,0.0,0.0,1.0,0.447868652344,-1.13284423828,10.5704187012,0.1,0.0,0.0,0.0,0.1,0.0,0.0,0.0,0.1
1452010577950094739,45,1452010577946991920,robocape,5.35847906779,-2.93755908398,-12.5736187649,0.0,10.0,0.0,0.0,0.0,10.0,0.0,0.0,0.0,10.0,0.0237021337017,0.0300937203179,0.0225037112112,1.0,0.0,0.0,0.0,1.0,0.0,0.0,0.0,1.0,0.410745849609,-1.03943847656,10.5213208008,0.1,0.0,0.0,0.0,0.1,0.0,0.0,0.0,0.1
1452010577983595448,46,1452010577980483055,robocape,5.44061264276,-2.87617504539,-12.5238211983,0.0,10.0,0.0,0.0,0.0,10.0,0.0,0.0,0.0,10.0,0.0486026898939,0.0315584589174,0.0125168571234,1.0,0.0,0.0,0.0,1.0,0.0,0.0,0.0,1.0,0.286204833984,-0.614322509766,10.5249133301,0.1,0.0,0.0,0.0,0.1,0.0,0.0,0.0,0.1
1452010578018364656,47,1452010578015276908,robocape,5.47698270964,-2.82960608948,-12.4731004258,0.0,10.0,0.0,0.0,0.0,10.0,0.0,0.0,0.0,10.0,0.0246342400832,0.0239684498107,0.0138484376684,1.0,0.0,0.0,0.0,1.0,0.0,0.0,0.0,1.0,0.178428955078,-0.399968261719,10.3644470215,0.1,0.0,0.0,0.0,0.1,0.0,0.0,0.0,0.1
1452010578051439781,48,1452010578048212051,robocape,5.47349038547,-2.79996781021,-12.4330552432,0.0,10.0,0.0,0.0,0.0,10.0,0.0,0.0,0.0,10.0,0.0034621094171,0.0146473859954,0.00918790576077,1.0,0.0,0.0,0.0,1.0,0.0,0.0,0.0,1.0,0.182021484375,-0.385598144531,10.3848046875,0.1,0.0,0.0,0.0,0.1,0.0,0.0,0.0,0.1
1452010578084726448,49,1452010578081698894,robocape,5.433908735,-2.78921579267,-12.3962824349,0.0,10.0,0.0,0.0,0.0,10.0,0.0,0.0,0.0,10.0,-0.015579492377,0.00466053190764,0.00852211548825,1.0,0.0,0.0,0.0,1.0,0.0,0.0,0.0,1.0,0.166453857422,-0.257464599609,10.4003723145,0.1,0.0,0.0,0.0,0.1,0.0,0.0,0.0,0.1
1452010578118531656,50,1452010578115384101,robocape,5.33146854924,-2.78706563845,-12.3346857719,0.0,10.0,0.0,0.0,0.0,10.0,0.0,0.0,0.0,10.0,-0.0480700576759,0.00146473859954,0.0222373951022,1.0,0.0,0.0,0.0,1.0,0.0,0.0,0.0,1.0,0.366437988281,-0.665815429688,10.4961730957,0.1,0.0,0.0,0.0,0.1,0.0,0.0,0.0,0.1
1452010578152515198,51,1452010578148737907,robocape,5.19818588677,-2.77461753412,-12.2360984754,0.0,10.0,0.0,0.0,0.0,10.0,0.0,0.0,0.0,10.0,-0.0635163919984,0.00865527354276,0.0414121549507,1.0,0.0,0.0,0.0,1.0,0.0,0.0,0.0,1.0,0.457448730469,-1.14122680664,10.5799987793,0.1,0.0,0.0,0.0,0.1,0.0,0.0,0.0,0.1
1452010578185583448,52,1452010578182138919,robocape,5.11644970903,-2.73054337038,-12.0865191874,0.0,10.0,0.0,0.0,0.0,10.0,0.0,0.0,0.0,10.0,-0.0354200424981,0.0275637172823,0.066845343361,1.0,0.0,0.0,0.0,1.0,0.0,0.0,0.0,1.0,0.558039550781,-1.35318603516,10.7069348145,0.1,0.0,0.0,0.0,0.1,0.0,0.0,0.0,0.1
1452010578218946031,53,1452010578215332984,robocape,5.0827895448,-2.64545652748,-11.8913407877,0.0,10.0,0.0,0.0,0.0,10.0,0.0,0.0,0.0,10.0,-0.00932106381528,0.0511326929295,0.0890827384632,1.0,0.0,0.0,0.0,1.0,0.0,0.0,0.0,1.0,0.655037841797,-1.90404052734,10.8230932617,0.1,0.0,0.0,0.0,0.1,0.0,0.0,0.0,0.1
1452010578251507406,54,1452010578248177051,robocape,5.21293876656,-2.51389591601,-11.6737143356,0.0,10.0,0.0,0.0,0.0,10.0,0.0,0.0,0.0,10.0,0.0769653555033,0.0765658813398,0.0985369603329,1.0,0.0,0.0,0.0,1.0,0.0,0.0,0.0,1.0,0.662222900391,-1.37474121094,10.6638244629,0.1,0.0,0.0,0.0,0.1,0.0,0.0,0.0,0.1
1452010578284641073,55,1452010578281303882,robocape,5.41184808141,-2.36848332766,-11.3894807866,0.0,10.0,0.0,0.0,0.0,10.0,0.0,0.0,0.0,10.0,0.114249610764,0.0874848418091,0.13275858034,1.0,0.0,0.0,0.0,1.0,0.0,0.0,0.0,1.0,0.136516113281,-0.859812011719,10.4818029785,0.1,0.0,0.0,0.0,0.1,0.0,0.0,0.0,0.1
1452010578318678156,56,1452010578315651893,robocape,5.72745921709,-2.2246033677,-11.1844127876,0.0,10.0,0.0,0.0,0.0,10.0,0.0,0.0,0.0,10.0,0.173904419182,0.083223784065,0.0906806351172,1.0,0.0,0.0,0.0,1.0,0.0,0.0,0.0,1.0,-0.0467028808594,-0.495769042969,10.3740270996,0.1,0.0,0.0,0.0,0.1,0.0,0.0,0.0,0.1
1452010578355249323,57,1452010578351247072,robocape,6.09491537944,-2.09065524721,-11.0492054029,0.0,10.0,0.0,0.0,0.0,10.0,0.0,0.0,0.0,10.0,0.200003397865,0.0748348266312,0.0539290120741,1.0,0.0,0.0,0.0,1.0,0.0,0.0,0.0,1.0,-0.047900390625,-0.159268798828,10.290201416,0.1,0.0,0.0,0.0,0.1,0.0,0.0,0.0,0.1
1452010578386698948,58,1452010578383589029,robocape,6.42450258471,-1.98029130952,-10.9738883709,0.0,10.0,0.0,0.0,0.0,10.0,0.0,0.0,0.0,10.0,0.179363899417,0.0595216503633,0.0234358175927,1.0,0.0,0.0,0.0,1.0,0.0,0.0,0.0,1.0,0.0946032714844,-0.360450439453,10.3728295898,0.1,0.0,0.0,0.0,0.1,0.0,0.0,0.0,0.1
1452010578419921864,59,1452010578416799068,robocape,6.73655161289,-1.87454764165,-10.9590805807,0.0,10.0,0.0,0.0,0.0,10.0,0.0,0.0,0.0,10.0,0.169510203384,0.0536626959651,-0.00838895743375,1.0,0.0,0.0,0.0,1.0,0.0,0.0,0.0,1.0,0.247884521484,-0.0946032714844,10.1249450684,0.1,0.0,0.0,0.0,0.1,0.0,0.0,0.0,0.1
1452010578453079989,60,1452010578448565006,robocape,7.03841105559,-1.78192088957,-10.9654789718,0.0,10.0,0.0,0.0,0.0,10.0,0.0,0.0,0.0,10.0,0.164183881203,0.0455400546404,-0.0190416017941,1.0,0.0,0.0,0.0,1.0,0.0,0.0,0.0,1.0,-0.0646655273438,0.393980712891,9.95849121094,0.1,0.0,0.0,0.0,0.1,0.0,0.0,0.0,0.1
1452010578487891656,61,1452010578483781099,robocape,7.18940624978,-1.72563769646,-10.9530949221,0.0,10.0,0.0,0.0,0.0,10.0,0.0,0.0,0.0,10.0,0.085354312937,0.0279631914458,-0.0066579027252,1.0,0.0,0.0,0.0,1.0,0.0,0.0,0.0,1.0,0.00239501953125,0.542471923828,9.97046630859,0.1,0.0,0.0,0.0,0.1,0.0,0.0,0.0,0.1
1452010578521719323,62,1452010578518187046,robocape,7.27902773856,-1.69856234093,-10.9674068564,0.0,10.0,0.0,0.0,0.0,10.0,0.0,0.0,0.0,10.0,0.0528637476381,0.0110521185238,-0.0186421276306,1.0,0.0,0.0,0.0,1.0,0.0,0.0,0.0,1.0,-0.0694555664063,0.566422119141,10.0506994629,0.1,0.0,0.0,0.0,0.1,0.0,0.0,0.0,0.1
1452010578553727240,63,1452010578550532102,robocape,7.21339281089,-1.69625886923,-10.9699471013,0.0,10.0,0.0,0.0,0.0,10.0,0.0,0.0,0.0,10.0,-0.0286289817184,-0.000932106381528,-0.0103863282513,1.0,0.0,0.0,0.0,1.0,0.0,0.0,0.0,1.0,0.0299377441406,0.696950683594,10.0590820312,0.1,0.0,0.0,0.0,0.1,0.0,0.0,0.0,0.1
1452010578588582865,64,1452010578585197925,robocape,7.06375767758,-1.71864187653,-10.9785675728,0.0,10.0,0.0,0.0,0.0,10.0,0.0,0.0,0.0,10.0,-0.0729706138682,-0.0141147537774,-0.0117179087963,1.0,0.0,0.0,0.0,1.0,0.0,0.0,0.0,1.0,-0.0502954101563,0.519719238281,10.0794396973,0.1,0.0,0.0,0.0,0.1,0.0,0.0,0.0,0.1
1452010578621739406,65,1452010578618230104,robocape,6.81553447658,-1.76331421123,-10.9921101894,0.0,10.0,0.0,0.0,0.0,10.0,0.0,0.0,0.0,10.0,-0.125035413179,-0.0259658206283,-0.0126500151779,1.0,0.0,0.0,0.0,1.0,0.0,0.0,0.0,1.0,0.0431103515625,0.0598754882813,10.1465002441,0.1,0.0,0.0,0.0,0.1,0.0,0.0,0.0,0.1
1452010578654352531,66,1452010578650696039,robocape,6.52893444978,-1.82119131023,-10.9853365361,0.0,10.0,0.0,0.0,0.0,10.0,0.0,0.0,0.0,10.0,-0.145142279409,-0.0315584589174,-0.00119842249054,1.0,0.0,0.0,0.0,1.0,0.0,0.0,0.0,1.0,-0.0514929199219,0.1916015625,10.1381176758,0.1,0.0,0.0,0.0,0.1,0.0,0.0,0.0,0.1
1452010578687543281,67,1452010578684251070,robocape,6.1624717387,-1.89946768513,-10.960609109,0.0,10.0,0.0,0.0,0.0,10.0,0.0,0.0,0.0,10.0,-0.187087066578,-0.0411458388417,0.00945422186978,1.0,0.0,0.0,0.0,1.0,0.0,0.0,0.0,1.0,-0.009580078125,0.197589111328,10.1357226563,0.1,0.0,0.0,0.0,0.1,0.0,0.0,0.0,0.1
1452010578721936823,68,1452010578718801975,robocape,5.74479681319,-1.9833469689,-10.9361739946,0.0,10.0,0.0,0.0,0.0,10.0,0.0,0.0,0.0,10.0,-0.214251309697,-0.0442084740953,0.00945422186978,1.0,0.0,0.0,0.0,1.0,0.0,0.0,0.0,1.0,0.380808105469,-0.892144775391,10.5895788574,0.1,0.0,0.0,0.0,0.1,0.0,0.0,0.0,0.1
1452010578753114365,69,1452010578749814033,robocape,5.42979701557,-2.04739480316,-10.9044988507,0.0,10.0,0.0,0.0,0.0,10.0,0.0,0.0,0.0,10.0,-0.160455455677,-0.0336889877895,0.0117179087963,1.0,0.0,0.0,0.0,1.0,0.0,0.0,0.0,1.0,0.422720947266,-1.61663818359,10.6602319336,0.1,0.0,0.0,0.0,0.1,0.0,0.0,0.0,0.1
1452010578787115906,70,1452010578783973932,robocape,5.23407855753,-2.07087560177,-10.8721408854,0.0,10.0,0.0,0.0,0.0,10.0,0.0,0.0,0.0,10.0,-0.0980043281149,-0.0126500151779,0.00972053797879,1.0,0.0,0.0,0.0,1.0,0.0,0.0,0.0,1.0,0.829874267578,-1.88727539063,10.8769812012,0.1,0.0,0.0,0.0,0.1,0.0,0.0,0.0,0.1
1452010578820393115,71,1452010578817293882,robocape,5.26048013241,-2.03690754502,-10.8405559025,0.0,10.0,0.0,0.0,0.0,10.0,0.0,0.0,0.0,10.0,0.0185089695761,0.017177389031,0.00612527050718,1.0,0.0,0.0,0.0,1.0,0.0,0.0,0.0,1.0,0.615520019531,-1.87051025391,10.8027355957,0.1,0.0,0.0,0.0,0.1,0.0,0.0,0.0,0.1
1452010578853628115,72,1452010578850558996,robocape,5.41100669764,-1.95859451712,-10.7737965621,0.0,10.0,0.0,0.0,0.0,10.0,0.0,0.0,0.0,10.0,0.084289048501,0.0420779452233,0.0222373951022,1.0,0.0,0.0,0.0,1.0,0.0,0.0,0.0,1.0,0.531694335938,-1.39270385742,10.6207141113,0.1,0.0,0.0,0.0,0.1,0.0,0.0,0.0,0.1
1452010578886694656,73,1452010578883627891,robocape,5.63413407667,-1.86700963329,-10.7171696941,0.0,10.0,0.0,0.0,0.0,10.0,0.0,0.0,0.0,10.0,0.122372252089,0.0486026898939,0.0159789665405,1.0,0.0,0.0,0.0,1.0,0.0,0.0,0.0,1.0,0.299377441406,-0.614322509766,10.4566552734,0.1,0.0,0.0,0.0,0.1,0.0,0.0,0.0,0.1
1452010578920107448,74,1452010578916681051,robocape,5.85182074926,-1.78426783564,-10.6866606392,0.0,10.0,0.0,0.0,0.0,10.0,0.0,0.0,0.0,10.0,0.119309616836,0.0427437354958,0.00253000303558,1.0,0.0,0.0,0.0,1.0,0.0,0.0,0.0,1.0,0.219144287109,-0.356857910156,10.3297192383,0.1,0.0,0.0,0.0,0.1,0.0,0.0,0.0,0.1
1452010578953262990,75,1452010578949887037,robocape,6.05608317335,-1.71794979467,-10.7099753366,0.0,10.0,0.0,0.0,0.0,10.0,0.0,0.0,0.0,10.0,0.111719607729,0.0312921428084,-0.0250337142467,1.0,0.0,0.0,0.0,1.0,0.0,0.0,0.0,1.0,-0.0969982910156,-0.106578369141,10.0950073242,0.1,0.0,0.0,0.0,0.1,0.0,0.0,0.0,0.1
1452010578986038615,76,1452010578982963085,robocape,6.1725766343,-1.67792446412,-10.7339049966,0.0,10.0,0.0,0.0,0.0,10.0,0.0,0.0,0.0,10.0,0.065780078925,0.0175768631945,-0.0238352917562,1.0,0.0,0.0,0.0,1.0,0.0,0.0,0.0,1.0,-0.0682580566406,0.298179931641,10.0914147949,0.1,0.0,0.0,0.0,0.1,0.0,0.0,0.0,0.1
1452010579018972115,77,1452010579015841007,robocape,6.15777315107,-1.66349615702,-10.7306905172,0.0,10.0,0.0,0.0,0.0,10.0,0.0,0.0,0.0,10.0,-0.00279631914458,0.00585895439817,-0.00785632521573,1.0,0.0,0.0,0.0,1.0,0.0,0.0,0.0,1.0,0.0335302734375,0.226329345703,10.157277832,0.1,0.0,0.0,0.0,0.1,0.0,0.0,0.0,0.1
1452010579052022990,78,1452010579048747062,robocape,6.04616256886,-1.67483588879,-10.7240947261,0.0,10.0,0.0,0.0,0.0,10.0,0.0,0.0,0.0,10.0,-0.0536626959651,-0.00732369299772,-0.00439421579863,1.0,0.0,0.0,0.0,1.0,0.0,0.0,0.0,1.0,0.0910107421875,0.269439697266,10.1476977539,0.1,0.0,0.0,0.0,0.1,0.0,0.0,0.0,0.1
1452010579085049406,79,1452010579082014083,robocape,5.83981004097,-1.7145869891,-10.7512325242,0.0,10.0,0.0,0.0,0.0,10.0,0.0,0.0,0.0,10.0,-0.103996440568,-0.0239684498107,-0.0203731823391,1.0,0.0,0.0,0.0,1.0,0.0,0.0,0.0,1.0,0.258662109375,-0.370030517578,10.3608544922,0.1,0.0,0.0,0.0,0.1,0.0,0.0,0.0,0.1
1452010579118467240,80,1452010579115289926,robocape,5.66379093655,-1.75364219301,-10.7827741381,0.0,10.0,0.0,0.0,0.0,10.0,0.0,0.0,0.0,10.0,-0.0882837901361,-0.0238352917562,-0.0229031853747,1.0,0.0,0.0,0.0,1.0,0.0,0.0,0.0,1.0,0.107775878906,-0.844244384766,10.4722229004,0.1,0.0,0.0,0.0,0.1,0.0,0.0,0.0,0.1
1452010579151322698,81,1452010579148257017,robocape,5.52588300007,-1.77262007041,-10.7880016431,0.0,10.0,0.0,0.0,0.0,10.0,0.0,0.0,0.0,10.0,-0.0680437658515,-0.0119842249054,-0.0102531701968,1.0,0.0,0.0,0.0,1.0,0.0,0.0,0.0,1.0,0.541274414062,-0.980760498047,10.5452709961,0.1,0.0,0.0,0.0,0.1,0.0,0.0,0.0,0.1
1452010579184564323,82,1452010579181448936,robocape,5.46001239827,-1.7692888449,-10.7781189958,0.0,10.0,0.0,0.0,0.0,10.0,0.0,0.0,0.0,10.0,-0.0300937203179,0.000399474163512,-0.00359526747161,1.0,0.0,0.0,0.0,1.0,0.0,0.0,0.0,1.0,0.374820556641,-1.17355957031,10.6350842285,0.1,0.0,0.0,0.0,0.1,0.0,0.0,0.0,0.1
1452010579217461365,83,1452010579214400053,robocape,5.46233781835,-1.74292637492,-10.755435682,0.0,10.0,0.0,0.0,0.0,10.0,0.0,0.0,0.0,10.0,0.00585895439817,0.0130494893414,0.00186421276306,1.0,0.0,0.0,0.0,1.0,0.0,0.0,0.0,1.0,0.458646240234,-1.03943847656,10.5811962891,0.1,0.0,0.0,0.0,0.1,0.0,0.0,0.0,0.1
1452010579250531407,84,1452010579247504949,robocape,5.5171646162,-1.70158414445,-10.7243088938,0.0,10.0,0.0,0.0,0.0,10.0,0.0,0.0,0.0,10.0,0.033555829735,0.0213052887206,0.00545948023466,1.0,0.0,0.0,0.0,1.0,0.0,0.0,0.0,1.0,0.32572265625,-0.923280029297,10.5332958984,0.1,0.0,0.0,0.0,0.1,0.0,0.0,0.0,0.1
1452010579283832448,85,1452010579280800104,robocape,5.59715794753,-1.65154668372,-10.6889462629,0.0,10.0,0.0,0.0,0.0,10.0,0.0,0.0,0.0,10.0,0.0468716351854,0.0260989786828,0.00719053494321,1.0,0.0,0.0,0.0,1.0,0.0,0.0,0.0,1.0,0.293389892578,-0.653840332031,10.4315075684,0.1,0.0,0.0,0.0,0.1,0.0,0.0,0.0,0.1
1452010579317046865,86,1452010579314007043,robocape,5.66512594277,-1.60498249487,-10.6531908139,0.0,10.0,0.0,0.0,0.0,10.0,0.0,0.0,0.0,10.0,0.0406132066237,0.0243679239742,0.00759000910673,1.0,0.0,0.0,0.0,1.0,0.0,0.0,0.0,1.0,0.228724365234,-0.432301025391,10.3895947266,0.1,0.0,0.0,0.0,0.1,0.0,0.0,0.0,0.1
1452010579350248073,87,1452010579347258090,robocape,5.68579298085,-1.56896263452,-10.6027407041,0.0,10.0,0.0,0.0,0.0,10.0,0.0,0.0,0.0,10.0,0.0159789665405,0.0197073920666,0.0159789665405,1.0,0.0,0.0,0.0,1.0,0.0,0.0,0.0,1.0,0.104183349609,-0.36404296875,10.3788171387,0.1,0.0,0.0,0.0,0.1,0.0,0.0,0.0,0.1
1452010579383440073,88,1452010579380419969,robocape,5.63569268163,-1.54303745938,-10.5265985348,0.0,10.0,0.0,0.0,0.0,10.0,0.0,0.0,0.0,10.0,-0.0209058145571,0.015845808486,0.0302268783724,1.0,0.0,0.0,0.0,1.0,0.0,0.0,0.0,1.0,0.110170898438,-0.342487792969,10.4207299805,0.1,0.0,0.0,0.0,0.1,0.0,0.0,0.0,0.1
1452010579418355323,89,1452010579415324926,robocape,5.56210811518,-1.52042690953,-10.4376316313,0.0,10.0,0.0,0.0,0.0,10.0,0.0,0.0,0.0,10.0,-0.0331563555715,0.0147805440499,0.0372842552611,1.0,0.0,0.0,0.0,1.0,0.0,0.0,0.0,1.0,0.283809814453,-0.687370605469,10.4877905273,0.1,0.0,0.0,0.0,0.1,0.0,0.0,0.0,0.1
1452010579450585198,90,1452010579447395086,robocape,5.54473429682,-1.48770839237,-10.362573313,0.0,10.0,0.0,0.0,0.0,10.0,0.0,0.0,0.0,10.0,-0.00386158358061,0.0193079179031,0.0294279300454,1.0,0.0,0.0,0.0,1.0,0.0,0.0,0.0,1.0,0.361647949219,-0.930465087891,10.5225183105,0.1,0.0,0.0,0.0,0.1,0.0,0.0,0.0,0.1
1452010579483588407,91,1452010579480473995,robocape,5.57597377405,-1.44240656594,-10.2938239465,0.0,10.0,0.0,0.0,0.0,10.0,0.0,0.0,0.0,10.0,0.0215716048296,0.0255663464648,0.0254331884103,1.0,0.0,0.0,0.0,1.0,0.0,0.0,0.0,1.0,0.354462890625,-0.874182128906,10.4578527832,0.1,0.0,0.0,0.0,0.1,0.0,0.0,0.0,0.1
1452010579517125532,92,1452010579513866901,robocape,5.63015290398,-1.39122666687,-10.2313198946,0.0,10.0,0.0,0.0,0.0,10.0,0.0,0.0,0.0,10.0,0.033555829735,0.0283626656093,0.0218379209386,1.0,0.0,0.0,0.0,1.0,0.0,0.0,0.0,1.0,0.293389892578,-0.655037841797,10.4602478027,0.1,0.0,0.0,0.0,0.1,0.0,0.0,0.0,0.1
1452010579550331990,93,1452010579547070980,robocape,5.73910024373,-1.34028513696,-10.1600120505,0.0,10.0,0.0,0.0,0.0,10.0,0.0,0.0,0.0,10.0,0.0624511275624,0.0287621397729,0.0263652947918,1.0,0.0,0.0,0.0,1.0,0.0,0.0,0.0,1.0,0.223934326172,-0.451461181641,10.4003723145,0.1,0.0,0.0,0.0,0.1,0.0,0.0,0.0,0.1
1452010579583820407,94,1452010579580748081,robocape,5.79027039914,-1.29054703583,-10.0939028351,0.0,10.0,0.0,0.0,0.0,10.0,0.0,0.0,0.0,10.0,0.0320910911355,0.0279631914458,0.0238352917562,1.0,0.0,0.0,0.0,1.0,0.0,0.0,0.0,1.0,0.1916015625,-0.649050292969,10.3788171387,0.1,0.0,0.0,0.0,0.1,0.0,0.0,0.0,0.1
1452010579617184532,95,1452010579613918066,robocape,5.83324421674,-1.24441603814,-10.0386352062,0.0,10.0,0.0,0.0,0.0,10.0,0.0,0.0,0.0,10.0,0.0276968753368,0.0255663464648,0.0183758115215,1.0,0.0,0.0,0.0,1.0,0.0,0.0,0.0,1.0,0.244291992188,-0.467028808594,10.3740270996,0.1,0.0,0.0,0.0,0.1,0.0,0.0,0.0,0.1
1452010579651336448,96,1452010579648113012,robocape,5.8490939339,-1.20878960034,-9.98409882403,0.0,10.0,0.0,0.0,0.0,10.0,0.0,0.0,0.0,10.0,0.0134489635049,0.0201068662301,0.0186421276306,1.0,0.0,0.0,0.0,1.0,0.0,0.0,0.0,1.0,0.0802331542969,-0.238304443359,10.3021765137,0.1,0.0,0.0,0.0,0.1,0.0,0.0,0.0,0.1
1452010579684186782,97,1452010579681107997,robocape,5.85198929236,-1.1787950611,-9.94243498842,0.0,10.0,0.0,0.0,0.0,10.0,0.0,0.0,0.0,10.0,0.00652474467069,0.0165115987585,0.0122505410144,1.0,0.0,0.0,0.0,1.0,0.0,0.0,0.0,1.0,0.24908203125,-0.496966552734,10.3716320801,0.1,0.0,0.0,0.0,0.1,0.0,0.0,0.0,0.1
1452010579719196573,98,1452010579715964078,robocape,5.84046186454,-1.15766653871,-9.91675431893,0.0,10.0,0.0,0.0,0.0,10.0,0.0,0.0,0.0,10.0,-0.00119842249054,0.0110521185238,0.00439421579863,1.0,0.0,0.0,0.0,1.0,0.0,0.0,0.0,1.0,0.164058837891,-0.374820556641,10.3285217285,0.1,0.0,0.0,0.0,0.1,0.0,0.0,0.0,0.1
1452010579750227823,99,1452010579747248888,robocape,5.80826525912,-1.14271929563,-9.89589440486,0.0,10.0,0.0,0.0,0.0,10.0,0.0,0.0,0.0,10.0,-0.0121173829599,0.00759000910673,0.00226368692657,1.0,0.0,0.0,0.0,1.0,0.0,0.0,0.0,1.0,0.190404052734,-0.403560791016,10.3596569824,0.1,0.0,0.0,0.0,0.1,0.0,0.0,0.0,0.1
1452010579783573490,100,1452010579780579090,robocape,5.77614375294,-1.12919880801,-9.87623958173,0.0,10.0,0.0,0.0,0.0,10.0,0.0,0.0,0.0,10.0,-0.0121173829599,0.0067910607797,0.00173105470855,1.0,0.0,0.0,0.0,1.0,0.0,0.0,0.0,1.0,0.186811523438,-0.528101806641,10.4003723145,0.1,0.0,0.0,0.0,0.1,0.0,0.0,0.0,0.1
1452010579816952615,101,1452010579813787937,robocape,5.78334695906,-1.10782659448,-9.87341054914,0.0,10.0,0.0,0.0,0.0,10.0,0.0,0.0,0.0,10.0,0.00838895743375,0.0099868540878,-0.00759000910673,1.0,0.0,0.0,0.0,1.0,0.0,0.0,0.0,1.0,0.251477050781,-0.700543212891,10.4003723145,0.1,0.0,0.0,0.0,0.1,0.0,0.0,0.0,0.1
1452010579850632782,102,1452010579847580909,robocape,5.81932309816,-1.09071735312,-9.8987541409,0.0,10.0,0.0,0.0,0.0,10.0,0.0,0.0,0.0,10.0,0.0233026595382,0.00625842856169,-0.0222373951022,1.0,0.0,0.0,0.0,1.0,0.0,0.0,0.0,1.0,0.205971679688,-0.359252929688,10.3943847656,0.1,0.0,0.0,0.0,0.1,0.0,0.0,0.0,0.1
1452010579883479698,103,1452010579880430936,robocape,5.85211719672,-1.08149138848,-9.93675398427,0.0,10.0,0.0,0.0,0.0,10.0,0.0,0.0,0.0,10.0,0.0215716048296,0.00146473859954,-0.0284958236638,1.0,0.0,0.0,0.0,1.0,0.0,0.0,0.0,1.0,0.0706530761719,-0.323327636719,10.3129541016,0.1,0.0,0.0,0.0,0.1,0.0,0.0,0.0,0.1
1452010579916763032,104,1452010579913736104,robocape,5.85300140198,-1.08580188511,-9.99696219816,0.0,10.0,0.0,0.0,0.0,10.0,0.0,0.0,0.0,10.0,0.00466053190764,-0.0067910607797,-0.0394147841332,1.0,0.0,0.0,0.0,1.0,0.0,0.0,0.0,1.0,0.159268798828,-0.104183349609,10.2219433594,0.1,0.0,0.0,0.0,0.1,0.0,0.0,0.0,0.1
1452010579950371240,105,1452010579947137117,robocape,5.78652704775,-1.10794553754,-10.0581290106,0.0,10.0,0.0,0.0,0.0,10.0,0.0,0.0,0.0,10.0,-0.0307595105904,-0.016112124595,-0.0388821519152,1.0,0.0,0.0,0.0,1.0,0.0,0.0,0.0,1.0,0.143701171875,-0.265847167969,10.3189416504,0.1,0.0,0.0,0.0,0.1,0.0,0.0,0.0,0.1
1452010579983698532,106,1452010579980482101,robocape,5.66210134727,-1.13795736695,-10.0981369811,0.0,10.0,0.0,0.0,0.0,10.0,0.0,0.0,0.0,10.0,-0.0611195470173,-0.0190416017941,-0.0272974011733,1.0,0.0,0.0,0.0,1.0,0.0,0.0,0.0,1.0,0.0969982910156,-0.415535888672,10.2758312988,0.1,0.0,0.0,0.0,0.1,0.0,0.0,0.0,0.1
1452010580017227074,107,1452010580013850927,robocape,5.52783204063,-1.16579610866,-10.1271980005,0.0,10.0,0.0,0.0,0.0,10.0,0.0,0.0,0.0,10.0,-0.066312711143,-0.0173105470855,-0.0217047628841,1.0,0.0,0.0,0.0,1.0,0.0,0.0,0.0,1.0,0.382005615234,-0.737666015625,10.4949755859,0.1,0.0,0.0,0.0,0.1,0.0,0.0,0.0,0.1
1452010580050893282,108,1452010580047276973,robocape,5.43202557593,-1.18374940959,-10.1398633414,0.0,10.0,0.0,0.0,0.0,10.0,0.0,0.0,0.0,10.0,-0.0460726868584,-0.0113184346328,-0.0137152796139,1.0,0.0,0.0,0.0,1.0,0.0,0.0,0.0,1.0,0.362845458984,-1.09572143555,10.6111340332,0.1,0.0,0.0,0.0,0.1,0.0,0.0,0.0,0.1
1452010580083983615,109,1452010580080544948,robocape,5.3918156229,-1.17742323454,-10.1340441257,0.0,10.0,0.0,0.0,0.0,10.0,0.0,0.0,0.0,10.0,-0.0167779148675,0.00226368692657,-0.00532632218016,1.0,0.0,0.0,0.0,1.0,0.0,0.0,0.0,1.0,0.452658691406,-1.10889404297,10.5991589355,0.1,0.0,0.0,0.0,0.1,0.0,0.0,0.0,0.1
1452010580116816865,110,1452010580113600015,robocape,5.40861689107,-1.15156807319,-10.1082147066,0.0,10.0,0.0,0.0,0.0,10.0,0.0,0.0,0.0,10.0,0.0133158054504,0.0134489635049,0.00412789968962,1.0,0.0,0.0,0.0,1.0,0.0,0.0,0.0,1.0,0.397573242188,-1.02506835938,10.560838623,0.1,0.0,0.0,0.0,0.1,0.0,0.0,0.0,0.1
1452010580150533907,111,1452010580147130012,robocape,5.47039042421,-1.10533192903,-10.0744872522,0.0,10.0,0.0,0.0,0.0,10.0,0.0,0.0,0.0,10.0,0.0370179391521,0.0245010820287,0.00719053494321,1.0,0.0,0.0,0.0,1.0,0.0,0.0,0.0,1.0,0.336500244141,-0.865799560547,10.5249133301,0.1,0.0,0.0,0.0,0.1,0.0,0.0,0.0,0.1
1452010580184277324,112,1452010580181170940,robocape,5.55183068884,-1.0570165544,-10.0394524513,0.0,10.0,0.0,0.0,0.0,10.0,0.0,0.0,0.0,10.0,0.0474042674034,0.0256995045193,0.00772316716123,1.0,0.0,0.0,0.0,1.0,0.0,0.0,0.0,1.0,0.28740234375,-0.605939941406,10.3943847656,0.1,0.0,0.0,0.0,0.1,0.0,0.0,0.0,0.1
1452010580217144532,113,1452010580214139938,robocape,5.61573286389,-1.01455194012,-10.0083251575,0.0,10.0,0.0,0.0,0.0,10.0,0.0,0.0,0.0,10.0,0.0382163616426,0.0225037112112,0.00599211245268,1.0,0.0,0.0,0.0,1.0,0.0,0.0,0.0,1.0,0.202379150391,-0.404758300781,10.3644470215,0.1,0.0,0.0,0.0,0.1,0.0,0.0,0.0,0.1
1452010580250299074,114,1452010580247298955,robocape,5.64868345625,-0.981550721209,-9.98053154927,0.0,10.0,0.0,0.0,0.0,10.0,0.0,0.0,0.0,10.0,0.0219710789932,0.01744370514,0.00479368996214,1.0,0.0,0.0,0.0,1.0,0.0,0.0,0.0,1.0,0.148491210938,-0.341290283203,10.3189416504,0.1,0.0,0.0,0.0,0.1,0.0,0.0,0.0,0.1
1452010580283660865,115,1452010580280535936,robocape,5.64565297376,-0.959322490811,-9.95549451914,0.0,10.0,0.0,0.0,0.0,10.0,0.0,0.0,0.0,10.0,0.00306263525359,0.0117179087963,0.00399474163512,1.0,0.0,0.0,0.0,1.0,0.0,0.0,0.0,1.0,0.147293701172,-0.320932617188,10.3273242188,0.1,0.0,0.0,0.0,0.1,0.0,0.0,0.0,0.1
1452010580317265324,116,1452010580314256906,robocape,5.60899194319,-0.947185104059,-9.93467278724,0.0,10.0,0.0,0.0,0.0,10.0,0.0,0.0,0.0,10.0,-0.0146473859954,0.00625842856169,0.00239684498107,1.0,0.0,0.0,0.0,1.0,0.0,0.0,0.0,1.0,0.178428955078,-0.399968261719,10.362052002,0.1,0.0,0.0,0.0,0.1,0.0,0.0,0.0,0.1
1452010580351593282,117,1452010580348499059,robocape,5.54885004829,-0.942563786113,-9.91548619997,0.0,10.0,0.0,0.0,0.0,10.0,0.0,0.0,0.0,10.0,-0.0270310850643,0.00226368692657,0.00199737081756,1.0,0.0,0.0,0.0,1.0,0.0,0.0,0.0,1.0,0.219144287109,-0.514929199219,10.387199707,0.1,0.0,0.0,0.0,0.1,0.0,0.0,0.0,0.1
1452010580384957574,118,1452010580381664991,robocape,5.49058880198,-0.938873610866,-9.89718574052,0.0,10.0,0.0,0.0,0.0,10.0,0.0,0.0,0.0,10.0,-0.0260989786828,0.00173105470855,0.00159789665405,1.0,0.0,0.0,0.0,1.0,0.0,0.0,0.0,1.0,0.313747558594,-0.63228515625,10.4554577637,0.1,0.0,0.0,0.0,0.1,0.0,0.0,0.0,0.1
1452010580418389157,119,1452010580415374040,robocape,5.4521617646,-0.927715178295,-9.87687248841,0.0,10.0,0.0,0.0,0.0,10.0,0.0,0.0,0.0,10.0,-0.0157126504315,0.00572579634367,0.00226368692657,1.0,0.0,0.0,0.0,1.0,0.0,0.0,0.0,1.0,0.314945068359,-0.832269287109,10.484197998,0.1,0.0,0.0,0.0,0.1,0.0,0.0,0.0,0.1
1452010580452227574,120,1452010580448698043,robocape,5.44541840648,-0.907826964408,-9.85185358753,0.0,10.0,0.0,0.0,0.0,10.0,0.0,0.0,0.0,10.0,0.000932106381528,0.0105194863058,0.00426105774413,1.0,0.0,0.0,0.0,1.0,0.0,0.0,0.0,1.0,0.343685302734,-0.831071777344,10.5141357422,0.1,0.0,0.0,0.0,0.1,0.0,0.0,0.0,0.1
1452010580485749449,121,1452010580482141971,robocape,5.46881446165,-0.877797125517,-9.82376969265,0.0,10.0,0.0,0.0,0.0,10.0,0.0,0.0,0.0,10.0,0.0167779148675,0.0159789665405,0.00532632218016,1.0,0.0,0.0,0.0,1.0,0.0,0.0,0.0,1.0,0.293389892578,-0.780776367188,10.5045556641,0.1,0.0,0.0,0.0,0.1,0.0,0.0,0.0,0.1
1452010580518954532,122,1452010580515407085,robocape,5.50711500576,-0.842911782606,-9.79367092381,0.0,10.0,0.0,0.0,0.0,10.0,0.0,0.0,0.0,10.0,0.0246342400832,0.0186421276306,0.00612527050718,1.0,0.0,0.0,0.0,1.0,0.0,0.0,0.0,1.0,0.280217285156,-0.626297607422,10.4159399414,0.1,0.0,0.0,0.0,0.1,0.0,0.0,0.0,0.1
1452010580551634115,123,1452010580548254013,robocape,5.53930991124,-0.80994204922,-9.7655741283,0.0,10.0,0.0,0.0,0.0,10.0,0.0,0.0,0.0,10.0,0.0214384467751,0.0175768631945,0.00519316412565,1.0,0.0,0.0,0.0,1.0,0.0,0.0,0.0,1.0,0.223934326172,-0.518521728516,10.407557373,0.1,0.0,0.0,0.0,0.1,0.0,0.0,0.0,0.1
1452010580585693699,124,1452010580582154989,robocape,5.55425916742,-0.782695140209,-9.73964448062,0.0,10.0,0.0,0.0,0.0,10.0,0.0,0.0,0.0,10.0,0.0123836990689,0.0145142279409,0.00439421579863,1.0,0.0,0.0,0.0,1.0,0.0,0.0,0.0,1.0,0.208366699219,-0.457448730469,10.3848046875,0.1,0.0,0.0,0.0,0.1,0.0,0.0,0.0,0.1
1452010580621345824,125,1452010580617969989,robocape,5.54767796521,-0.761179963706,-9.71565944114,0.0,10.0,0.0,0.0,0.0,10.0,0.0,0.0,0.0,10.0,0.00106526443603,0.0114515926873,0.00372842552611,1.0,0.0,0.0,0.0,1.0,0.0,0.0,0.0,1.0,0.188009033203,-0.453856201172,10.3967797852,0.1,0.0,0.0,0.0,0.1,0.0,0.0,0.0,0.1
1452010580654862657,126,1452010580650449037,robocape,5.52314444425,-0.746140550801,-9.69368278263,0.0,10.0,0.0,0.0,0.0,10.0,0.0,0.0,0.0,10.0,-0.00838895743375,0.00798948327024,0.00306263525359,1.0,0.0,0.0,0.0,1.0,0.0,0.0,0.0,1.0,0.217946777344,-0.511336669922,10.4015698242,0.1,0.0,0.0,0.0,0.1,0.0,0.0,0.0,0.1
1452010580687818032,127,1452010580684068918,robocape,5.48878411771,-0.734075104148,-9.67283825565,0.0,10.0,0.0,0.0,0.0,10.0,0.0,0.0,0.0,10.0,-0.0135821215594,0.00639158661619,0.00266316109008,1.0,0.0,0.0,0.0,1.0,0.0,0.0,0.0,1.0,0.264649658203,-0.586779785156,10.4243225098,0.1,0.0,0.0,0.0,0.1,0.0,0.0,0.0,0.1
1452010580721227741,128,1452010580717948913,robocape,5.45828538918,-0.721236078153,-9.65220510192,0.0,10.0,0.0,0.0,0.0,10.0,0.0,0.0,0.0,10.0,-0.0115847507418,0.0067910607797,0.00253000303558,1.0,0.0,0.0,0.0,1.0,0.0,0.0,0.0,1.0,0.276624755859,-0.67060546875,10.4578527832,0.1,0.0,0.0,0.0,0.1,0.0,0.0,0.0,0.1
1452010580755181866,129,1452010580750814914,robocape,5.44682430373,-0.702512036219,-9.62921052606,0.0,10.0,0.0,0.0,0.0,10.0,0.0,0.0,0.0,10.0,-0.00159789665405,0.0099868540878,0.0034621094171,1.0,0.0,0.0,0.0,1.0,0.0,0.0,0.0,1.0,0.293389892578,-0.736468505859,10.479407959,0.1,0.0,0.0,0.0,0.1,0.0,0.0,0.0,0.1
1452010580788417157,130,1452010580785027980,robocape,5.45335905692,-0.678192904409,-9.60363046927,0.0,10.0,0.0,0.0,0.0,10.0,0.0,0.0,0.0,10.0,0.00785632521573,0.0130494893414,0.00452737385313,1.0,0.0,0.0,0.0,1.0,0.0,0.0,0.0,1.0,0.293389892578,-0.730480957031,10.4985681152,0.1,0.0,0.0,0.0,0.1,0.0,0.0,0.0,0.1
1452010580821639866,131,1452010580818195104,robocape,5.47229946197,-0.649965085487,-9.57665364115,0.0,10.0,0.0,0.0,0.0,10.0,0.0,0.0,0.0,10.0,0.0143810698864,0.0151800182135,0.00506000607115,1.0,0.0,0.0,0.0,1.0,0.0,0.0,0.0,1.0,0.264649658203,-0.656235351563,10.4686303711,0.1,0.0,0.0,0.0,0.1,0.0,0.0,0.0,0.1
1452010580854027824,132,1452010580850750923,robocape,5.49274422856,-0.621507748518,-9.54993383061,0.0,10.0,0.0,0.0,0.0,10.0,0.0,0.0,0.0,10.0,0.0151800182135,0.015313176268,0.00492684801665,1.0,0.0,0.0,0.0,1.0,0.0,0.0,0.0,1.0,0.237106933594,-0.568817138672,10.4243225098,0.1,0.0,0.0,0.0,0.1,0.0,0.0,0.0,0.1
1452010580887004741,133,1452010580883198976,robocape,5.52835639988,-0.59329646579,-9.52117704986,0.0,10.0,0.0,0.0,0.0,10.0,0.0,0.0,0.0,10.0,0.0231695014837,0.015313176268,0.00599211245268,1.0,0.0,0.0,0.0,1.0,0.0,0.0,0.0,1.0,-0.564027099609,-0.659827880859,10.4530627441,0.1,0.0,0.0,0.0,0.1,0.0,0.0,0.0,0.1
1452010580921769407,134,1452010580917988061,robocape,5.5885734606,-0.577603477225,-9.46415466422,0.0,10.0,0.0,0.0,0.0,10.0,0.0,0.0,0.0,10.0,0.0362189908251,0.0102531701968,0.0214384467751,1.0,0.0,0.0,0.0,1.0,0.0,0.0,0.0,1.0,-0.714913330078,-0.675395507813,10.7847729492,0.1,0.0,0.0,0.0,0.1,0.0,0.0,0.0,0.1
1452010580954422366,135,1452010580950489997,robocape,5.62011480077,-0.565691638541,-9.36966608375,0.0,10.0,0.0,0.0,0.0,10.0,0.0,0.0,0.0,10.0,0.0213052887206,0.0102531701968,0.0414121549507,1.0,0.0,0.0,0.0,1.0,0.0,0.0,0.0,1.0,-1.71483398438,-1.18673217773,10.8554260254,0.1,0.0,0.0,0.0,0.1,0.0,0.0,0.0,0.1
1452010580988523366,136,1452010580984930992,robocape,5.61544251658,-0.548063112891,-9.41330224137,0.0,10.0,0.0,0.0,0.0,10.0,0.0,0.0,0.0,10.0,0.00186421276306,0.00612527050718,-0.0312921428084,1.0,0.0,0.0,0.0,1.0,0.0,0.0,0.0,1.0,-3.6751574707,-1.6441809082,10.5213208008,0.1,0.0,0.0,0.0,0.1,0.0,0.0,0.0,0.1
1452010581020665741,137,1452010581017143011,robocape,5.70591851496,-0.580608962554,-9.39601353756,0.0,10.0,0.0,0.0,0.0,10.0,0.0,0.0,0.0,10.0,0.052064799311,-0.016911072922,0.00306263525359,1.0,0.0,0.0,0.0,1.0,0.0,0.0,0.0,1.0,-6.25579101563,-1.40827148438,10.3225341797,0.1,0.0,0.0,0.0,0.1,0.0,0.0,0.0,0.1
1452010581054640449,138,1452010581051064014,robocape,5.71497406903,-0.687189569954,-9.5681804547,0.0,10.0,0.0,0.0,0.0,10.0,0.0,0.0,0.0,10.0,0.00865527354276,-0.0655137628159,-0.0924116898257,1.0,0.0,0.0,0.0,1.0,0.0,0.0,0.0,1.0,-7.89518188477,-1.68369873047,11.3320349121,0.1,0.0,0.0,0.0,0.1,0.0,0.0,0.0,0.1
1452010581086606366,139,1452010581082856893,robocape,5.75602216901,-0.715710357188,-9.66677007426,0.0,10.0,0.0,0.0,0.0,10.0,0.0,0.0,0.0,10.0,0.0256995045193,-0.0210389726116,-0.0580569117637,1.0,0.0,0.0,0.0,1.0,0.0,0.0,0.0,1.0,-9.55732543945,-2.80576538086,9.88783813477,0.1,0.0,0.0,0.0,0.1,0.0,0.0,0.0,0.1
1452010581120294574,140,1452010581117084026,robocape,5.7820466815,-0.74036778845,-9.90978575747,0.0,10.0,0.0,0.0,0.0,10.0,0.0,0.0,0.0,10.0,0.017177389031,-0.0267647689553,-0.13422331894,1.0,0.0,0.0,0.0,1.0,0.0,0.0,0.0,1.0,-8.87115234375,-2.04534667969,12.0840710449,0.1,0.0,0.0,0.0,0.1,0.0,0.0,0.0,0.1
1452010581153170699,141,1452010581149962902,robocape,5.85348656484,-0.731500976412,-10.1109909444,0.0,10.0,0.0,0.0,0.0,10.0,0.0,0.0,0.0,10.0,0.0412789968962,-0.00719053494321,-0.114382768819,1.0,0.0,0.0,0.0,1.0,0.0,0.0,0.0,1.0,-5.50974243164,-1.78668457031,10.1261425781,0.1,0.0,0.0,0.0,0.1,0.0,0.0,0.0,0.1
1452010581187065074,142,1452010581183971881,robocape,6.05599250453,-0.785515566708,-10.254873264,0.0,10.0,0.0,0.0,0.0,10.0,0.0,0.0,0.0,10.0,0.110521185238,-0.0371510972066,-0.0813595713019,1.0,0.0,0.0,0.0,1.0,0.0,0.0,0.0,1.0,-7.28684692383,-1.93996582031,11.4446008301,0.1,0.0,0.0,0.0,0.1,0.0,0.0,0.0,0.1
1452010581219954782,143,1452010581216852903,robocape,6.1691612695,-0.735543202853,-10.6877950937,0.0,10.0,0.0,0.0,0.0,10.0,0.0,0.0,0.0,10.0,0.0624511275624,0.000532632218016,-0.239018707835,1.0,0.0,0.0,0.0,1.0,0.0,0.0,0.0,1.0,-9.05796386719,-1.17475708008,9.7369519043,0.1,0.0,0.0,0.0,0.1,0.0,0.0,0.0,0.1
1452010581252351116,144,1452010581249346017,robocape,6.60090937935,-0.758347907524,-10.9242150826,0.0,10.0,0.0,0.0,0.0,10.0,0.0,0.0,0.0,10.0,0.231162382619,-0.0270310850643,-0.132891738395,1.0,0.0,0.0,0.0,1.0,0.0,0.0,0.0,1.0,-7.17308349609,-2.05732177734,10.9655969238,0.1,0.0,0.0,0.0,0.1,0.0,0.0,0.0,0.1
1452010581286516907,145,1452010581283395051,robocape,7.17327022844,-0.691021540086,-11.3312843592,0.0,10.0,0.0,0.0,0.0,10.0,0.0,0.0,0.0,10.0,0.305198260923,0.00785632521573,-0.228898695692,1.0,0.0,0.0,0.0,1.0,0.0,0.0,0.0,1.0,-8.02930297852,-2.88839355469,10.6087390137,0.1,0.0,0.0,0.0,0.1,0.0,0.0,0.0,0.1
1452010581320471408,146,1452010581317224025,robocape,8.38696803288,0.221451977056,-12.6240458761,0.0,10.0,0.0,0.0,0.0,10.0,0.0,0.0,0.0,10.0,0.647547619053,0.380565719772,-0.758068804291,1.0,0.0,0.0,0.0,1.0,0.0,0.0,0.0,1.0,-9.87466552734,0.0299377441406,10.5668261719,0.1,0.0,0.0,0.0,0.1,0.0,0.0,0.0,0.1
1452010581353103783,147,1452010581349766016,robocape,10.0984758571,0.316475822178,-12.6179420717,0.0,10.0,0.0,0.0,0.0,10.0,0.0,0.0,0.0,10.0,0.910934250862,0.0487358479485,-0.0233026595382,1.0,0.0,0.0,0.0,1.0,0.0,0.0,0.0,1.0,-4.31223266602,-5.40196655273,5.5145324707,0.1,0.0,0.0,0.0,0.1,0.0,0.0,0.0,0.1
1452010581385641074,148,1452010581382344007,robocape,12.2247188591,0.462658304463,-12.9822063226,0.0,10.0,0.0,0.0,0.0,10.0,0.0,0.0,0.0,10.0,1.13876768212,0.0367516230431,-0.227567115147,1.0,0.0,0.0,0.0,1.0,0.0,0.0,0.0,1.0,-6.43901000977,-0.496966552734,11.2242590332,0.1,0.0,0.0,0.0,0.1,0.0,0.0,0.0,0.1
1452010581421147366,149,1452010581418025016,robocape,13.3822435143,0.757177181349,-12.3850740786,0.0,10.0,0.0,0.0,0.0,10.0,0.0,0.0,0.0,10.0,0.619184953443,0.219044999659,0.255397148539,1.0,0.0,0.0,0.0,1.0,0.0,0.0,0.0,1.0,-4.46551391602,0.17244140625,9.76449462891,0.1,0.0,0.0,0.0,0.1,0.0,0.0,0.0,0.1
1452010581452069991,150,1452010581448896884,robocape,14.9613027707,1.75557575771,-12.3235642445,0.0,10.0,0.0,0.0,0.0,10.0,0.0,0.0,0.0,10.0,0.854342077697,0.51532167093,-0.120508039326,1.0,0.0,0.0,0.0,1.0,0.0,0.0,0.0,1.0,-1.55077514648,0.347277832031,9.59085571289,0.1,0.0,0.0,0.0,0.1,0.0,0.0,0.0,0.1
1452010581484972366,151,1452010581481766939,robocape,16.7492905602,2.72697633728,-12.4367873457,0.0,10.0,0.0,0.0,0.0,10.0,0.0,0.0,0.0,10.0,0.977246962005,0.475507412634,-0.225436586275,1.0,0.0,0.0,0.0,1.0,0.0,0.0,0.0,1.0,-3.82245117188,1.78548706055,11.0530151367,0.1,0.0,0.0,0.0,0.1,0.0,0.0,0.0,0.1
1452010581517329574,152,1452010581514218091,robocape,18.2072386575,3.30746843632,-11.7054571926,0.0,10.0,0.0,0.0,0.0,10.0,0.0,0.0,0.0,10.0,0.776045141649,0.407729962891,0.251668723012,1.0,0.0,0.0,0.0,1.0,0.0,0.0,0.0,1.0,-2.39980957031,0.335302734375,8.28916259766,0.1,0.0,0.0,0.0,0.1,0.0,0.0,0.0,0.1
1452010581551130908,153,1452010581548122882,robocape,19.350305111,4.21355824127,-10.6928781799,0.0,10.0,0.0,0.0,0.0,10.0,0.0,0.0,0.0,10.0,0.595482819742,0.623712327297,0.329566184897,1.0,0.0,0.0,0.0,1.0,0.0,0.0,0.0,1.0,-2.57464599609,2.05492675781,10.3045715332,0.1,0.0,0.0,0.0,0.1,0.0,0.0,0.0,0.1
1452010581584112074,154,1452010581580753087,robocape,19.9401717124,5.03983734135,-9.65669370584,0.0,10.0,0.0,0.0,0.0,10.0,0.0,0.0,0.0,10.0,0.291083507146,0.593751765033,0.350205683345,1.0,0.0,0.0,0.0,1.0,0.0,0.0,0.0,1.0,-1.94236083984,0.189206542969,9.06275390625,0.1,0.0,0.0,0.0,0.1,0.0,0.0,0.0,0.1
1452010581617200033,155,1452010581614151954,robocape,20.7559316067,5.77905077367,-8.59687771913,0.0,10.0,0.0,0.0,0.0,10.0,0.0,0.0,0.0,10.0,0.406931014564,0.561660673898,0.368581494867,1.0,0.0,0.0,0.0,1.0,0.0,0.0,0.0,1.0,-5.3265234375,1.18074462891,10.7524401855,0.1,0.0,0.0,0.0,0.1,0.0,0.0,0.0,0.1
1452010581650402574,156,1452010581647291898,robocape,21.3457292569,6.66123689465,-7.66544265284,0.0,10.0,0.0,0.0,0.0,10.0,0.0,0.0,0.0,10.0,0.288952978274,0.613325999045,0.272840853679,1.0,0.0,0.0,0.0,1.0,0.0,0.0,0.0,1.0,-3.05364990234,0.512534179688,9.88903564453,0.1,0.0,0.0,0.0,0.1,0.0,0.0,0.0,0.1
1452010581684367074,157,1452010581681165933,robocape,22.3386942986,7.56664049219,-6.54445143995,0.0,10.0,0.0,0.0,0.0,10.0,0.0,0.0,0.0,10.0,0.490421114738,0.668986065828,0.348740944746,1.0,0.0,0.0,0.0,1.0,0.0,0.0,0.0,1.0,-4.02123779297,2.40938964844,12.0493432617,0.1,0.0,0.0,0.0,0.1,0.0,0.0,0.0,0.1
1452010581717127408,158,1452010581713737964,robocape,23.1452239484,8.40950026222,-5.03411239984,0.0,10.0,0.0,0.0,0.0,10.0,0.0,0.0,0.0,10.0,0.352602528326,0.722781919848,0.539822752959,1.0,0.0,0.0,0.0,1.0,0.0,0.0,0.0,1.0,-7.02459228516,0.914897460938,9.04479125977,0.1,0.0,0.0,0.0,0.1,0.0,0.0,0.0,0.1
1452010581750367324,159,1452010581747370958,robocape,23.8603681171,9.37635695114,-3.48779072813,0.0,10.0,0.0,0.0,0.0,10.0,0.0,0.0,0.0,10.0,0.292814561854,0.799214643133,0.521446941438,1.0,0.0,0.0,0.0,1.0,0.0,0.0,0.0,1.0,-3.35063232422,7.61496459961,9.41003173828,0.1,0.0,0.0,0.0,0.1,0.0,0.0,0.0,0.1
1452010581783618408,160,1452010581780474901,robocape,23.3111758413,10.0703331765,-2.77564766232,0.0,10.0,0.0,0.0,0.0,10.0,0.0,0.0,0.0,10.0,-0.332096187933,0.487491637539,0.187486540742,1.0,0.0,0.0,0.0,1.0,0.0,0.0,0.0,1.0,0.726888427734,4.4834765625,8.12630126953,0.1,0.0,0.0,0.0,0.1,0.0,0.0,0.0,0.1
1452010581816726991,161,1452010581813724040,robocape,23.0587000503,10.4826164224,-1.85723158457,0.0,10.0,0.0,0.0,0.0,10.0,0.0,0.0,0.0,10.0,-0.196141814284,0.394280999386,0.346077783656,1.0,0.0,0.0,0.0,1.0,0.0,0.0,0.0,1.0,-5.76720703125,0.726888427734,11.5619567871,0.1,0.0,0.0,0.0,0.1,0.0,0.0,0.0,0.1
1452010581850359283,162,1452010581847033023,robocape,23.0919628092,10.8228118595,-1.07843757776,0.0,10.0,0.0,0.0,0.0,10.0,0.0,0.0,0.0,10.0,-0.0292947719909,0.33409355875,0.294678774617,1.0,0.0,0.0,0.0,1.0,0.0,0.0,0.0,1.0,-1.17834960938,2.62494140625,8.04606811523,0.1,0.0,0.0,0.0,0.1,0.0,0.0,0.0,0.1
1452010581883761658,163,1452010581880615949,robocape,22.9781647294,11.3598859783,-0.299092896322,0.0,10.0,0.0,0.0,0.0,10.0,0.0,0.0,0.0,10.0,-0.110254869129,0.429168409666,0.25513083243,1.0,0.0,0.0,0.0,1.0,0.0,0.0,0.0,1.0,-2.31358886719,3.79131591797,9.87825805664,0.1,0.0,0.0,0.0,0.1,0.0,0.0,0.0,0.1
1452010581917008533,164,1452010581913983106,robocape,22.8130750496,11.9296902669,0.542598298281,0.0,10.0,0.0,0.0,0.0,10.0,0.0,0.0,0.0,10.0,-0.148071756608,0.457264759167,0.27909928224,1.0,0.0,0.0,0.0,1.0,0.0,0.0,0.0,1.0,-2.98179931641,1.75794433594,8.98491577148,0.1,0.0,0.0,0.0,0.1,0.0,0.0,0.0,0.1
1452010581951019074,165,1452010581947644948,robocape,22.6666565247,12.4126485392,1.38287022018,0.0,10.0,0.0,0.0,0.0,10.0,0.0,0.0,0.0,10.0,-0.142079644156,0.414920497834,0.297341935707,1.0,0.0,0.0,0.0,1.0,0.0,0.0,0.0,1.0,-1.94355834961,2.77702514648,11.3715527344,0.1,0.0,0.0,0.0,0.1,0.0,0.0,0.0,0.1
1452010581983807199,166,1452010581980590105,robocape,22.7331046278,13.038207666,2.31799655707,0.0,10.0,0.0,0.0,0.0,10.0,0.0,0.0,0.0,10.0,-0.0391484680242,0.506932713497,0.313454060302,1.0,0.0,0.0,0.0,1.0,0.0,0.0,0.0,1.0,-2.9470715332,1.78907958984,9.23998535156,0.1,0.0,0.0,0.0,0.1,0.0,0.0,0.0,0.1
1452010582016965825,167,1452010582013861894,robocape,22.0005985927,13.5098593299,3.47685454617,0.0,10.0,0.0,0.0,0.0,10.0,0.0,0.0,0.0,10.0,-0.506799555442,0.463789503837,0.452604227259,1.0,0.0,0.0,0.0,1.0,0.0,0.0,0.0,1.0,-0.621507568359,1.14841186523,10.080637207,0.1,0.0,0.0,0.0,0.1,0.0,0.0,0.0,0.1
1452010582050529783,168,1452010582047164916,robocape,21.5367571117,14.0728783722,4.73282182149,0.0,10.0,0.0,0.0,0.0,10.0,0.0,0.0,0.0,10.0,-0.376570978137,0.527305895836,0.48576058283,1.0,0.0,0.0,0.0,1.0,0.0,0.0,0.0,1.0,-2.18904785156,4.61999267578,10.9548193359,0.1,0.0,0.0,0.0,0.1,0.0,0.0,0.0,0.1
1452010582083481658,169,1452010582080387115,robocape,20.6363157728,14.8295087665,5.41196526942,0.0,10.0,0.0,0.0,0.0,10.0,0.0,0.0,0.0,10.0,-0.542885388213,0.50733218766,0.180828638016,1.0,0.0,0.0,0.0,1.0,0.0,0.0,0.0,1.0,-2.94347900391,2.77702514648,12.2098095703,0.1,0.0,0.0,0.0,0.1,0.0,0.0,0.0,0.1
1452010582116903366,170,1452010582113845109,robocape,19.6527880466,15.135029983,6.28782466655,0.0,10.0,0.0,0.0,0.0,10.0,0.0,0.0,0.0,10.0,-0.621581798424,0.313187744193,0.362988856578,1.0,0.0,0.0,0.0,1.0,0.0,0.0,0.0,1.0,-2.59500366211,-0.492176513672,10.2027832031,0.1,0.0,0.0,0.0,0.1,0.0,0.0,0.0,0.1
1452010582150500950,171,1452010582147109031,robocape,19.2272332476,15.2630952985,6.83152214268,0.0,10.0,0.0,0.0,0.0,10.0,0.0,0.0,0.0,10.0,-0.279498756404,0.170841783929,0.240749762543,1.0,0.0,0.0,0.0,1.0,0.0,0.0,0.0,1.0,-3.47038330078,-2.69798950195,8.71906860352,0.1,0.0,0.0,0.0,0.1,0.0,0.0,0.0,0.1
1452010582184560616,172,1452010582181041955,robocape,19.8786128434,15.4504419865,7.24574343377,0.0,10.0,0.0,0.0,0.0,10.0,0.0,0.0,0.0,10.0,0.317848276101,0.192679704867,0.172439680583,1.0,0.0,0.0,0.0,1.0,0.0,0.0,0.0,1.0,-1.61424316406,-2.92431884766,8.69152587891,0.1,0.0,0.0,0.0,0.1,0.0,0.0,0.0,0.1
1452010582217397533,173,1452010582214029073,robocape,21.3351918559,15.7571382839,7.47363208224,0.0,10.0,0.0,0.0,0.0,10.0,0.0,0.0,0.0,10.0,0.781637779938,0.2335592276,0.0625842856169,1.0,0.0,0.0,0.0,1.0,0.0,0.0,0.0,1.0,0.526904296875,-3.18178344727,8.68553833008,0.1,0.0,0.0,0.0,0.1,0.0,0.0,0.0,0.1
1452010582251002283,174,1452010582247637987,robocape,23.1308242611,16.8798170698,8.27273538576,0.0,10.0,0.0,0.0,0.0,10.0,0.0,0.0,0.0,10.0,0.899482658174,0.760731965381,0.165914935912,1.0,0.0,0.0,0.0,1.0,0.0,0.0,0.0,1.0,-3.61288696289,10.6015539551,8.32269287109,0.1,0.0,0.0,0.0,0.1,0.0,0.0,0.0,0.1
1452010582283421075,175,1452010582280433893,robocape,22.4365316344,17.8553385379,9.36480341478,0.0,10.0,0.0,0.0,0.0,10.0,0.0,0.0,0.0,10.0,-0.503071129916,0.711729801324,0.313320902248,1.0,0.0,0.0,0.0,1.0,0.0,0.0,0.0,1.0,-1.88727539063,8.56937988281,6.11568237305,0.1,0.0,0.0,0.0,0.1,0.0,0.0,0.0,0.1
1452010582316950825,176,1452010582313842058,robocape,20.6101381887,18.4427745151,10.6245442026,0.0,10.0,0.0,0.0,0.0,10.0,0.0,0.0,0.0,10.0,-1.15408085839,0.5247758928,0.473110567653,1.0,0.0,0.0,0.0,1.0,0.0,0.0,0.0,1.0,-5.34089355469,4.34217041016,14.0060742188,0.1,0.0,0.0,0.0,0.1,0.0,0.0,0.0,0.1
1452010582351105450,177,1452010582347249031,robocape,18.5044944354,17.6205162537,12.6294842141,0.0,10.0,0.0,0.0,0.0,10.0,0.0,0.0,0.0,10.0,-1.43278066646,-0.0777643038303,1.08230866701,1.0,0.0,0.0,0.0,1.0,0.0,0.0,0.0,1.0,-7.50239868164,-4.35773803711,3.69312011719,0.1,0.0,0.0,0.0,0.1,0.0,0.0,0.0,0.1
1452010582384489325,178,1452010582381016016,robocape,17.2123604626,18.0166043185,13.3280434586,0.0,10.0,0.0,0.0,0.0,10.0,0.0,0.0,0.0,10.0,-0.775113035268,0.3222424919,0.276968753368,1.0,0.0,0.0,0.0,1.0,0.0,0.0,0.0,1.0,-6.59109375,0.9580078125,9.0783215332,0.1,0.0,0.0,0.0,0.1,0.0,0.0,0.0,0.1
1452010582418267700,179,1452010582415043115,robocape,15.511441594,18.0902078129,14.3243355094,0.0,10.0,0.0,0.0,0.0,10.0,0.0,0.0,0.0,10.0,-1.04382598926,0.190016543777,0.472577935435,1.0,0.0,0.0,0.0,1.0,0.0,0.0,0.0,1.0,-1.70884643555,3.17100585938,10.7739953613,0.1,0.0,0.0,0.0,0.1,0.0,0.0,0.0,0.1
1452010582451449991,180,1452010582447613000,robocape,13.4943881876,18.0284571709,15.0749971438,0.0,10.0,0.0,0.0,0.0,10.0,0.0,0.0,0.0,10.0,-1.17325561823,0.0712395591596,0.375505713701,1.0,0.0,0.0,0.0,1.0,0.0,0.0,0.0,1.0,-0.131726074219,1.33642089844,8.79211669922,0.1,0.0,0.0,0.0,0.1,0.0,0.0,0.0,0.1
1452010582483486241,181,1452010582480329036,robocape,11.2124792287,17.8793760351,15.7102244485,0.0,10.0,0.0,0.0,0.0,10.0,0.0,0.0,0.0,10.0,-1.29416313172,-0.000798948327024,0.331164081551,1.0,0.0,0.0,0.0,1.0,0.0,0.0,0.0,1.0,-1.63340332031,1.18673217773,9.37171142578,0.1,0.0,0.0,0.0,0.1,0.0,0.0,0.0,0.1
1452010582517028325,182,1452010582513825893,robocape,8.70074219646,17.424278044,16.2185875571,0.0,10.0,0.0,0.0,0.0,10.0,0.0,0.0,0.0,10.0,-1.39456430482,-0.186021802142,0.294811932672,1.0,0.0,0.0,0.0,1.0,0.0,0.0,0.0,1.0,-0.999920654297,1.06817871094,9.02802612305,0.1,0.0,0.0,0.0,0.1,0.0,0.0,0.0,0.1
1452010582550508991,183,1452010582547255992,robocape,5.88513152603,16.828224276,16.7508870532,0.0,10.0,0.0,0.0,0.0,10.0,0.0,0.0,0.0,10.0,-1.55555239272,-0.269511902316,0.309326160613,1.0,0.0,0.0,0.0,1.0,0.0,0.0,0.0,1.0,0.802331542969,1.18313964844,8.94420043945,0.1,0.0,0.0,0.0,0.1,0.0,0.0,0.0,0.1
1452010582583835033,184,1452010582580775976,robocape,2.51863374271,15.9224556502,17.1351591807,0.0,10.0,0.0,0.0,0.0,10.0,0.0,0.0,0.0,10.0,-1.82000428896,-0.454068965859,0.232227647055,1.0,0.0,0.0,0.0,1.0,0.0,0.0,0.0,1.0,-1.33522338867,-0.486188964844,6.48930541992,0.1,0.0,0.0,0.0,0.1,0.0,0.0,0.0,0.1
1452010582616791700,185,1452010582613713979,robocape,-1.16212849765,14.7736264983,17.4554532237,0.0,10.0,0.0,0.0,0.0,10.0,0.0,0.0,0.0,10.0,-1.97433447413,-0.591621236161,0.178298634981,1.0,0.0,0.0,0.0,1.0,0.0,0.0,0.0,1.0,-0.615520019531,-0.192799072266,7.75627075195,0.1,0.0,0.0,0.0,0.1,0.0,0.0,0.0,0.1
1452010582651531533,186,1452010582648227930,robocape,-5.05906545378,13.4394518291,17.578896681,0.0,10.0,0.0,0.0,0.0,10.0,0.0,0.0,0.0,10.0,-2.06341721259,-0.689758722331,0.0402137324602,1.0,0.0,0.0,0.0,1.0,0.0,0.0,0.0,1.0,0.700543212891,-0.432301025391,6.5527734375,0.1,0.0,0.0,0.0,0.1,0.0,0.0,0.0,0.1
1452010582684754825,187,1452010582680814027,robocape,-8.88955774676,12.1017565631,17.5312920776,0.0,10.0,0.0,0.0,0.0,10.0,0.0,0.0,0.0,10.0,-2.01574662908,-0.677241865207,-0.0846885226645,1.0,0.0,0.0,0.0,1.0,0.0,0.0,0.0,1.0,1.66094604492,-1.54838012695,7.43653564453,0.1,0.0,0.0,0.0,0.1,0.0,0.0,0.0,0.1
1452010582717248700,188,1452010582714070081,robocape,-13.3376864883,9.62588798641,16.8795392167,0.0,10.0,0.0,0.0,0.0,10.0,0.0,0.0,0.0,10.0,-2.28326116058,-1.19868880664,-0.558997512808,1.0,0.0,0.0,0.0,1.0,0.0,0.0,0.0,1.0,3.16022827148,-1.09572143555,8.19575683594,0.1,0.0,0.0,0.0,0.1,0.0,0.0,0.0,0.1
1452010582750513575,189,1452010582747400045,robocape,-16.2225385023,9.04215625817,11.5569679757,0.0,10.0,0.0,0.0,0.0,10.0,0.0,0.0,0.0,10.0,-1.03770071875,0.396278370204,-2.75504014769,1.0,0.0,0.0,0.0,1.0,0.0,0.0,0.0,1.0,16.053815918,-19.62,19.6194012451,0.1,0.0,0.0,0.0,0.1,0.0,0.0,0.0,0.1
1452010582783829367,190,1452010582780807971,robocape,-14.3696396748,10.5219928965,9.40288415028,0.0,10.0,0.0,0.0,0.0,10.0,0.0,0.0,0.0,10.0,1.17285614407,1.03410545128,-0.876179998636,1.0,0.0,0.0,0.0,1.0,0.0,0.0,0.0,1.0,0.129331054688,-7.96343994141,11.3212573242,0.1,0.0,0.0,0.0,0.1,0.0,0.0,0.0,0.1
1452010582816844450,191,1452010582813853979,robocape,-11.7297749919,11.1999107832,8.3669154019,0.0,10.0,0.0,0.0,0.0,10.0,0.0,0.0,0.0,10.0,1.49403337153,0.458596339712,-0.446345798697,1.0,0.0,0.0,0.0,1.0,0.0,0.0,0.0,1.0,-7.73232055664,-3.35182983398,7.127578125,0.1,0.0,0.0,0.0,0.1,0.0,0.0,0.0,0.1
1452010582850625117,192,1452010582847414970,robocape,-9.48116399052,12.0191252692,7.39714974271,0.0,10.0,0.0,0.0,0.0,10.0,0.0,0.0,0.0,10.0,1.28137995849,0.51146008735,-0.411458388417,1.0,0.0,0.0,0.0,1.0,0.0,0.0,0.0,1.0,-3.50990112305,-1.57951538086,9.04359375,0.1,0.0,0.0,0.0,0.1,0.0,0.0,0.0,0.1
1452010582883611533,193,1452010582880598068,robocape,-7.26298188062,12.6739178287,6.86899338602,0.0,10.0,0.0,0.0,0.0,10.0,0.0,0.0,0.0,10.0,1.21946146315,0.380565719772,-0.21611552246,1.0,0.0,0.0,0.0,1.0,0.0,0.0,0.0,1.0,-0.549656982422,-0.736468505859,8.6639831543,0.1,0.0,0.0,0.0,0.1,0.0,0.0,0.0,0.1
