%time,field.header.seq,field.header.stamp,field.header.frame_id,field.magnetic_field.x,field.magnetic_field.y,field.magnetic_field.z,field.magnetic_field_covariance0,field.magnetic_field_covariance1,field.magnetic_field_covariance2,field.magnetic_field_covariance3,field.magnetic_field_covariance4,field.magnetic_field_covariance5,field.magnetic_field_covariance6,field.magnetic_field_covariance7,field.magnetic_field_covariance8
1452008388360812653,1,1452008388000648975,robocape_mag,11.85,-3.15,5.7,10.0,0.0,0.0,0.0,10.0,0.0,0.0,0.0,10.0
1452008388385797112,2,1452008388038798093,robocape_mag,11.85,-3.15,5.7,10.0,0.0,0.0,0.0,10.0,0.0,0.0,0.0,10.0
1452008388392137445,3,1452008388072103023,robocape_mag,11.85,-3.15,5.7,10.0,0.0,0.0,0.0,10.0,0.0,0.0,0.0,10.0
1452008388427560820,4,1452008388100011110,robocape_mag,11.55,-2.85,4.8,10.0,0.0,0.0,0.0,10.0,0.0,0.0,0.0,10.0
1452008388428601987,5,1452008388145181894,robocape_mag,11.55,-2.85,4.8,10.0,0.0,0.0,0.0,10.0,0.0,0.0,0.0,10.0
1452008388429276154,6,1452008388168669939,robocape_mag,11.55,-2.85,4.8,10.0,0.0,0.0,0.0,10.0,0.0,0.0,0.0,10.0
1452008388429326612,7,1452008388198529005,robocape_mag,11.55,-2.85,4.8,10.0,0.0,0.0,0.0,10.0,0.0,0.0,0.0,10.0
1452008388429690154,8,1452008388236241102,robocape_mag,11.55,-2.85,6.9,10.0,0.0,0.0,0.0,10.0,0.0,0.0,0.0,10.0
1452008388429742237,9,1452008388266275882,robocape_mag,12.45,-3.75,6.9,10.0,0.0,0.0,0.0,10.0,0.0,0.0,0.0,10.0
1452008388429776862,10,1452008388330248117,robocape_mag,12.45,-3.75,6.9,10.0,0.0,0.0,0.0,10.0,0.0,0.0,0.0,10.0
1452008388429809404,11,1452008388351499080,robocape_mag,12.45,-3.75,6.9,10.0,0.0,0.0,0.0,10.0,0.0,0.0,0.0,10.0
1452008388430830487,12,1452008388376362085,robocape_mag,12.45,-3.75,6.9,10.0,0.0,0.0,0.0,10.0,0.0,0.0,0.0,10.0
1452008388432190362,13,1452008388400459051,robocape_mag,11.55,-2.25,5.4,10.0,0.0,0.0,0.0,10.0,0.0,0.0,0.0,10.0
1452008388441804945,14,1452008388437361955,robocape_mag,11.55,-2.25,5.4,10.0,0.0,0.0,0.0,10.0,0.0,0.0,0.0,10.0
1452008388469210862,15,1452008388464126110,robocape_mag,11.55,-2.25,5.4,10.0,0.0,0.0,0.0,10.0,0.0,0.0,0.0,10.0
1452008388503632445,16,1452008388497550964,robocape_mag,11.55,-2.25,5.4,10.0,0.0,0.0,0.0,10.0,0.0,0.0,0.0,10.0
1452008388543119154,17,1452008388532605886,robocape_mag,11.55,-2.25,5.4,10.0,0.0,0.0,0.0,10.0,0.0,0.0,0.0,10.0
1452008388569195779,18,1452008388564369916,robocape_mag,10.95,-2.85,4.2,10.0,0.0,0.0,0.0,10.0,0.0,0.0,0.0,10.0
1452008388602304237,19,1452008388597415924,robocape_mag,10.95,-2.85,4.2,10.0,0.0,0.0,0.0,10.0,0.0,0.0,0.0,10.0
1452008388636174779,20,1452008388630610942,robocape_mag,10.95,-2.85,4.2,10.0,0.0,0.0,0.0,10.0,0.0,0.0,0.0,10.0
1452008388669182154,21,1452008388664351940,robocape_mag,10.95,-2.85,4.2,10.0,0.0,0.0,0.0,10.0,0.0,0.0,0.0,10.0
1452008388702343862,22,1452008388697432994,robocape_mag,10.95,-2.85,4.2,10.0,0.0,0.0,0.0,10.0,0.0,0.0,0.0,10.0
1452008388736180237,23,1452008388730756044,robocape_mag,10.65,-3.75,4.5,10.0,0.0,0.0,0.0,10.0,0.0,0.0,0.0,10.0
1452008388769199362,24,1452008388764226913,robocape_mag,10.65,-3.75,4.5,10.0,0.0,0.0,0.0,10.0,0.0,0.0,0.0,10.0
1452008388802346029,25,1452008388797509908,robocape_mag,10.65,-3.75,4.5,10.0,0.0,0.0,0.0,10.0,0.0,0.0,0.0,10.0
1452008388838724862,26,1452008388831873893,robocape_mag,10.65,-3.75,4.5,10.0,0.0,0.0,0.0,10.0,0.0,0.0,0.0,10.0
1452008388869812029,27,1452008388864468097,robocape_mag,10.65,-3.75,4.5,10.0,0.0,0.0,0.0,10.0,0.0,0.0,0.0,10.0
1452008388903970737,28,1452008388898905992,robocape_mag,10.95,-2.85,5.4,10.0,0.0,0.0,0.0,10.0,0.0,0.0,0.0,10.0
1452008388937803570,29,1452008388932550907,robocape_mag,10.95,-2.85,5.4,10.0,0.0,0.0,0.0,10.0,0.0,0.0,0.0,10.0
1452008388969784112,30,1452008388964885950,robocape_mag,10.95,-2.85,5.4,10.0,0.0,0.0,0.0,10.0,0.0,0.0,0.0,10.0
1452008389006238279,31,1452008388999237060,robocape_mag,10.95,-2.85,5.4,10.0,0.0,0.0,0.0,10.0,0.0,0.0,0.0,10.0
1452008389041158570,32,1452008389032437086,robocape_mag,10.95,-2.85,5.4,10.0,0.0,0.0,0.0,10.0,0.0,0.0,0.0,10.0
1452008389076843946,33,1452008389071854114,robocape_mag,10.65,-3.15,5.7,10.0,0.0,0.0,0.0,10.0,0.0,0.0,0.0,10.0
1452008389104345029,34,1452008389099133014,robocape_mag,10.65,-3.15,5.7,10.0,0.0,0.0,0.0,10.0,0.0,0.0,0.0,10.0
1452008389139572737,35,1452008389134500026,robocape_mag,10.65,-3.15,5.7,10.0,0.0,0.0,0.0,10.0,0.0,0.0,0.0,10.0
1452008389178100196,36,1452008389168534040,robocape_mag,10.65,-3.15,5.7,10.0,0.0,0.0,0.0,10.0,0.0,0.0,0.0,10.0
1452008389212682029,37,1452008389198647022,robocape_mag,-64.65,-4.65,6.0,10.0,0.0,0.0,0.0,10.0,0.0,0.0,0.0,10.0
1452008389243380029,38,1452008389235038042,robocape_mag,12.15,-4.65,6.0,10.0,0.0,0.0,0.0,10.0,0.0,0.0,0.0,10.0
1452008389273909154,39,1452008389268855094,robocape_mag,12.15,-4.65,6.0,10.0,0.0,0.0,0.0,10.0,0.0,0.0,0.0,10.0
1452008389308028779,40,1452008389302289009,robocape_mag,12.15,-4.65,6.0,10.0,0.0,0.0,0.0,10.0,0.0,0.0,0.0,10.0
1452008389342364654,41,1452008389333275079,robocape_mag,12.15,-4.65,6.0,10.0,0.0,0.0,0.0,10.0,0.0,0.0,0.0,10.0
1452008389377646904,42,1452008389368717908,robocape_mag,10.65,-3.15,6.3,10.0,0.0,0.0,0.0,10.0,0.0,0.0,0.0,10.0
1452008389406159487,43,1452008389400799989,robocape_mag,10.65,-3.15,6.3,10.0,0.0,0.0,0.0,10.0,0.0,0.0,0.0,10.0
1452008389443752404,44,1452008389434582948,robocape_mag,10.65,-3.15,6.3,10.0,0.0,0.0,0.0,10.0,0.0,0.0,0.0,10.0
1452008389473490571,45,1452008389468385934,robocape_mag,10.65,-3.15,6.3,10.0,0.0,0.0,0.0,10.0,0.0,0.0,0.0,10.0
1452008389507498737,46,1452008389501828908,robocape_mag,10.65,-3.15,6.3,10.0,0.0,0.0,0.0,10.0,0.0,0.0,0.0,10.0
1452008389540059946,47,1452008389534514904,robocape_mag,10.95,-2.85,4.8,10.0,0.0,0.0,0.0,10.0,0.0,0.0,0.0,10.0
1452008389573217154,48,1452008389568028926,robocape_mag,10.95,-2.85,4.8,10.0,0.0,0.0,0.0,10.0,0.0,0.0,0.0,10.0
1452008389605641696,49,1452008389600495100,robocape_mag,10.95,-2.85,4.8,10.0,0.0,0.0,0.0,10.0,0.0,0.0,0.0,10.0
1452008389639717904,50,1452008389634095907,robocape_mag,10.95,-2.85,4.8,10.0,0.0,0.0,0.0,10.0,0.0,0.0,0.0,10.0
1452008389671524654,51,1452008389666399002,robocape_mag,10.95,-2.85,4.8,10.0,0.0,0.0,0.0,10.0,0.0,0.0,0.0,10.0
1452008389704945362,52,1452008389699474096,robocape_mag,12.75,-2.85,5.4,10.0,0.0,0.0,0.0,10.0,0.0,0.0,0.0,10.0
1452008389738673487,53,1452008389733787059,robocape_mag,12.75,-2.85,5.4,10.0,0.0,0.0,0.0,10.0,0.0,0.0,0.0,10.0
1452008389771754404,54,1452008389766911029,robocape_mag,12.75,-2.85,5.4,10.0,0.0,0.0,0.0,10.0,0.0,0.0,0.0,10.0
1452008389805255363,55,1452008389800265073,robocape_mag,12.75,-2.85,5.4,10.0,0.0,0.0,0.0,10.0,0.0,0.0,0.0,10.0
1452008389837683113,56,1452008389832808017,robocape_mag,12.75,-2.85,5.4,10.0,0.0,0.0,0.0,10.0,0.0,0.0,0.0,10.0
1452008389870629904,57,1452008389865622997,robocape_mag,11.55,-2.25,6.0,10.0,0.0,0.0,0.0,10.0,0.0,0.0,0.0,10.0
1452008389903834779,58,1452008389898688077,robocape_mag,11.55,-2.25,6.0,10.0,0.0,0.0,0.0,10.0,0.0,0.0,0.0,10.0
1452008389937213988,59,1452008389932419061,robocape_mag,11.55,-2.25,6.0,10.0,0.0,0.0,0.0,10.0,0.0,0.0,0.0,10.0
1452008389970287113,60,1452008389965182065,robocape_mag,11.55,-2.25,6.0,10.0,0.0,0.0,0.0,10.0,0.0,0.0,0.0,10.0
1452008390003249238,61,1452008389998450994,robocape_mag,11.55,-4.65,3.0,10.0,0.0,0.0,0.0,10.0,0.0,0.0,0.0,10.0
1452008390036590404,62,1452008390031699895,robocape_mag,11.55,-4.65,3.0,10.0,0.0,0.0,0.0,10.0,0.0,0.0,0.0,10.0
1452008390069186571,63,1452008390064265966,robocape_mag,11.55,-4.65,3.0,10.0,0.0,0.0,0.0,10.0,0.0,0.0,0.0,10.0
1452008390102378071,64,1452008390097588062,robocape_mag,11.55,-4.65,3.0,10.0,0.0,0.0,0.0,10.0,0.0,0.0,0.0,10.0
1452008390135750279,65,1452008390131011962,robocape_mag,11.55,-4.65,3.0,10.0,0.0,0.0,0.0,10.0,0.0,0.0,0.0,10.0
1452008390169252321,66,1452008390164449930,robocape_mag,19.65,-0.15,3.9,10.0,0.0,0.0,0.0,10.0,0.0,0.0,0.0,10.0
1452008390202148654,67,1452008390197407960,robocape_mag,19.65,-0.15,3.9,10.0,0.0,0.0,0.0,10.0,0.0,0.0,0.0,10.0
1452008390236211113,68,1452008390231430053,robocape_mag,19.65,-0.15,3.9,10.0,0.0,0.0,0.0,10.0,0.0,0.0,0.0,10.0
1452008390269059696,69,1452008390264143943,robocape_mag,19.65,-0.15,3.9,10.0,0.0,0.0,0.0,10.0,0.0,0.0,0.0,10.0
1452008390302272529,70,1452008390297489881,robocape_mag,19.65,-0.15,3.9,10.0,0.0,0.0,0.0,10.0,0.0,0.0,0.0,10.0
1452008390335505279,71,1452008390330735921,robocape_mag,13.65,-4.35,3.9,10.0,0.0,0.0,0.0,10.0,0.0,0.0,0.0,10.0
1452008390374767238,72,1452008390366832017,robocape_mag,13.65,-4.35,3.9,10.0,0.0,0.0,0.0,10.0,0.0,0.0,0.0,10.0
1452008390403318029,73,1452008390398602008,robocape_mag,13.65,-4.35,3.9,10.0,0.0,0.0,0.0,10.0,0.0,0.0,0.0,10.0
1452008390436045113,74,1452008390431313991,robocape_mag,13.65,-4.35,3.9,10.0,0.0,0.0,0.0,10.0,0.0,0.0,0.0,10.0
1452008390469108946,75,1452008390464240074,robocape_mag,13.65,-4.35,3.9,10.0,0.0,0.0,0.0,10.0,0.0,0.0,0.0,10.0
1452008390502311405,76,1452008390497565031,robocape_mag,12.75,-3.45,4.8,10.0,0.0,0.0,0.0,10.0,0.0,0.0,0.0,10.0
1452008390535580238,77,1452008390530867099,robocape_mag,12.75,-3.45,4.8,10.0,0.0,0.0,0.0,10.0,0.0,0.0,0.0,10.0
1452008390569134946,78,1452008390564213991,robocape_mag,12.75,-3.45,4.8,10.0,0.0,0.0,0.0,10.0,0.0,0.0,0.0,10.0
1452008390602093863,79,1452008390597337961,robocape_mag,12.75,-3.45,4.8,10.0,0.0,0.0,0.0,10.0,0.0,0.0,0.0,10.0
1452008390635463738,80,1452008390630687952,robocape_mag,12.75,-3.45,4.8,10.0,0.0,0.0,0.0,10.0,0.0,0.0,0.0,10.0
1452008390669024321,81,1452008390664045095,robocape_mag,12.45,-3.15,2.7,10.0,0.0,0.0,0.0,10.0,0.0,0.0,0.0,10.0
1452008390702968030,82,1452008390697386026,robocape_mag,12.45,-3.15,2.7,10.0,0.0,0.0,0.0,10.0,0.0,0.0,0.0,10.0
1452008390737663446,83,1452008390730895042,robocape_mag,12.45,-3.15,2.7,10.0,0.0,0.0,0.0,10.0,0.0,0.0,0.0,10.0
1452008390769166571,84,1452008390764177083,robocape_mag,12.45,-3.15,2.7,10.0,0.0,0.0,0.0,10.0,0.0,0.0,0.0,10.0
1452008390802430363,85,1452008390797420024,robocape_mag,12.45,-3.45,4.8,10.0,0.0,0.0,0.0,10.0,0.0,0.0,0.0,10.0
1452008390835785905,86,1452008390830699920,robocape_mag,11.55,-3.45,4.8,10.0,0.0,0.0,0.0,10.0,0.0,0.0,0.0,10.0
1452008390869599321,87,1452008390864124059,robocape_mag,11.55,-3.45,4.8,10.0,0.0,0.0,0.0,10.0,0.0,0.0,0.0,10.0
1452008390902477155,88,1452008390897352933,robocape_mag,11.55,-3.45,4.8,10.0,0.0,0.0,0.0,10.0,0.0,0.0,0.0,10.0
1452008390935768613,89,1452008390930809020,robocape_mag,11.55,-3.45,4.8,10.0,0.0,0.0,0.0,10.0,0.0,0.0,0.0,10.0
1452008390969147821,90,1452008390964059114,robocape_mag,11.55,-3.45,5.4,10.0,0.0,0.0,0.0,10.0,0.0,0.0,0.0,10.0
1452008391002343238,91,1452008390997471094,robocape_mag,11.55,-3.45,5.4,10.0,0.0,0.0,0.0,10.0,0.0,0.0,0.0,10.0
1452008391035630363,92,1452008391030816078,robocape_mag,11.55,-3.45,5.4,10.0,0.0,0.0,0.0,10.0,0.0,0.0,0.0,10.0
1452008391069125530,93,1452008391064202070,robocape_mag,11.55,-3.45,5.4,10.0,0.0,0.0,0.0,10.0,0.0,0.0,0.0,10.0
1452008391102745238,94,1452008391097910881,robocape_mag,11.55,-3.45,5.4,10.0,0.0,0.0,0.0,10.0,0.0,0.0,0.0,10.0
1452008391135759196,95,1452008391131001949,robocape_mag,11.85,-3.15,4.5,10.0,0.0,0.0,0.0,10.0,0.0,0.0,0.0,10.0
1452008391170302197,96,1452008391165560007,robocape_mag,11.85,-3.15,4.5,10.0,0.0,0.0,0.0,10.0,0.0,0.0,0.0,10.0
1452008391203983322,97,1452008391198987007,robocape_mag,11.85,-3.15,4.5,10.0,0.0,0.0,0.0,10.0,0.0,0.0,0.0,10.0
1452008391237293572,98,1452008391232542037,robocape_mag,11.85,-3.15,4.5,10.0,0.0,0.0,0.0,10.0,0.0,0.0,0.0,10.0
1452008391270272072,99,1452008391265366077,robocape_mag,11.85,-3.15,4.5,10.0,0.0,0.0,0.0,10.0,0.0,0.0,0.0,10.0
1452008391304340655,100,1452008391298959970,robocape_mag,10.95,-2.25,6.6,10.0,0.0,0.0,0.0,10.0,0.0,0.0,0.0,10.0
1452008391336189697,101,1452008391331233978,robocape_mag,10.95,-2.25,6.6,10.0,0.0,0.0,0.0,10.0,0.0,0.0,0.0,10.0
1452008391374843780,102,1452008391365859031,robocape_mag,10.95,-2.25,6.6,10.0,0.0,0.0,0.0,10.0,0.0,0.0,0.0,10.0
1452008391404085780,103,1452008391399008035,robocape_mag,10.95,-2.25,6.6,10.0,0.0,0.0,0.0,10.0,0.0,0.0,0.0,10.0
1452008391442812613,104,1452008391436902999,robocape_mag,10.95,-2.25,6.6,10.0,0.0,0.0,0.0,10.0,0.0,0.0,0.0,10.0
1452008391472605072,105,1452008391465001106,robocape_mag,10.95,-1.65,5.4,10.0,0.0,0.0,0.0,10.0,0.0,0.0,0.0,10.0
1452008391503262030,106,1452008391498440027,robocape_mag,10.95,-1.65,5.4,10.0,0.0,0.0,0.0,10.0,0.0,0.0,0.0,10.0
1452008391539128322,107,1452008391532134056,robocape_mag,10.95,-1.65,5.4,10.0,0.0,0.0,0.0,10.0,0.0,0.0,0.0,10.0
1452008391578378613,108,1452008391568656921,robocape_mag,10.95,-1.65,5.4,10.0,0.0,0.0,0.0,10.0,0.0,0.0,0.0,10.0
1452008391606975113,109,1452008391601577997,robocape_mag,87.45,-4.35,2.7,10.0,0.0,0.0,0.0,10.0,0.0,0.0,0.0,10.0
1452008391639944030,110,1452008391634826898,robocape_mag,10.65,-4.35,2.7,10.0,0.0,0.0,0.0,10.0,0.0,0.0,0.0,10.0
1452008391672894780,111,1452008391667623043,robocape_mag,10.65,-4.35,2.7,10.0,0.0,0.0,0.0,10.0,0.0,0.0,0.0,10.0
1452008391709665155,112,1452008391700143098,robocape_mag,10.65,-4.35,2.7,10.0,0.0,0.0,0.0,10.0,0.0,0.0,0.0,10.0
1452008391739563280,113,1452008391734462022,robocape_mag,10.65,-4.35,2.7,10.0,0.0,0.0,0.0,10.0,0.0,0.0,0.0,10.0
1452008391773737238,114,1452008391768541097,robocape_mag,11.55,-4.65,4.2,10.0,0.0,0.0,0.0,10.0,0.0,0.0,0.0,10.0
1452008391809138447,115,1452008391801546096,robocape_mag,11.55,-4.65,4.2,10.0,0.0,0.0,0.0,10.0,0.0,0.0,0.0,10.0
1452008391844234530,116,1452008391834439992,robocape_mag,11.55,-4.65,4.2,10.0,0.0,0.0,0.0,10.0,0.0,0.0,0.0,10.0
1452008391872647197,117,1452008391867535114,robocape_mag,11.55,-4.65,4.2,10.0,0.0,0.0,0.0,10.0,0.0,0.0,0.0,10.0
1452008391906204030,118,1452008391901170969,robocape_mag,11.55,-4.65,4.2,10.0,0.0,0.0,0.0,10.0,0.0,0.0,0.0,10.0
1452008391939189239,119,1452008391934259891,robocape_mag,10.95,-2.25,4.8,10.0,0.0,0.0,0.0,10.0,0.0,0.0,0.0,10.0
1452008391971696905,120,1452008391966639041,robocape_mag,10.95,-2.25,4.8,10.0,0.0,0.0,0.0,10.0,0.0,0.0,0.0,10.0
1452008392005806780,121,1452008392000971078,robocape_mag,10.95,-2.25,4.8,10.0,0.0,0.0,0.0,10.0,0.0,0.0,0.0,10.0
1452008392038258697,122,1452008392033303976,robocape_mag,10.95,-2.25,4.8,10.0,0.0,0.0,0.0,10.0,0.0,0.0,0.0,10.0
1452008392071107197,123,1452008392066243886,robocape_mag,10.95,-2.25,4.8,10.0,0.0,0.0,0.0,10.0,0.0,0.0,0.0,10.0
1452008392105244864,124,1452008392100472927,robocape_mag,13.05,-4.95,3.3,10.0,0.0,0.0,0.0,10.0,0.0,0.0,0.0,10.0
1452008392138608989,125,1452008392133806943,robocape_mag,13.05,-4.95,3.3,10.0,0.0,0.0,0.0,10.0,0.0,0.0,0.0,10.0
1452008392172020739,126,1452008392167172908,robocape_mag,13.05,-4.95,3.3,10.0,0.0,0.0,0.0,10.0,0.0,0.0,0.0,10.0
1452008392204280947,127,1452008392199455022,robocape_mag,13.05,-4.95,3.3,10.0,0.0,0.0,0.0,10.0,0.0,0.0,0.0,10.0
1452008392238078655,128,1452008392233263969,robocape_mag,13.05,-4.95,3.3,10.0,0.0,0.0,0.0,10.0,0.0,0.0,0.0,10.0
1452008392269998155,129,1452008392265249013,robocape_mag,13.65,-1.35,5.1,10.0,0.0,0.0,0.0,10.0,0.0,0.0,0.0,10.0
1452008392303587280,130,1452008392298748970,robocape_mag,13.65,-1.35,5.1,10.0,0.0,0.0,0.0,10.0,0.0,0.0,0.0,10.0
1452008392336823405,131,1452008392332061052,robocape_mag,13.65,-1.35,5.1,10.0,0.0,0.0,0.0,10.0,0.0,0.0,0.0,10.0
1452008392378520905,132,1452008392366712093,robocape_mag,13.65,-1.35,5.1,10.0,0.0,0.0,0.0,10.0,0.0,0.0,0.0,10.0
1452008392404546905,133,1452008392399720907,robocape_mag,6.45,-7.35,38.7,10.0,0.0,0.0,0.0,10.0,0.0,0.0,0.0,10.0
1452008392436752197,134,1452008392431699037,robocape_mag,6.45,-7.35,38.7,10.0,0.0,0.0,0.0,10.0,0.0,0.0,0.0,10.0
1452008392469210322,135,1452008392464242935,robocape_mag,6.45,-7.35,38.7,10.0,0.0,0.0,0.0,10.0,0.0,0.0,0.0,10.0
1452008392503243072,136,1452008392497529029,robocape_mag,6.45,-7.35,38.7,10.0,0.0,0.0,0.0,10.0,0.0,0.0,0.0,10.0
1452008392535949239,137,1452008392531099081,robocape_mag,6.45,-7.35,38.7,10.0,0.0,0.0,0.0,10.0,0.0,0.0,0.0,10.0
1452008392569526906,138,1452008392564165115,robocape_mag,15.15,-28.05,21.6,10.0,0.0,0.0,0.0,10.0,0.0,0.0,0.0,10.0
1452008392602183447,139,1452008392597414016,robocape_mag,15.15,-28.05,21.6,10.0,0.0,0.0,0.0,10.0,0.0,0.0,0.0,10.0
1452008392635577906,140,1452008392630774021,robocape_mag,15.15,-28.05,21.6,10.0,0.0,0.0,0.0,10.0,0.0,0.0,0.0,10.0
1452008392669328072,141,1452008392664253950,robocape_mag,15.15,-28.05,21.6,10.0,0.0,0.0,0.0,10.0,0.0,0.0,0.0,10.0
1452008392706868572,142,1452008392698160886,robocape_mag,15.15,-28.05,21.6,10.0,0.0,0.0,0.0,10.0,0.0,0.0,0.0,10.0
1452008392736085739,143,1452008392731173992,robocape_mag,21.45,-27.75,11.1,10.0,0.0,0.0,0.0,10.0,0.0,0.0,0.0,10.0
1452008392769446072,144,1452008392764384984,robocape_mag,21.45,-27.75,11.1,10.0,0.0,0.0,0.0,10.0,0.0,0.0,0.0,10.0
1452008392802589781,145,1452008392797799110,robocape_mag,21.45,-27.75,11.1,10.0,0.0,0.0,0.0,10.0,0.0,0.0,0.0,10.0
1452008392836307447,146,1452008392830985069,robocape_mag,21.45,-27.75,11.1,10.0,0.0,0.0,0.0,10.0,0.0,0.0,0.0,10.0
1452008392869794156,147,1452008392864715099,robocape_mag,21.45,-27.75,11.1,10.0,0.0,0.0,0.0,10.0,0.0,0.0,0.0,10.0
1452008392902370114,148,1452008392897602081,robocape_mag,34.65,-30.15,17.1,10.0,0.0,0.0,0.0,10.0,0.0,0.0,0.0,10.0
1452008392935594239,149,1452008392930826902,robocape_mag,34.65,-30.15,17.1,10.0,0.0,0.0,0.0,10.0,0.0,0.0,0.0,10.0
1452008392969261572,150,1452008392964169025,robocape_mag,34.65,-30.15,17.1,10.0,0.0,0.0,0.0,10.0,0.0,0.0,0.0,10.0
1452008393003339031,151,1452008392997699022,robocape_mag,34.65,-30.15,17.1,10.0,0.0,0.0,0.0,10.0,0.0,0.0,0.0,10.0
1452008393035964614,152,1452008393031184911,robocape_mag,34.65,-30.15,17.1,10.0,0.0,0.0,0.0,10.0,0.0,0.0,0.0,10.0
1452008393073055697,153,1452008393067926883,robocape_mag,21.75,1.95,22.2,10.0,0.0,0.0,0.0,10.0,0.0,0.0,0.0,10.0
1452008393105995072,154,1452008393101138114,robocape_mag,21.75,1.95,22.2,10.0,0.0,0.0,0.0,10.0,0.0,0.0,0.0,10.0
1452008393139220322,155,1452008393134372949,robocape_mag,21.75,1.95,22.2,10.0,0.0,0.0,0.0,10.0,0.0,0.0,0.0,10.0
1452008393171914572,156,1452008393166889905,robocape_mag,21.75,1.95,22.2,10.0,0.0,0.0,0.0,10.0,0.0,0.0,0.0,10.0
1452008393204846572,157,1452008393200027942,robocape_mag,31.95,-18.45,22.8,10.0,0.0,0.0,0.0,10.0,0.0,0.0,0.0,10.0
1452008393239123614,158,1452008393234355926,robocape_mag,31.95,-18.45,22.8,10.0,0.0,0.0,0.0,10.0,0.0,0.0,0.0,10.0
1452008393271939073,159,1452008393267182111,robocape_mag,31.95,-18.45,22.8,10.0,0.0,0.0,0.0,10.0,0.0,0.0,0.0,10.0
1452008393304804739,160,1452008393300065040,robocape_mag,31.95,-18.45,22.8,10.0,0.0,0.0,0.0,10.0,0.0,0.0,0.0,10.0
1452008393338660823,161,1452008393333910942,robocape_mag,31.95,-18.45,22.8,10.0,0.0,0.0,0.0,10.0,0.0,0.0,0.0,10.0
1452008393379359073,162,1452008393368155956,robocape_mag,26.85,0.45,28.5,10.0,0.0,0.0,0.0,10.0,0.0,0.0,0.0,10.0
1452008393405653406,163,1452008393400816917,robocape_mag,26.85,0.45,28.5,10.0,0.0,0.0,0.0,10.0,0.0,0.0,0.0,10.0
1452008393436932239,164,1452008393432068109,robocape_mag,26.85,0.45,28.5,10.0,0.0,0.0,0.0,10.0,0.0,0.0,0.0,10.0
1452008393469733823,165,1452008393464670896,robocape_mag,26.85,0.45,28.5,10.0,0.0,0.0,0.0,10.0,0.0,0.0,0.0,10.0
1452008393502998031,166,1452008393498230934,robocape_mag,26.85,0.45,28.5,10.0,0.0,0.0,0.0,10.0,0.0,0.0,0.0,10.0
1452008393536670823,167,1452008393531817913,robocape_mag,25.05,-9.75,32.7,10.0,0.0,0.0,0.0,10.0,0.0,0.0,0.0,10.0
1452008393570595573,168,1452008393564734935,robocape_mag,25.05,-9.75,32.7,10.0,0.0,0.0,0.0,10.0,0.0,0.0,0.0,10.0
1452008393602494489,169,1452008393597752094,robocape_mag,25.05,-9.75,32.7,10.0,0.0,0.0,0.0,10.0,0.0,0.0,0.0,10.0
1452008393636280323,170,1452008393631155014,robocape_mag,25.05,-9.75,32.7,10.0,0.0,0.0,0.0,10.0,0.0,0.0,0.0,10.0
1452008393669556864,171,1452008393664684057,robocape_mag,25.05,-9.75,32.7,10.0,0.0,0.0,0.0,10.0,0.0,0.0,0.0,10.0
1452008393702730989,172,1452008393697535991,robocape_mag,40.35,6.15,-8.4,10.0,0.0,0.0,0.0,10.0,0.0,0.0,0.0,10.0
1452008393737306531,173,1452008393732156038,robocape_mag,40.35,6.15,-8.4,10.0,0.0,0.0,0.0,10.0,0.0,0.0,0.0,10.0
1452008393769259573,174,1452008393764388084,robocape_mag,40.35,6.15,-8.4,10.0,0.0,0.0,0.0,10.0,0.0,0.0,0.0,10.0
1452008393802389281,175,1452008393797578096,robocape_mag,40.35,6.15,-8.4,10.0,0.0,0.0,0.0,10.0,0.0,0.0,0.0,10.0
1452008393835991239,176,1452008393830732107,robocape_mag,40.35,6.15,-8.4,10.0,0.0,0.0,0.0,10.0,0.0,0.0,0.0,10.0
1452008393869422614,177,1452008393864481925,robocape_mag,31.35,19.35,0.0,10.0,0.0,0.0,0.0,10.0,0.0,0.0,0.0,10.0
1452008393902774073,178,1452008393898008108,robocape_mag,31.35,19.35,0.0,10.0,0.0,0.0,0.0,10.0,0.0,0.0,0.0,10.0
1452008393936166781,179,1452008393931029081,robocape_mag,31.35,19.35,0.0,10.0,0.0,0.0,0.0,10.0,0.0,0.0,0.0,10.0
1452008393969341240,180,1452008393964369058,robocape_mag,31.35,19.35,0.0,10.0,0.0,0.0,0.0,10.0,0.0,0.0,0.0,10.0
1452008394002514740,181,1452008393997741937,robocape_mag,31.35,-10.95,11.1,10.0,0.0,0.0,0.0,10.0,0.0,0.0,0.0,10.0
1452008394036336115,182,1452008394031097888,robocape_mag,31.65,-10.95,11.1,10.0,0.0,0.0,0.0,10.0,0.0,0.0,0.0,10.0
1452008394069126490,183,1452008394064243078,robocape_mag,31.65,-10.95,11.1,10.0,0.0,0.0,0.0,10.0,0.0,0.0,0.0,10.0
1452008394102403948,184,1452008394097616910,robocape_mag,31.65,-10.95,11.1,10.0,0.0,0.0,0.0,10.0,0.0,0.0,0.0,10.0
1452008394136082365,185,1452008394130712985,robocape_mag,31.65,-10.95,11.1,10.0,0.0,0.0,0.0,10.0,0.0,0.0,0.0,10.0
1452008394169878406,186,1452008394164243936,robocape_mag,16.95,0.75,30.0,10.0,0.0,0.0,0.0,10.0,0.0,0.0,0.0,10.0
1452008394202950031,187,1452008394197448015,robocape_mag,16.95,0.75,30.0,10.0,0.0,0.0,0.0,10.0,0.0,0.0,0.0,10.0
1452008394236576740,188,1452008394231065988,robocape_mag,16.95,0.75,30.0,10.0,0.0,0.0,0.0,10.0,0.0,0.0,0.0,10.0
1452008394269198615,189,1452008394264170885,robocape_mag,16.95,0.75,30.0,10.0,0.0,0.0,0.0,10.0,0.0,0.0,0.0,10.0
1452008394302541240,190,1452008394297537088,robocape_mag,16.95,0.75,30.0,10.0,0.0,0.0,0.0,10.0,0.0,0.0,0.0,10.0
1452008394336173156,191,1452008394330708026,robocape_mag,13.65,19.65,26.1,10.0,0.0,0.0,0.0,10.0,0.0,0.0,0.0,10.0
1452008394375847531,192,1452008394366595029,robocape_mag,13.65,19.65,26.1,10.0,0.0,0.0,0.0,10.0,0.0,0.0,0.0,10.0
1452008394402716990,193,1452008394397666931,robocape_mag,13.65,19.65,26.1,10.0,0.0,0.0,0.0,10.0,0.0,0.0,0.0,10.0
1452008394435725115,194,1452008394430825948,robocape_mag,13.65,19.65,26.1,10.0,0.0,0.0,0.0,10.0,0.0,0.0,0.0,10.0
1452008394469305573,195,1452008394464313030,robocape_mag,13.65,19.65,26.1,10.0,0.0,0.0,0.0,10.0,0.0,0.0,0.0,10.0
1452008394502304240,196,1452008394497430086,robocape_mag,10.35,21.15,26.4,10.0,0.0,0.0,0.0,10.0,0.0,0.0,0.0,10.0
1452008394535908323,197,1452008394530901908,robocape_mag,10.35,21.15,26.4,10.0,0.0,0.0,0.0,10.0,0.0,0.0,0.0,10.0
1452008394569368948,198,1452008394564426898,robocape_mag,10.35,21.15,26.4,10.0,0.0,0.0,0.0,10.0,0.0,0.0,0.0,10.0
1452008394603089615,199,1452008394597964048,robocape_mag,10.35,21.15,26.4,10.0,0.0,0.0,0.0,10.0,0.0,0.0,0.0,10.0
1452008394635719656,200,1452008394630899906,robocape_mag,10.35,21.15,26.4,10.0,0.0,0.0,0.0,10.0,0.0,0.0,0.0,10.0
1452008394671639657,201,1452008394666615009,robocape_mag,10.65,14.25,39.3,10.0,0.0,0.0,0.0,10.0,0.0,0.0,0.0,10.0
1452008394703489032,202,1452008394698777914,robocape_mag,10.65,14.25,39.3,10.0,0.0,0.0,0.0,10.0,0.0,0.0,0.0,10.0
1452008394743780990,203,1452008394738867998,robocape_mag,10.65,14.25,39.3,10.0,0.0,0.0,0.0,10.0,0.0,0.0,0.0,10.0
1452008394770133448,204,1452008394765345096,robocape_mag,10.65,14.25,39.3,10.0,0.0,0.0,0.0,10.0,0.0,0.0,0.0,10.0
1452008394806005490,205,1452008394799335956,robocape_mag,10.65,18.15,-8.4,10.0,0.0,0.0,0.0,10.0,0.0,0.0,0.0,10.0
1452008394837564198,206,1452008394832448005,robocape_mag,24.15,18.15,-8.4,10.0,0.0,0.0,0.0,10.0,0.0,0.0,0.0,10.0
1452008394874036573,207,1452008394866178035,robocape_mag,24.15,18.15,-8.4,10.0,0.0,0.0,0.0,10.0,0.0,0.0,0.0,10.0
1452008394909730698,208,1452008394904367923,robocape_mag,24.15,18.15,-8.4,10.0,0.0,0.0,0.0,10.0,0.0,0.0,0.0,10.0
1452008394942203198,209,1452008394934844017,robocape_mag,24.15,18.15,-8.4,10.0,0.0,0.0,0.0,10.0,0.0,0.0,0.0,10.0
1452008394973218115,210,1452008394968456029,robocape_mag,7.95,27.75,21.0,10.0,0.0,0.0,0.0,10.0,0.0,0.0,0.0,10.0
1452008395005942448,211,1452008395000488042,robocape_mag,7.95,27.75,21.0,10.0,0.0,0.0,0.0,10.0,0.0,0.0,0.0,10.0
1452008395041471615,212,1452008395035330057,robocape_mag,7.95,27.75,21.0,10.0,0.0,0.0,0.0,10.0,0.0,0.0,0.0,10.0
1452008395072108740,213,1452008395065967082,robocape_mag,7.95,27.75,21.0,10.0,0.0,0.0,0.0,10.0,0.0,0.0,0.0,10.0
1452008395109061865,214,1452008395101716041,robocape_mag,7.95,27.75,21.0,10.0,0.0,0.0,0.0,10.0,0.0,0.0,0.0,10.0
1452008395141943240,215,1452008395134545087,robocape_mag,19.35,4.35,2.4,10.0,0.0,0.0,0.0,10.0,0.0,0.0,0.0,10.0
1452008395173498865,216,1452008395168340921,robocape_mag,19.35,4.35,2.4,10.0,0.0,0.0,0.0,10.0,0.0,0.0,0.0,10.0
1452008395206345073,217,1452008395201307058,robocape_mag,19.35,4.35,2.4,10.0,0.0,0.0,0.0,10.0,0.0,0.0,0.0,10.0
1452008395242376323,218,1452008395233616113,robocape_mag,19.35,4.35,2.4,10.0,0.0,0.0,0.0,10.0,0.0,0.0,0.0,10.0
1452008395273321823,219,1452008395268124103,robocape_mag,19.35,4.35,2.4,10.0,0.0,0.0,0.0,10.0,0.0,0.0,0.0,10.0
1452008395310979657,220,1452008395301016092,robocape_mag,12.75,-2.85,17.4,10.0,0.0,0.0,0.0,10.0,0.0,0.0,0.0,10.0
1452008395339420032,221,1452008395334419965,robocape_mag,12.75,-2.85,17.4,10.0,0.0,0.0,0.0,10.0,0.0,0.0,0.0,10.0
1452008395380979949,222,1452008395368516921,robocape_mag,12.75,-2.85,17.4,10.0,0.0,0.0,0.0,10.0,0.0,0.0,0.0,10.0
1452008395405747407,223,1452008395400597095,robocape_mag,12.75,-2.85,17.4,10.0,0.0,0.0,0.0,10.0,0.0,0.0,0.0,10.0
1452008395438999199,224,1452008395434103965,robocape_mag,12.75,-2.85,17.4,10.0,0.0,0.0,0.0,10.0,0.0,0.0,0.0,10.0
1452008395472029449,225,1452008395466805934,robocape_mag,7.05,-3.15,20.1,10.0,0.0,0.0,0.0,10.0,0.0,0.0,0.0,10.0
1452008395506170990,226,1452008395501260995,robocape_mag,7.05,-3.15,20.1,10.0,0.0,0.0,0.0,10.0,0.0,0.0,0.0,10.0
1452008395538860449,227,1452008395534059047,robocape_mag,7.05,-3.15,20.1,10.0,0.0,0.0,0.0,10.0,0.0,0.0,0.0,10.0
1452008395571998782,228,1452008395566868066,robocape_mag,7.05,-3.15,20.1,10.0,0.0,0.0,0.0,10.0,0.0,0.0,0.0,10.0
1452008395605766407,229,1452008395600665092,robocape_mag,2.85,25.65,7.5,10.0,0.0,0.0,0.0,10.0,0.0,0.0,0.0,10.0
1452008395638430532,230,1452008395633564949,robocape_mag,2.85,25.65,7.5,10.0,0.0,0.0,0.0,10.0,0.0,0.0,0.0,10.0
1452008395676167032,231,1452008395666856050,robocape_mag,2.85,25.65,7.5,10.0,0.0,0.0,0.0,10.0,0.0,0.0,0.0,10.0
1452008395705029865,232,1452008395699203968,robocape_mag,2.85,25.65,7.5,10.0,0.0,0.0,0.0,10.0,0.0,0.0,0.0,10.0
1452008395736775782,233,1452008395731976032,robocape_mag,2.85,25.65,7.5,10.0,0.0,0.0,0.0,10.0,0.0,0.0,0.0,10.0
1452008395770231240,234,1452008395764954090,robocape_mag,1.05,-10.95,20.1,10.0,0.0,0.0,0.0,10.0,0.0,0.0,0.0,10.0
1452008395803298199,235,1452008395798377037,robocape_mag,1.05,-10.95,20.1,10.0,0.0,0.0,0.0,10.0,0.0,0.0,0.0,10.0
1452008395836688615,236,1452008395831634998,robocape_mag,1.05,-10.95,20.1,10.0,0.0,0.0,0.0,10.0,0.0,0.0,0.0,10.0
1452008395873418532,237,1452008395864502906,robocape_mag,1.05,-10.95,20.1,10.0,0.0,0.0,0.0,10.0,0.0,0.0,0.0,10.0
1452008395902970532,238,1452008395897974967,robocape_mag,1.05,-10.95,20.1,10.0,0.0,0.0,0.0,10.0,0.0,0.0,0.0,10.0
1452008395936107657,239,1452008395931328058,robocape_mag,-14.25,4.95,34.8,10.0,0.0,0.0,0.0,10.0,0.0,0.0,0.0,10.0
1452008395970727032,240,1452008395965542078,robocape_mag,-14.25,4.95,34.8,10.0,0.0,0.0,0.0,10.0,0.0,0.0,0.0,10.0
1452008396004910615,241,1452008395997721910,robocape_mag,-14.25,4.95,34.8,10.0,0.0,0.0,0.0,10.0,0.0,0.0,0.0,10.0
1452008396035942699,242,1452008396031148910,robocape_mag,-14.25,4.95,34.8,10.0,0.0,0.0,0.0,10.0,0.0,0.0,0.0,10.0
1452008396069309866,243,1452008396064137935,robocape_mag,-14.25,4.95,34.8,10.0,0.0,0.0,0.0,10.0,0.0,0.0,0.0,10.0
1452008396104964699,244,1452008396097522974,robocape_mag,-3.15,13.65,6.3,10.0,0.0,0.0,0.0,10.0,0.0,0.0,0.0,10.0
1452008396136112741,245,1452008396130856990,robocape_mag,-3.15,13.65,6.3,10.0,0.0,0.0,0.0,10.0,0.0,0.0,0.0,10.0
1452008396169454199,246,1452008396164343118,robocape_mag,-3.15,13.65,6.3,10.0,0.0,0.0,0.0,10.0,0.0,0.0,0.0,10.0
1452008396202785282,247,1452008396197670936,robocape_mag,-3.15,13.65,6.3,10.0,0.0,0.0,0.0,10.0,0.0,0.0,0.0,10.0
1452008396235870574,248,1452008396230823993,robocape_mag,-3.15,13.65,6.3,10.0,0.0,0.0,0.0,10.0,0.0,0.0,0.0,10.0
1452008396269817657,249,1452008396264117002,robocape_mag,-16.05,-10.05,39.0,10.0,0.0,0.0,0.0,10.0,0.0,0.0,0.0,10.0
1452008396302427366,250,1452008396297651052,robocape_mag,-16.05,-10.05,39.0,10.0,0.0,0.0,0.0,10.0,0.0,0.0,0.0,10.0
1452008396336148032,251,1452008396331223011,robocape_mag,-16.05,-10.05,39.0,10.0,0.0,0.0,0.0,10.0,0.0,0.0,0.0,10.0
1452008396374007907,252,1452008396368657112,robocape_mag,-16.05,-10.05,39.0,10.0,0.0,0.0,0.0,10.0,0.0,0.0,0.0,10.0
1452008396402917699,253,1452008396397983074,robocape_mag,-10.95,-1.35,16.5,10.0,0.0,0.0,0.0,10.0,0.0,0.0,0.0,10.0
1452008396437062449,254,1452008396430846929,robocape_mag,-10.95,-1.35,16.5,10.0,0.0,0.0,0.0,10.0,0.0,0.0,0.0,10.0
1452008396469235616,255,1452008396464246034,robocape_mag,-10.95,-1.35,16.5,10.0,0.0,0.0,0.0,10.0,0.0,0.0,0.0,10.0
1452008396502354574,256,1452008396497426986,robocape_mag,-10.95,-1.35,16.5,10.0,0.0,0.0,0.0,10.0,0.0,0.0,0.0,10.0
1452008396536656991,257,1452008396531472921,robocape_mag,-10.95,-1.35,16.5,10.0,0.0,0.0,0.0,10.0,0.0,0.0,0.0,10.0
1452008396570066366,258,1452008396564193010,robocape_mag,9.15,-32.25,8.4,10.0,0.0,0.0,0.0,10.0,0.0,0.0,0.0,10.0
1452008396602375824,259,1452008396597383022,robocape_mag,9.15,-32.25,8.4,10.0,0.0,0.0,0.0,10.0,0.0,0.0,0.0,10.0
1452008396636646032,260,1452008396631350040,robocape_mag,9.15,-32.25,8.4,10.0,0.0,0.0,0.0,10.0,0.0,0.0,0.0,10.0
1452008396669558157,261,1452008396664292097,robocape_mag,9.15,-32.25,8.4,10.0,0.0,0.0,0.0,10.0,0.0,0.0,0.0,10.0
1452008396702595574,262,1452008396697439908,robocape_mag,9.15,-32.25,8.4,10.0,0.0,0.0,0.0,10.0,0.0,0.0,0.0,10.0
1452008396736123366,263,1452008396730737924,robocape_mag,13.05,-24.75,0.9,10.0,0.0,0.0,0.0,10.0,0.0,0.0,0.0,10.0
1452008396769247199,264,1452008396764147996,robocape_mag,13.05,-24.75,0.9,10.0,0.0,0.0,0.0,10.0,0.0,0.0,0.0,10.0
1452008396802391574,265,1452008396797475099,robocape_mag,13.05,-24.75,0.9,10.0,0.0,0.0,0.0,10.0,0.0,0.0,0.0,10.0
1452008396836050324,266,1452008396830789089,robocape_mag,13.05,-24.75,0.9,10.0,0.0,0.0,0.0,10.0,0.0,0.0,0.0,10.0
1452008396869198366,267,1452008396864192962,robocape_mag,13.05,-24.75,0.9,10.0,0.0,0.0,0.0,10.0,0.0,0.0,0.0,10.0
1452008396902412366,268,1452008396897665977,robocape_mag,13.65,-16.35,-2.7,10.0,0.0,0.0,0.0,10.0,0.0,0.0,0.0,10.0
1452008396941422949,269,1452008396931821107,robocape_mag,13.65,-16.35,-2.7,10.0,0.0,0.0,0.0,10.0,0.0,0.0,0.0,10.0
1452008396970149033,270,1452008396965301036,robocape_mag,13.65,-16.35,-2.7,10.0,0.0,0.0,0.0,10.0,0.0,0.0,0.0,10.0
1452008397002515116,271,1452008396997777938,robocape_mag,13.65,-16.35,-2.7,10.0,0.0,0.0,0.0,10.0,0.0,0.0,0.0,10.0
1452008397036486574,272,1452008397031538963,robocape_mag,13.65,-16.35,-2.7,10.0,0.0,0.0,0.0,10.0,0.0,0.0,0.0,10.0
1452008397069139199,273,1452008397064383983,robocape_mag,1.65,-14.55,29.1,10.0,0.0,0.0,0.0,10.0,0.0,0.0,0.0,10.0
1452008397102338033,274,1452008397097578048,robocape_mag,1.65,-14.55,29.1,10.0,0.0,0.0,0.0,10.0,0.0,0.0,0.0,10.0
1452008397136029033,275,1452008397131197929,robocape_mag,1.65,-14.55,29.1,10.0,0.0,0.0,0.0,10.0,0.0,0.0,0.0,10.0
1452008397199658533,276,1452008397164374113,robocape_mag,1.65,-14.55,29.1,10.0,0.0,0.0,0.0,10.0,0.0,0.0,0.0,10.0
1452008397217616949,277,1452008397211204051,robocape_mag,16.95,-22.05,-6.0,10.0,0.0,0.0,0.0,10.0,0.0,0.0,0.0,10.0
1452008397239873991,278,1452008397234536886,robocape_mag,16.95,-22.05,-6.0,10.0,0.0,0.0,0.0,10.0,0.0,0.0,0.0,10.0
1452008397269509033,279,1452008397264700889,robocape_mag,16.95,-22.05,-6.0,10.0,0.0,0.0,0.0,10.0,0.0,0.0,0.0,10.0
1452008397302400574,280,1452008397297565937,robocape_mag,16.95,-22.05,-6.0,10.0,0.0,0.0,0.0,10.0,0.0,0.0,0.0,10.0
1452008397335643366,281,1452008397330826044,robocape_mag,16.95,-22.05,-6.0,10.0,0.0,0.0,0.0,10.0,0.0,0.0,0.0,10.0
1452008397372679408,282,1452008397366569995,robocape_mag,19.05,-15.15,-3.9,10.0,0.0,0.0,0.0,10.0,0.0,0.0,0.0,10.0
1452008397402779616,283,1452008397397891998,robocape_mag,19.05,-15.15,-3.9,10.0,0.0,0.0,0.0,10.0,0.0,0.0,0.0,10.0
1452008397436059241,284,1452008397431158065,robocape_mag,19.05,-15.15,-3.9,10.0,0.0,0.0,0.0,10.0,0.0,0.0,0.0,10.0
1452008397469056825,285,1452008397464308977,robocape_mag,19.05,-15.15,-3.9,10.0,0.0,0.0,0.0,10.0,0.0,0.0,0.0,10.0
1452008397502599325,286,1452008397497706890,robocape_mag,19.05,-15.15,-3.9,10.0,0.0,0.0,0.0,10.0,0.0,0.0,0.0,10.0
1452008397535846450,287,1452008397531075954,robocape_mag,10.65,-13.95,14.7,10.0,0.0,0.0,0.0,10.0,0.0,0.0,0.0,10.0
1452008397572484533,288,1452008397565850973,robocape_mag,10.65,-13.95,14.7,10.0,0.0,0.0,0.0,10.0,0.0,0.0,0.0,10.0
1452008397602461450,289,1452008397597575902,robocape_mag,10.65,-13.95,14.7,10.0,0.0,0.0,0.0,10.0,0.0,0.0,0.0,10.0
1452008397636058116,290,1452008397631114006,robocape_mag,10.65,-13.95,14.7,10.0,0.0,0.0,0.0,10.0,0.0,0.0,0.0,10.0
1452008397669621700,291,1452008397664813995,robocape_mag,10.65,-13.95,14.7,10.0,0.0,0.0,0.0,10.0,0.0,0.0,0.0,10.0
1452008397709655158,292,1452008397700906991,robocape_mag,10.65,-12.75,17.1,10.0,0.0,0.0,0.0,10.0,0.0,0.0,0.0,10.0
1452008397739252158,293,1452008397734195947,robocape_mag,10.65,-12.75,17.1,10.0,0.0,0.0,0.0,10.0,0.0,0.0,0.0,10.0
1452008397773671825,294,1452008397766866922,robocape_mag,10.65,-12.75,17.1,10.0,0.0,0.0,0.0,10.0,0.0,0.0,0.0,10.0
1452008397806585158,295,1452008397801654100,robocape_mag,10.65,-12.75,17.1,10.0,0.0,0.0,0.0,10.0,0.0,0.0,0.0,10.0
1452008397840070533,296,1452008397834539890,robocape_mag,10.65,-12.75,17.1,10.0,0.0,0.0,0.0,10.0,0.0,0.0,0.0,10.0
1452008397872996700,297,1452008397867680072,robocape_mag,15.15,-10.05,12.6,10.0,0.0,0.0,0.0,10.0,0.0,0.0,0.0,10.0
1452008397905174200,298,1452008397900428056,robocape_mag,15.15,-10.05,12.6,10.0,0.0,0.0,0.0,10.0,0.0,0.0,0.0,10.0
1452008397938800825,299,1452008397933824062,robocape_mag,15.15,-10.05,12.6,10.0,0.0,0.0,0.0,10.0,0.0,0.0,0.0,10.0
1452008397972411825,300,1452008397967377901,robocape_mag,15.15,-10.05,12.6,10.0,0.0,0.0,0.0,10.0,0.0,0.0,0.0,10.0
1452008398004433491,301,1452008397999402999,robocape_mag,8.55,-23.25,39.0,10.0,0.0,0.0,0.0,10.0,0.0,0.0,0.0,10.0
1452008398037577991,302,1452008398032726049,robocape_mag,8.55,-23.25,39.0,10.0,0.0,0.0,0.0,10.0,0.0,0.0,0.0,10.0
1452008398071167658,303,1452008398066200017,robocape_mag,8.55,-23.25,39.0,10.0,0.0,0.0,0.0,10.0,0.0,0.0,0.0,10.0
1452008398103205408,304,1452008398098404884,robocape_mag,8.55,-23.25,39.0,10.0,0.0,0.0,0.0,10.0,0.0,0.0,0.0,10.0
1452008398136502533,305,1452008398131525039,robocape_mag,8.55,-23.25,39.0,10.0,0.0,0.0,0.0,10.0,0.0,0.0,0.0,10.0
1452008398170358908,306,1452008398165513038,robocape_mag,11.55,-3.45,17.4,10.0,0.0,0.0,0.0,10.0,0.0,0.0,0.0,10.0
1452008398202848117,307,1452008398198035955,robocape_mag,11.55,-3.45,17.4,10.0,0.0,0.0,0.0,10.0,0.0,0.0,0.0,10.0
1452008398236074200,308,1452008398231235980,robocape_mag,11.55,-3.45,17.4,10.0,0.0,0.0,0.0,10.0,0.0,0.0,0.0,10.0
1452008398269779450,309,1452008398264820098,robocape_mag,11.55,-3.45,17.4,10.0,0.0,0.0,0.0,10.0,0.0,0.0,0.0,10.0
1452008398302335492,310,1452008398297554016,robocape_mag,11.55,-3.45,17.4,10.0,0.0,0.0,0.0,10.0,0.0,0.0,0.0,10.0
1452008398336019992,311,1452008398331031084,robocape_mag,10.35,-16.65,31.8,10.0,0.0,0.0,0.0,10.0,0.0,0.0,0.0,10.0
1452008398375132325,312,1452008398366141080,robocape_mag,10.35,-16.65,31.8,10.0,0.0,0.0,0.0,10.0,0.0,0.0,0.0,10.0
1452008398402958158,313,1452008398397969007,robocape_mag,10.35,-16.65,31.8,10.0,0.0,0.0,0.0,10.0,0.0,0.0,0.0,10.0
1452008398436222700,314,1452008398431150913,robocape_mag,10.35,-16.65,31.8,10.0,0.0,0.0,0.0,10.0,0.0,0.0,0.0,10.0
1452008398469559283,315,1452008398464525938,robocape_mag,10.35,-16.65,31.8,10.0,0.0,0.0,0.0,10.0,0.0,0.0,0.0,10.0
1452008398502316908,316,1452008398497519969,robocape_mag,18.45,-36.15,25.5,10.0,0.0,0.0,0.0,10.0,0.0,0.0,0.0,10.0
1452008398536497450,317,1452008398531177997,robocape_mag,18.45,-36.15,25.5,10.0,0.0,0.0,0.0,10.0,0.0,0.0,0.0,10.0
1452008398573207450,318,1452008398564389944,robocape_mag,18.45,-36.15,25.5,10.0,0.0,0.0,0.0,10.0,0.0,0.0,0.0,10.0
1452008398602773367,319,1452008398597933053,robocape_mag,18.45,-36.15,25.5,10.0,0.0,0.0,0.0,10.0,0.0,0.0,0.0,10.0
1452008398636360283,320,1452008398631161928,robocape_mag,18.45,-36.15,25.5,10.0,0.0,0.0,0.0,10.0,0.0,0.0,0.0,10.0
1452008398671875742,321,1452008398664494991,robocape_mag,12.75,-14.25,34.8,10.0,0.0,0.0,0.0,10.0,0.0,0.0,0.0,10.0
1452008398702939867,322,1452008398698146104,robocape_mag,12.75,-14.25,34.8,10.0,0.0,0.0,0.0,10.0,0.0,0.0,0.0,10.0
1452008398737641367,323,1452008398730926990,robocape_mag,12.75,-14.25,34.8,10.0,0.0,0.0,0.0,10.0,0.0,0.0,0.0,10.0
1452008398769196867,324,1452008398764193058,robocape_mag,12.75,-14.25,34.8,10.0,0.0,0.0,0.0,10.0,0.0,0.0,0.0,10.0
1452008398802343200,325,1452008398797528028,robocape_mag,12.75,-11.55,32.1,10.0,0.0,0.0,0.0,10.0,0.0,0.0,0.0,10.0
1452008398835946992,326,1452008398830799102,robocape_mag,12.45,-11.55,32.1,10.0,0.0,0.0,0.0,10.0,0.0,0.0,0.0,10.0
1452008398869871242,327,1452008398864132881,robocape_mag,12.45,-11.55,32.1,10.0,0.0,0.0,0.0,10.0,0.0,0.0,0.0,10.0
1452008398902751867,328,1452008398897633075,robocape_mag,12.45,-11.55,32.1,10.0,0.0,0.0,0.0,10.0,0.0,0.0,0.0,10.0
1452008398938676784,329,1452008398931405067,robocape_mag,12.45,-11.55,32.1,10.0,0.0,0.0,0.0,10.0,0.0,0.0,0.0,10.0
1452008398970767450,330,1452008398964461088,robocape_mag,13.95,-11.85,33.0,10.0,0.0,0.0,0.0,10.0,0.0,0.0,0.0,10.0
1452008399002581784,331,1452008398997494935,robocape_mag,13.95,-11.85,33.0,10.0,0.0,0.0,0.0,10.0,0.0,0.0,0.0,10.0
1452008399037370534,332,1452008399031213998,robocape_mag,13.95,-11.85,33.0,10.0,0.0,0.0,0.0,10.0,0.0,0.0,0.0,10.0
1452008399069388992,333,1452008399064168930,robocape_mag,13.95,-11.85,33.0,10.0,0.0,0.0,0.0,10.0,0.0,0.0,0.0,10.0
1452008399102422992,334,1452008399097426891,robocape_mag,13.95,-11.85,33.0,10.0,0.0,0.0,0.0,10.0,0.0,0.0,0.0,10.0
1452008399136338700,335,1452008399131011962,robocape_mag,13.05,-7.95,30.9,10.0,0.0,0.0,0.0,10.0,0.0,0.0,0.0,10.0
1452008399169681617,336,1452008399164572954,robocape_mag,13.05,-7.95,30.9,10.0,0.0,0.0,0.0,10.0,0.0,0.0,0.0,10.0
1452008399202741242,337,1452008399197678089,robocape_mag,13.05,-7.95,30.9,10.0,0.0,0.0,0.0,10.0,0.0,0.0,0.0,10.0
1452008399235787409,338,1452008399230861902,robocape_mag,13.05,-7.95,30.9,10.0,0.0,0.0,0.0,10.0,0.0,0.0,0.0,10.0
1452008399269020409,339,1452008399264158964,robocape_mag,13.05,-7.95,30.9,10.0,0.0,0.0,0.0,10.0,0.0,0.0,0.0,10.0
1452008399302413617,340,1452008399297597885,robocape_mag,30.15,-20.25,-1.2,10.0,0.0,0.0,0.0,10.0,0.0,0.0,0.0,10.0
1452008399337522700,341,1452008399332309007,robocape_mag,30.15,-20.25,-1.2,10.0,0.0,0.0,0.0,10.0,0.0,0.0,0.0,10.0
1452008399373477825,342,1452008399366064071,robocape_mag,30.15,-20.25,-1.2,10.0,0.0,0.0,0.0,10.0,0.0,0.0,0.0,10.0
1452008399402972409,343,1452008399398062944,robocape_mag,30.15,-20.25,-1.2,10.0,0.0,0.0,0.0,10.0,0.0,0.0,0.0,10.0
1452008399441447700,344,1452008399432235956,robocape_mag,30.15,-20.25,-1.2,10.0,0.0,0.0,0.0,10.0,0.0,0.0,0.0,10.0
1452008399471111867,345,1452008399465518951,robocape_mag,14.85,-2.55,26.7,10.0,0.0,0.0,0.0,10.0,0.0,0.0,0.0,10.0
1452008399503978575,346,1452008399499097108,robocape_mag,14.85,-2.55,26.7,10.0,0.0,0.0,0.0,10.0,0.0,0.0,0.0,10.0
1452008399536559325,347,1452008399531301021,robocape_mag,14.85,-2.55,26.7,10.0,0.0,0.0,0.0,10.0,0.0,0.0,0.0,10.0
1452008399574060992,348,1452008399565803050,robocape_mag,14.85,-2.55,26.7,10.0,0.0,0.0,0.0,10.0,0.0,0.0,0.0,10.0
1452008399609299242,349,1452008399603748083,robocape_mag,27.45,-13.35,-5.1,10.0,0.0,0.0,0.0,10.0,0.0,0.0,0.0,10.0
1452008399640035784,350,1452008399632102966,robocape_mag,27.45,-13.35,-5.1,10.0,0.0,0.0,0.0,10.0,0.0,0.0,0.0,10.0
1452008399677929367,351,1452008399668755054,robocape_mag,27.45,-13.35,-5.1,10.0,0.0,0.0,0.0,10.0,0.0,0.0,0.0,10.0
1452008399711373534,352,1452008399701280117,robocape_mag,27.45,-13.35,-5.1,10.0,0.0,0.0,0.0,10.0,0.0,0.0,0.0,10.0
1452008399744903326,353,1452008399735135078,robocape_mag,27.45,-13.35,-5.1,10.0,0.0,0.0,0.0,10.0,0.0,0.0,0.0,10.0
1452008399777786784,354,1452008399767175912,robocape_mag,18.45,-1.95,13.5,10.0,0.0,0.0,0.0,10.0,0.0,0.0,0.0,10.0
1452008399811101242,355,1452008399801059961,robocape_mag,18.45,-1.95,13.5,10.0,0.0,0.0,0.0,10.0,0.0,0.0,0.0,10.0
1452008399844387242,356,1452008399834713935,robocape_mag,18.45,-1.95,13.5,10.0,0.0,0.0,0.0,10.0,0.0,0.0,0.0,10.0
1452008399878695951,357,1452008399868431091,robocape_mag,18.45,-1.95,13.5,10.0,0.0,0.0,0.0,10.0,0.0,0.0,0.0,10.0
1452008399906648326,358,1452008399901597976,robocape_mag,18.45,-1.95,13.5,10.0,0.0,0.0,0.0,10.0,0.0,0.0,0.0,10.0
1452008399943844076,359,1452008399934406995,robocape_mag,21.75,-9.45,2.4,10.0,0.0,0.0,0.0,10.0,0.0,0.0,0.0,10.0
1452008399972717992,360,1452008399966357946,robocape_mag,21.75,-9.45,2.4,10.0,0.0,0.0,0.0,10.0,0.0,0.0,0.0,10.0
1452008400006618826,361,1452008400001681089,robocape_mag,21.75,-9.45,2.4,10.0,0.0,0.0,0.0,10.0,0.0,0.0,0.0,10.0
1452008400040830159,362,1452008400035691022,robocape_mag,21.75,-9.45,2.4,10.0,0.0,0.0,0.0,10.0,0.0,0.0,0.0,10.0
1452008400073421951,363,1452008400067935943,robocape_mag,21.75,-9.45,2.4,10.0,0.0,0.0,0.0,10.0,0.0,0.0,0.0,10.0
1452008400106076826,364,1452008400100238084,robocape_mag,23.55,-32.85,24.0,10.0,0.0,0.0,0.0,10.0,0.0,0.0,0.0,10.0
1452008400138865159,365,1452008400133857965,robocape_mag,23.55,-32.85,24.0,10.0,0.0,0.0,0.0,10.0,0.0,0.0,0.0,10.0
1452008400173707034,366,1452008400168163061,robocape_mag,23.55,-32.85,24.0,10.0,0.0,0.0,0.0,10.0,0.0,0.0,0.0,10.0
1452008400205644701,367,1452008400200654029,robocape_mag,23.55,-32.85,24.0,10.0,0.0,0.0,0.0,10.0,0.0,0.0,0.0,10.0
1452008400237983076,368,1452008400232793092,robocape_mag,23.55,-32.85,24.0,10.0,0.0,0.0,0.0,10.0,0.0,0.0,0.0,10.0
1452008400274254701,369,1452008400268987894,robocape_mag,30.45,-30.75,17.1,10.0,0.0,0.0,0.0,10.0,0.0,0.0,0.0,10.0
1452008400305313409,370,1452008400300354957,robocape_mag,30.45,-30.75,17.1,10.0,0.0,0.0,0.0,10.0,0.0,0.0,0.0,10.0
1452008400337916451,371,1452008400332885980,robocape_mag,30.45,-30.75,17.1,10.0,0.0,0.0,0.0,10.0,0.0,0.0,0.0,10.0
1452008400377500618,372,1452008400368163108,robocape_mag,30.45,-30.75,17.1,10.0,0.0,0.0,0.0,10.0,0.0,0.0,0.0,10.0
1452008400405201826,373,1452008400400415897,robocape_mag,24.75,-31.65,25.8,10.0,0.0,0.0,0.0,10.0,0.0,0.0,0.0,10.0
1452008400436980868,374,1452008400431828022,robocape_mag,24.75,-31.65,25.8,10.0,0.0,0.0,0.0,10.0,0.0,0.0,0.0,10.0
1452008400469715243,375,1452008400464879035,robocape_mag,24.75,-31.65,25.8,10.0,0.0,0.0,0.0,10.0,0.0,0.0,0.0,10.0
1452008400502831909,376,1452008400498073101,robocape_mag,24.75,-31.65,25.8,10.0,0.0,0.0,0.0,10.0,0.0,0.0,0.0,10.0
1452008400540686701,377,1452008400531245946,robocape_mag,24.75,-31.65,25.8,10.0,0.0,0.0,0.0,10.0,0.0,0.0,0.0,10.0
1452008400569281993,378,1452008400564475059,robocape_mag,19.05,-9.15,29.1,10.0,0.0,0.0,0.0,10.0,0.0,0.0,0.0,10.0
1452008400602620493,379,1452008400597683906,robocape_mag,19.05,-9.15,29.1,10.0,0.0,0.0,0.0,10.0,0.0,0.0,0.0,10.0
1452008400635621993,380,1452008400630814075,robocape_mag,19.05,-9.15,29.1,10.0,0.0,0.0,0.0,10.0,0.0,0.0,0.0,10.0
1452008400669496368,381,1452008400664573907,robocape_mag,19.05,-9.15,29.1,10.0,0.0,0.0,0.0,10.0,0.0,0.0,0.0,10.0
1452008400702396576,382,1452008400697559118,robocape_mag,19.05,-9.15,29.1,10.0,0.0,0.0,0.0,10.0,0.0,0.0,0.0,10.0
1452008400735839326,383,1452008400731013059,robocape_mag,27.45,-10.35,-2.7,10.0,0.0,0.0,0.0,10.0,0.0,0.0,0.0,10.0
1452008400769087034,384,1452008400764313936,robocape_mag,27.45,-10.35,-2.7,10.0,0.0,0.0,0.0,10.0,0.0,0.0,0.0,10.0
1452008400802370326,385,1452008400797564029,robocape_mag,27.45,-10.35,-2.7,10.0,0.0,0.0,0.0,10.0,0.0,0.0,0.0,10.0
1452008400835708868,386,1452008400830837011,robocape_mag,27.45,-10.35,-2.7,10.0,0.0,0.0,0.0,10.0,0.0,0.0,0.0,10.0
1452008400869462743,387,1452008400864703893,robocape_mag,27.45,-10.35,-2.7,10.0,0.0,0.0,0.0,10.0,0.0,0.0,0.0,10.0
1452008400902634743,388,1452008400897890090,robocape_mag,31.05,-36.15,18.3,10.0,0.0,0.0,0.0,10.0,0.0,0.0,0.0,10.0
1452008400935901826,389,1452008400930927991,robocape_mag,31.05,-36.15,18.3,10.0,0.0,0.0,0.0,10.0,0.0,0.0,0.0,10.0
1452008400969015701,390,1452008400964298009,robocape_mag,31.05,-36.15,18.3,10.0,0.0,0.0,0.0,10.0,0.0,0.0,0.0,10.0
1452008401002495368,391,1452008400997715950,robocape_mag,31.05,-36.15,18.3,10.0,0.0,0.0,0.0,10.0,0.0,0.0,0.0,10.0
1452008401036001993,392,1452008401030992984,robocape_mag,31.05,-36.15,18.3,10.0,0.0,0.0,0.0,10.0,0.0,0.0,0.0,10.0
1452008401072873576,393,1452008401066147089,robocape_mag,39.75,-14.85,-1.2,10.0,0.0,0.0,0.0,10.0,0.0,0.0,0.0,10.0
1452008401102295576,394,1452008401097520112,robocape_mag,39.75,-14.85,-1.2,10.0,0.0,0.0,0.0,10.0,0.0,0.0,0.0,10.0
1452008401138439410,395,1452008401131283998,robocape_mag,39.75,-14.85,-1.2,10.0,0.0,0.0,0.0,10.0,0.0,0.0,0.0,10.0
1452008401171908201,396,1452008401164884090,robocape_mag,39.75,-14.85,-1.2,10.0,0.0,0.0,0.0,10.0,0.0,0.0,0.0,10.0
1452008401204409201,397,1452008401197751045,robocape_mag,39.75,-34.95,17.1,10.0,0.0,0.0,0.0,10.0,0.0,0.0,0.0,10.0
1452008401236127285,398,1452008401230732917,robocape_mag,30.45,-34.95,17.1,10.0,0.0,0.0,0.0,10.0,0.0,0.0,0.0,10.0
1452008401269200910,399,1452008401263999938,robocape_mag,30.45,-34.95,17.1,10.0,0.0,0.0,0.0,10.0,0.0,0.0,0.0,10.0
1452008401302552451,400,1452008401297519922,robocape_mag,30.45,-34.95,17.1,10.0,0.0,0.0,0.0,10.0,0.0,0.0,0.0,10.0
1452008401335978576,401,1452008401330693006,robocape_mag,30.45,-34.95,17.1,10.0,0.0,0.0,0.0,10.0,0.0,0.0,0.0,10.0
1452008401375797618,402,1452008401366101980,robocape_mag,40.35,-18.45,-1.2,10.0,0.0,0.0,0.0,10.0,0.0,0.0,0.0,10.0
1452008401403037326,403,1452008401398097038,robocape_mag,40.35,-18.45,-1.2,10.0,0.0,0.0,0.0,10.0,0.0,0.0,0.0,10.0
1452008401436227035,404,1452008401430928945,robocape_mag,40.35,-18.45,-1.2,10.0,0.0,0.0,0.0,10.0,0.0,0.0,0.0,10.0
1452008401469053910,405,1452008401464076042,robocape_mag,40.35,-18.45,-1.2,10.0,0.0,0.0,0.0,10.0,0.0,0.0,0.0,10.0
1452008401502400910,406,1452008401497524976,robocape_mag,40.35,-18.45,-1.2,10.0,0.0,0.0,0.0,10.0,0.0,0.0,0.0,10.0
1452008401536367535,407,1452008401531040906,robocape_mag,21.45,-19.95,27.9,10.0,0.0,0.0,0.0,10.0,0.0,0.0,0.0,10.0
1452008401568996701,408,1452008401564213991,robocape_mag,21.45,-19.95,27.9,10.0,0.0,0.0,0.0,10.0,0.0,0.0,0.0,10.0
1452008401602335826,409,1452008401597506046,robocape_mag,21.45,-19.95,27.9,10.0,0.0,0.0,0.0,10.0,0.0,0.0,0.0,10.0
1452008401637150701,410,1452008401630861043,robocape_mag,21.45,-19.95,27.9,10.0,0.0,0.0,0.0,10.0,0.0,0.0,0.0,10.0
1452008401670773202,411,1452008401665795087,robocape_mag,21.45,-19.95,27.9,10.0,0.0,0.0,0.0,10.0,0.0,0.0,0.0,10.0
1452008401703948702,412,1452008401698015928,robocape_mag,21.75,-6.45,24.6,10.0,0.0,0.0,0.0,10.0,0.0,0.0,0.0,10.0
1452008401737181785,413,1452008401732173919,robocape_mag,21.75,-6.45,24.6,10.0,0.0,0.0,0.0,10.0,0.0,0.0,0.0,10.0
1452008401770527868,414,1452008401765780925,robocape_mag,21.75,-6.45,24.6,10.0,0.0,0.0,0.0,10.0,0.0,0.0,0.0,10.0
1452008401803953868,415,1452008401799102067,robocape_mag,21.75,-6.45,24.6,10.0,0.0,0.0,0.0,10.0,0.0,0.0,0.0,10.0
1452008401837502118,416,1452008401832221031,robocape_mag,21.75,-6.45,24.6,10.0,0.0,0.0,0.0,10.0,0.0,0.0,0.0,10.0
1452008401870072493,417,1452008401865200996,robocape_mag,38.25,10.65,8.1,10.0,0.0,0.0,0.0,10.0,0.0,0.0,0.0,10.0
1452008401903820952,418,1452008401899003982,robocape_mag,38.25,10.65,8.1,10.0,0.0,0.0,0.0,10.0,0.0,0.0,0.0,10.0
1452008401945601493,419,1452008401940697908,robocape_mag,38.25,10.65,8.1,10.0,0.0,0.0,0.0,10.0,0.0,0.0,0.0,10.0
1452008401970322702,420,1452008401965220928,robocape_mag,38.25,10.65,8.1,10.0,0.0,0.0,0.0,10.0,0.0,0.0,0.0,10.0
1452008402011947827,421,1452008402001663923,robocape_mag,20.85,5.25,23.7,10.0,0.0,0.0,0.0,10.0,0.0,0.0,0.0,10.0
1452008402041344660,422,1452008402033005952,robocape_mag,20.85,5.25,23.7,10.0,0.0,0.0,0.0,10.0,0.0,0.0,0.0,10.0
1452008402072140077,423,1452008402067264080,robocape_mag,20.85,5.25,23.7,10.0,0.0,0.0,0.0,10.0,0.0,0.0,0.0,10.0
1452008402106815160,424,1452008402100238084,robocape_mag,20.85,5.25,23.7,10.0,0.0,0.0,0.0,10.0,0.0,0.0,0.0,10.0
1452008402145008035,425,1452008402135205984,robocape_mag,20.85,5.25,23.7,10.0,0.0,0.0,0.0,10.0,0.0,0.0,0.0,10.0
1452008402176653868,426,1452008402168919086,robocape_mag,20.55,18.75,18.6,10.0,0.0,0.0,0.0,10.0,0.0,0.0,0.0,10.0
1452008402210832952,427,1452008402200128078,robocape_mag,20.55,18.75,18.6,10.0,0.0,0.0,0.0,10.0,0.0,0.0,0.0,10.0
1452008402240738452,428,1452008402235368013,robocape_mag,20.55,18.75,18.6,10.0,0.0,0.0,0.0,10.0,0.0,0.0,0.0,10.0
1452008402273237660,429,1452008402268034934,robocape_mag,20.55,18.75,18.6,10.0,0.0,0.0,0.0,10.0,0.0,0.0,0.0,10.0
1452008402305648493,430,1452008402300559043,robocape_mag,20.55,18.75,18.6,10.0,0.0,0.0,0.0,10.0,0.0,0.0,0.0,10.0
1452008402343563577,431,1452008402335033893,robocape_mag,40.05,3.45,4.5,10.0,0.0,0.0,0.0,10.0,0.0,0.0,0.0,10.0
1452008402377520119,432,1452008402369759082,robocape_mag,40.05,3.45,4.5,10.0,0.0,0.0,0.0,10.0,0.0,0.0,0.0,10.0
1452008402405766994,433,1452008402400636911,robocape_mag,40.05,3.45,4.5,10.0,0.0,0.0,0.0,10.0,0.0,0.0,0.0,10.0
1452008402440029619,434,1452008402434030055,robocape_mag,40.05,3.45,4.5,10.0,0.0,0.0,0.0,10.0,0.0,0.0,0.0,10.0
1452008402476959494,435,1452008402467123031,robocape_mag,40.05,3.45,4.5,10.0,0.0,0.0,0.0,10.0,0.0,0.0,0.0,10.0
1452008402505911785,436,1452008402501122951,robocape_mag,8.25,5.85,23.7,10.0,0.0,0.0,0.0,10.0,0.0,0.0,0.0,10.0
1452008402541179785,437,1452008402534024000,robocape_mag,8.25,5.85,23.7,10.0,0.0,0.0,0.0,10.0,0.0,0.0,0.0,10.0
1452008402570956869,438,1452008402566159009,robocape_mag,8.25,5.85,23.7,10.0,0.0,0.0,0.0,10.0,0.0,0.0,0.0,10.0
1452008402604384535,439,1452008402599581003,robocape_mag,8.25,5.85,23.7,10.0,0.0,0.0,0.0,10.0,0.0,0.0,0.0,10.0
1452008402638174619,440,1452008402633155107,robocape_mag,8.25,5.85,23.7,10.0,0.0,0.0,0.0,10.0,0.0,0.0,0.0,10.0
1452008402676213035,441,1452008402666230916,robocape_mag,31.95,1.95,8.4,10.0,0.0,0.0,0.0,10.0,0.0,0.0,0.0,10.0
1452008402704539910,442,1452008402699711084,robocape_mag,31.95,1.95,8.4,10.0,0.0,0.0,0.0,10.0,0.0,0.0,0.0,10.0
1452008402737074160,443,1452008402732112884,robocape_mag,31.95,1.95,8.4,10.0,0.0,0.0,0.0,10.0,0.0,0.0,0.0,10.0
1452008402770905077,444,1452008402766066074,robocape_mag,31.95,1.95,8.4,10.0,0.0,0.0,0.0,10.0,0.0,0.0,0.0,10.0
1452008402803205577,445,1452008402798425912,robocape_mag,83.85,31.65,18.3,10.0,0.0,0.0,0.0,10.0,0.0,0.0,0.0,10.0
1452008402836361827,446,1452008402831588029,robocape_mag,7.05,31.65,18.3,10.0,0.0,0.0,0.0,10.0,0.0,0.0,0.0,10.0
1452008402870676035,447,1452008402865706920,robocape_mag,7.05,31.65,18.3,10.0,0.0,0.0,0.0,10.0,0.0,0.0,0.0,10.0
1452008402902677035,448,1452008402897906064,robocape_mag,7.05,31.65,18.3,10.0,0.0,0.0,0.0,10.0,0.0,0.0,0.0,10.0
1452008402935741702,449,1452008402930960893,robocape_mag,7.05,31.65,18.3,10.0,0.0,0.0,0.0,10.0,0.0,0.0,0.0,10.0
1452008402969073285,450,1452008402964248895,robocape_mag,35.25,6.45,6.3,10.0,0.0,0.0,0.0,10.0,0.0,0.0,0.0,10.0
1452008403002774660,451,1452008402998039960,robocape_mag,35.25,6.45,6.3,10.0,0.0,0.0,0.0,10.0,0.0,0.0,0.0,10.0
1452008403035703202,452,1452008403030900001,robocape_mag,35.25,6.45,6.3,10.0,0.0,0.0,0.0,10.0,0.0,0.0,0.0,10.0
1452008403068968411,453,1452008403064136981,robocape_mag,35.25,6.45,6.3,10.0,0.0,0.0,0.0,10.0,0.0,0.0,0.0,10.0
1452008403102861994,454,1452008403097887039,robocape_mag,35.25,6.45,6.3,10.0,0.0,0.0,0.0,10.0,0.0,0.0,0.0,10.0
1452008403135509994,455,1452008403130784034,robocape_mag,7.95,32.55,18.0,10.0,0.0,0.0,0.0,10.0,0.0,0.0,0.0,10.0
1452008403169356911,456,1452008403164180994,robocape_mag,7.95,32.55,18.0,10.0,0.0,0.0,0.0,10.0,0.0,0.0,0.0,10.0
1452008403207441577,457,1452008403198169946,robocape_mag,7.95,32.55,18.0,10.0,0.0,0.0,0.0,10.0,0.0,0.0,0.0,10.0
1452008403235781494,458,1452008403230880022,robocape_mag,7.95,32.55,18.0,10.0,0.0,0.0,0.0,10.0,0.0,0.0,0.0,10.0
1452008403273037369,459,1452008403264529943,robocape_mag,7.95,32.55,18.0,10.0,0.0,0.0,0.0,10.0,0.0,0.0,0.0,10.0
1452008403302609411,460,1452008403297713994,robocape_mag,28.65,32.25,10.5,10.0,0.0,0.0,0.0,10.0,0.0,0.0,0.0,10.0
1452008403335942702,461,1452008403331188917,robocape_mag,28.65,32.25,10.5,10.0,0.0,0.0,0.0,10.0,0.0,0.0,0.0,10.0
1452008403375167286,462,1452008403366381883,robocape_mag,28.65,32.25,10.5,10.0,0.0,0.0,0.0,10.0,0.0,0.0,0.0,10.0
1452008403402726994,463,1452008403397831916,robocape_mag,28.65,32.25,10.5,10.0,0.0,0.0,0.0,10.0,0.0,0.0,0.0,10.0
1452008403436086994,464,1452008403431139945,robocape_mag,28.65,32.25,10.5,10.0,0.0,0.0,0.0,10.0,0.0,0.0,0.0,10.0
1452008403468963994,465,1452008403464131116,robocape_mag,15.45,38.25,17.1,10.0,0.0,0.0,0.0,10.0,0.0,0.0,0.0,10.0
1452008403504903994,466,1452008403497734069,robocape_mag,15.45,38.25,17.1,10.0,0.0,0.0,0.0,10.0,0.0,0.0,0.0,10.0
1452008403536380244,467,1452008403530781984,robocape_mag,15.45,38.25,17.1,10.0,0.0,0.0,0.0,10.0,0.0,0.0,0.0,10.0
1452008403571029536,468,1452008403564234018,robocape_mag,15.45,38.25,17.1,10.0,0.0,0.0,0.0,10.0,0.0,0.0,0.0,10.0
1452008403602820286,469,1452008403597384929,robocape_mag,15.45,75.75,15.6,10.0,0.0,0.0,0.0,10.0,0.0,0.0,0.0,10.0
1452008403635729119,470,1452008403630778074,robocape_mag,13.95,-1.05,15.6,10.0,0.0,0.0,0.0,10.0,0.0,0.0,0.0,10.0
1452008403669482744,471,1452008403664072990,robocape_mag,13.95,-1.05,15.6,10.0,0.0,0.0,0.0,10.0,0.0,0.0,0.0,10.0
1452008403704968119,472,1452008403697617053,robocape_mag,13.95,-1.05,15.6,10.0,0.0,0.0,0.0,10.0,0.0,0.0,0.0,10.0
1452008403738647036,473,1452008403731822013,robocape_mag,13.95,-1.05,15.6,10.0,0.0,0.0,0.0,10.0,0.0,0.0,0.0,10.0
1452008403770257911,474,1452008403765327930,robocape_mag,14.25,33.45,15.3,10.0,0.0,0.0,0.0,10.0,0.0,0.0,0.0,10.0
1452008403802805494,475,1452008403797576904,robocape_mag,14.25,33.45,15.3,10.0,0.0,0.0,0.0,10.0,0.0,0.0,0.0,10.0
1452008403835934536,476,1452008403830991983,robocape_mag,14.25,33.45,15.3,10.0,0.0,0.0,0.0,10.0,0.0,0.0,0.0,10.0
1452008403871713953,477,1452008403864156961,robocape_mag,14.25,33.45,15.3,10.0,0.0,0.0,0.0,10.0,0.0,0.0,0.0,10.0
1452008403903891203,478,1452008403897670984,robocape_mag,14.25,33.45,15.3,10.0,0.0,0.0,0.0,10.0,0.0,0.0,0.0,10.0
1452008403935702869,479,1452008403930953979,robocape_mag,18.75,34.95,13.2,10.0,0.0,0.0,0.0,10.0,0.0,0.0,0.0,10.0
1452008403969067619,480,1452008403964167118,robocape_mag,18.75,34.95,13.2,10.0,0.0,0.0,0.0,10.0,0.0,0.0,0.0,10.0
1452008404004009911,481,1452008403997628927,robocape_mag,18.75,34.95,13.2,10.0,0.0,0.0,0.0,10.0,0.0,0.0,0.0,10.0
1452008404036888786,482,1452008404031893014,robocape_mag,18.75,34.95,13.2,10.0,0.0,0.0,0.0,10.0,0.0,0.0,0.0,10.0
1452008404070412661,483,1452008404065489053,robocape_mag,18.75,34.95,13.2,10.0,0.0,0.0,0.0,10.0,0.0,0.0,0.0,10.0
1452008404103818619,484,1452008404098675012,robocape_mag,33.15,11.55,13.2,10.0,0.0,0.0,0.0,10.0,0.0,0.0,0.0,10.0
1452008404137102244,485,1452008404132129907,robocape_mag,33.15,11.55,13.2,10.0,0.0,0.0,0.0,10.0,0.0,0.0,0.0,10.0
1452008404171126619,486,1452008404165899991,robocape_mag,33.15,11.55,13.2,10.0,0.0,0.0,0.0,10.0,0.0,0.0,0.0,10.0
1452008404205117703,487,1452008404199723958,robocape_mag,33.15,11.55,13.2,10.0,0.0,0.0,0.0,10.0,0.0,0.0,0.0,10.0
1452008404237832536,488,1452008404233006954,robocape_mag,33.15,11.55,13.2,10.0,0.0,0.0,0.0,10.0,0.0,0.0,0.0,10.0
1452008404274738828,489,1452008404267499923,robocape_mag,17.55,-1.65,13.8,10.0,0.0,0.0,0.0,10.0,0.0,0.0,0.0,10.0
1452008404306299036,490,1452008404299431085,robocape_mag,17.55,-1.65,13.8,10.0,0.0,0.0,0.0,10.0,0.0,0.0,0.0,10.0
1452008404339486911,491,1452008404333498954,robocape_mag,17.55,-1.65,13.8,10.0,0.0,0.0,0.0,10.0,0.0,0.0,0.0,10.0
1452008404378176994,492,1452008404367561101,robocape_mag,17.55,-1.65,13.8,10.0,0.0,0.0,0.0,10.0,0.0,0.0,0.0,10.0
1452008404403377494,493,1452008404398345947,robocape_mag,17.55,32.25,12.9,10.0,0.0,0.0,0.0,10.0,0.0,0.0,0.0,10.0
1452008404438930911,494,1452008404433757066,robocape_mag,20.25,32.25,12.9,10.0,0.0,0.0,0.0,10.0,0.0,0.0,0.0,10.0
1452008404477060703,495,1452008404467999935,robocape_mag,20.25,32.25,12.9,10.0,0.0,0.0,0.0,10.0,0.0,0.0,0.0,10.0
1452008404506825911,496,1452008404499816894,robocape_mag,20.25,32.25,12.9,10.0,0.0,0.0,0.0,10.0,0.0,0.0,0.0,10.0
1452008404540108995,497,1452008404534934043,robocape_mag,20.25,32.25,12.9,10.0,0.0,0.0,0.0,10.0,0.0,0.0,0.0,10.0
1452008404573678453,498,1452008404568409919,robocape_mag,16.65,35.25,12.3,10.0,0.0,0.0,0.0,10.0,0.0,0.0,0.0,10.0
1452008404611292911,499,1452008404599731922,robocape_mag,16.65,35.25,12.3,10.0,0.0,0.0,0.0,10.0,0.0,0.0,0.0,10.0
1452008404643128995,500,1452008404635390996,robocape_mag,16.65,35.25,12.3,10.0,0.0,0.0,0.0,10.0,0.0,0.0,0.0,10.0
1452008404678235870,501,1452008404667704105,robocape_mag,16.65,35.25,12.3,10.0,0.0,0.0,0.0,10.0,0.0,0.0,0.0,10.0
1452008404707519620,502,1452008404702207088,robocape_mag,16.65,35.25,12.3,10.0,0.0,0.0,0.0,10.0,0.0,0.0,0.0,10.0
1452008404739028661,503,1452008404733999967,robocape_mag,27.15,3.15,15.6,10.0,0.0,0.0,0.0,10.0,0.0,0.0,0.0,10.0
1452008404772429995,504,1452008404767308950,robocape_mag,27.15,3.15,15.6,10.0,0.0,0.0,0.0,10.0,0.0,0.0,0.0,10.0
1452008404805277661,505,1452008404800184965,robocape_mag,27.15,3.15,15.6,10.0,0.0,0.0,0.0,10.0,0.0,0.0,0.0,10.0
1452008404838674370,506,1452008404833884000,robocape_mag,27.15,3.15,15.6,10.0,0.0,0.0,0.0,10.0,0.0,0.0,0.0,10.0
1452008404872558036,507,1452008404867424011,robocape_mag,27.15,3.15,15.6,10.0,0.0,0.0,0.0,10.0,0.0,0.0,0.0,10.0
1452008404904460370,508,1452008404899701118,robocape_mag,31.95,24.75,14.4,10.0,0.0,0.0,0.0,10.0,0.0,0.0,0.0,10.0
1452008404938874120,509,1452008404934019088,robocape_mag,31.95,24.75,14.4,10.0,0.0,0.0,0.0,10.0,0.0,0.0,0.0,10.0
1452008404976366911,510,1452008404966728925,robocape_mag,31.95,24.75,14.4,10.0,0.0,0.0,0.0,10.0,0.0,0.0,0.0,10.0
1452008405004246370,511,1452008404999305963,robocape_mag,31.95,24.75,14.4,10.0,0.0,0.0,0.0,10.0,0.0,0.0,0.0,10.0
1452008405036881536,512,1452008405032080888,robocape_mag,31.95,24.75,14.4,10.0,0.0,0.0,0.0,10.0,0.0,0.0,0.0,10.0
1452008405070297120,513,1452008405065494060,robocape_mag,19.05,0.45,14.7,10.0,0.0,0.0,0.0,10.0,0.0,0.0,0.0,10.0
1452008405103721036,514,1452008405098355054,robocape_mag,19.05,0.45,14.7,10.0,0.0,0.0,0.0,10.0,0.0,0.0,0.0,10.0
1452008405136288161,515,1452008405131308078,robocape_mag,19.05,0.45,14.7,10.0,0.0,0.0,0.0,10.0,0.0,0.0,0.0,10.0
1452008405169633578,516,1452008405164846897,robocape_mag,19.05,0.45,14.7,10.0,0.0,0.0,0.0,10.0,0.0,0.0,0.0,10.0
1452008405203270453,517,1452008405197920083,robocape_mag,19.05,26.55,15.6,10.0,0.0,0.0,0.0,10.0,0.0,0.0,0.0,10.0
1452008405235908370,518,1452008405230827093,robocape_mag,30.15,26.55,15.6,10.0,0.0,0.0,0.0,10.0,0.0,0.0,0.0,10.0
1452008405269590162,519,1452008405264539003,robocape_mag,30.15,26.55,15.6,10.0,0.0,0.0,0.0,10.0,0.0,0.0,0.0,10.0
1452008405306524162,520,1452008405297759056,robocape_mag,30.15,26.55,15.6,10.0,0.0,0.0,0.0,10.0,0.0,0.0,0.0,10.0
1452008405335972578,521,1452008405330849885,robocape_mag,30.15,26.55,15.6,10.0,0.0,0.0,0.0,10.0,0.0,0.0,0.0,10.0
1452008405376296412,522,1452008405366153955,robocape_mag,18.15,27.15,18.0,10.0,0.0,0.0,0.0,10.0,0.0,0.0,0.0,10.0
1452008405402961578,523,1452008405397803068,robocape_mag,18.15,27.15,18.0,10.0,0.0,0.0,0.0,10.0,0.0,0.0,0.0,10.0
1452008405436135162,524,1452008405431014060,robocape_mag,18.15,27.15,18.0,10.0,0.0,0.0,0.0,10.0,0.0,0.0,0.0,10.0
1452008405469088412,525,1452008405464334964,robocape_mag,18.15,27.15,18.0,10.0,0.0,0.0,0.0,10.0,0.0,0.0,0.0,10.0
1452008405502356787,526,1452008405497400999,robocape_mag,18.15,27.15,18.0,10.0,0.0,0.0,0.0,10.0,0.0,0.0,0.0,10.0
1452008405540121953,527,1452008405530946969,robocape_mag,-11.25,-11.85,14.4,10.0,0.0,0.0,0.0,10.0,0.0,0.0,0.0,10.0
1452008405569058412,528,1452008405564210891,robocape_mag,-11.25,-11.85,14.4,10.0,0.0,0.0,0.0,10.0,0.0,0.0,0.0,10.0
1452008405602743537,529,1452008405597743988,robocape_mag,-11.25,-11.85,14.4,10.0,0.0,0.0,0.0,10.0,0.0,0.0,0.0,10.0
