%time,field.header.seq,field.header.stamp,field.header.frame_id,field.orientation.x,field.orientation.y,field.orientation.z,field.orientation.w,field.orientation_covariance0,field.orientation_covariance1,field.orientation_covariance2,field.orientation_covariance3,field.orientation_covariance4,field.orientation_covariance5,field.orientation_covariance6,field.orientation_covariance7,field.orientation_covariance8,field.angular_velocity.x,field.angular_velocity.y,field.angular_velocity.z,field.angular_velocity_covariance0,field.angular_velocity_covariance1,field.angular_velocity_covariance2,field.angular_velocity_covariance3,field.angular_velocity_covariance4,field.angular_velocity_covariance5,field.angular_velocity_covariance6,field.angular_velocity_covariance7,field.angular_velocity_covariance8,field.linear_acceleration.x,field.linear_acceleration.y,field.linear_acceleration.z,field.linear_acceleration_covariance0,field.linear_acceleration_covariance1,field.linear_acceleration_covariance2,field.linear_acceleration_covariance3,field.linear_acceleration_covariance4,field.linear_acceleration_covariance5,field.linear_acceleration_covariance6,field.linear_acceleration_covariance7,field.linear_acceleration_covariance8
1446037646652329424,1,1446037646645590066,robocape,8.54428079623,8.85911971784,-5.99741775548,0.0,10.0,0.0,0.0,0.0,10.0,0.0,0.0,0.0,10.0,0.0203731823391,0.06711165947,-0.0316916169719,1.0,0.0,0.0,0.0,1.0,0.0,0.0,0.0,1.0,0.341290283203,0.4981640625,10.2363134766,0.1,0.0,0.0,0.0,0.1,0.0,0.0,0.0,0.1
1446037646675068049,2,1446037646671941995,robocape,8.78081988275,8.96585720516,-6.18978732031,0.0,10.0,0.0,0.0,0.0,10.0,0.0,0.0,0.0,10.0,0.14900386299,0.0490021640575,-0.113850136601,1.0,0.0,0.0,0.0,1.0,0.0,0.0,0.0,1.0,0.148491210938,-0.445473632813,10.0674645996,0.1,0.0,0.0,0.0,0.1,0.0,0.0,0.0,0.1
1446037646696808966,3,1446037646693703889,robocape,9.00724783057,9.0299602733,-6.25691715482,0.0,10.0,0.0,0.0,0.0,10.0,0.0,0.0,0.0,10.0,0.133424370613,0.0362189908251,-0.0463390029674,1.0,0.0,0.0,0.0,1.0,0.0,0.0,0.0,1.0,0.419128417969,0.438288574219,10.0291442871,0.1,0.0,0.0,0.0,0.1,0.0,0.0,0.0,0.1
1446037646735824299,4,1446037646726368904,robocape,9.18389339427,9.07302478809,-6.21714603202,0.0,10.0,0.0,0.0,0.0,10.0,0.0,0.0,0.0,10.0,0.0982706442239,0.033555829735,0.0102531701968,1.0,0.0,0.0,0.0,1.0,0.0,0.0,0.0,1.0,-0.0778381347656,-0.289797363281,9.93334350586,0.1,0.0,0.0,0.0,0.1,0.0,0.0,0.0,0.1
1446037646764235383,5,1446037646761195898,robocape,9.55165757655,9.269007064,-6.54849355588,0.0,10.0,0.0,0.0,0.0,10.0,0.0,0.0,0.0,10.0,0.232094489,0.0836232582285,-0.194277601521,1.0,0.0,0.0,0.0,1.0,0.0,0.0,0.0,1.0,0.170046386719,-0.00718505859375,9.93454101563,0.1,0.0,0.0,0.0,0.1,0.0,0.0,0.0,0.1
1446037646797583508,6,1446037646794476985,robocape,10.0336085971,9.47713109602,-7.07800566951,0.0,10.0,0.0,0.0,0.0,10.0,0.0,0.0,0.0,10.0,0.311456689485,0.0724379816502,-0.298407200143,1.0,0.0,0.0,0.0,1.0,0.0,0.0,0.0,1.0,0.267044677734,0.886157226563,10.2195483398,0.1,0.0,0.0,0.0,0.1,0.0,0.0,0.0,0.1
1446037646830784216,7,1446037646827397108,robocape,10.3824337926,9.62897557584,-7.71511079393,0.0,10.0,0.0,0.0,0.0,10.0,0.0,0.0,0.0,10.0,0.25246767134,0.0315584589174,-0.349007260855,1.0,0.0,0.0,0.0,1.0,0.0,0.0,0.0,1.0,0.150886230469,1.49568969727,10.1057849121,0.1,0.0,0.0,0.0,0.1,0.0,0.0,0.0,0.1
1446037646864349674,8,1446037646861340045,robocape,10.3272910276,9.74050746712,-8.29533197307,0.0,10.0,0.0,0.0,0.0,10.0,0.0,0.0,0.0,10.0,0.0347542522255,0.0137152796139,-0.31545143112,1.0,0.0,0.0,0.0,1.0,0.0,0.0,0.0,1.0,0.108973388672,2.85606079102,9.9285534668,0.1,0.0,0.0,0.0,0.1,0.0,0.0,0.0,0.1
1446037646900074174,9,1446037646896568059,robocape,9.45910584331,9.74581703039,-8.21207223867,0.0,10.0,0.0,0.0,0.0,10.0,0.0,0.0,0.0,10.0,-0.456865285003,0.0146473859954,0.0372842552611,1.0,0.0,0.0,0.0,1.0,0.0,0.0,0.0,1.0,0.24908203125,1.12326416016,10.0183666992,0.1,0.0,0.0,0.0,0.1,0.0,0.0,0.0,0.1
1446037646932843758,10,1446037646928347110,robocape,8.6470205657,9.75152527222,-8.24829376519,0.0,10.0,0.0,0.0,0.0,10.0,0.0,0.0,0.0,10.0,-0.416518394488,0.00532632218016,-0.0242347659197,1.0,0.0,0.0,0.0,1.0,0.0,0.0,0.0,1.0,0.0754431152344,0.143701171875,9.96926879883,0.1,0.0,0.0,0.0,0.1,0.0,0.0,0.0,0.1
1446037646966013466,11,1446037646962949991,robocape,7.84512660471,9.74437570359,-8.35630702798,0.0,10.0,0.0,0.0,0.0,10.0,0.0,0.0,0.0,10.0,-0.404933643747,-0.00599211245268,-0.0603205986903,1.0,0.0,0.0,0.0,1.0,0.0,0.0,0.0,1.0,-0.198786621094,0.250279541016,10.0051940918,0.1,0.0,0.0,0.0,0.1,0.0,0.0,0.0,0.1
1446037646995806841,12,1446037646992712974,robocape,7.11085826011,9.75333635629,-8.51188858852,0.0,10.0,0.0,0.0,0.0,10.0,0.0,0.0,0.0,10.0,-0.365252543504,0.000532632218016,-0.0865527354276,1.0,0.0,0.0,0.0,1.0,0.0,0.0,0.0,1.0,0.258662109375,-0.765208740234,10.0506994629,0.1,0.0,0.0,0.0,0.1,0.0,0.0,0.0,0.1
1446037647029280883,13,1446037647026182889,robocape,6.61904724116,9.75580338182,-8.64580484886,0.0,10.0,0.0,0.0,0.0,10.0,0.0,0.0,0.0,10.0,-0.239950814216,0.000133158054504,-0.0759000910673,1.0,0.0,0.0,0.0,1.0,0.0,0.0,0.0,1.0,0.141306152344,-0.9580078125,9.97166381836,0.1,0.0,0.0,0.0,0.1,0.0,0.0,0.0,0.1
1446037647062772174,14,1446037647059664011,robocape,6.27863681161,9.74886800145,-8.57595980866,0.0,10.0,0.0,0.0,0.0,10.0,0.0,0.0,0.0,10.0,-0.179230741362,0.00732369299772,0.0294279300454,1.0,0.0,0.0,0.0,1.0,0.0,0.0,0.0,1.0,0.282612304688,-1.29331054688,10.019564209,0.1,0.0,0.0,0.0,0.1,0.0,0.0,0.0,0.1
1446037647095931258,15,1446037647092838048,robocape,6.43589929649,9.77886283107,-8.5830836756,0.0,10.0,0.0,0.0,0.0,10.0,0.0,0.0,0.0,10.0,0.0896153706812,0.0238352917562,-0.0138484376684,1.0,0.0,0.0,0.0,1.0,0.0,0.0,0.0,1.0,0.365240478516,-2.1459375,9.92256591797,0.1,0.0,0.0,0.0,0.1,0.0,0.0,0.0,0.1
1446037647129589091,16,1446037647126096010,robocape,7.0437596338,9.84445561099,-8.69597418723,0.0,10.0,0.0,0.0,0.0,10.0,0.0,0.0,0.0,10.0,0.33702303595,0.0376837294246,-0.0721716655411,1.0,0.0,0.0,0.0,1.0,0.0,0.0,0.0,1.0,0.349672851562,-0.647852783203,9.96926879883,0.1,0.0,0.0,0.0,0.1,0.0,0.0,0.0,0.1
1446037647162538008,17,1446037647159240961,robocape,7.78053895374,9.9055954341,-8.87775290568,0.0,10.0,0.0,0.0,0.0,10.0,0.0,0.0,0.0,10.0,0.412390494799,0.0308926686449,-0.108523814421,1.0,0.0,0.0,0.0,1.0,0.0,0.0,0.0,1.0,-0.0778381347656,0.864602050781,10.0542919922,0.1,0.0,0.0,0.0,0.1,0.0,0.0,0.0,0.1
1446037647195930758,18,1446037647192822933,robocape,7.77073866632,9.89894841718,-8.56830373173,0.0,10.0,0.0,0.0,0.0,10.0,0.0,0.0,0.0,10.0,-0.0264984528463,0.0253000303558,0.151533866026,1.0,0.0,0.0,0.0,1.0,0.0,0.0,0.0,1.0,-0.228724365234,2.23096069336,10.0423168945,0.1,0.0,0.0,0.0,0.1,0.0,0.0,0.0,0.1
1446037647228972633,19,1446037647225964069,robocape,7.69505606386,9.89433075226,-8.38299747511,0.0,10.0,0.0,0.0,0.0,10.0,0.0,0.0,0.0,10.0,-0.04966795433,0.0178431793035,0.0878843159726,1.0,0.0,0.0,0.0,1.0,0.0,0.0,0.0,1.0,0.372425537109,-0.949625244141,10.0183666992,0.1,0.0,0.0,0.0,0.1,0.0,0.0,0.0,0.1
1446037647262281924,20,1446037647259262084,robocape,7.5736852554,9.89972333111,-8.3038804394,0.0,10.0,0.0,0.0,0.0,10.0,0.0,0.0,0.0,10.0,-0.0639158661619,0.015845808486,0.032756881408,1.0,0.0,0.0,0.0,1.0,0.0,0.0,0.0,1.0,0.0586779785156,1.4944921875,9.95729370117,0.1,0.0,0.0,0.0,0.1,0.0,0.0,0.0,0.1
1446037647296291799,21,1446037647292995929,robocape,7.38283033432,9.8929773296,-8.1764252356,0.0,10.0,0.0,0.0,0.0,10.0,0.0,0.0,0.0,10.0,-0.105194863058,0.0122505410144,0.0588558600908,1.0,0.0,0.0,0.0,1.0,0.0,0.0,0.0,1.0,0.165256347656,-0.468226318359,10.0016015625,0.1,0.0,0.0,0.0,0.1,0.0,0.0,0.0,0.1
1446037647328816674,22,1446037647325794935,robocape,7.48151941408,9.93885805948,-8.42907727073,0.0,10.0,0.0,0.0,0.0,10.0,0.0,0.0,0.0,10.0,0.0828243099015,0.0165115987585,-0.141547011938,1.0,0.0,0.0,0.0,1.0,0.0,0.0,0.0,1.0,0.0371228027344,0.0874182128906,9.99920654297,0.1,0.0,0.0,0.0,0.1,0.0,0.0,0.0,0.1
1446037647362536508,23,1446037647359456062,robocape,7.28772753279,9.92806828079,-8.34074729319,0.0,10.0,0.0,0.0,0.0,10.0,0.0,0.0,0.0,10.0,-0.103197492241,0.00759000910673,0.0388821519152,1.0,0.0,0.0,0.0,1.0,0.0,0.0,0.0,1.0,0.0814306640625,1.75195678711,9.94172607422,0.1,0.0,0.0,0.0,0.1,0.0,0.0,0.0,0.1
1446037647396128925,24,1446037647392672061,robocape,6.9273479702,9.91936723138,-8.26280622825,0.0,10.0,0.0,0.0,0.0,10.0,0.0,0.0,0.0,10.0,-0.190149701832,0.00732369299772,0.0339553038985,1.0,0.0,0.0,0.0,1.0,0.0,0.0,0.0,1.0,0.213156738281,-0.847836914063,10.019564209,0.1,0.0,0.0,0.0,0.1,0.0,0.0,0.0,0.1
1446037647429125383,25,1446037647425828933,robocape,6.69238689839,9.92472228332,-8.2416563405,0.0,10.0,0.0,0.0,0.0,10.0,0.0,0.0,0.0,10.0,-0.119043300727,0.0115847507418,0.0034621094171,1.0,0.0,0.0,0.0,1.0,0.0,0.0,0.0,1.0,0.0371228027344,-0.05748046875,10.039921875,0.1,0.0,0.0,0.0,0.1,0.0,0.0,0.0,0.1
1446037647464969633,26,1446037647461905002,robocape,6.61647566084,9.9316848388,-8.20540432725,0.0,10.0,0.0,0.0,0.0,10.0,0.0,0.0,0.0,10.0,-0.0368847810976,0.0137152796139,0.0107858024148,1.0,0.0,0.0,0.0,1.0,0.0,0.0,0.0,1.0,0.314945068359,-1.48610961914,9.98004638672,0.1,0.0,0.0,0.0,0.1,0.0,0.0,0.0,0.1
1446037647496333758,27,1446037647492773056,robocape,6.73146832812,9.96080965977,-8.16782644624,0.0,10.0,0.0,0.0,0.0,10.0,0.0,0.0,0.0,10.0,0.0635163919984,0.0259658206283,0.00958737992429,1.0,0.0,0.0,0.0,1.0,0.0,0.0,0.0,1.0,0.17244140625,0.21076171875,10.0207617188,0.1,0.0,0.0,0.0,0.1,0.0,0.0,0.0,0.1
1446037647529235466,28,1446037647526010036,robocape,6.94408435673,9.97320185133,-8.02677705406,0.0,10.0,0.0,0.0,0.0,10.0,0.0,0.0,0.0,10.0,0.105328021113,0.0235689756472,0.0637827081074,1.0,0.0,0.0,0.0,1.0,0.0,0.0,0.0,1.0,0.166453857422,-1.57352783203,9.94771362305,0.1,0.0,0.0,0.0,0.1,0.0,0.0,0.0,0.1
1446037647570171883,29,1446037647566951036,robocape,7.52862764092,10.0300230998,-8.24373972699,0.0,10.0,0.0,0.0,0.0,10.0,0.0,0.0,0.0,10.0,0.335291981241,0.0263652947918,-0.124902255125,1.0,0.0,0.0,0.0,1.0,0.0,0.0,0.0,1.0,-0.0239501953125,0.946032714844,10.019564209,0.1,0.0,0.0,0.0,0.1,0.0,0.0,0.0,0.1
1446037647596152050,30,1446037647592736959,robocape,7.85360856846,10.0824356153,-8.51662496884,0.0,10.0,0.0,0.0,0.0,10.0,0.0,0.0,0.0,10.0,0.204663929773,0.0189084437396,-0.153264920734,1.0,0.0,0.0,0.0,1.0,0.0,0.0,0.0,1.0,0.00718505859375,1.16876953125,9.8447277832,0.1,0.0,0.0,0.0,0.1,0.0,0.0,0.0,0.1
1446037647629707508,31,1446037647626089096,robocape,7.56832966966,10.0861383918,-8.45385995407,0.0,10.0,0.0,0.0,0.0,10.0,0.0,0.0,0.0,10.0,-0.148737546881,0.0135821215594,0.0247673981377,1.0,0.0,0.0,0.0,1.0,0.0,0.0,0.0,1.0,0.0455053710938,2.42136474609,9.95370117188,0.1,0.0,0.0,0.0,0.1,0.0,0.0,0.0,0.1
1446037647662829675,32,1446037647659600973,robocape,6.75937568309,10.02522862,-7.95345684569,0.0,10.0,0.0,0.0,0.0,10.0,0.0,0.0,0.0,10.0,-0.466319506873,0.00439421579863,0.256462412975,1.0,0.0,0.0,0.0,1.0,0.0,0.0,0.0,1.0,0.217946777344,-0.290994873047,10.060279541,0.1,0.0,0.0,0.0,0.1,0.0,0.0,0.0,0.1
1446037647696141883,33,1446037647692902088,robocape,6.39895953667,10.0047254894,-7.78152435171,0.0,10.0,0.0,0.0,0.0,10.0,0.0,0.0,0.0,10.0,-0.199470765647,0.00612527050718,0.083490100174,1.0,0.0,0.0,0.0,1.0,0.0,0.0,0.0,1.0,0.112565917969,-2.58063354492,9.886640625,0.1,0.0,0.0,0.0,0.1,0.0,0.0,0.0,0.1
1446037647729093716,34,1446037647726075887,robocape,6.73130119223,10.0660759981,-8.07433827068,0.0,10.0,0.0,0.0,0.0,10.0,0.0,0.0,0.0,10.0,0.208791829462,0.0250337142467,-0.162985458713,1.0,0.0,0.0,0.0,1.0,0.0,0.0,0.0,1.0,0.290994873047,-0.676593017578,10.0147741699,0.1,0.0,0.0,0.0,0.1,0.0,0.0,0.0,0.1
1446037647763602341,35,1446037647760471105,robocape,7.0995500015,10.1277778503,-8.44970903992,0.0,10.0,0.0,0.0,0.0,10.0,0.0,0.0,0.0,10.0,0.23622238869,0.0197073920666,-0.206261826427,1.0,0.0,0.0,0.0,1.0,0.0,0.0,0.0,1.0,0.148491210938,0.493374023438,10.0411193848,0.1,0.0,0.0,0.0,0.1,0.0,0.0,0.0,0.1
1446037647797320508,36,1446037647793940067,robocape,6.96266222195,10.154604239,-8.5548480426,0.0,10.0,0.0,0.0,0.0,10.0,0.0,0.0,0.0,10.0,-0.0551274345646,0.015845808486,-0.0636495500529,1.0,0.0,0.0,0.0,1.0,0.0,0.0,0.0,1.0,0.0622705078125,1.66932861328,9.92735595703,0.1,0.0,0.0,0.0,0.1,0.0,0.0,0.0,0.1
1446037647830321466,37,1446037647827224969,robocape,6.61872454894,10.150754209,-8.58932281129,0.0,10.0,0.0,0.0,0.0,10.0,0.0,0.0,0.0,10.0,-0.171108100038,0.0034621094171,-0.0246342400832,1.0,0.0,0.0,0.0,1.0,0.0,0.0,0.0,1.0,0.135318603516,0.0922082519531,10.0111816406,0.1,0.0,0.0,0.0,0.1,0.0,0.0,0.0,0.1
1446037647863712008,38,1446037647860569953,robocape,6.12176889354,10.1151765573,-8.3802122023,0.0,10.0,0.0,0.0,0.0,10.0,0.0,0.0,0.0,10.0,-0.275104540605,-0.000399474163512,0.10346380835,1.0,0.0,0.0,0.0,1.0,0.0,0.0,0.0,1.0,0.0407153320313,-0.623902587891,10.1225500488,0.1,0.0,0.0,0.0,0.1,0.0,0.0,0.0,0.1
1446037647897382008,39,1446037647894139051,robocape,5.99710345297,10.1278887783,-8.37980367674,0.0,10.0,0.0,0.0,0.0,10.0,0.0,0.0,0.0,10.0,-0.0596548084178,0.0147805440499,-0.00798948327024,1.0,0.0,0.0,0.0,1.0,0.0,0.0,0.0,1.0,0.310155029297,-0.760418701172,9.95489868164,0.1,0.0,0.0,0.0,0.1,0.0,0.0,0.0,0.1
1446037647931344675,40,1446037647928194999,robocape,5.91263691313,10.1234017898,-8.15874542683,0.0,10.0,0.0,0.0,0.0,10.0,0.0,0.0,0.0,10.0,-0.0595216503633,0.016911072922,0.106925917767,1.0,0.0,0.0,0.0,1.0,0.0,0.0,0.0,1.0,0.279019775391,-1.00830322266,9.96088623047,0.1,0.0,0.0,0.0,0.1,0.0,0.0,0.0,0.1
1446037647964290258,41,1446037647961155891,robocape,5.99028510374,10.1214103058,-7.75164045069,0.0,10.0,0.0,0.0,0.0,10.0,0.0,0.0,0.0,10.0,0.00812264132474,0.0279631914458,0.202666558955,1.0,0.0,0.0,0.0,1.0,0.0,0.0,0.0,1.0,0.228724365234,-0.877774658203,10.0506994629,0.1,0.0,0.0,0.0,0.1,0.0,0.0,0.0,0.1
1446037647997755425,42,1446037647994443893,robocape,6.28544789154,10.1185759763,-7.19933646569,0.0,10.0,0.0,0.0,0.0,10.0,0.0,0.0,0.0,10.0,0.108923288584,0.0363521488796,0.277368227532,1.0,0.0,0.0,0.0,1.0,0.0,0.0,0.0,1.0,0.358055419922,-1.19032470703,9.99321899414,0.1,0.0,0.0,0.0,0.1,0.0,0.0,0.0,0.1
1446037648032940966,43,1446037648029046058,robocape,6.87680621969,10.0986685189,-6.61170788616,0.0,10.0,0.0,0.0,0.0,10.0,0.0,0.0,0.0,10.0,0.261788735155,0.032490565299,0.296143513217,1.0,0.0,0.0,0.0,1.0,0.0,0.0,0.0,1.0,0.140108642578,-1.44539428711,9.91298583984,0.1,0.0,0.0,0.0,0.1,0.0,0.0,0.0,0.1
1446037648066765842,44,1446037648062290906,robocape,7.98594309504,10.1482646019,-6.54108118328,0.0,10.0,0.0,0.0,0.0,10.0,0.0,0.0,0.0,10.0,0.584430701218,0.0420779452233,0.0242347659197,1.0,0.0,0.0,0.0,1.0,0.0,0.0,0.0,1.0,-0.0981958007813,-0.716110839844,9.82796264648,0.1,0.0,0.0,0.0,0.1,0.0,0.0,0.0,0.1
1446037648099168925,45,1446037648095345973,robocape,9.4484410019,10.2551141213,-7.03424807312,0.0,10.0,0.0,0.0,0.0,10.0,0.0,0.0,0.0,10.0,0.827310992633,0.031957933081,-0.271775589243,1.0,0.0,0.0,0.0,1.0,0.0,0.0,0.0,1.0,0.0490979003906,1.4178515625,9.8519128418,0.1,0.0,0.0,0.0,0.1,0.0,0.0,0.0,0.1
1446037648134415758,46,1446037648129793882,robocape,10.3261745186,10.3156042158,-7.29661650046,0.0,10.0,0.0,0.0,0.0,10.0,0.0,0.0,0.0,10.0,0.499076388281,0.0211721306661,-0.149669653262,1.0,0.0,0.0,0.0,1.0,0.0,0.0,0.0,1.0,-0.182021484375,3.06083496094,10.0351318359,0.1,0.0,0.0,0.0,0.1,0.0,0.0,0.0,0.1
1446037648165572467,47,1446037648161227941,robocape,10.4471533316,10.3309910538,-7.19459815054,0.0,10.0,0.0,0.0,0.0,10.0,0.0,0.0,0.0,10.0,0.0641821822709,0.0264984528463,0.0426105774413,1.0,0.0,0.0,0.0,1.0,0.0,0.0,0.0,1.0,0.481398925781,1.54359008789,9.9596887207,0.1,0.0,0.0,0.0,0.1,0.0,0.0,0.0,0.1
1446037648198207633,48,1446037648195153951,robocape,10.4648243227,10.3544783641,-7.2868290365,0.0,10.0,0.0,0.0,0.0,10.0,0.0,0.0,0.0,10.0,0.0286289817184,0.0127831732324,-0.0568584892732,1.0,0.0,0.0,0.0,1.0,0.0,0.0,0.0,1.0,0.201181640625,1.28612548828,9.93214599609,0.1,0.0,0.0,0.0,0.1,0.0,0.0,0.0,0.1
1446037648232872633,49,1446037648229196071,robocape,10.2229698361,10.3895440743,-7.48891682151,0.0,10.0,0.0,0.0,0.0,10.0,0.0,0.0,0.0,10.0,-0.0978711700604,0.00798948327024,-0.113184346328,1.0,0.0,0.0,0.0,1.0,0.0,0.0,0.0,1.0,0.0275427246094,1.90044799805,9.93573852539,0.1,0.0,0.0,0.0,0.1,0.0,0.0,0.0,0.1
1446037648266469592,50,1446037648262810945,robocape,9.63244467197,10.3658725591,-7.36803805435,0.0,10.0,0.0,0.0,0.0,10.0,0.0,0.0,0.0,10.0,-0.314386166684,0.00439421579863,0.0584563859272,1.0,0.0,0.0,0.0,1.0,0.0,0.0,0.0,1.0,0.0407153320313,0.731678466797,10.0351318359,0.1,0.0,0.0,0.0,0.1,0.0,0.0,0.0,0.1
1446037648299493425,51,1446037648295288085,robocape,9.13542697441,10.3668568134,-7.41571782942,0.0,10.0,0.0,0.0,0.0,10.0,0.0,0.0,0.0,10.0,-0.248739245813,0.0034621094171,-0.0302268783724,1.0,0.0,0.0,0.0,1.0,0.0,0.0,0.0,1.0,0.106578369141,-0.136516113281,10.0291442871,0.1,0.0,0.0,0.0,0.1,0.0,0.0,0.0,0.1
1446037648332015175,52,1446037648328428983,robocape,8.79928851486,10.387794089,-7.60085923373,0.0,10.0,0.0,0.0,0.0,10.0,0.0,0.0,0.0,10.0,-0.150601759644,0.00412789968962,-0.102931176132,1.0,0.0,0.0,0.0,1.0,0.0,0.0,0.0,1.0,0.0550854492188,1.02866088867,10.0099841309,0.1,0.0,0.0,0.0,0.1,0.0,0.0,0.0,0.1
1446037648366859508,53,1446037648363367080,robocape,7.9384056568,10.3311057321,-7.27067803398,0.0,10.0,0.0,0.0,0.0,10.0,0.0,0.0,0.0,10.0,-0.478170573724,-0.000399474163512,0.16911072922,1.0,0.0,0.0,0.0,1.0,0.0,0.0,0.0,1.0,-0.0143701171875,0.0981958007813,10.0303417969,0.1,0.0,0.0,0.0,0.1,0.0,0.0,0.0,0.1
1446037648398484925,54,1446037648394968986,robocape,7.46183602673,10.2926084072,-7.03515909943,0.0,10.0,0.0,0.0,0.0,10.0,0.0,0.0,0.0,10.0,-0.266582425117,0.00239684498107,0.118111194345,1.0,0.0,0.0,0.0,1.0,0.0,0.0,0.0,1.0,0.009580078125,-2.01900146484,9.92735595703,0.1,0.0,0.0,0.0,0.1,0.0,0.0,0.0,0.1
1446037648433405758,55,1446037648429946899,robocape,7.71620426728,10.3396039273,-7.13833580254,0.0,10.0,0.0,0.0,0.0,10.0,0.0,0.0,0.0,10.0,0.151267549917,0.0272974011733,-0.0637827081074,1.0,0.0,0.0,0.0,1.0,0.0,0.0,0.0,1.0,0.541274414062,-0.779578857422,9.98363891602,0.1,0.0,0.0,0.0,0.1,0.0,0.0,0.0,0.1
1446037648466263758,56,1446037648462845087,robocape,7.93451029071,10.3369790738,-6.91218375938,0.0,10.0,0.0,0.0,0.0,10.0,0.0,0.0,0.0,10.0,0.10053433115,0.0231695014837,0.108923288584,1.0,0.0,0.0,0.0,1.0,0.0,0.0,0.0,1.0,0.276624755859,-1.04662353516,9.89143066406,0.1,0.0,0.0,0.0,0.1,0.0,0.0,0.0,0.1
1446037648498624675,57,1446037648495182037,robocape,8.48722439547,10.3783218188,-6.90743984388,0.0,10.0,0.0,0.0,0.0,10.0,0.0,0.0,0.0,10.0,0.298806674307,0.032490565299,-0.00892158965177,1.0,0.0,0.0,0.0,1.0,0.0,0.0,0.0,1.0,-0.211959228516,0.451461181641,10.0051940918,0.1,0.0,0.0,0.0,0.1,0.0,0.0,0.0,0.1
1446037648532271300,58,1446037648529118061,robocape,8.70794360644,10.3475660188,-6.46291221756,0.0,10.0,0.0,0.0,0.0,10.0,0.0,0.0,0.0,10.0,0.0812264132474,0.0263652947918,0.22290658324,1.0,0.0,0.0,0.0,1.0,0.0,0.0,0.0,1.0,0.126936035156,1.56035522461,10.1237475586,0.1,0.0,0.0,0.0,0.1,0.0,0.0,0.0,0.1
1446037648566190592,59,1446037648562853097,robocape,8.73703658215,10.300271189,-5.95830838019,0.0,10.0,0.0,0.0,0.0,10.0,0.0,0.0,0.0,10.0,-0.0254331884103,0.0221042370477,0.255796622702,1.0,0.0,0.0,0.0,1.0,0.0,0.0,0.0,1.0,0.398770751953,-1.00710571289,10.0578845215,0.1,0.0,0.0,0.0,0.1,0.0,0.0,0.0,0.1
1446037648598828800,60,1446037648595772027,robocape,9.19861614352,10.3437217413,-6.09345919607,0.0,10.0,0.0,0.0,0.0,10.0,0.0,0.0,0.0,10.0,0.265117686517,0.0225037112112,-0.0798948327024,1.0,0.0,0.0,0.0,1.0,0.0,0.0,0.0,1.0,0.142503662109,-0.417930908203,10.0590820312,0.1,0.0,0.0,0.0,0.1,0.0,0.0,0.0,0.1
1446037648632537883,61,1446037648628954887,robocape,9.36501377653,10.3330941683,-5.87272491414,0.0,10.0,0.0,0.0,0.0,10.0,0.0,0.0,0.0,10.0,0.0751011427402,0.0215716048296,0.107192233876,1.0,0.0,0.0,0.0,1.0,0.0,0.0,0.0,1.0,0.0275427246094,1.15080688477,9.98603393555,0.1,0.0,0.0,0.0,0.1,0.0,0.0,0.0,0.1
1446037648664679300,62,1446037648661350965,robocape,9.37316015543,10.2887516277,-5.4829382237,0.0,10.0,0.0,0.0,0.0,10.0,0.0,0.0,0.0,10.0,-0.0247673981377,0.0173105470855,0.197073920666,1.0,0.0,0.0,0.0,1.0,0.0,0.0,0.0,1.0,0.0227526855469,-0.0467028808594,9.98363891602,0.1,0.0,0.0,0.0,0.1,0.0,0.0,0.0,0.1
1446037648699132717,63,1446037648695792913,robocape,9.4998712446,10.2726036239,-5.27450404791,0.0,10.0,0.0,0.0,0.0,10.0,0.0,0.0,0.0,10.0,0.0555269087282,0.0178431793035,0.10199906975,1.0,0.0,0.0,0.0,1.0,0.0,0.0,0.0,1.0,0.108973388672,-0.0610729980469,10.0231567383,0.1,0.0,0.0,0.0,0.1,0.0,0.0,0.0,0.1
1446037648732310883,64,1446037648729198932,robocape,9.85052191759,10.2852745193,-5.23810691602,0.0,10.0,0.0,0.0,0.0,10.0,0.0,0.0,0.0,10.0,0.19068233405,0.0197073920666,0.0111852765783,1.0,0.0,0.0,0.0,1.0,0.0,0.0,0.0,1.0,0.156873779297,-0.386795654297,10.0662670898,0.1,0.0,0.0,0.0,0.1,0.0,0.0,0.0,0.1
1446037648766366759,65,1446037648763190984,robocape,10.6018375695,10.3818312953,-5.65571696502,0.0,10.0,0.0,0.0,0.0,10.0,0.0,0.0,0.0,10.0,0.447544221188,0.0247673981377,-0.22943132791,1.0,0.0,0.0,0.0,1.0,0.0,0.0,0.0,1.0,0.17244140625,-0.379610595703,10.0219592285,0.1,0.0,0.0,0.0,0.1,0.0,0.0,0.0,0.1
1446037648796719259,66,1446037648793621063,robocape,11.2548635063,10.4766282712,-6.11039473619,0.0,10.0,0.0,0.0,0.0,10.0,0.0,0.0,0.0,10.0,0.401072060166,0.017710021249,-0.248872403868,1.0,0.0,0.0,0.0,1.0,0.0,0.0,0.0,1.0,0.0419128417969,1.64058837891,9.95609619141,0.1,0.0,0.0,0.0,0.1,0.0,0.0,0.0,0.1
1446037648830584009,67,1446037648827565908,robocape,11.3421258243,10.5285742492,-6.37133781189,0.0,10.0,0.0,0.0,0.0,10.0,0.0,0.0,0.0,10.0,0.083223784065,0.0107858024148,-0.1448759633,1.0,0.0,0.0,0.0,1.0,0.0,0.0,0.0,1.0,-0.174836425781,2.99377441406,10.0111816406,0.1,0.0,0.0,0.0,0.1,0.0,0.0,0.0,0.1
1446037648863361675,68,1446037648860220909,robocape,10.942289662,10.5277329639,-6.26938009141,0.0,10.0,0.0,0.0,0.0,10.0,0.0,0.0,0.0,10.0,-0.211055516389,0.016644756813,0.0464721610219,1.0,0.0,0.0,0.0,1.0,0.0,0.0,0.0,1.0,0.578397216797,1.31486572266,10.0159716797,0.1,0.0,0.0,0.0,0.1,0.0,0.0,0.0,0.1
1446037648896610217,69,1446037648893520116,robocape,10.254824812,10.448132858,-5.76907887323,0.0,10.0,0.0,0.0,0.0,10.0,0.0,0.0,0.0,10.0,-0.403202589038,0.0105194863058,0.258060309629,1.0,0.0,0.0,0.0,1.0,0.0,0.0,0.0,1.0,0.243094482422,0.0107775878906,9.89502319336,0.1,0.0,0.0,0.0,0.1,0.0,0.0,0.0,0.1
1446037648930143467,70,1446037648927131891,robocape,9.97156455182,10.4638531549,-5.78157836253,0.0,10.0,0.0,0.0,0.0,10.0,0.0,0.0,0.0,10.0,-0.138883850848,0.0147805440499,-0.0130494893414,1.0,0.0,0.0,0.0,1.0,0.0,0.0,0.0,1.0,-0.240699462891,-0.380808105469,10.0099841309,0.1,0.0,0.0,0.0,0.1,0.0,0.0,0.0,0.1
1446037648963211884,71,1446037648959955930,robocape,9.65476023415,10.4335342693,-5.52245820182,0.0,10.0,0.0,0.0,0.0,10.0,0.0,0.0,0.0,10.0,-0.183624957161,0.0138484376684,0.129829103141,1.0,0.0,0.0,0.0,1.0,0.0,0.0,0.0,1.0,0.0419128417969,-0.0922082519531,9.99561401367,0.1,0.0,0.0,0.0,0.1,0.0,0.0,0.0,0.1
1446037648996059467,72,1446037648992887973,robocape,9.7807827078,10.4828817528,-5.7216557592,0.0,10.0,0.0,0.0,0.0,10.0,0.0,0.0,0.0,10.0,0.0953411670248,0.018242653467,-0.112119081892,1.0,0.0,0.0,0.0,1.0,0.0,0.0,0.0,1.0,0.258662109375,-0.844244384766,10.0938098145,0.1,0.0,0.0,0.0,0.1,0.0,0.0,0.0,0.1
1446037649029307592,73,1446037649026197910,robocape,9.90505388156,10.5274519453,-5.8854394821,0.0,10.0,0.0,0.0,0.0,10.0,0.0,0.0,0.0,10.0,0.0912132673352,0.0186421276306,-0.0938764284253,1.0,0.0,0.0,0.0,1.0,0.0,0.0,0.0,1.0,0.108973388672,1.44898681641,9.96926879883,0.1,0.0,0.0,0.0,0.1,0.0,0.0,0.0,0.1
1446037649062885425,74,1446037649059828996,robocape,9.50149067217,10.4518144367,-5.29910567802,0.0,10.0,0.0,0.0,0.0,10.0,0.0,0.0,0.0,10.0,-0.261921893209,0.017177389031,0.300937203179,1.0,0.0,0.0,0.0,1.0,0.0,0.0,0.0,1.0,0.09580078125,0.142503662109,9.98603393555,0.1,0.0,0.0,0.0,0.1,0.0,0.0,0.0,0.1
1446037649095831467,75,1446037649092742919,robocape,9.60998876297,10.4534083579,-5.19159751543,0.0,10.0,0.0,0.0,0.0,10.0,0.0,0.0,0.0,10.0,0.0556600667827,0.0190416017941,0.0490021640575,1.0,0.0,0.0,0.0,1.0,0.0,0.0,0.0,1.0,0.0706530761719,-1.3412109375,10.0171691895,0.1,0.0,0.0,0.0,0.1,0.0,0.0,0.0,0.1
1446037649128942634,76,1446037649125869035,robocape,9.90069467634,10.4827134267,-5.25278554332,0.0,10.0,0.0,0.0,0.0,10.0,0.0,0.0,0.0,10.0,0.168711255057,0.0201068662301,-0.0399474163512,1.0,0.0,0.0,0.0,1.0,0.0,0.0,0.0,1.0,0.0682580566406,0.820294189453,9.97645385742,0.1,0.0,0.0,0.0,0.1,0.0,0.0,0.0,0.1
1446037649162570800,77,1446037649159544944,robocape,10.0025531281,10.4658202905,-5.0499363713,0.0,10.0,0.0,0.0,0.0,10.0,0.0,0.0,0.0,10.0,0.0431432096593,0.0181094954125,0.0992027506055,1.0,0.0,0.0,0.0,1.0,0.0,0.0,0.0,1.0,0.167651367188,-0.152083740234,10.060279541,0.1,0.0,0.0,0.0,0.1,0.0,0.0,0.0,0.1
1446037649195813342,78,1446037649192806959,robocape,10.3426718769,10.4785306266,-5.00987637743,0.0,10.0,0.0,0.0,0.0,10.0,0.0,0.0,0.0,10.0,0.18535601187,0.0205063403936,0.0130494893414,1.0,0.0,0.0,0.0,1.0,0.0,0.0,0.0,1.0,0.205971679688,-0.1149609375,10.0159716797,0.1,0.0,0.0,0.0,0.1,0.0,0.0,0.0,0.1
1446037649229233050,79,1446037649226212978,robocape,10.9027514462,10.520438218,-5.12796142662,0.0,10.0,0.0,0.0,0.0,10.0,0.0,0.0,0.0,10.0,0.317981434155,0.0222373951022,-0.0709732430506,1.0,0.0,0.0,0.0,1.0,0.0,0.0,0.0,1.0,0.178428955078,-0.605939941406,10.0447119141,0.1,0.0,0.0,0.0,0.1,0.0,0.0,0.0,0.1
1446037649262687717,80,1446037649259644031,robocape,11.7405117301,10.6054327915,-5.49742722836,0.0,10.0,0.0,0.0,0.0,10.0,0.0,0.0,0.0,10.0,0.491486379174,0.0205063403936,-0.204397613664,1.0,0.0,0.0,0.0,1.0,0.0,0.0,0.0,1.0,-0.076640625,1.64058837891,9.98483642578,0.1,0.0,0.0,0.0,0.1,0.0,0.0,0.0,0.1
1446037649295909050,81,1446037649292869091,robocape,11.8776453085,10.6298951308,-5.54498779061,0.0,10.0,0.0,0.0,0.0,10.0,0.0,0.0,0.0,10.0,0.0889495804086,0.017710021249,-0.033289513626,1.0,0.0,0.0,0.0,1.0,0.0,0.0,0.0,1.0,-0.256267089844,2.42974731445,9.78724731445,0.1,0.0,0.0,0.0,0.1,0.0,0.0,0.0,0.1
1446037649329869884,82,1446037649326536893,robocape,11.6737088733,10.5981329793,-5.2820376203,0.0,10.0,0.0,0.0,0.0,10.0,0.0,0.0,0.0,10.0,-0.123171200416,0.0187752856851,0.131160683686,1.0,0.0,0.0,0.0,1.0,0.0,0.0,0.0,1.0,0.702938232422,1.10530151367,9.84592529297,0.1,0.0,0.0,0.0,0.1,0.0,0.0,0.0,0.1
1446037649363020300,83,1446037649359895944,robocape,11.3415383846,10.5437707036,-4.94397570953,0.0,10.0,0.0,0.0,0.0,10.0,0.0,0.0,0.0,10.0,-0.198804975374,0.0133158054504,0.172306522528,1.0,0.0,0.0,0.0,1.0,0.0,0.0,0.0,1.0,0.244291992188,-0.276624755859,10.0614770508,0.1,0.0,0.0,0.0,0.1,0.0,0.0,0.0,0.1
1446037649395769092,84,1446037649392709970,robocape,11.4384227805,10.5397680353,-4.86026917067,0.0,10.0,0.0,0.0,0.0,10.0,0.0,0.0,0.0,10.0,0.0537958540196,0.015845808486,0.0371510972066,1.0,0.0,0.0,0.0,1.0,0.0,0.0,0.0,1.0,-0.251477050781,-0.261057128906,10.0339343262,0.1,0.0,0.0,0.0,0.1,0.0,0.0,0.0,0.1
1446037649429291425,85,1446037649426173925,robocape,11.7832236107,10.5652055717,-4.90118281919,0.0,10.0,0.0,0.0,0.0,10.0,0.0,0.0,0.0,10.0,0.197872868993,0.0198405501211,-0.0298274042089,1.0,0.0,0.0,0.0,1.0,0.0,0.0,0.0,1.0,0.0802331542969,0.178428955078,10.0626745605,0.1,0.0,0.0,0.0,0.1,0.0,0.0,0.0,0.1
1446037649462762634,86,1446037649459490060,robocape,11.963341465,10.5757210071,-4.87911709517,0.0,10.0,0.0,0.0,0.0,10.0,0.0,0.0,0.0,10.0,0.10466223084,0.0178431793035,0.00399474163512,1.0,0.0,0.0,0.0,1.0,0.0,0.0,0.0,1.0,-0.0898132324219,1.39509887695,9.88185058594,0.1,0.0,0.0,0.0,0.1,0.0,0.0,0.0,0.1
1446037649495699926,87,1446037649492594957,robocape,12.027604445,10.5920402898,-4.9024448972,0.0,10.0,0.0,0.0,0.0,10.0,0.0,0.0,0.0,10.0,0.0479368996214,0.015579492377,-0.0193079179031,1.0,0.0,0.0,0.0,1.0,0.0,0.0,0.0,1.0,0.179626464844,0.671802978516,9.97046630859,0.1,0.0,0.0,0.0,0.1,0.0,0.0,0.0,0.1
1446037649529266134,88,1446037649526201009,robocape,11.9246532225,10.6028115061,-4.90580657441,0.0,10.0,0.0,0.0,0.0,10.0,0.0,0.0,0.0,10.0,-0.0427437354958,0.0139815957229,-0.00812264132474,1.0,0.0,0.0,0.0,1.0,0.0,0.0,0.0,1.0,0.259859619141,1.48610961914,9.91418334961,0.1,0.0,0.0,0.0,0.1,0.0,0.0,0.0,0.1
1446037649563619051,89,1446037649560405015,robocape,11.6563224723,10.583371147,-4.70122000704,0.0,10.0,0.0,0.0,0.0,10.0,0.0,0.0,0.0,10.0,-0.151400707971,0.0189084437396,0.100933805314,1.0,0.0,0.0,0.0,1.0,0.0,0.0,0.0,1.0,0.438288574219,0.499361572266,9.97046630859,0.1,0.0,0.0,0.0,0.1,0.0,0.0,0.0,0.1
1446037649595833009,90,1446037649592760086,robocape,11.5590200897,10.5816815719,-4.60808573772,0.0,10.0,0.0,0.0,0.0,10.0,0.0,0.0,0.0,10.0,-0.0498011123845,0.0173105470855,0.0423442613323,1.0,0.0,0.0,0.0,1.0,0.0,0.0,0.0,1.0,-0.279019775391,0.00239501953125,9.97645385742,0.1,0.0,0.0,0.0,0.1,0.0,0.0,0.0,0.1
1446037649629082926,91,1446037649626030921,robocape,11.6097487303,10.5781943816,-4.50475029394,0.0,10.0,0.0,0.0,0.0,10.0,0.0,0.0,0.0,10.0,0.0275637172823,0.0181094954125,0.0474042674034,1.0,0.0,0.0,0.0,1.0,0.0,0.0,0.0,1.0,0.123343505859,-0.149688720703,9.93094848633,0.1,0.0,0.0,0.0,0.1,0.0,0.0,0.0,0.1
1446037649662516426,92,1446037649659290075,robocape,11.9813945768,10.6183472616,-4.63006311388,0.0,10.0,0.0,0.0,0.0,10.0,0.0,0.0,0.0,10.0,0.220776054368,0.0189084437396,-0.0739027202497,1.0,0.0,0.0,0.0,1.0,0.0,0.0,0.0,1.0,0.199984130859,0.265847167969,10.0686621094,0.1,0.0,0.0,0.0,0.1,0.0,0.0,0.0,0.1
1446037649695546551,93,1446037649692470073,robocape,12.3072340084,10.6880096605,-4.9022661387,0.0,10.0,0.0,0.0,0.0,10.0,0.0,0.0,0.0,10.0,0.21198762277,0.0181094954125,-0.15166702408,1.0,0.0,0.0,0.0,1.0,0.0,0.0,0.0,1.0,-0.170046386719,1.91481811523,10.1393151855,0.1,0.0,0.0,0.0,0.1,0.0,0.0,0.0,0.1
1446037649729351342,94,1446037649726144075,robocape,12.1392278645,10.7121605457,-4.96716568919,0.0,10.0,0.0,0.0,0.0,10.0,0.0,0.0,0.0,10.0,-0.0707069269416,0.0141147537774,-0.0406132066237,1.0,0.0,0.0,0.0,1.0,0.0,0.0,0.0,1.0,0.326920166016,1.69208129883,9.88424560547,0.1,0.0,0.0,0.0,0.1,0.0,0.0,0.0,0.1
1446037649762887009,95,1446037649759435892,robocape,11.910969966,10.7300638061,-4.93604903849,0.0,10.0,0.0,0.0,0.0,10.0,0.0,0.0,0.0,10.0,-0.112518556056,0.0207726565026,0.00878843159726,1.0,0.0,0.0,0.0,1.0,0.0,0.0,0.0,1.0,0.710123291016,0.382005615234,9.93334350586,0.1,0.0,0.0,0.0,0.1,0.0,0.0,0.0,0.1
1446037649795827342,96,1446037649792519092,robocape,11.8622072847,10.7926840554,-5.19989596494,0.0,10.0,0.0,0.0,0.0,10.0,0.0,0.0,0.0,10.0,0.0125168571234,0.0142479118319,-0.145808069682,1.0,0.0,0.0,0.0,1.0,0.0,0.0,0.0,1.0,-0.403560791016,0.726888427734,10.0423168945,0.1,0.0,0.0,0.0,0.1,0.0,0.0,0.0,0.1
1446037649829945717,97,1446037649826694965,robocape,11.6968819982,10.8793441882,-5.62189335526,0.0,10.0,0.0,0.0,0.0,10.0,0.0,0.0,0.0,10.0,-0.0328900394625,0.0102531701968,-0.228366063474,1.0,0.0,0.0,0.0,1.0,0.0,0.0,0.0,1.0,-0.108973388672,1.64178588867,10.1225500488,0.1,0.0,0.0,0.0,0.1,0.0,0.0,0.0,0.1
1446037649863003967,98,1446037649859486103,robocape,11.2249439907,10.9223717044,-5.87120401541,0.0,10.0,0.0,0.0,0.0,10.0,0.0,0.0,0.0,10.0,-0.213186045261,0.00466053190764,-0.135554899485,1.0,0.0,0.0,0.0,1.0,0.0,0.0,0.0,1.0,0.571212158203,1.57951538086,10.0004040527,0.1,0.0,0.0,0.0,0.1,0.0,0.0,0.0,0.1
1446037649895955342,99,1446037649892683029,robocape,10.5758733079,10.9071068108,-5.77692478065,0.0,10.0,0.0,0.0,0.0,10.0,0.0,0.0,0.0,10.0,-0.342748832293,0.00732369299772,0.0451405804768,1.0,0.0,0.0,0.0,1.0,0.0,0.0,0.0,1.0,0.370030517578,-0.214354248047,9.91777587891,0.1,0.0,0.0,0.0,0.1,0.0,0.0,0.0,0.1
1446037649929230551,100,1446037649926059961,robocape,10.3155055756,10.9585512505,-6.04746419876,0.0,10.0,0.0,0.0,0.0,10.0,0.0,0.0,0.0,10.0,-0.0997353828235,0.0105194863058,-0.147938598554,1.0,0.0,0.0,0.0,1.0,0.0,0.0,0.0,1.0,-0.178428955078,-0.0107775878906,10.0483044434,0.1,0.0,0.0,0.0,0.1,0.0,0.0,0.0,0.1
1446037649962792467,101,1446037649959394931,robocape,9.92624803845,10.9225598311,-5.88460678488,0.0,10.0,0.0,0.0,0.0,10.0,0.0,0.0,0.0,10.0,-0.212919729152,0.0031957933081,0.0810932551929,1.0,0.0,0.0,0.0,1.0,0.0,0.0,0.0,1.0,-0.273032226563,1.65495849609,9.99082397461,0.1,0.0,0.0,0.0,0.1,0.0,0.0,0.0,0.1
1446037649995688426,102,1446037649992588996,robocape,9.09523693879,10.8408268618,-5.36095327196,0.0,10.0,0.0,0.0,0.0,10.0,0.0,0.0,0.0,10.0,-0.483363737849,0.00612527050718,0.270310850643,1.0,0.0,0.0,0.0,1.0,0.0,0.0,0.0,1.0,0.288599853516,0.464633789063,9.94412109375,0.1,0.0,0.0,0.0,0.1,0.0,0.0,0.0,0.1
1446037650029160342,103,1446037650026061058,robocape,8.54122772692,10.7751900566,-4.87893348289,0.0,10.0,0.0,0.0,0.0,10.0,0.0,0.0,0.0,10.0,-0.332761978205,0.00945422186978,0.247274507214,1.0,0.0,0.0,0.0,1.0,0.0,0.0,0.0,1.0,0.0538879394531,-1.5328125,9.90939331055,0.1,0.0,0.0,0.0,0.1,0.0,0.0,0.0,0.1
1446037650062678051,104,1446037650059319019,robocape,8.68465192608,10.7686079261,-4.69790488142,0.0,10.0,0.0,0.0,0.0,10.0,0.0,0.0,0.0,10.0,0.0653806047614,0.0197073920666,0.0877511579181,1.0,0.0,0.0,0.0,1.0,0.0,0.0,0.0,1.0,0.435893554688,-2.70158203125,9.88424560547,0.1,0.0,0.0,0.0,0.1,0.0,0.0,0.0,0.1
1446037650096159092,105,1446037650092745065,robocape,9.24097822953,10.7857232089,-4.6404268576,0.0,10.0,0.0,0.0,0.0,10.0,0.0,0.0,0.0,10.0,0.296010355162,0.0246342400832,0.0219710789932,1.0,0.0,0.0,0.0,1.0,0.0,0.0,0.0,1.0,0.160466308594,0.429906005859,10.0219592285,0.1,0.0,0.0,0.0,0.1,0.0,0.0,0.0,0.1
1446037650130362967,106,1446037650127224922,robocape,9.85214283884,10.8032567429,-4.5860898669,0.0,10.0,0.0,0.0,0.0,10.0,0.0,0.0,0.0,10.0,0.32610407548,0.0253000303558,0.0199737081756,1.0,0.0,0.0,0.0,1.0,0.0,0.0,0.0,1.0,-0.155676269531,-0.772393798828,10.1261425781,0.1,0.0,0.0,0.0,0.1,0.0,0.0,0.0,0.1
1446037650163198593,107,1446037650160141944,robocape,10.7162455605,10.8497650639,-4.69187236364,0.0,10.0,0.0,0.0,0.0,10.0,0.0,0.0,0.0,10.0,0.477238467342,0.0276968753368,-0.0651142886524,1.0,0.0,0.0,0.0,1.0,0.0,0.0,0.0,1.0,0.129331054688,0.827479248047,10.0075891113,0.1,0.0,0.0,0.0,0.1,0.0,0.0,0.0,0.1
1446037650197064343,108,1446037650193955898,robocape,11.3212813809,10.8406167924,-4.55478148441,0.0,10.0,0.0,0.0,0.0,10.0,0.0,0.0,0.0,10.0,0.31664985361,0.0206394984481,0.0637827081074,1.0,0.0,0.0,0.0,1.0,0.0,0.0,0.0,1.0,0.150886230469,0.514929199219,10.0590820312,0.1,0.0,0.0,0.0,0.1,0.0,0.0,0.0,0.1
1446037650229397801,109,1446037650226325035,robocape,11.5477068292,10.7830742592,-4.1734081241,0.0,10.0,0.0,0.0,0.0,10.0,0.0,0.0,0.0,10.0,0.0918790576077,0.0187752856851,0.193478653194,1.0,0.0,0.0,0.0,1.0,0.0,0.0,0.0,1.0,-0.124541015625,1.55197265625,9.98723144531,0.1,0.0,0.0,0.0,0.1,0.0,0.0,0.0,0.1
1446037650264588134,110,1446037650261189937,robocape,11.7607173881,10.7453564888,-3.92508136537,0.0,10.0,0.0,0.0,0.0,10.0,0.0,0.0,0.0,10.0,0.0986701183874,0.0162452826495,0.124369622907,1.0,0.0,0.0,0.0,1.0,0.0,0.0,0.0,1.0,0.417930908203,0.890947265625,10.0016015625,0.1,0.0,0.0,0.0,0.1,0.0,0.0,0.0,0.1
1446037650295689384,111,1446037650292537927,robocape,11.9112485054,10.7201058294,-3.73135366305,0.0,10.0,0.0,0.0,0.0,10.0,0.0,0.0,0.0,10.0,0.0713727172141,0.017177389031,0.0957406411883,1.0,0.0,0.0,0.0,1.0,0.0,0.0,0.0,1.0,0.00718505859375,0.562829589844,9.99202148437,0.1,0.0,0.0,0.0,0.1,0.0,0.0,0.0,0.1
1446037650329265551,112,1446037650326214075,robocape,12.1369493169,10.7583923075,-3.86942867024,0.0,10.0,0.0,0.0,0.0,10.0,0.0,0.0,0.0,10.0,0.145009121355,0.015845808486,-0.0789627263208,1.0,0.0,0.0,0.0,1.0,0.0,0.0,0.0,1.0,-0.0622705078125,1.1843371582,10.0099841309,0.1,0.0,0.0,0.0,0.1,0.0,0.0,0.0,0.1
1446037650362670218,113,1446037650359570026,robocape,11.9964843453,10.7679419799,-3.86050274419,0.0,10.0,0.0,0.0,0.0,10.0,0.0,0.0,0.0,10.0,-0.0639158661619,0.0146473859954,-0.000798948327024,1.0,0.0,0.0,0.0,1.0,0.0,0.0,0.0,1.0,0.255069580078,2.07528442383,9.96088623047,0.1,0.0,0.0,0.0,0.1,0.0,0.0,0.0,0.1
1446037650395901759,114,1446037650392659902,robocape,11.7804314938,10.7920524293,-3.88945195221,0.0,10.0,0.0,0.0,0.0,10.0,0.0,0.0,0.0,10.0,-0.100268015041,0.0178431793035,-0.0213052887206,1.0,0.0,0.0,0.0,1.0,0.0,0.0,0.0,1.0,0.449066162109,-0.0754431152344,10.1093774414,0.1,0.0,0.0,0.0,0.1,0.0,0.0,0.0,0.1
1446037650428894759,115,1446037650425873994,robocape,11.8010067358,10.8715254466,-4.18008954584,0.0,10.0,0.0,0.0,0.0,10.0,0.0,0.0,0.0,10.0,0.051798483202,0.0207726565026,-0.160189139568,1.0,0.0,0.0,0.0,1.0,0.0,0.0,0.0,1.0,-0.141306152344,0.570014648438,9.97884887695,0.1,0.0,0.0,0.0,0.1,0.0,0.0,0.0,0.1
1446037650462931134,116,1446037650459670066,robocape,11.758985644,10.9523552194,-4.52522401468,0.0,10.0,0.0,0.0,0.0,10.0,0.0,0.0,0.0,10.0,0.0245010820287,0.0157126504315,-0.18801917296,1.0,0.0,0.0,0.0,1.0,0.0,0.0,0.0,1.0,0.112565917969,1.2226574707,9.97645385742,0.1,0.0,0.0,0.0,0.1,0.0,0.0,0.0,0.1
1446037650495686718,117,1446037650492547035,robocape,11.5587037552,11.0435723743,-4.98607685451,0.0,10.0,0.0,0.0,0.0,10.0,0.0,0.0,0.0,10.0,-0.0471379512944,0.00905474770627,-0.247540823323,1.0,0.0,0.0,0.0,1.0,0.0,0.0,0.0,1.0,-0.0143701171875,1.48491210938,9.98842895508,0.1,0.0,0.0,0.0,0.1,0.0,0.0,0.0,0.1
1446037650529172093,118,1446037650526067972,robocape,11.1587284396,11.1235009707,-5.46623233107,0.0,10.0,0.0,0.0,0.0,10.0,0.0,0.0,0.0,10.0,-0.150734917698,0.00173105470855,-0.255929780757,1.0,0.0,0.0,0.0,1.0,0.0,0.0,0.0,1.0,0.348475341797,1.07536376953,9.886640625,0.1,0.0,0.0,0.0,0.1,0.0,0.0,0.0,0.1
1446037650564210509,119,1446037650560961961,robocape,10.1752617925,11.0939651793,-5.35533812406,0.0,10.0,0.0,0.0,0.0,10.0,0.0,0.0,0.0,10.0,-0.521713257547,-0.000266316109008,0.0561926990007,1.0,0.0,0.0,0.0,1.0,0.0,0.0,0.0,1.0,0.179626464844,1.79985717773,9.87227050781,0.1,0.0,0.0,0.0,0.1,0.0,0.0,0.0,0.1
1446037650595694759,120,1446037650592601060,robocape,9.2034857058,11.0477524362,-5.1944616158,0.0,10.0,0.0,0.0,0.0,10.0,0.0,0.0,0.0,10.0,-0.520914309219,-0.00545948023466,0.082957467956,1.0,0.0,0.0,0.0,1.0,0.0,0.0,0.0,1.0,-0.305364990234,-0.674197998047,9.99202148437,0.1,0.0,0.0,0.0,0.1,0.0,0.0,0.0,0.1
1446037650629388843,121,1446037650626370906,robocape,8.41940100163,11.0324646719,-5.1357112578,0.0,10.0,0.0,0.0,0.0,10.0,0.0,0.0,0.0,10.0,-0.411458388417,0.00266316109008,0.0276968753368,1.0,0.0,0.0,0.0,1.0,0.0,0.0,0.0,1.0,0.128133544922,-0.0467028808594,9.98244140625,0.1,0.0,0.0,0.0,0.1,0.0,0.0,0.0,0.1
1446037650664042801,122,1446037650660922050,robocape,8.04222157306,11.0319539095,-5.15872211084,0.0,10.0,0.0,0.0,0.0,10.0,0.0,0.0,0.0,10.0,-0.188818121287,0.00599211245268,-0.016112124595,1.0,0.0,0.0,0.0,1.0,0.0,0.0,0.0,1.0,0.222736816406,-1.91002807617,9.9596887207,0.1,0.0,0.0,0.0,0.1,0.0,0.0,0.0,0.1
1446037650695701259,123,1446037650692708969,robocape,8.27638837394,11.0967969113,-5.45236801919,0.0,10.0,0.0,0.0,0.0,10.0,0.0,0.0,0.0,10.0,0.161387562059,0.0234358175927,-0.160721771786,1.0,0.0,0.0,0.0,1.0,0.0,0.0,0.0,1.0,0.307760009766,-1.17715209961,9.96567626953,0.1,0.0,0.0,0.0,0.1,0.0,0.0,0.0,0.1
1446037650729011551,124,1446037650726005077,robocape,8.48646451045,11.1215770849,-5.45982041638,0.0,10.0,0.0,0.0,0.0,10.0,0.0,0.0,0.0,10.0,0.11944277489,0.0226368692657,-0.0117179087963,1.0,0.0,0.0,0.0,1.0,0.0,0.0,0.0,1.0,0.00359252929688,0.940045166016,9.9668737793,0.1,0.0,0.0,0.0,0.1,0.0,0.0,0.0,0.1
1446037650762881093,125,1446037650759846925,robocape,8.63577448963,11.1450582483,-5.43391077912,0.0,10.0,0.0,0.0,0.0,10.0,0.0,0.0,0.0,10.0,0.0841558904465,0.0242347659197,0.00545948023466,1.0,0.0,0.0,0.0,1.0,0.0,0.0,0.0,1.0,0.205971679688,-1.07895629883,10.0518969727,0.1,0.0,0.0,0.0,0.1,0.0,0.0,0.0,0.1
1446037650795499218,126,1446037650792500972,robocape,9.14839937038,11.2122903092,-5.69494594978,0.0,10.0,0.0,0.0,0.0,10.0,0.0,0.0,0.0,10.0,0.306263525359,0.0266316109008,-0.145541753573,1.0,0.0,0.0,0.0,1.0,0.0,0.0,0.0,1.0,-0.0922082519531,0.411943359375,10.0375268555,0.1,0.0,0.0,0.0,0.1,0.0,0.0,0.0,0.1
1446037650829059134,127,1446037650826028108,robocape,9.63927582167,11.289837309,-6.06750827729,0.0,10.0,0.0,0.0,0.0,10.0,0.0,0.0,0.0,10.0,0.307595105904,0.0219710789932,-0.203864981446,1.0,0.0,0.0,0.0,1.0,0.0,0.0,0.0,1.0,0.0969982910156,0.725690917969,9.99681152344,0.1,0.0,0.0,0.0,0.1,0.0,0.0,0.0,0.1
1446037650863190551,128,1446037650859734058,robocape,9.46142601753,11.2730409527,-5.82388858117,0.0,10.0,0.0,0.0,0.0,10.0,0.0,0.0,0.0,10.0,-0.110521185238,0.0202400242846,0.119709090999,1.0,0.0,0.0,0.0,1.0,0.0,0.0,0.0,1.0,0.196391601563,1.79985717773,10.0471069336,0.1,0.0,0.0,0.0,0.1,0.0,0.0,0.0,0.1
1446037650896515176,129,1446037650893155097,robocape,9.20093386418,11.2347397207,-5.50464572635,0.0,10.0,0.0,0.0,0.0,10.0,0.0,0.0,0.0,10.0,-0.16231966844,0.0142479118319,0.160588613732,1.0,0.0,0.0,0.0,1.0,0.0,0.0,0.0,1.0,0.179626464844,-0.946032714844,10.0123791504,0.1,0.0,0.0,0.0,0.1,0.0,0.0,0.0,0.1
1446037650929187801,130,1446037650925867080,robocape,9.34441528282,11.2838924321,-5.77702200068,0.0,10.0,0.0,0.0,0.0,10.0,0.0,0.0,0.0,10.0,0.113317504383,0.0141147537774,-0.149137021044,1.0,0.0,0.0,0.0,1.0,0.0,0.0,0.0,1.0,-0.0694555664063,0.953217773438,9.97046630859,0.1,0.0,0.0,0.0,0.1,0.0,0.0,0.0,0.1
1446037650963196760,131,1446037650959599018,robocape,9.34020353705,11.319371284,-5.98366275391,0.0,10.0,0.0,0.0,0.0,10.0,0.0,0.0,0.0,10.0,0.0286289817184,0.0115847507418,-0.114382768819,1.0,0.0,0.0,0.0,1.0,0.0,0.0,0.0,1.0,0.0526904296875,0.832269287109,10.0435144043,0.1,0.0,0.0,0.0,0.1,0.0,0.0,0.0,0.1
1446037650995922301,132,1446037650992502927,robocape,8.7630219016,11.2705495674,-5.59680750379,0.0,10.0,0.0,0.0,0.0,10.0,0.0,0.0,0.0,10.0,-0.336889877895,0.0118510668509,0.196674446502,1.0,0.0,0.0,0.0,1.0,0.0,0.0,0.0,1.0,0.132923583984,2.13036987305,10.0267492676,0.1,0.0,0.0,0.0,0.1,0.0,0.0,0.0,0.1
1446037651029437718,133,1446037651026204109,robocape,7.95954287855,11.1772502406,-4.93206481355,0.0,10.0,0.0,0.0,0.0,10.0,0.0,0.0,0.0,10.0,-0.485361108667,0.00532632218016,0.342748832293,1.0,0.0,0.0,0.0,1.0,0.0,0.0,0.0,1.0,0.232316894531,-0.851429443359,10.0471069336,0.1,0.0,0.0,0.0,0.1,0.0,0.0,0.0,0.1
1446037651062941593,134,1446037651059535026,robocape,7.89340047557,11.1765665282,-4.8160922375,0.0,10.0,0.0,0.0,0.0,10.0,0.0,0.0,0.0,10.0,-0.0395479421877,0.0167779148675,0.0544616442921,1.0,0.0,0.0,0.0,1.0,0.0,0.0,0.0,1.0,0.116158447266,-2.49680786133,9.92735595703,0.1,0.0,0.0,0.0,0.1,0.0,0.0,0.0,0.1
1446037651095760260,135,1446037651092611074,robocape,8.17417909265,11.2044668331,-4.80533778193,0.0,10.0,0.0,0.0,0.0,10.0,0.0,0.0,0.0,10.0,0.15433018517,0.0258326625738,-0.00199737081756,1.0,0.0,0.0,0.0,1.0,0.0,0.0,0.0,1.0,0.2682421875,0.326920166016,9.98962646484,0.1,0.0,0.0,0.0,0.1,0.0,0.0,0.0,0.1
1446037651129211385,136,1446037651126136064,robocape,8.51324111771,11.2168836841,-4.66654188594,0.0,10.0,0.0,0.0,0.0,10.0,0.0,0.0,0.0,10.0,0.172040206419,0.0272974011733,0.0643153403254,1.0,0.0,0.0,0.0,1.0,0.0,0.0,0.0,1.0,0.0419128417969,-1.02626586914,10.0578845215,0.1,0.0,0.0,0.0,0.1,0.0,0.0,0.0,0.1
1446037651162858510,137,1446037651159820079,robocape,8.98449703092,11.2370055507,-4.61310827893,0.0,10.0,0.0,0.0,0.0,10.0,0.0,0.0,0.0,10.0,0.251136090794,0.0259658206283,0.0198405501211,1.0,0.0,0.0,0.0,1.0,0.0,0.0,0.0,1.0,0.0694555664063,1.1076965332,10.0459094238,0.1,0.0,0.0,0.0,0.1,0.0,0.0,0.0,0.1
1446037651195829051,138,1446037651192814111,robocape,9.30163949209,11.2500283505,-4.54440983603,0.0,10.0,0.0,0.0,0.0,10.0,0.0,0.0,0.0,10.0,0.168711255057,0.0231695014837,0.0283626656093,1.0,0.0,0.0,0.0,1.0,0.0,0.0,0.0,1.0,0.262254638672,-0.501756591797,10.0698596191,0.1,0.0,0.0,0.0,0.1,0.0,0.0,0.0,0.1
1446037651229359301,139,1446037651226299047,robocape,9.69156446521,11.2926069471,-4.64126015463,0.0,10.0,0.0,0.0,0.0,10.0,0.0,0.0,0.0,10.0,0.225037112112,0.0255663464648,-0.0587227020362,1.0,0.0,0.0,0.0,1.0,0.0,0.0,0.0,1.0,0.17244140625,1.09212890625,10.024354248,0.1,0.0,0.0,0.0,0.1,0.0,0.0,0.0,0.1
1446037651263968635,140,1446037651260854959,robocape,9.9214561647,11.2896035219,-4.4818419947,0.0,10.0,0.0,0.0,0.0,10.0,0.0,0.0,0.0,10.0,0.113850136601,0.0227700273202,0.0757669330128,1.0,0.0,0.0,0.0,1.0,0.0,0.0,0.0,1.0,0.0934057617188,-0.712518310547,10.075847168,0.1,0.0,0.0,0.0,0.1,0.0,0.0,0.0,0.1
1446037651296903176,141,1446037651293777942,robocape,10.3192564296,11.3215246012,-4.55130938176,0.0,10.0,0.0,0.0,0.0,10.0,0.0,0.0,0.0,10.0,0.227167640984,0.0221042370477,-0.0440753160408,1.0,0.0,0.0,0.0,1.0,0.0,0.0,0.0,1.0,0.00239501953125,2.42974731445,10.0231567383,0.1,0.0,0.0,0.0,0.1,0.0,0.0,0.0,0.1
1446037651330405510,142,1446037651327276945,robocape,10.1446922124,11.2449588988,-3.99120152259,0.0,10.0,0.0,0.0,0.0,10.0,0.0,0.0,0.0,10.0,-0.141813328047,0.0189084437396,0.286822449402,1.0,0.0,0.0,0.0,1.0,0.0,0.0,0.0,1.0,0.160466308594,0.313747558594,10.0255517578,0.1,0.0,0.0,0.0,0.1,0.0,0.0,0.0,0.1
1446037651364865135,143,1446037651361152887,robocape,10.0484328346,11.1866079449,-3.55589200826,0.0,10.0,0.0,0.0,0.0,10.0,0.0,0.0,0.0,10.0,-0.0870853676456,0.017177389031,0.222107634913,1.0,0.0,0.0,0.0,1.0,0.0,0.0,0.0,1.0,0.126936035156,-0.28740234375,9.98723144531,0.1,0.0,0.0,0.0,0.1,0.0,0.0,0.0,0.1
1446037651397832301,144,1446037651394292116,robocape,10.489693471,11.2141892667,-3.61172002204,0.0,10.0,0.0,0.0,0.0,10.0,0.0,0.0,0.0,10.0,0.248606087759,0.0210389726116,-0.0358195166616,1.0,0.0,0.0,0.0,1.0,0.0,0.0,0.0,1.0,0.170046386719,-0.893342285156,10.0506994629,0.1,0.0,0.0,0.0,0.1,0.0,0.0,0.0,0.1
1446037651430917510,145,1446037651427844047,robocape,11.2192786825,11.2946655428,-3.97761827117,0.0,10.0,0.0,0.0,0.0,10.0,0.0,0.0,0.0,10.0,0.434761047955,0.0203731823391,-0.199071291483,1.0,0.0,0.0,0.0,1.0,0.0,0.0,0.0,1.0,0.05748046875,0.807121582031,9.99321899414,0.1,0.0,0.0,0.0,0.1,0.0,0.0,0.0,0.1
1446037651464497718,146,1446037651461159944,robocape,11.5456736709,11.3729297243,-4.34832445351,0.0,10.0,0.0,0.0,0.0,10.0,0.0,0.0,0.0,10.0,0.223172899349,0.0154463343225,-0.201068662301,1.0,0.0,0.0,0.0,1.0,0.0,0.0,0.0,1.0,-0.208366699219,2.21539306641,10.0495019531,0.1,0.0,0.0,0.0,0.1,0.0,0.0,0.0,0.1
1446037651500398510,147,1446037651496108055,robocape,11.5882620651,11.4508815444,-4.76253875175,0.0,10.0,0.0,0.0,0.0,10.0,0.0,0.0,0.0,10.0,0.0781637779938,0.00905474770627,-0.222773425185,1.0,0.0,0.0,0.0,1.0,0.0,0.0,0.0,1.0,0.640667724609,1.40946899414,9.8447277832,0.1,0.0,0.0,0.0,0.1,0.0,0.0,0.0,0.1
1446037651533716426,148,1446037651529175996,robocape,11.4216325405,11.5315114258,-5.21181122474,0.0,10.0,0.0,0.0,0.0,10.0,0.0,0.0,0.0,10.0,-0.0284958236638,0.00625842856169,-0.240616604489,1.0,0.0,0.0,0.0,1.0,0.0,0.0,0.0,1.0,0.197589111328,2.03696411133,9.85909790039,0.1,0.0,0.0,0.0,0.1,0.0,0.0,0.0,0.1
1446037651567236302,149,1446037651561961889,robocape,10.8423100218,11.5611458611,-5.48612235629,0.0,10.0,0.0,0.0,0.0,10.0,0.0,0.0,0.0,10.0,-0.266182950953,-0.00386158358061,-0.145941227736,1.0,0.0,0.0,0.0,1.0,0.0,0.0,0.0,1.0,0.289797363281,1.56514526367,9.90580078125,0.1,0.0,0.0,0.0,0.1,0.0,0.0,0.0,0.1
1446037651600980385,150,1446037651596415042,robocape,9.84183073106,11.5254720044,-5.4740811402,0.0,10.0,0.0,0.0,0.0,10.0,0.0,0.0,0.0,10.0,-0.520514835056,-0.0123836990689,0.00652474467069,1.0,0.0,0.0,0.0,1.0,0.0,0.0,0.0,1.0,-0.229921875,1.62621826172,10.0734521484,0.1,0.0,0.0,0.0,0.1,0.0,0.0,0.0,0.1
1446037651629984843,151,1446037651626945018,robocape,8.42090458584,11.4093280151,-4.88803127331,0.0,10.0,0.0,0.0,0.0,10.0,0.0,0.0,0.0,10.0,-0.804141491149,-0.0111852765783,0.30599720925,1.0,0.0,0.0,0.0,1.0,0.0,0.0,0.0,1.0,-0.305364990234,-0.0622705078125,10.1536853027,0.1,0.0,0.0,0.0,0.1,0.0,0.0,0.0,0.1
1446037651668800135,152,1446037651664311885,robocape,7.75854550464,11.4195436072,-5.01711512857,0.0,10.0,0.0,0.0,0.0,10.0,0.0,0.0,0.0,10.0,-0.327835130189,0.0034621094171,-0.0703074527781,1.0,0.0,0.0,0.0,1.0,0.0,0.0,0.0,1.0,0.0742456054688,-1.50886230469,9.92735595703,0.1,0.0,0.0,0.0,0.1,0.0,0.0,0.0,0.1
1446037651699704802,153,1446037651695823907,robocape,7.3512886757,11.3874832881,-4.88813782414,0.0,10.0,0.0,0.0,0.0,10.0,0.0,0.0,0.0,10.0,-0.221175528531,-0.000266316109008,0.0639158661619,1.0,0.0,0.0,0.0,1.0,0.0,0.0,0.0,1.0,0.258662109375,-1.47652954102,9.9980090332,0.1,0.0,0.0,0.0,0.1,0.0,0.0,0.0,0.1
1446037651733163135,154,1446037651729140043,robocape,7.25295286442,11.3785103876,-4.65328124377,0.0,10.0,0.0,0.0,0.0,10.0,0.0,0.0,0.0,10.0,-0.0697748205601,0.0193079179031,0.115980665473,1.0,0.0,0.0,0.0,1.0,0.0,0.0,0.0,1.0,0.366437988281,-2.61416381836,9.97645385742,0.1,0.0,0.0,0.0,0.1,0.0,0.0,0.0,0.1
1446037651767250177,155,1446037651763828992,robocape,8.18552361669,11.4722146664,-4.84618277666,0.0,10.0,0.0,0.0,0.0,10.0,0.0,0.0,0.0,10.0,0.519050096456,0.049135322112,-0.111586449674,1.0,0.0,0.0,0.0,1.0,0.0,0.0,0.0,1.0,0.468226318359,-1.7208215332,9.91418334961,0.1,0.0,0.0,0.0,0.1,0.0,0.0,0.0,0.1
1446037651799228218,156,1446037651796015977,robocape,9.25408982729,11.5488862677,-5.08665583328,0.0,10.0,0.0,0.0,0.0,10.0,0.0,0.0,0.0,10.0,0.597746506668,0.0359526747161,-0.135954373649,1.0,0.0,0.0,0.0,1.0,0.0,0.0,0.0,1.0,-0.156873779297,0.258662109375,10.2578686523,0.1,0.0,0.0,0.0,0.1,0.0,0.0,0.0,0.1
1446037651833045552,157,1446037651829687118,robocape,10.2844202363,11.6587020975,-5.49884394126,0.0,10.0,0.0,0.0,0.0,10.0,0.0,0.0,0.0,10.0,0.59867861305,0.0370179391521,-0.227433957093,1.0,0.0,0.0,0.0,1.0,0.0,0.0,0.0,1.0,-0.188009033203,0.665815429688,9.99681152344,0.1,0.0,0.0,0.0,0.1,0.0,0.0,0.0,0.1
1446037651867517968,158,1446037651864224910,robocape,10.6581101678,11.6795139848,-5.49875769969,0.0,10.0,0.0,0.0,0.0,10.0,0.0,0.0,0.0,10.0,0.207859723081,0.0229031853747,-0.00905474770627,1.0,0.0,0.0,0.0,1.0,0.0,0.0,0.0,1.0,0.1149609375,1.52682495117,9.89262817383,0.1,0.0,0.0,0.0,0.1,0.0,0.0,0.0,0.1
1446037651899934843,159,1446037651896481037,robocape,10.6838439982,11.6720899895,-5.42107752781,0.0,10.0,0.0,0.0,0.0,10.0,0.0,0.0,0.0,10.0,0.0154463343225,0.0137152796139,0.0339553038985,1.0,0.0,0.0,0.0,1.0,0.0,0.0,0.0,1.0,0.108973388672,2.19623291016,9.86388793945,0.1,0.0,0.0,0.0,0.1,0.0,0.0,0.0,0.1
1446037651933719760,160,1446037651930533885,robocape,10.1824916187,11.6029772422,-4.9342768333,0.0,10.0,0.0,0.0,0.0,10.0,0.0,0.0,0.0,10.0,-0.308260896177,0.015579492377,0.248872403868,1.0,0.0,0.0,0.0,1.0,0.0,0.0,0.0,1.0,0.290994873047,1.01668579102,10.0626745605,0.1,0.0,0.0,0.0,0.1,0.0,0.0,0.0,0.1
1446037651968338468,161,1446037651965219020,robocape,10.0148891941,11.6253987379,-5.05153482226,0.0,10.0,0.0,0.0,0.0,10.0,0.0,0.0,0.0,10.0,-0.0661795530885,0.0107858024148,-0.066579027252,1.0,0.0,0.0,0.0,1.0,0.0,0.0,0.0,1.0,0.100590820313,-0.257464599609,10.0327368164,0.1,0.0,0.0,0.0,0.1,0.0,0.0,0.0,0.1
1446037651998525968,162,1446037651995246887,robocape,9.65306732602,11.6213837241,-4.99289569688,0.0,10.0,0.0,0.0,0.0,10.0,0.0,0.0,0.0,10.0,-0.188152331014,0.0113184346328,0.0255663464648,1.0,0.0,0.0,0.0,1.0,0.0,0.0,0.0,1.0,-0.164058837891,1.38911132813,10.0590820312,0.1,0.0,0.0,0.0,0.1,0.0,0.0,0.0,0.1
1446037652032938718,163,1446037652029828071,robocape,8.91806538662,11.5556089803,-4.50997460727,0.0,10.0,0.0,0.0,0.0,10.0,0.0,0.0,0.0,10.0,-0.431432096593,0.0110521185238,0.247540823323,1.0,0.0,0.0,0.0,1.0,0.0,0.0,0.0,1.0,0.0814306640625,0.671802978516,9.98723144531,0.1,0.0,0.0,0.0,0.1,0.0,0.0,0.0,0.1
1446037652065985593,164,1446037652062767982,robocape,8.26303756703,11.4945871937,-4.09011547074,0.0,10.0,0.0,0.0,0.0,10.0,0.0,0.0,0.0,10.0,-0.382429932535,0.00639158661619,0.215183416078,1.0,0.0,0.0,0.0,1.0,0.0,0.0,0.0,1.0,0.188009033203,-0.795146484375,9.95010864258,0.1,0.0,0.0,0.0,0.1,0.0,0.0,0.0,0.1
1446037652098754760,165,1446037652095710992,robocape,7.98025430303,11.4612790256,-3.81016187159,0.0,10.0,0.0,0.0,0.0,10.0,0.0,0.0,0.0,10.0,-0.171374416147,0.0109189604693,0.141413853883,1.0,0.0,0.0,0.0,1.0,0.0,0.0,0.0,1.0,0.213156738281,-2.48363525391,9.94412109375,0.1,0.0,0.0,0.0,0.1,0.0,0.0,0.0,0.1
1446037652131749968,166,1446037652128704071,robocape,8.52682419926,11.5476412319,-4.02292315497,0.0,10.0,0.0,0.0,0.0,10.0,0.0,0.0,0.0,10.0,0.318514066373,0.0418116291142,-0.119975407108,1.0,0.0,0.0,0.0,1.0,0.0,0.0,0.0,1.0,0.522114257812,-1.46096191406,10.0135766602,0.1,0.0,0.0,0.0,0.1,0.0,0.0,0.0,0.1
1446037652164744093,167,1446037652161475896,robocape,9.5239897476,11.6426347401,-4.50818203671,0.0,10.0,0.0,0.0,0.0,10.0,0.0,0.0,0.0,10.0,0.586960704253,0.0255663464648,-0.260989786828,1.0,0.0,0.0,0.0,1.0,0.0,0.0,0.0,1.0,-0.105380859375,-0.21076171875,10.019564209,0.1,0.0,0.0,0.0,0.1,0.0,0.0,0.0,0.1
1446037652198505302,168,1446037652195471048,robocape,10.4580944185,11.7460395424,-4.99985870855,0.0,10.0,0.0,0.0,0.0,10.0,0.0,0.0,0.0,10.0,0.55700014199,0.0256995045193,-0.266182950953,1.0,0.0,0.0,0.0,1.0,0.0,0.0,0.0,1.0,-0.0490979003906,3.26680664063,10.0004040527,0.1,0.0,0.0,0.0,0.1,0.0,0.0,0.0,0.1
1446037652231666218,169,1446037652228617906,robocape,10.487013504,11.7202874164,-4.71450122885,0.0,10.0,0.0,0.0,0.0,10.0,0.0,0.0,0.0,10.0,-0.00599211245268,0.0229031853747,0.141413853883,1.0,0.0,0.0,0.0,1.0,0.0,0.0,0.0,1.0,0.377215576172,0.601149902344,9.9249609375,0.1,0.0,0.0,0.0,0.1,0.0,0.0,0.0,0.1
1446037652265979552,170,1446037652262886047,robocape,10.588704746,11.7206563654,-4.66878345941,0.0,10.0,0.0,0.0,0.0,10.0,0.0,0.0,0.0,10.0,0.0588558600908,0.0151800182135,0.0175768631945,1.0,0.0,0.0,0.0,1.0,0.0,0.0,0.0,1.0,-0.0538879394531,1.63220581055,9.85311035156,0.1,0.0,0.0,0.0,0.1,0.0,0.0,0.0,0.1
1446037652297840927,171,1446037652294805049,robocape,10.2530381705,11.6862000202,-4.25114559185,0.0,10.0,0.0,0.0,0.0,10.0,0.0,0.0,0.0,10.0,-0.213186045261,0.0283626656093,0.210389726116,1.0,0.0,0.0,0.0,1.0,0.0,0.0,0.0,1.0,-0.615520019531,1.2992980957,10.305769043,0.1,0.0,0.0,0.0,0.1,0.0,0.0,0.0,0.1
1446037652330871594,172,1446037652327826976,robocape,9.54926825526,11.6221180648,-3.40722608064,0.0,10.0,0.0,0.0,0.0,10.0,0.0,0.0,0.0,10.0,-0.453935807804,0.0458063707494,0.430366832157,1.0,0.0,0.0,0.0,1.0,0.0,0.0,0.0,1.0,-7.08087524414,0.423918457031,12.3020178223,0.1,0.0,0.0,0.0,0.1,0.0,0.0,0.0,0.1
1446037652363992552,173,1446037652360374927,robocape,8.38243672796,11.5626386649,-2.64626428534,0.0,10.0,0.0,0.0,0.0,10.0,0.0,0.0,0.0,10.0,-0.688826615949,0.033023197517,0.389487309424,1.0,0.0,0.0,0.0,1.0,0.0,0.0,0.0,1.0,-4.4487487793,0.669407958984,10.3009790039,0.1,0.0,0.0,0.0,0.1,0.0,0.0,0.0,0.1
1446037652397080510,174,1446037652394066095,robocape,7.34984058953,11.6801976159,-2.47674127527,0.0,10.0,0.0,0.0,0.0,10.0,0.0,0.0,0.0,10.0,-0.554470138954,0.0790958843754,0.0759000910673,1.0,0.0,0.0,0.0,1.0,0.0,0.0,0.0,1.0,-5.65344360352,-1.04063598633,11.2685668945,0.1,0.0,0.0,0.0,0.1,0.0,0.0,0.0,0.1
1446037652431263677,175,1446037652428117036,robocape,5.21163874673,11.6597327895,-2.42771446003,0.0,10.0,0.0,0.0,0.0,10.0,0.0,0.0,0.0,10.0,-1.12385398001,-0.00572579634367,0.0255663464648,1.0,0.0,0.0,0.0,1.0,0.0,0.0,0.0,1.0,-7.52754638672,2.49920288086,9.7369519043,0.1,0.0,0.0,0.0,0.1,0.0,0.0,0.0,0.1
1446037652463934094,176,1446037652460057020,robocape,1.77765200303,12.0025648109,-2.35267925237,0.0,10.0,0.0,0.0,0.0,10.0,0.0,0.0,0.0,10.0,-1.80615585129,0.184423905488,0.0267647689553,1.0,0.0,0.0,0.0,1.0,0.0,0.0,0.0,1.0,-10.6446643066,0.899329833984,11.9307897949,0.1,0.0,0.0,0.0,0.1,0.0,0.0,0.0,0.1
1446037652495944885,177,1446037652492862939,robocape,-2.0502392286,12.1156313566,-2.98683087973,0.0,10.0,0.0,0.0,0.0,10.0,0.0,0.0,0.0,10.0,-1.93665074471,0.0677774497425,-0.326769865753,1.0,0.0,0.0,0.0,1.0,0.0,0.0,0.0,1.0,-7.00782714844,-0.0431103515625,9.27950317383,0.1,0.0,0.0,0.0,0.1,0.0,0.0,0.0,0.1
1446037652529840510,178,1446037652526501893,robocape,-7.02189805798,12.2113309486,-4.44374477662,0.0,10.0,0.0,0.0,0.0,10.0,0.0,0.0,0.0,10.0,-2.45277136396,0.126500151779,-0.745951421331,1.0,0.0,0.0,0.0,1.0,0.0,0.0,0.0,1.0,-8.22808959961,0.4981640625,9.8830480957,0.1,0.0,0.0,0.0,0.1,0.0,0.0,0.0,0.1
1446037652564129760,179,1446037652560203075,robocape,-12.7329514412,12.5801587094,-7.14009613894,0.0,10.0,0.0,0.0,0.0,10.0,0.0,0.0,0.0,10.0,-2.72401432099,0.467251613254,-1.34556214076,1.0,0.0,0.0,0.0,1.0,0.0,0.0,0.0,1.0,-6.66174682617,-1.22864501953,10.0890197754,0.1,0.0,0.0,0.0,0.1,0.0,0.0,0.0,0.1
1446037652595876469,180,1446037652592828989,robocape,-18.4435374479,12.9511055609,-11.6561857258,0.0,10.0,0.0,0.0,0.0,10.0,0.0,0.0,0.0,10.0,-2.55263990484,0.882971059416,-2.2217421394,1.0,0.0,0.0,0.0,1.0,0.0,0.0,0.0,1.0,-5.00080078125,-2.1495300293,11.6505725098,0.1,0.0,0.0,0.0,0.1,0.0,0.0,0.0,0.1
1446037652629203844,181,1446037652626061916,robocape,-24.3204529469,13.2999172227,-17.5552324936,0.0,10.0,0.0,0.0,0.0,10.0,0.0,0.0,0.0,10.0,-2.54584884406,1.40321957836,-2.85397658218,1.0,0.0,0.0,0.0,1.0,0.0,0.0,0.0,1.0,-1.08973388672,-3.44044555664,7.93829223633,0.1,0.0,0.0,0.0,0.1,0.0,0.0,0.0,0.1
1446037652662884219,182,1446037652659712076,robocape,-30.1069655676,13.7214347784,-25.8441803014,0.0,10.0,0.0,0.0,0.0,10.0,0.0,0.0,0.0,10.0,-2.33106490215,2.38406180784,-3.92057259876,1.0,0.0,0.0,0.0,1.0,0.0,0.0,0.0,1.0,0.725690917969,-5.26185791016,11.2242590332,0.1,0.0,0.0,0.0,0.1,0.0,0.0,0.0,0.1
1446037652695618802,183,1446037652692558050,robocape,-34.5315719848,13.9507963756,-35.0579455137,0.0,10.0,0.0,0.0,0.0,10.0,0.0,0.0,0.0,10.0,-1.61800352028,3.00724150292,-4.36332312999,1.0,0.0,0.0,0.0,1.0,0.0,0.0,0.0,1.0,0.852626953125,-8.51189941406,11.0506201172,0.1,0.0,0.0,0.0,0.1,0.0,0.0,0.0,0.1
1446037652729127885,184,1446037652726135015,robocape,-36.3444677877,15.0168626108,-44.7773041134,0.0,10.0,0.0,0.0,0.0,10.0,0.0,0.0,0.0,10.0,-0.193478653194,3.85718936482,-4.36332312999,1.0,0.0,0.0,0.0,1.0,0.0,0.0,0.0,1.0,-4.9852331543,-11.0781628418,14.1845031738,0.1,0.0,0.0,0.0,0.1,0.0,0.0,0.0,0.1
1446037652763231010,185,1446037652759623050,robocape,-34.7798223821,15.4258068188,-53.7635422207,0.0,10.0,0.0,0.0,0.0,10.0,0.0,0.0,0.0,10.0,1.62040036526,3.39726144456,-4.36332312999,1.0,0.0,0.0,0.0,1.0,0.0,0.0,0.0,1.0,-13.8755456543,-10.6566394043,12.5307421875,0.1,0.0,0.0,0.0,0.1,0.0,0.0,0.0,0.1
1446037652796134969,186,1446037652793102979,robocape,-28.0277162783,14.5124208554,-61.5394298363,0.0,10.0,0.0,0.0,0.0,10.0,0.0,0.0,0.0,10.0,4.36318997193,2.10336462894,-4.36332312999,1.0,0.0,0.0,0.0,1.0,0.0,0.0,0.0,1.0,-19.62,-14.3461669922,10.208770752,0.1,0.0,0.0,0.0,0.1,0.0,0.0,0.0,0.1
1446037652828994552,187,1446037652825967073,robocape,-20.8209655533,12.0817457329,-67.6201236446,0.0,10.0,0.0,0.0,0.0,10.0,0.0,0.0,0.0,10.0,4.36318997193,0.558864354753,-4.33069940663,1.0,0.0,0.0,0.0,1.0,0.0,0.0,0.0,1.0,-14.0946899414,-9.40524169922,-4.45473632813,0.1,0.0,0.0,0.0,0.1,0.0,0.0,0.0,0.1
1446037652863084927,188,1446037652859483957,robocape,-13.0665470945,11.1004007584,-70.8279774802,0.0,10.0,0.0,0.0,0.0,10.0,0.0,0.0,0.0,10.0,4.36318997193,0.240616604489,-2.47913665875,1.0,0.0,0.0,0.0,1.0,0.0,0.0,0.0,1.0,-8.61368774414,-0.501756591797,-11.281739502,0.1,0.0,0.0,0.0,0.1,0.0,0.0,0.0,0.1
1446037652895564260,189,1446037652892555952,robocape,-4.85823381899,11.809183109,-71.2504072975,0.0,10.0,0.0,0.0,0.0,10.0,0.0,0.0,0.0,10.0,4.36318997193,0.49401638221,-0.507731661824,1.0,0.0,0.0,0.0,1.0,0.0,0.0,0.0,1.0,-0.623902587891,4.78764404297,-12.1726867676,0.1,0.0,0.0,0.0,0.1,0.0,0.0,0.0,0.1
1446037652929425802,190,1446037652926351070,robocape,1.96908442582,12.3227539725,-64.8468537139,0.0,10.0,0.0,0.0,0.0,10.0,0.0,0.0,0.0,10.0,2.74531960971,-0.0370179391521,4.36318997193,1.0,0.0,0.0,0.0,1.0,0.0,0.0,0.0,1.0,19.6194012451,19.6194012451,4.0583605957,0.1,0.0,0.0,0.0,0.1,0.0,0.0,0.0,0.1
1446037652962828302,191,1446037652959573984,robocape,10.8318676859,16.3678794533,-57.2014359417,0.0,10.0,0.0,0.0,0.0,10.0,0.0,0.0,0.0,10.0,3.46543836847,2.3666181027,4.36318997193,1.0,0.0,0.0,0.0,1.0,0.0,0.0,0.0,1.0,10.2949914551,9.9249609375,-1.66453857422,0.1,0.0,0.0,0.0,0.1,0.0,0.0,0.0,0.1
1446037652995872011,192,1446037652992765903,robocape,17.8435156667,22.0265119931,-47.6552311111,0.0,10.0,0.0,0.0,0.0,10.0,0.0,0.0,0.0,10.0,1.81134901542,3.88382097572,4.36318997193,1.0,0.0,0.0,0.0,1.0,0.0,0.0,0.0,1.0,-0.222736816406,8.71188354492,-1.59268798828,0.1,0.0,0.0,0.0,0.1,0.0,0.0,0.0,0.1
1446037653029036302,193,1446037653025969982,robocape,23.4604213731,26.2015561081,-37.0196366925,0.0,10.0,0.0,0.0,0.0,10.0,0.0,0.0,0.0,10.0,0.431565254647,3.67409703987,4.36318997193,1.0,0.0,0.0,0.0,1.0,0.0,0.0,0.0,1.0,-1.66693359375,7.84129394531,-1.79506713867,0.1,0.0,0.0,0.0,0.1,0.0,0.0,0.0,0.1
1446037653062860177,194,1446037653059571981,robocape,29.6548230839,30.4509508414,-25.0823857914,0.0,10.0,0.0,0.0,0.0,10.0,0.0,0.0,0.0,10.0,0.15313176268,4.36318997193,4.0679785651,1.0,0.0,0.0,0.0,1.0,0.0,0.0,0.0,1.0,15.9472375488,6.20549560547,2.63691650391,0.1,0.0,0.0,0.0,0.1,0.0,0.0,0.0,0.1
