%time,field.header.seq,field.header.stamp,field.header.frame_id,field.orientation.x,field.orientation.y,field.orientation.z,field.orientation.w,field.orientation_covariance0,field.orientation_covariance1,field.orientation_covariance2,field.orientation_covariance3,field.orientation_covariance4,field.orientation_covariance5,field.orientation_covariance6,field.orientation_covariance7,field.orientation_covariance8,field.angular_velocity.x,field.angular_velocity.y,field.angular_velocity.z,field.angular_velocity_covariance0,field.angular_velocity_covariance1,field.angular_velocity_covariance2,field.angular_velocity_covariance3,field.angular_velocity_covariance4,field.angular_velocity_covariance5,field.angular_velocity_covariance6,field.angular_velocity_covariance7,field.angular_velocity_covariance8,field.linear_acceleration.x,field.linear_acceleration.y,field.linear_acceleration.z,field.linear_acceleration_covariance0,field.linear_acceleration_covariance1,field.linear_acceleration_covariance2,field.linear_acceleration_covariance3,field.linear_acceleration_covariance4,field.linear_acceleration_covariance5,field.linear_acceleration_covariance6,field.linear_acceleration_covariance7,field.linear_acceleration_covariance8
1446037376446264129,1,1446037376443187952,robocape,1.04317084843,7.46575983896,-23.9107489749,0.0,10.0,0.0,0.0,0.0,10.0,0.0,0.0,0.0,10.0,-0.104795388895,0.00812264132474,0.00173105470855,1.0,0.0,0.0,0.0,1.0,0.0,0.0,0.0,1.0,0.656235351563,-0.389190673828,9.86269042969,0.1,0.0,0.0,0.0,0.1,0.0,0.0,0.0,0.1
1446037376478056004,2,1446037376474879980,robocape,0.823555658483,7.47659150692,-23.6823943549,0.0,10.0,0.0,0.0,0.0,10.0,0.0,0.0,0.0,10.0,-0.128364364542,0.0142479118319,0.0964064314609,1.0,0.0,0.0,0.0,1.0,0.0,0.0,0.0,1.0,-0.227526855469,-1.30528564453,10.132130127,0.1,0.0,0.0,0.0,0.1,0.0,0.0,0.0,0.1
1446037376511433712,3,1446037376508455038,robocape,0.87008523323,7.49545209168,-23.456002929,0.0,10.0,0.0,0.0,0.0,10.0,0.0,0.0,0.0,10.0,0.0111852765783,0.0185089695761,0.0949416928613,1.0,0.0,0.0,0.0,1.0,0.0,0.0,0.0,1.0,0.24908203125,-1.34600097656,10.0770446777,0.1,0.0,0.0,0.0,0.1,0.0,0.0,0.0,0.1
1446037376545063670,4,1446037376542081117,robocape,1.15287311341,7.47860009833,-23.3102635653,0.0,10.0,0.0,0.0,0.0,10.0,0.0,0.0,0.0,10.0,0.140881221665,0.0,0.051532167093,1.0,0.0,0.0,0.0,1.0,0.0,0.0,0.0,1.0,0.362845458984,-0.972377929688,9.99681152344,0.1,0.0,0.0,0.0,0.1,0.0,0.0,0.0,0.1
1446037376578069045,5,1446037376574867963,robocape,1.65842983785,7.52658763649,-23.304759302,0.0,10.0,0.0,0.0,0.0,10.0,0.0,0.0,0.0,10.0,0.268180321771,0.0339553038985,-0.0262321367373,1.0,0.0,0.0,0.0,1.0,0.0,0.0,0.0,1.0,0.0538879394531,-0.9580078125,9.97884887695,0.1,0.0,0.0,0.0,0.1,0.0,0.0,0.0,0.1
1446037376611239045,6,1446037376608268976,robocape,2.41317533488,7.58036395872,-23.5861664755,0.0,10.0,0.0,0.0,0.0,10.0,0.0,0.0,0.0,10.0,0.420646294178,0.0339553038985,-0.183491799106,1.0,0.0,0.0,0.0,1.0,0.0,0.0,0.0,1.0,0.1916015625,0.0646655273438,9.99321899414,0.1,0.0,0.0,0.0,0.1,0.0,0.0,0.0,0.1
1446037376644901795,7,1446037376641726970,robocape,2.63051731863,7.60296271646,-23.6325055292,0.0,10.0,0.0,0.0,0.0,10.0,0.0,0.0,0.0,10.0,0.122239094035,0.0195742340121,-0.0544616442921,1.0,0.0,0.0,0.0,1.0,0.0,0.0,0.0,1.0,-0.0694555664063,1.95553344727,10.0686621094,0.1,0.0,0.0,0.0,0.1,0.0,0.0,0.0,0.1
1446037376678149129,8,1446037376674978971,robocape,2.35429919202,7.60409336347,-23.4074075469,0.0,10.0,0.0,0.0,0.0,10.0,0.0,0.0,0.0,10.0,-0.156727030151,0.0119842249054,0.0953411670248,1.0,0.0,0.0,0.0,1.0,0.0,0.0,0.0,1.0,-0.516126708984,0.511336669922,10.0830322266,0.1,0.0,0.0,0.0,0.1,0.0,0.0,0.0,0.1
1446037376711377087,9,1446037376708380937,robocape,2.08800855237,7.61177394074,-23.3227423372,0.0,10.0,0.0,0.0,0.0,10.0,0.0,0.0,0.0,10.0,-0.141547011938,0.0130494893414,0.0193079179031,1.0,0.0,0.0,0.0,1.0,0.0,0.0,0.0,1.0,0.118553466797,0.136516113281,10.019564209,0.1,0.0,0.0,0.0,0.1,0.0,0.0,0.0,0.1
1446037376744541004,10,1446037376741297960,robocape,1.82845405121,7.61114404651,-23.458895885,0.0,10.0,0.0,0.0,0.0,10.0,0.0,0.0,0.0,10.0,-0.122239094035,0.00612527050718,-0.100134856987,1.0,0.0,0.0,0.0,1.0,0.0,0.0,0.0,1.0,0.573607177734,0.895737304688,9.86388793945,0.1,0.0,0.0,0.0,0.1,0.0,0.0,0.0,0.1
1446037376777821754,11,1446037376774771928,robocape,1.14301560614,7.5694715382,-23.3051786344,0.0,10.0,0.0,0.0,0.0,10.0,0.0,0.0,0.0,10.0,-0.367116756267,-0.0133158054504,0.0591221761998,1.0,0.0,0.0,0.0,1.0,0.0,0.0,0.0,1.0,-0.330512695313,-0.244291992188,10.1381176758,0.1,0.0,0.0,0.0,0.1,0.0,0.0,0.0,0.1
1446037376811407796,12,1446037376808383941,robocape,0.77025989377,7.55010196793,-23.2951205548,0.0,10.0,0.0,0.0,0.0,10.0,0.0,0.0,0.0,10.0,-0.19334549514,-0.00213052887206,-0.0202400242846,1.0,0.0,0.0,0.0,1.0,0.0,0.0,0.0,1.0,0.213156738281,-1.40587646484,10.0950073242,0.1,0.0,0.0,0.0,0.1,0.0,0.0,0.0,0.1
1446037376844398296,13,1446037376841378927,robocape,0.620028319546,7.56613572024,-23.3331559305,0.0,10.0,0.0,0.0,0.0,10.0,0.0,0.0,0.0,10.0,-0.0735032460862,0.0167779148675,-0.0474042674034,1.0,0.0,0.0,0.0,1.0,0.0,0.0,0.0,1.0,0.548459472656,-1.07057373047,10.0004040527,0.1,0.0,0.0,0.0,0.1,0.0,0.0,0.0,0.1
1446037376877941587,14,1446037376874790906,robocape,0.55662228906,7.57614107141,-23.1894908262,0.0,10.0,0.0,0.0,0.0,10.0,0.0,0.0,0.0,10.0,-0.0410126807872,0.0134489635049,0.050999534875,1.0,0.0,0.0,0.0,1.0,0.0,0.0,0.0,1.0,-0.165256347656,-1.2645703125,10.0782421875,0.1,0.0,0.0,0.0,0.1,0.0,0.0,0.0,0.1
1446037376911290212,15,1446037376908226966,robocape,0.683548507711,7.60078864791,-22.9405329656,0.0,10.0,0.0,0.0,0.0,10.0,0.0,0.0,0.0,10.0,0.051265850984,0.0211721306661,0.107724866094,1.0,0.0,0.0,0.0,1.0,0.0,0.0,0.0,1.0,0.362845458984,-1.59987304688,9.93933105469,0.1,0.0,0.0,0.0,0.1,0.0,0.0,0.0,0.1
1446037376944701004,16,1446037376941452980,robocape,1.08859000303,7.65896139126,-22.7318407882,0.0,10.0,0.0,0.0,0.0,10.0,0.0,0.0,0.0,10.0,0.200136555919,0.0395479421877,0.085087996828,1.0,0.0,0.0,0.0,1.0,0.0,0.0,0.0,1.0,0.233514404297,-1.04183349609,10.0171691895,0.1,0.0,0.0,0.0,0.1,0.0,0.0,0.0,0.1
1446037376978001879,17,1446037376974726915,robocape,1.62872058723,7.72047381066,-22.5417768408,0.0,10.0,0.0,0.0,0.0,10.0,0.0,0.0,0.0,10.0,0.272707695624,0.0422111032778,0.0744353524677,1.0,0.0,0.0,0.0,1.0,0.0,0.0,0.0,1.0,0.0203576660156,-0.579594726562,10.003996582,0.1,0.0,0.0,0.0,0.1,0.0,0.0,0.0,0.1
1446037377011624962,18,1446037377008212089,robocape,2.19183345071,7.77343552582,-22.4105898394,0.0,10.0,0.0,0.0,0.0,10.0,0.0,0.0,0.0,10.0,0.289618768546,0.0380832035881,0.0423442613323,1.0,0.0,0.0,0.0,1.0,0.0,0.0,0.0,1.0,0.128133544922,0.0874182128906,10.0363293457,0.1,0.0,0.0,0.0,0.1,0.0,0.0,0.0,0.1
1446037377048083004,19,1446037377045030117,robocape,2.58499107155,7.80793964916,-22.2350428069,0.0,10.0,0.0,0.0,0.0,10.0,0.0,0.0,0.0,10.0,0.197606552884,0.0294279300454,0.0669785014155,1.0,0.0,0.0,0.0,1.0,0.0,0.0,0.0,1.0,0.076640625,0.597557373047,10.0662670898,0.1,0.0,0.0,0.0,0.1,0.0,0.0,0.0,0.1
1446037377079940337,20,1446037377076700925,robocape,2.81570186139,7.83470369032,-22.160642711,0.0,10.0,0.0,0.0,0.0,10.0,0.0,0.0,0.0,10.0,0.120241723217,0.0238352917562,0.0131826473959,1.0,0.0,0.0,0.0,1.0,0.0,0.0,0.0,1.0,-0.156873779297,0.641865234375,10.0914147949,0.1,0.0,0.0,0.0,0.1,0.0,0.0,0.0,0.1
1446037377114229212,21,1446037377111197948,robocape,2.86917868034,7.85246185337,-22.1860352289,0.0,10.0,0.0,0.0,0.0,10.0,0.0,0.0,0.0,10.0,0.03488741028,0.0170442309765,-0.0396811002422,1.0,0.0,0.0,0.0,1.0,0.0,0.0,0.0,1.0,-0.0335302734375,0.330512695313,9.99202148437,0.1,0.0,0.0,0.0,0.1,0.0,0.0,0.0,0.1
1446037377147678462,22,1446037377144640922,robocape,2.76525507192,7.86655321956,-22.3392359073,0.0,10.0,0.0,0.0,0.0,10.0,0.0,0.0,0.0,10.0,-0.0380832035881,0.0125168571234,-0.107991182203,1.0,0.0,0.0,0.0,1.0,0.0,0.0,0.0,1.0,0.106578369141,1.31247070313,10.1129699707,0.1,0.0,0.0,0.0,0.1,0.0,0.0,0.0,0.1
1446037377179490712,23,1446037377176263093,robocape,2.15233450329,7.85197871137,-22.1265991189,0.0,10.0,0.0,0.0,0.0,10.0,0.0,0.0,0.0,10.0,-0.333161452369,0.00306263525359,0.0921453737167,1.0,0.0,0.0,0.0,1.0,0.0,0.0,0.0,1.0,-0.330512695313,0.738863525391,10.0614770508,0.1,0.0,0.0,0.0,0.1,0.0,0.0,0.0,0.1
1446037377213469921,24,1446037377210450887,robocape,1.57670370445,7.83171409756,-21.9828841611,0.0,10.0,0.0,0.0,0.0,10.0,0.0,0.0,0.0,10.0,-0.308926686449,-0.00159789665405,0.0549942765101,1.0,0.0,0.0,0.0,1.0,0.0,0.0,0.0,1.0,-0.0179626464844,-0.735270996094,10.1201550293,0.1,0.0,0.0,0.0,0.1,0.0,0.0,0.0,0.1
1446037377246501796,25,1446037377243262052,robocape,1.25461347364,7.81965878381,-21.9675357344,0.0,10.0,0.0,0.0,0.0,10.0,0.0,0.0,0.0,10.0,-0.166847042293,0.00173105470855,-0.0151800182135,1.0,0.0,0.0,0.0,1.0,0.0,0.0,0.0,1.0,0.532891845703,-1.80823974609,9.85909790039,0.1,0.0,0.0,0.0,0.1,0.0,0.0,0.0,0.1
1446037377278843212,26,1446037377275749921,robocape,1.49457512599,7.84559548863,-22.3831958914,0.0,10.0,0.0,0.0,0.0,10.0,0.0,0.0,0.0,10.0,0.159922823459,0.0198405501211,-0.250070826358,1.0,0.0,0.0,0.0,1.0,0.0,0.0,0.0,1.0,0.235909423828,-1.00950073242,9.98124389648,0.1,0.0,0.0,0.0,0.1,0.0,0.0,0.0,0.1
1446037377312263962,27,1446037377309195041,robocape,1.47009004138,7.85644436892,-22.4833696336,0.0,10.0,0.0,0.0,0.0,10.0,0.0,0.0,0.0,10.0,-0.00199737081756,0.0134489635049,-0.0796285165934,1.0,0.0,0.0,0.0,1.0,0.0,0.0,0.0,1.0,-0.135318603516,0.312550048828,10.0890197754,0.1,0.0,0.0,0.0,0.1,0.0,0.0,0.0,0.1
1446037377344916671,28,1446037377341890096,robocape,1.40728362171,7.86396212918,-22.4568903278,0.0,10.0,0.0,0.0,0.0,10.0,0.0,0.0,0.0,10.0,-0.0315584589174,0.0125168571234,-0.0111852765783,1.0,0.0,0.0,0.0,1.0,0.0,0.0,0.0,1.0,0.0299377441406,-0.295784912109,10.0734521484,0.1,0.0,0.0,0.0,0.1,0.0,0.0,0.0,0.1
1446037377379782796,29,1446037377376744985,robocape,1.32766270885,7.87458245444,-22.3853962083,0.0,10.0,0.0,0.0,0.0,10.0,0.0,0.0,0.0,10.0,-0.0438089999318,0.0143810698864,0.0131826473959,1.0,0.0,0.0,0.0,1.0,0.0,0.0,0.0,1.0,0.269439697266,-0.592767333984,9.83395019531,0.1,0.0,0.0,0.0,0.1,0.0,0.0,0.0,0.1
1446037377411759296,30,1446037377408664941,robocape,1.25573296928,7.88104720129,-22.2395666437,0.0,10.0,0.0,0.0,0.0,10.0,0.0,0.0,0.0,10.0,-0.0454068965859,0.0125168571234,0.0535295379106,1.0,0.0,0.0,0.0,1.0,0.0,0.0,0.0,1.0,-0.0215551757813,-0.319735107422,10.0746496582,0.1,0.0,0.0,0.0,0.1,0.0,0.0,0.0,0.1
1446037377444505421,31,1446037377441495895,robocape,1.29869622324,7.89493459958,-22.0916435021,0.0,10.0,0.0,0.0,0.0,10.0,0.0,0.0,0.0,10.0,0.0146473859954,0.0165115987585,0.0544616442921,1.0,0.0,0.0,0.0,1.0,0.0,0.0,0.0,1.0,0.144898681641,-1.2645703125,9.96807128906,0.1,0.0,0.0,0.0,0.1,0.0,0.0,0.0,0.1
1446037377477909879,32,1446037377474829912,robocape,1.50530280061,7.93202575478,-22.0357367826,0.0,10.0,0.0,0.0,0.0,10.0,0.0,0.0,0.0,10.0,0.107458549985,0.0284958236638,0.00412789968962,1.0,0.0,0.0,0.0,1.0,0.0,0.0,0.0,1.0,0.126936035156,0.105380859375,10.0782421875,0.1,0.0,0.0,0.0,0.1,0.0,0.0,0.0,0.1
1446037377511519213,33,1446037377508198022,robocape,1.65811748489,7.95627148252,-21.864247145,0.0,10.0,0.0,0.0,0.0,10.0,0.0,0.0,0.0,10.0,0.0707069269416,0.0226368692657,0.066845343361,1.0,0.0,0.0,0.0,1.0,0.0,0.0,0.0,1.0,0.101788330078,-1.15439941406,9.97645385742,0.1,0.0,0.0,0.0,0.1,0.0,0.0,0.0,0.1
1446037377544744713,34,1446037377541625022,robocape,1.99210799718,7.99401631834,-21.8083208956,0.0,10.0,0.0,0.0,0.0,10.0,0.0,0.0,0.0,10.0,0.174703367509,0.0291616139364,0.00386158358061,1.0,0.0,0.0,0.0,1.0,0.0,0.0,0.0,1.0,0.104183349609,0.609532470703,10.0722546387,0.1,0.0,0.0,0.0,0.1,0.0,0.0,0.0,0.1
1446037377578021546,35,1446037377574898958,robocape,1.96583117332,8.01394924735,-21.5640343537,0.0,10.0,0.0,0.0,0.0,10.0,0.0,0.0,0.0,10.0,-0.0284958236638,0.0215716048296,0.106792759712,1.0,0.0,0.0,0.0,1.0,0.0,0.0,0.0,1.0,0.009580078125,-0.0826281738281,10.0447119141,0.1,0.0,0.0,0.0,0.1,0.0,0.0,0.0,0.1
1446037377611482588,36,1446037377608406066,robocape,2.06116775009,8.03568234529,-21.442275391,0.0,10.0,0.0,0.0,0.0,10.0,0.0,0.0,0.0,10.0,0.0446079482588,0.0213052887206,0.0407463646782,1.0,0.0,0.0,0.0,1.0,0.0,0.0,0.0,1.0,0.0263452148438,-0.792751464844,9.99321899414,0.1,0.0,0.0,0.0,0.1,0.0,0.0,0.0,0.1
1446037377644968379,37,1446037377641913890,robocape,2.39854343078,8.0698055049,-21.6629918978,0.0,10.0,0.0,0.0,0.0,10.0,0.0,0.0,0.0,10.0,0.198139185102,0.0237021337017,-0.144609647191,1.0,0.0,0.0,0.0,1.0,0.0,0.0,0.0,1.0,0.257464599609,0.227526855469,10.0147741699,0.1,0.0,0.0,0.0,0.1,0.0,0.0,0.0,0.1
1446037377678313296,38,1446037377674932003,robocape,2.44816886506,8.09002696525,-21.7965234408,0.0,10.0,0.0,0.0,0.0,10.0,0.0,0.0,0.0,10.0,0.0407463646782,0.0170442309765,-0.0969390636789,1.0,0.0,0.0,0.0,1.0,0.0,0.0,0.0,1.0,-0.0838256835938,0.917292480469,10.0997973633,0.1,0.0,0.0,0.0,0.1,0.0,0.0,0.0,0.1
1446037377711420129,39,1446037377708414077,robocape,2.22192186666,8.09192810595,-21.7833494416,0.0,10.0,0.0,0.0,0.0,10.0,0.0,0.0,0.0,10.0,-0.115448033255,0.00932106381528,-0.016644756813,1.0,0.0,0.0,0.0,1.0,0.0,0.0,0.0,1.0,-0.267044677734,0.264649658203,10.075847168,0.1,0.0,0.0,0.0,0.1,0.0,0.0,0.0,0.1
1446037377744811046,40,1446037377741803884,robocape,1.91099910632,8.08682005177,-21.7888912377,0.0,10.0,0.0,0.0,0.0,10.0,0.0,0.0,0.0,10.0,-0.158724400969,0.00532632218016,-0.0262321367373,1.0,0.0,0.0,0.0,1.0,0.0,0.0,0.0,1.0,0.201181640625,-0.0299377441406,10.0219592285,0.1,0.0,0.0,0.0,0.1,0.0,0.0,0.0,0.1
1446037377778092754,41,1446037377775110960,robocape,1.53546853554,8.07926805661,-21.7565090305,0.0,10.0,0.0,0.0,0.0,10.0,0.0,0.0,0.0,10.0,-0.195875498175,0.00439421579863,-0.00559263828917,1.0,0.0,0.0,0.0,1.0,0.0,0.0,0.0,1.0,0.21076171875,-0.401165771484,9.97884887695,0.1,0.0,0.0,0.0,0.1,0.0,0.0,0.0,0.1
1446037377811465796,42,1446037377808430910,robocape,1.2844149316,8.07291446127,-21.715499721,0.0,10.0,0.0,0.0,0.0,10.0,0.0,0.0,0.0,10.0,-0.13156015785,0.00519316412565,-0.00133158054504,1.0,0.0,0.0,0.0,1.0,0.0,0.0,0.0,1.0,0.0155676269531,-0.901724853516,10.0818347168,0.1,0.0,0.0,0.0,0.1,0.0,0.0,0.0,0.1
1446037377846085838,43,1446037377843069076,robocape,1.21003898799,8.08356688979,-21.6558660116,0.0,10.0,0.0,0.0,0.0,10.0,0.0,0.0,0.0,10.0,-0.0404800485692,0.0143810698864,0.00798948327024,1.0,0.0,0.0,0.0,1.0,0.0,0.0,0.0,1.0,0.286204833984,-1.16158447266,9.92256591797,0.1,0.0,0.0,0.0,0.1,0.0,0.0,0.0,0.1
1446037377882693046,44,1446037377878880977,robocape,1.33682413303,8.10828627948,-21.6024342366,0.0,10.0,0.0,0.0,0.0,10.0,0.0,0.0,0.0,10.0,0.0655137628159,0.0219710789932,0.00399474163512,1.0,0.0,0.0,0.0,1.0,0.0,0.0,0.0,1.0,0.09580078125,-1.0346484375,9.98723144531,0.1,0.0,0.0,0.0,0.1,0.0,0.0,0.0,0.1
1446037377915689296,45,1446037377912328004,robocape,1.61283230854,8.14446831817,-21.5518123119,0.0,10.0,0.0,0.0,0.0,10.0,0.0,0.0,0.0,10.0,0.144210173028,0.0282295075548,0.00186421276306,1.0,0.0,0.0,0.0,1.0,0.0,0.0,0.0,1.0,0.173638916016,-0.595162353516,10.0207617188,0.1,0.0,0.0,0.0,0.1,0.0,0.0,0.0,0.1
1446037377948581754,46,1446037377945139884,robocape,1.91032178602,8.18397264394,-21.5063650303,0.0,10.0,0.0,0.0,0.0,10.0,0.0,0.0,0.0,10.0,0.156194397933,0.0300937203179,-0.00119842249054,1.0,0.0,0.0,0.0,1.0,0.0,0.0,0.0,1.0,0.0993933105469,-0.180823974609,10.0566870117,0.1,0.0,0.0,0.0,0.1,0.0,0.0,0.0,0.1
1446037377981877379,47,1446037377978492021,robocape,2.11794810582,8.21445351522,-21.4541348485,0.0,10.0,0.0,0.0,0.0,10.0,0.0,0.0,0.0,10.0,0.10879013053,0.0254331884103,0.00279631914458,1.0,0.0,0.0,0.0,1.0,0.0,0.0,0.0,1.0,0.0395178222656,0.143701171875,10.0674645996,0.1,0.0,0.0,0.0,0.1,0.0,0.0,0.0,0.1
1446037378015341838,48,1446037378012141942,robocape,2.20039495845,8.23590216107,-21.3988273185,0.0,10.0,0.0,0.0,0.0,10.0,0.0,0.0,0.0,10.0,0.0430100516048,0.0206394984481,0.00506000607115,1.0,0.0,0.0,0.0,1.0,0.0,0.0,0.0,1.0,-0.0251477050781,0.280217285156,10.0638720703,0.1,0.0,0.0,0.0,0.1,0.0,0.0,0.0,0.1
1446037378047453796,49,1446037378044205904,robocape,2.14510090714,8.24693857488,-21.3398061499,0.0,10.0,0.0,0.0,0.0,10.0,0.0,0.0,0.0,10.0,-0.0295610880999,0.0150468601589,0.00785632521573,1.0,0.0,0.0,0.0,1.0,0.0,0.0,0.0,1.0,0.0299377441406,0.262254638672,10.0471069336,0.1,0.0,0.0,0.0,0.1,0.0,0.0,0.0,0.1
1446037378081498754,50,1446037378078105926,robocape,1.97437635819,8.24986548407,-21.2754020478,0.0,10.0,0.0,0.0,0.0,10.0,0.0,0.0,0.0,10.0,-0.0906806351172,0.0106526443603,0.0114515926873,1.0,0.0,0.0,0.0,1.0,0.0,0.0,0.0,1.0,0.0275427246094,0.0610729980469,10.0387243652,0.1,0.0,0.0,0.0,0.1,0.0,0.0,0.0,0.1
1446037378114420379,51,1446037378111325025,robocape,1.67342100094,8.22237530822,-21.0282557065,0.0,10.0,0.0,0.0,0.0,10.0,0.0,0.0,0.0,10.0,-0.173504945019,-0.00386158358061,0.110920659402,1.0,0.0,0.0,0.0,1.0,0.0,0.0,0.0,1.0,-0.0850231933594,0.270637207031,9.99082397461,0.1,0.0,0.0,0.0,0.1,0.0,0.0,0.0,0.1
1446037378148758796,52,1446037378145653963,robocape,1.48261947057,8.21675895358,-20.8574801019,0.0,10.0,0.0,0.0,0.0,10.0,0.0,0.0,0.0,10.0,-0.10998855302,0.0066579027252,0.0693753463966,1.0,0.0,0.0,0.0,1.0,0.0,0.0,0.0,1.0,0.28740234375,-1.58191040039,9.92376342773,0.1,0.0,0.0,0.0,0.1,0.0,0.0,0.0,0.1
1446037378181677921,53,1446037378177877902,robocape,1.57441746824,8.23804463628,-20.7988450072,0.0,10.0,0.0,0.0,0.0,10.0,0.0,0.0,0.0,10.0,0.0468716351854,0.0202400242846,0.00812264132474,1.0,0.0,0.0,0.0,1.0,0.0,0.0,0.0,1.0,0.264649658203,-0.870589599609,9.98124389648,0.1,0.0,0.0,0.0,0.1,0.0,0.0,0.0,0.1
1446037378214548796,54,1446037378211438894,robocape,1.71501001903,8.26629821095,-20.6325831095,0.0,10.0,0.0,0.0,0.0,10.0,0.0,0.0,0.0,10.0,0.0641821822709,0.0249005561922,0.0656469208705,1.0,0.0,0.0,0.0,1.0,0.0,0.0,0.0,1.0,0.0455053710938,-0.735270996094,10.0854272461,0.1,0.0,0.0,0.0,0.1,0.0,0.0,0.0,0.1
1446037378247273130,55,1446037378244239091,robocape,2.04484498766,8.30143231543,-20.4955682597,0.0,10.0,0.0,0.0,0.0,10.0,0.0,0.0,0.0,10.0,0.165914935912,0.0287621397729,0.049401638221,1.0,0.0,0.0,0.0,1.0,0.0,0.0,0.0,1.0,0.132923583984,-1.3376184082,9.97405883789,0.1,0.0,0.0,0.0,0.1,0.0,0.0,0.0,0.1
1446037378281432505,56,1446037378278165102,robocape,2.53342481177,8.40849816992,-20.4426226743,0.0,10.0,0.0,0.0,0.0,10.0,0.0,0.0,0.0,10.0,0.25632925492,0.0661795530885,0.00173105470855,1.0,0.0,0.0,0.0,1.0,0.0,0.0,0.0,1.0,0.136516113281,0.844244384766,10.0650695801,0.1,0.0,0.0,0.0,0.1,0.0,0.0,0.0,0.1
1446037378313553963,57,1446037378310472011,robocape,2.73050488478,8.43537563962,-20.4040600725,0.0,10.0,0.0,0.0,0.0,10.0,0.0,0.0,0.0,10.0,0.104795388895,0.0235689756472,-0.00306263525359,1.0,0.0,0.0,0.0,1.0,0.0,0.0,0.0,1.0,-0.0586779785156,-0.407153320313,9.9980090332,0.1,0.0,0.0,0.0,0.1,0.0,0.0,0.0,0.1
1446037378346148005,58,1446037378343146085,robocape,3.08475659412,8.4717480664,-20.5612639458,0.0,10.0,0.0,0.0,0.0,10.0,0.0,0.0,0.0,10.0,0.203465507282,0.0250337142467,-0.108923288584,1.0,0.0,0.0,0.0,1.0,0.0,0.0,0.0,1.0,-0.0323327636719,0.619112548828,10.0710571289,0.1,0.0,0.0,0.0,0.1,0.0,0.0,0.0,0.1
1446037378381308755,59,1446037378378042936,robocape,2.97906620159,8.48052505312,-20.5641017283,0.0,10.0,0.0,0.0,0.0,10.0,0.0,0.0,0.0,10.0,-0.0503337446025,0.0129163312869,-0.0239684498107,1.0,0.0,0.0,0.0,1.0,0.0,0.0,0.0,1.0,-0.0275427246094,0.929267578125,10.0471069336,0.1,0.0,0.0,0.0,0.1,0.0,0.0,0.0,0.1
1446037378413308546,60,1446037378410093069,robocape,2.65185746794,8.47355697105,-20.5143680123,0.0,10.0,0.0,0.0,0.0,10.0,0.0,0.0,0.0,10.0,-0.171108100038,0.00532632218016,0.00559263828917,1.0,0.0,0.0,0.0,1.0,0.0,0.0,0.0,1.0,-0.140108642578,0.267044677734,10.0135766602,0.1,0.0,0.0,0.0,0.1,0.0,0.0,0.0,0.1
1446037378445213088,61,1446037378442123889,robocape,2.20909181826,8.45707513852,-20.415288803,0.0,10.0,0.0,0.0,0.0,10.0,0.0,0.0,0.0,10.0,-0.236089230636,0.000798948327024,0.032756881408,1.0,0.0,0.0,0.0,1.0,0.0,0.0,0.0,1.0,0.0502954101563,-0.0934057617188,10.0542919922,0.1,0.0,0.0,0.0,0.1,0.0,0.0,0.0,0.1
1446037378478644838,62,1446037378475569963,robocape,1.71871212883,8.43987631211,-20.2103824325,0.0,10.0,0.0,0.0,0.0,10.0,0.0,0.0,0.0,10.0,-0.26991137648,0.00119842249054,0.0896153706812,1.0,0.0,0.0,0.0,1.0,0.0,0.0,0.0,1.0,0.199984130859,-0.749641113281,10.0734521484,0.1,0.0,0.0,0.0,0.1,0.0,0.0,0.0,0.1
1446037378517880296,63,1446037378508825063,robocape,1.5103395659,8.4406899192,-20.0445746167,0.0,10.0,0.0,0.0,0.0,10.0,0.0,0.0,0.0,10.0,-0.119176458781,0.0101200121423,0.067644291688,1.0,0.0,0.0,0.0,1.0,0.0,0.0,0.0,1.0,0.228724365234,-1.81662231445,9.99202148437,0.1,0.0,0.0,0.0,0.1,0.0,0.0,0.0,0.1
1446037378544804088,64,1446037378541699886,robocape,1.64320076008,8.46618796691,-19.912958718,0.0,10.0,0.0,0.0,0.0,10.0,0.0,0.0,0.0,10.0,0.0624511275624,0.0231695014837,0.0482032157304,1.0,0.0,0.0,0.0,1.0,0.0,0.0,0.0,1.0,0.251477050781,-1.36635864258,9.97765136719,0.1,0.0,0.0,0.0,0.1,0.0,0.0,0.0,0.1
1446037378578200505,65,1446037378575145959,robocape,2.09066511498,8.51574925993,-19.8754780753,0.0,10.0,0.0,0.0,0.0,10.0,0.0,0.0,0.0,10.0,0.235290282309,0.0355532005526,-0.0034621094171,1.0,0.0,0.0,0.0,1.0,0.0,0.0,0.0,1.0,0.173638916016,-1.34959350586,9.96926879883,0.1,0.0,0.0,0.0,0.1,0.0,0.0,0.0,0.1
1446037378611743921,66,1446037378608444929,robocape,2.70790276767,8.57994177241,-19.9626537904,0.0,10.0,0.0,0.0,0.0,10.0,0.0,0.0,0.0,10.0,0.335158823186,0.0418116291142,-0.0715058752686,1.0,0.0,0.0,0.0,1.0,0.0,0.0,0.0,1.0,0.189206542969,0.566422119141,10.0985998535,0.1,0.0,0.0,0.0,0.1,0.0,0.0,0.0,0.1
1446037378644622255,67,1446037378641519069,robocape,2.71593399046,8.59845804011,-19.5141417759,0.0,10.0,0.0,0.0,0.0,10.0,0.0,0.0,0.0,10.0,-0.0279631914458,0.0263652947918,0.217580261059,1.0,0.0,0.0,0.0,1.0,0.0,0.0,0.0,1.0,-0.123343505859,0.354462890625,10.0698596191,0.1,0.0,0.0,0.0,0.1,0.0,0.0,0.0,0.1
1446037378677991213,68,1446037378674725055,robocape,2.68509010257,8.61783832955,-19.0103676188,0.0,10.0,0.0,0.0,0.0,10.0,0.0,0.0,0.0,10.0,-0.0529969056926,0.0276968753368,0.247540823323,1.0,0.0,0.0,0.0,1.0,0.0,0.0,0.0,1.0,-0.105380859375,-0.399968261719,10.0231567383,0.1,0.0,0.0,0.0,0.1,0.0,0.0,0.0,0.1
1446037378711976380,69,1446037378708688974,robocape,2.71675767156,8.6219198302,-18.4928464257,0.0,10.0,0.0,0.0,0.0,10.0,0.0,0.0,0.0,10.0,-0.0214384467751,0.0199737081756,0.255530306593,1.0,0.0,0.0,0.0,1.0,0.0,0.0,0.0,1.0,0.341290283203,-0.480201416016,9.95010864258,0.1,0.0,0.0,0.0,0.1,0.0,0.0,0.0,0.1
1446037378744388130,70,1446037378741342067,robocape,2.82933503975,8.62922145049,-17.9400190182,0.0,10.0,0.0,0.0,0.0,10.0,0.0,0.0,0.0,10.0,0.0181094954125,0.0227700273202,0.274305592278,1.0,0.0,0.0,0.0,1.0,0.0,0.0,0.0,1.0,0.192799072266,-1.04662353516,9.99561401367,0.1,0.0,0.0,0.0,0.1,0.0,0.0,0.0,0.1
1446037378778047213,71,1446037378775057077,robocape,3.32503360158,8.65849965508,-17.6635490524,0.0,10.0,0.0,0.0,0.0,10.0,0.0,0.0,0.0,10.0,0.241948185034,0.0303600364269,0.125967519561,1.0,0.0,0.0,0.0,1.0,0.0,0.0,0.0,1.0,0.0550854492188,-1.4980847168,10.0219592285,0.1,0.0,0.0,0.0,0.1,0.0,0.0,0.0,0.1
1446037378812314046,72,1446037378808696985,robocape,4.1235698384,8.68959934999,-17.5262249674,0.0,10.0,0.0,0.0,0.0,10.0,0.0,0.0,0.0,10.0,0.413056285071,0.0295610880999,0.0508663768205,1.0,0.0,0.0,0.0,1.0,0.0,0.0,0.0,1.0,0.21076171875,-0.156873779297,10.055489502,0.1,0.0,0.0,0.0,0.1,0.0,0.0,0.0,0.1
1446037378844898255,73,1446037378841881990,robocape,4.97688355071,8.71032342064,-17.5973415959,0.0,10.0,0.0,0.0,0.0,10.0,0.0,0.0,0.0,10.0,0.46032739442,0.017976337358,-0.0600542825813,1.0,0.0,0.0,0.0,1.0,0.0,0.0,0.0,1.0,-0.0227526855469,0.295784912109,10.0471069336,0.1,0.0,0.0,0.0,0.1,0.0,0.0,0.0,0.1
1446037378878656338,74,1446037378875575065,robocape,5.72924120702,8.71942880136,-17.5713922904,0.0,10.0,0.0,0.0,0.0,10.0,0.0,0.0,0.0,10.0,0.400273111839,0.0154463343225,-0.00852211548825,1.0,0.0,0.0,0.0,1.0,0.0,0.0,0.0,1.0,-0.00119750976563,0.374820556641,10.0159716797,0.1,0.0,0.0,0.0,0.1,0.0,0.0,0.0,0.1
1446037378911946005,75,1446037378908303976,robocape,6.42092938672,8.73367135877,-17.5948027173,0.0,10.0,0.0,0.0,0.0,10.0,0.0,0.0,0.0,10.0,0.373641500938,0.015845808486,-0.0352868844435,1.0,0.0,0.0,0.0,1.0,0.0,0.0,0.0,1.0,0.0790356445313,0.570014648438,9.98483642578,0.1,0.0,0.0,0.0,0.1,0.0,0.0,0.0,0.1
1446037378944795380,76,1446037378941715002,robocape,7.0340889828,8.75141642426,-17.6085232262,0.0,10.0,0.0,0.0,0.0,10.0,0.0,0.0,0.0,10.0,0.332495662096,0.017976337358,-0.0306263525359,1.0,0.0,0.0,0.0,1.0,0.0,0.0,0.0,1.0,0.0658630371094,0.592767333984,10.0842297363,0.1,0.0,0.0,0.0,0.1,0.0,0.0,0.0,0.1
1446037378978169672,77,1446037378975006103,robocape,7.53849969815,8.75944887355,-17.6038502369,0.0,10.0,0.0,0.0,0.0,10.0,0.0,0.0,0.0,10.0,0.274438750333,0.0137152796139,-0.0201068662301,1.0,0.0,0.0,0.0,1.0,0.0,0.0,0.0,1.0,-0.275427246094,0.78556640625,10.0997973633,0.1,0.0,0.0,0.0,0.1,0.0,0.0,0.0,0.1
1446037379011665297,78,1446037379008383035,robocape,7.87617939249,8.76810841684,-17.558523305,0.0,10.0,0.0,0.0,0.0,10.0,0.0,0.0,0.0,10.0,0.183624957161,0.0162452826495,0.00199737081756,1.0,0.0,0.0,0.0,1.0,0.0,0.0,0.0,1.0,-0.00239501953125,1.32564331055,10.1093774414,0.1,0.0,0.0,0.0,0.1,0.0,0.0,0.0,0.1
1446037379044715047,79,1446037379041640043,robocape,7.99293094487,8.78473541381,-17.6047415244,0.0,10.0,0.0,0.0,0.0,10.0,0.0,0.0,0.0,10.0,0.0753674588492,0.0138484376684,-0.0455400546404,1.0,0.0,0.0,0.0,1.0,0.0,0.0,0.0,1.0,0.0981958007813,1.97708862305,9.93573852539,0.1,0.0,0.0,0.0,0.1,0.0,0.0,0.0,0.1
1446037379078219005,80,1446037379075016021,robocape,7.75143890301,8.80695099027,-17.5749859503,0.0,10.0,0.0,0.0,0.0,10.0,0.0,0.0,0.0,10.0,-0.120241723217,0.0207726565026,-0.00359526747161,1.0,0.0,0.0,0.0,1.0,0.0,0.0,0.0,1.0,0.154478759766,1.62502075195,10.0267492676,0.1,0.0,0.0,0.0,0.1,0.0,0.0,0.0,0.1
1446037379111328463,81,1446037379108228921,robocape,7.32963171176,8.82418979126,-17.5568423989,0.0,10.0,0.0,0.0,0.0,10.0,0.0,0.0,0.0,10.0,-0.21465078386,0.016911072922,-0.00798948327024,1.0,0.0,0.0,0.0,1.0,0.0,0.0,0.0,1.0,-0.0922082519531,0.621507568359,10.0590820312,0.1,0.0,0.0,0.0,0.1,0.0,0.0,0.0,0.1
1446037379144816255,82,1446037379141736984,robocape,6.88006147364,8.83688067665,-17.5198889307,0.0,10.0,0.0,0.0,0.0,10.0,0.0,0.0,0.0,10.0,-0.231295540673,0.015579492377,0.00253000303558,1.0,0.0,0.0,0.0,1.0,0.0,0.0,0.0,1.0,0.1149609375,0.639470214844,10.0842297363,0.1,0.0,0.0,0.0,0.1,0.0,0.0,0.0,0.1
1446037379178211922,83,1446037379174952030,robocape,6.38218611979,8.84566859345,-17.4491084568,0.0,10.0,0.0,0.0,0.0,10.0,0.0,0.0,0.0,10.0,-0.260057680446,0.0151800182135,0.0210389726116,1.0,0.0,0.0,0.0,1.0,0.0,0.0,0.0,1.0,0.0299377441406,0.4215234375,10.0782421875,0.1,0.0,0.0,0.0,0.1,0.0,0.0,0.0,0.1
1446037379211446630,84,1446037379208444118,robocape,5.87053491635,8.85589833424,-17.369687047,0.0,10.0,0.0,0.0,0.0,10.0,0.0,0.0,0.0,10.0,-0.26844663788,0.016112124595,0.0256995045193,1.0,0.0,0.0,0.0,1.0,0.0,0.0,0.0,1.0,0.00359252929688,0.422720947266,10.0471069336,0.1,0.0,0.0,0.0,0.1,0.0,0.0,0.0,0.1
1446037379244362588,85,1446037379241323947,robocape,5.5227409971,8.88721131761,-17.5335831189,0.0,10.0,0.0,0.0,0.0,10.0,0.0,0.0,0.0,10.0,-0.161653878168,0.0162452826495,-0.104928546949,1.0,0.0,0.0,0.0,1.0,0.0,0.0,0.0,1.0,0.0658630371094,0.267044677734,10.0698596191,0.1,0.0,0.0,0.0,0.1,0.0,0.0,0.0,0.1
1446037379277924172,86,1446037379274801969,robocape,4.97007654967,8.88911605566,-17.5071119352,0.0,10.0,0.0,0.0,0.0,10.0,0.0,0.0,0.0,10.0,-0.286156659129,0.00905474770627,-0.00173105470855,1.0,0.0,0.0,0.0,1.0,0.0,0.0,0.0,1.0,-0.0335302734375,0.251477050781,10.080637207,0.1,0.0,0.0,0.0,0.1,0.0,0.0,0.0,0.1
1446037379314494297,87,1446037379310724973,robocape,4.70444356533,8.92225539472,-17.7448694795,0.0,10.0,0.0,0.0,0.0,10.0,0.0,0.0,0.0,10.0,-0.112918030219,0.016112124595,-0.144609647191,1.0,0.0,0.0,0.0,1.0,0.0,0.0,0.0,1.0,0.13412109375,-1.22385498047,10.0051940918,0.1,0.0,0.0,0.0,0.1,0.0,0.0,0.0,0.1
1446037379346611755,88,1446037379343523979,robocape,4.68667278616,8.95229954507,-17.9712927625,0.0,10.0,0.0,0.0,0.0,10.0,0.0,0.0,0.0,10.0,0.016378440704,0.015845808486,-0.139949115284,1.0,0.0,0.0,0.0,1.0,0.0,0.0,0.0,1.0,0.265847167969,0.526904296875,10.0842297363,0.1,0.0,0.0,0.0,0.1,0.0,0.0,0.0,0.1
1446037379381630088,89,1446037379378608942,robocape,4.4135710352,8.94335876756,-17.7949123552,0.0,10.0,0.0,0.0,0.0,10.0,0.0,0.0,0.0,10.0,-0.152599130462,0.00932106381528,0.0762995652308,1.0,0.0,0.0,0.0,1.0,0.0,0.0,0.0,1.0,-0.326920166016,-0.615520019531,10.0075891113,0.1,0.0,0.0,0.0,0.1,0.0,0.0,0.0,0.1
1446037379414249713,90,1446037379410855054,robocape,4.65042357972,8.98455936675,-18.0132256321,0.0,10.0,0.0,0.0,0.0,10.0,0.0,0.0,0.0,10.0,0.149403337153,0.0229031853747,-0.137285954194,1.0,0.0,0.0,0.0,1.0,0.0,0.0,0.0,1.0,0.482596435547,-0.372425537109,9.94412109375,0.1,0.0,0.0,0.0,0.1,0.0,0.0,0.0,0.1
1446037379447524213,91,1446037379444427967,robocape,4.99852628301,9.02496316542,-18.3946720758,0.0,10.0,0.0,0.0,0.0,10.0,0.0,0.0,0.0,10.0,0.222640267131,0.016112124595,-0.224903954057,1.0,0.0,0.0,0.0,1.0,0.0,0.0,0.0,1.0,-0.0586779785156,0.895737304688,10.0375268555,0.1,0.0,0.0,0.0,0.1,0.0,0.0,0.0,0.1
1446037379480159672,92,1446037379476978063,robocape,5.00192554585,9.04001294155,-18.5777339318,0.0,10.0,0.0,0.0,0.0,10.0,0.0,0.0,0.0,10.0,0.0245010820287,0.00932106381528,-0.117578562127,1.0,0.0,0.0,0.0,1.0,0.0,0.0,0.0,1.0,-0.226329345703,1.39390136719,10.0447119141,0.1,0.0,0.0,0.0,0.1,0.0,0.0,0.0,0.1
1446037379513441630,93,1446037379510195970,robocape,4.68043320829,9.03918966164,-18.6203209728,0.0,10.0,0.0,0.0,0.0,10.0,0.0,0.0,0.0,10.0,-0.158724400969,0.00585895439817,-0.0408795227327,1.0,0.0,0.0,0.0,1.0,0.0,0.0,0.0,1.0,0.0898132324219,0.701740722656,10.0902172852,0.1,0.0,0.0,0.0,0.1,0.0,0.0,0.0,0.1
1446037379545996255,94,1446037379542959928,robocape,4.2010982104,9.0226053896,-18.4971051671,0.0,10.0,0.0,0.0,0.0,10.0,0.0,0.0,0.0,10.0,-0.256462412975,0.00306263525359,0.0486026898939,1.0,0.0,0.0,0.0,1.0,0.0,0.0,0.0,1.0,-0.0910107421875,0.431103515625,10.1297351074,0.1,0.0,0.0,0.0,0.1,0.0,0.0,0.0,0.1
1446037379578732755,95,1446037379575576066,robocape,3.6405203341,8.99621059109,-18.2926817064,0.0,10.0,0.0,0.0,0.0,10.0,0.0,0.0,0.0,10.0,-0.306529841468,-0.000399474163512,0.0925448478803,1.0,0.0,0.0,0.0,1.0,0.0,0.0,0.0,1.0,0.0323327636719,-1.28373046875,10.0902172852,0.1,0.0,0.0,0.0,0.1,0.0,0.0,0.0,0.1
1446037379612558422,96,1446037379609237909,robocape,3.64086519516,9.01709178769,-18.3039524878,0.0,10.0,0.0,0.0,0.0,10.0,0.0,0.0,0.0,10.0,0.00639158661619,0.0193079179031,-0.0259658206283,1.0,0.0,0.0,0.0,1.0,0.0,0.0,0.0,1.0,0.495769042969,-0.999920654297,10.0483044434,0.1,0.0,0.0,0.0,0.1,0.0,0.0,0.0,0.1
1446037379645655880,97,1446037379642379999,robocape,3.93266925704,9.05407840582,-18.418296292,0.0,10.0,0.0,0.0,0.0,10.0,0.0,0.0,0.0,10.0,0.168578097002,0.0254331884103,-0.0825579937925,1.0,0.0,0.0,0.0,1.0,0.0,0.0,0.0,1.0,0.05748046875,-0.7280859375,10.0614770508,0.1,0.0,0.0,0.0,0.1,0.0,0.0,0.0,0.1
1446037379678357880,98,1446037379675265073,robocape,4.26097717385,9.09142220654,-18.4934092158,0.0,10.0,0.0,0.0,0.0,10.0,0.0,0.0,0.0,10.0,0.184823379651,0.0266316109008,-0.0623179695079,1.0,0.0,0.0,0.0,1.0,0.0,0.0,0.0,1.0,0.126936035156,0.232316894531,10.060279541,0.1,0.0,0.0,0.0,0.1,0.0,0.0,0.0,0.1
1446037379711510130,99,1446037379708532094,robocape,4.43010051516,9.1191473031,-18.4460997283,0.0,10.0,0.0,0.0,0.0,10.0,0.0,0.0,0.0,10.0,0.0908137931717,0.0251668723012,0.0034621094171,1.0,0.0,0.0,0.0,1.0,0.0,0.0,0.0,1.0,-0.0407153320313,0.950822753906,10.1021923828,0.1,0.0,0.0,0.0,0.1,0.0,0.0,0.0,0.1
1446037379745170089,100,1446037379742136955,robocape,4.33667407944,9.12447524955,-18.1891842583,0.0,10.0,0.0,0.0,0.0,10.0,0.0,0.0,0.0,10.0,-0.0655137628159,0.0198405501211,0.116912771854,1.0,0.0,0.0,0.0,1.0,0.0,0.0,0.0,1.0,-0.086220703125,-0.577199707031,10.0255517578,0.1,0.0,0.0,0.0,0.1,0.0,0.0,0.0,0.1
1446037379778123380,101,1446037379775019884,robocape,4.562786153,9.14902977478,-18.1871329101,0.0,10.0,0.0,0.0,0.0,10.0,0.0,0.0,0.0,10.0,0.12476909707,0.0221042370477,-0.0202400242846,1.0,0.0,0.0,0.0,1.0,0.0,0.0,0.0,1.0,0.314945068359,0.198786621094,10.0387243652,0.1,0.0,0.0,0.0,0.1,0.0,0.0,0.0,0.1
1446037379812999214,102,1446037379809705018,robocape,4.84340425577,9.17419488827,-18.315577964,0.0,10.0,0.0,0.0,0.0,10.0,0.0,0.0,0.0,10.0,0.165249145639,0.0178431793035,-0.0898816867902,1.0,0.0,0.0,0.0,1.0,0.0,0.0,0.0,1.0,-0.132923583984,0.185614013672,10.0710571289,0.1,0.0,0.0,0.0,0.1,0.0,0.0,0.0,0.1
1446037379846657214,103,1446037379843337059,robocape,4.8697745032,9.1924721186,-18.3686780624,0.0,10.0,0.0,0.0,0.0,10.0,0.0,0.0,0.0,10.0,0.0251668723012,0.016378440704,-0.0487358479485,1.0,0.0,0.0,0.0,1.0,0.0,0.0,0.0,1.0,-0.0335302734375,1.28971801758,10.075847168,0.1,0.0,0.0,0.0,0.1,0.0,0.0,0.0,0.1
1446037379880046130,104,1446037379876667976,robocape,4.40676583991,9.17879629525,-18.0910992922,0.0,10.0,0.0,0.0,0.0,10.0,0.0,0.0,0.0,10.0,-0.261522419046,0.0103863282513,0.130494893414,1.0,0.0,0.0,0.0,1.0,0.0,0.0,0.0,1.0,-0.0598754882813,0.558039550781,10.1033898926,0.1,0.0,0.0,0.0,0.1,0.0,0.0,0.0,0.1
1446037379913447505,105,1446037379910094976,robocape,4.1592002466,9.18070504543,-17.9889770523,0.0,10.0,0.0,0.0,0.0,10.0,0.0,0.0,0.0,10.0,-0.133158054504,0.0125168571234,0.0360858327706,1.0,0.0,0.0,0.0,1.0,0.0,0.0,0.0,1.0,0.100590820313,-0.901724853516,10.0159716797,0.1,0.0,0.0,0.0,0.1,0.0,0.0,0.0,0.1
1446037379948491214,106,1446037379944236993,robocape,3.91437776845,9.18271792886,-17.8336146495,0.0,10.0,0.0,0.0,0.0,10.0,0.0,0.0,0.0,10.0,-0.136620163921,0.0139815957229,0.0644484983799,1.0,0.0,0.0,0.0,1.0,0.0,0.0,0.0,1.0,0.117355957031,-0.100590820313,10.0590820312,0.1,0.0,0.0,0.0,0.1,0.0,0.0,0.0,0.1
1446037379979511922,107,1446037379975684881,robocape,3.99003424552,9.20958924699,-17.9003669351,0.0,10.0,0.0,0.0,0.0,10.0,0.0,0.0,0.0,10.0,0.0511326929295,0.0210389726116,-0.0553937506736,1.0,0.0,0.0,0.0,1.0,0.0,0.0,0.0,1.0,0.136516113281,-1.06578369141,9.94891113281,0.1,0.0,0.0,0.0,0.1,0.0,0.0,0.0,0.1
1446037380016156880,108,1446037380011771917,robocape,4.28298615483,9.24783194568,-18.0508222382,0.0,10.0,0.0,0.0,0.0,10.0,0.0,0.0,0.0,10.0,0.172972312801,0.0247673981377,-0.101333279478,1.0,0.0,0.0,0.0,1.0,0.0,0.0,0.0,1.0,0.245489501953,-0.0131726074219,10.0375268555,0.1,0.0,0.0,0.0,0.1,0.0,0.0,0.0,0.1
1446037380049384005,109,1446037380045350074,robocape,4.26392274515,9.25978432372,-17.9018152882,0.0,10.0,0.0,0.0,0.0,10.0,0.0,0.0,0.0,10.0,-0.0173105470855,0.0198405501211,0.0595216503633,1.0,0.0,0.0,0.0,1.0,0.0,0.0,0.0,1.0,-0.185614013672,0.469423828125,10.0674645996,0.1,0.0,0.0,0.0,0.1,0.0,0.0,0.0,0.1
1446037380082718839,110,1446037380079163074,robocape,4.36726151218,9.2792162567,-17.8457890882,0.0,10.0,0.0,0.0,0.0,10.0,0.0,0.0,0.0,10.0,0.0552605926191,0.0210389726116,0.00958737992429,1.0,0.0,0.0,0.0,1.0,0.0,0.0,0.0,1.0,0.356857910156,-0.160466308594,10.0171691895,0.1,0.0,0.0,0.0,0.1,0.0,0.0,0.0,0.1
1446037380116775714,111,1446037380112888097,robocape,4.27951985882,9.27357057264,-17.6148045419,0.0,10.0,0.0,0.0,0.0,10.0,0.0,0.0,0.0,10.0,-0.0607200728538,0.0131826473959,0.104262756677,1.0,0.0,0.0,0.0,1.0,0.0,0.0,0.0,1.0,-0.0790356445313,0.587977294922,10.075847168,0.1,0.0,0.0,0.0,0.1,0.0,0.0,0.0,0.1
1446037380149256130,112,1446037380145062923,robocape,4.31659756299,9.29048284589,-17.5454527804,0.0,10.0,0.0,0.0,0.0,10.0,0.0,0.0,0.0,10.0,0.0191747598486,0.0199737081756,0.01744370514,1.0,0.0,0.0,0.0,1.0,0.0,0.0,0.0,1.0,-0.0874182128906,0.252674560547,10.0770446777,0.1,0.0,0.0,0.0,0.1,0.0,0.0,0.0,0.1
1446037380182999672,113,1446037380178456068,robocape,4.27137713469,9.30519737018,-17.4969718717,0.0,10.0,0.0,0.0,0.0,10.0,0.0,0.0,0.0,10.0,-0.0222373951022,0.017976337358,0.00692421883421,1.0,0.0,0.0,0.0,1.0,0.0,0.0,0.0,1.0,0.201181640625,-0.553249511719,9.95370117188,0.1,0.0,0.0,0.0,0.1,0.0,0.0,0.0,0.1
1446037380216672797,114,1446037380212953090,robocape,4.56554636514,9.34196644905,-17.7325407266,0.0,10.0,0.0,0.0,0.0,10.0,0.0,0.0,0.0,10.0,0.181627586343,0.0207726565026,-0.145808069682,1.0,0.0,0.0,0.0,1.0,0.0,0.0,0.0,1.0,0.13412109375,-0.140108642578,9.99082397461,0.1,0.0,0.0,0.0,0.1,0.0,0.0,0.0,0.1
1446037380248469255,115,1446037380244807958,robocape,4.67949803649,9.36542104353,-17.9420061213,0.0,10.0,0.0,0.0,0.0,10.0,0.0,0.0,0.0,10.0,0.0849548387735,0.0139815957229,-0.131160683686,1.0,0.0,0.0,0.0,1.0,0.0,0.0,0.0,1.0,-0.140108642578,1.39869140625,10.0315393066,0.1,0.0,0.0,0.0,0.1,0.0,0.0,0.0,0.1
1446037380282770380,116,1446037380279498100,robocape,4.3667545601,9.35600976544,-17.8235373605,0.0,10.0,0.0,0.0,0.0,10.0,0.0,0.0,0.0,10.0,-0.168844413111,0.00732369299772,0.0456732126949,1.0,0.0,0.0,0.0,1.0,0.0,0.0,0.0,1.0,-0.028740234375,0.869392089844,10.1201550293,0.1,0.0,0.0,0.0,0.1,0.0,0.0,0.0,0.1
1446037380315694797,117,1446037380312294960,robocape,3.81021212352,9.32390533268,-17.5011848426,0.0,10.0,0.0,0.0,0.0,10.0,0.0,0.0,0.0,10.0,-0.31545143112,0.00066579027252,0.15579492377,1.0,0.0,0.0,0.0,1.0,0.0,0.0,0.0,1.0,-0.0946032714844,-0.0215551757813,10.1548828125,0.1,0.0,0.0,0.0,0.1,0.0,0.0,0.0,0.1
1446037380349041631,118,1446037380345674037,robocape,3.42366750153,9.31538267966,-17.3705888567,0.0,10.0,0.0,0.0,0.0,10.0,0.0,0.0,0.0,10.0,-0.209457619735,0.00705737688871,0.0528637476381,1.0,0.0,0.0,0.0,1.0,0.0,0.0,0.0,1.0,0.366437988281,-1.89086791992,9.85670288086,0.1,0.0,0.0,0.0,0.1,0.0,0.0,0.0,0.1
1446037380381838006,119,1446037380378720045,robocape,3.6876037373,9.35828379939,-17.5327458815,0.0,10.0,0.0,0.0,0.0,10.0,0.0,0.0,0.0,10.0,0.158058610696,0.0276968753368,-0.106260127494,1.0,0.0,0.0,0.0,1.0,0.0,0.0,0.0,1.0,0.356857910156,-0.781973876953,10.0375268555,0.1,0.0,0.0,0.0,0.1,0.0,0.0,0.0,0.1
1446037380413861714,120,1446037380410594940,robocape,4.04825202673,9.40214363482,-17.7150683482,0.0,10.0,0.0,0.0,0.0,10.0,0.0,0.0,0.0,10.0,0.211188674443,0.0274305592278,-0.117844878236,1.0,0.0,0.0,0.0,1.0,0.0,0.0,0.0,1.0,-0.0682580566406,-0.00598754882813,10.0938098145,0.1,0.0,0.0,0.0,0.1,0.0,0.0,0.0,0.1
1446037380447528256,121,1446037380444344043,robocape,4.17361129711,9.42216648407,-17.6936446125,0.0,10.0,0.0,0.0,0.0,10.0,0.0,0.0,0.0,10.0,0.0696416625056,0.0203731823391,-0.00852211548825,1.0,0.0,0.0,0.0,1.0,0.0,0.0,0.0,1.0,-0.00239501953125,0.458646240234,10.0650695801,0.1,0.0,0.0,0.0,0.1,0.0,0.0,0.0,0.1
1446037380481373422,122,1446037380478254079,robocape,4.21366531122,9.43707651604,-17.6455928481,0.0,10.0,0.0,0.0,0.0,10.0,0.0,0.0,0.0,10.0,0.0225037112112,0.0183758115215,0.00612527050718,1.0,0.0,0.0,0.0,1.0,0.0,0.0,0.0,1.0,0.0323327636719,0.380808105469,10.0686621094,0.1,0.0,0.0,0.0,0.1,0.0,0.0,0.0,0.1
1446037380514137172,123,1446037380511130094,robocape,4.11937188974,9.43818898721,-17.4667517864,0.0,10.0,0.0,0.0,0.0,10.0,0.0,0.0,0.0,10.0,-0.0599211245268,0.0149137021044,0.0765658813398,1.0,0.0,0.0,0.0,1.0,0.0,0.0,0.0,1.0,-0.0155676269531,0.793948974609,10.0626745605,0.1,0.0,0.0,0.0,0.1,0.0,0.0,0.0,0.1
1446037380546607172,124,1446037380543462038,robocape,3.88582847895,9.43617515547,-17.3080617564,0.0,10.0,0.0,0.0,0.0,10.0,0.0,0.0,0.0,10.0,-0.131426999795,0.0121173829599,0.066845343361,1.0,0.0,0.0,0.0,1.0,0.0,0.0,0.0,1.0,0.0622705078125,-0.93884765625,9.98244140625,0.1,0.0,0.0,0.0,0.1,0.0,0.0,0.0,0.1
1446037380581247256,125,1446037380578052043,robocape,3.8593571287,9.45151488893,-17.225207484,0.0,10.0,0.0,0.0,0.0,10.0,0.0,0.0,0.0,10.0,-0.0159789665405,0.0193079179031,0.0254331884103,1.0,0.0,0.0,0.0,1.0,0.0,0.0,0.0,1.0,0.2682421875,0.185614013672,10.1069824219,0.1,0.0,0.0,0.0,0.1,0.0,0.0,0.0,0.1
1446037380613852047,126,1446037380610846042,robocape,3.80000441791,9.45747071917,-17.0019815969,0.0,10.0,0.0,0.0,0.0,10.0,0.0,0.0,0.0,10.0,-0.0459395288039,0.018242653467,0.100268015041,1.0,0.0,0.0,0.0,1.0,0.0,0.0,0.0,1.0,-0.047900390625,-0.647852783203,10.0674645996,0.1,0.0,0.0,0.0,0.1,0.0,0.0,0.0,0.1
1446037380647332047,127,1446037380644290924,robocape,3.87980108392,9.47033942096,-16.7898302477,0.0,10.0,0.0,0.0,0.0,10.0,0.0,0.0,0.0,10.0,0.0280963495003,0.0218379209386,0.0938764284253,1.0,0.0,0.0,0.0,1.0,0.0,0.0,0.0,1.0,0.256267089844,-0.564027099609,9.9980090332,0.1,0.0,0.0,0.0,0.1,0.0,0.0,0.0,0.1
1446037380680401381,128,1446037380677295923,robocape,4.16078952166,9.49816876145,-16.6773053448,0.0,10.0,0.0,0.0,0.0,10.0,0.0,0.0,0.0,10.0,0.142878592483,0.0274305592278,0.0400805744057,1.0,0.0,0.0,0.0,1.0,0.0,0.0,0.0,1.0,0.0790356445313,-0.447868652344,10.0087866211,0.1,0.0,0.0,0.0,0.1,0.0,0.0,0.0,0.1
1446037380713175089,129,1446037380709949970,robocape,4.54936662952,9.53532023056,-16.7098921328,0.0,10.0,0.0,0.0,0.0,10.0,0.0,0.0,0.0,10.0,0.212919729152,0.0280963495003,-0.0374174133156,1.0,0.0,0.0,0.0,1.0,0.0,0.0,0.0,1.0,0.112565917969,-0.28740234375,10.0027990723,0.1,0.0,0.0,0.0,0.1,0.0,0.0,0.0,0.1
1446037380745903047,130,1446037380742680072,robocape,5.09539712908,9.57639616435,-16.9934567288,0.0,10.0,0.0,0.0,0.0,10.0,0.0,0.0,0.0,10.0,0.319313014701,0.0210389726116,-0.171108100038,1.0,0.0,0.0,0.0,1.0,0.0,0.0,0.0,1.0,-0.0526904296875,0.562829589844,10.1213525391,0.1,0.0,0.0,0.0,0.1,0.0,0.0,0.0,0.1
1446037380779286464,131,1446037380776058912,robocape,5.48930800719,9.60325653939,-17.2368116952,0.0,10.0,0.0,0.0,0.0,10.0,0.0,0.0,0.0,10.0,0.236488704799,0.0138484376684,-0.149403337153,1.0,0.0,0.0,0.0,1.0,0.0,0.0,0.0,1.0,-0.198786621094,1.839375,9.93573852539,0.1,0.0,0.0,0.0,0.1,0.0,0.0,0.0,0.1
1446037380812185381,132,1446037380808937072,robocape,5.03417648774,9.59479011056,-17.1606250956,0.0,10.0,0.0,0.0,0.0,10.0,0.0,0.0,0.0,10.0,-0.239551340053,0.00652474467069,0.0247673981377,1.0,0.0,0.0,0.0,1.0,0.0,0.0,0.0,1.0,-0.0419128417969,1.99864379883,10.0566870117,0.1,0.0,0.0,0.0,0.1,0.0,0.0,0.0,0.1
1446037380844945339,133,1446037380841912984,robocape,4.37731245651,9.56683963036,-17.0041157833,0.0,10.0,0.0,0.0,0.0,10.0,0.0,0.0,0.0,10.0,-0.353401476654,-0.00159789665405,0.0691090302876,1.0,0.0,0.0,0.0,1.0,0.0,0.0,0.0,1.0,-0.128133544922,-0.556842041016,10.0267492676,0.1,0.0,0.0,0.0,0.1,0.0,0.0,0.0,0.1
1446037380878613797,134,1446037380875101089,robocape,3.98446665703,9.55345762328,-17.0303024339,0.0,10.0,0.0,0.0,0.0,10.0,0.0,0.0,0.0,10.0,-0.198405501211,0.000266316109008,-0.0291616139364,1.0,0.0,0.0,0.0,1.0,0.0,0.0,0.0,1.0,0.279019775391,-0.629890136719,10.0315393066,0.1,0.0,0.0,0.0,0.1,0.0,0.0,0.0,0.1
1446037380911501381,135,1446037380908258914,robocape,3.67957208671,9.55052360214,-17.0318924586,0.0,10.0,0.0,0.0,0.0,10.0,0.0,0.0,0.0,10.0,-0.154729659334,0.0067910607797,-0.0170442309765,1.0,0.0,0.0,0.0,1.0,0.0,0.0,0.0,1.0,0.0526904296875,-0.223934326172,10.1117724609,0.1,0.0,0.0,0.0,0.1,0.0,0.0,0.0,0.1
1446037380944921547,136,1446037380941781044,robocape,3.30094547017,9.52467979066,-16.6988973608,0.0,10.0,0.0,0.0,0.0,10.0,0.0,0.0,0.0,10.0,-0.223971847676,0.00306263525359,0.160854929841,1.0,0.0,0.0,0.0,1.0,0.0,0.0,0.0,1.0,0.028740234375,-0.808319091797,10.1045874023,0.1,0.0,0.0,0.0,0.1,0.0,0.0,0.0,0.1
1446037380978543964,137,1446037380975039005,robocape,3.1298021226,9.53598174511,-16.3350534069,0.0,10.0,0.0,0.0,0.0,10.0,0.0,0.0,0.0,10.0,-0.117978036291,0.0229031853747,0.175369157782,1.0,0.0,0.0,0.0,1.0,0.0,0.0,0.0,1.0,0.376018066406,-1.20948486328,9.94651611328,0.1,0.0,0.0,0.0,0.1,0.0,0.0,0.0,0.1
1446037381011237464,138,1446037381008132934,robocape,3.32507766808,9.56065112738,-15.9761318705,0.0,10.0,0.0,0.0,0.0,10.0,0.0,0.0,0.0,10.0,0.0747016685767,0.0304931944814,0.171507574201,1.0,0.0,0.0,0.0,1.0,0.0,0.0,0.0,1.0,0.13412109375,-1.39629638672,10.0387243652,0.1,0.0,0.0,0.0,0.1,0.0,0.0,0.0,0.1
1446037381044773048,139,1446037381041451930,robocape,3.81956429914,9.59596605025,-15.5835756121,0.0,10.0,0.0,0.0,0.0,10.0,0.0,0.0,0.0,10.0,0.228898695692,0.0386158358061,0.18801917296,1.0,0.0,0.0,0.0,1.0,0.0,0.0,0.0,1.0,0.294587402344,-0.755628662109,9.90819580078,0.1,0.0,0.0,0.0,0.1,0.0,0.0,0.0,0.1
1446037381078177714,140,1446037381074736118,robocape,4.34819441166,9.61846665921,-15.0915002867,0.0,10.0,0.0,0.0,0.0,10.0,0.0,0.0,0.0,10.0,0.238086601453,0.0368847810976,0.240616604489,1.0,0.0,0.0,0.0,1.0,0.0,0.0,0.0,1.0,-0.0335302734375,-0.899329833984,10.0075891113,0.1,0.0,0.0,0.0,0.1,0.0,0.0,0.0,0.1
1446037381111330006,141,1446037381108223915,robocape,5.19338059312,9.64908761466,-14.7971273609,0.0,10.0,0.0,0.0,0.0,10.0,0.0,0.0,0.0,10.0,0.423043139159,0.0375505713701,0.135155425322,1.0,0.0,0.0,0.0,1.0,0.0,0.0,0.0,1.0,-0.0131726074219,-0.475411376953,10.0530944824,0.1,0.0,0.0,0.0,0.1,0.0,0.0,0.0,0.1
1446037381144557798,142,1446037381141473054,robocape,6.13113646939,9.64352164928,-14.6370973843,0.0,10.0,0.0,0.0,0.0,10.0,0.0,0.0,0.0,10.0,0.485094792558,0.0151800182135,0.065780078925,1.0,0.0,0.0,0.0,1.0,0.0,0.0,0.0,1.0,0.0107775878906,0.276624755859,10.0674645996,0.1,0.0,0.0,0.0,0.1,0.0,0.0,0.0,0.1
1446037381178686923,143,1446037381175357103,robocape,7.03131210036,9.66309014587,-14.6674563471,0.0,10.0,0.0,0.0,0.0,10.0,0.0,0.0,0.0,10.0,0.484429002285,0.0195742340121,-0.0359526747161,1.0,0.0,0.0,0.0,1.0,0.0,0.0,0.0,1.0,-0.0658630371094,1.05380859375,9.9980090332,0.1,0.0,0.0,0.0,0.1,0.0,0.0,0.0,0.1
1446037381211372214,144,1446037381208348035,robocape,7.66945434296,9.67111584476,-14.6344878947,0.0,10.0,0.0,0.0,0.0,10.0,0.0,0.0,0.0,10.0,0.341683567857,0.016644756813,-0.00159789665405,1.0,0.0,0.0,0.0,1.0,0.0,0.0,0.0,1.0,0.0598754882813,1.66693359375,10.0327368164,0.1,0.0,0.0,0.0,0.1,0.0,0.0,0.0,0.1
1446037381244808256,145,1446037381241806030,robocape,8.05358534395,9.68116107388,-14.5974226842,0.0,10.0,0.0,0.0,0.0,10.0,0.0,0.0,0.0,10.0,0.20812603919,0.01744370514,0.00133158054504,1.0,0.0,0.0,0.0,1.0,0.0,0.0,0.0,1.0,-0.0371228027344,2.15671508789,9.94292358398,0.1,0.0,0.0,0.0,0.1,0.0,0.0,0.0,0.1
1446037381278351756,146,1446037381275223016,robocape,8.0839997549,9.69103141709,-14.5733624914,0.0,10.0,0.0,0.0,0.0,10.0,0.0,0.0,0.0,10.0,0.0230363434292,0.0154463343225,-0.00359526747161,1.0,0.0,0.0,0.0,1.0,0.0,0.0,0.0,1.0,0.164058837891,2.01540893555,9.97046630859,0.1,0.0,0.0,0.0,0.1,0.0,0.0,0.0,0.1
1446037381311249089,147,1446037381308233022,robocape,7.78701896757,9.70884104663,-14.5474200006,0.0,10.0,0.0,0.0,0.0,10.0,0.0,0.0,0.0,10.0,-0.149935969371,0.0186421276306,-0.00133158054504,1.0,0.0,0.0,0.0,1.0,0.0,0.0,0.0,1.0,-0.01916015625,1.06458618164,10.0698596191,0.1,0.0,0.0,0.0,0.1,0.0,0.0,0.0,0.1
1446037381346536298,148,1446037381343377113,robocape,7.3834210882,9.73167107903,-14.5744211367,0.0,10.0,0.0,0.0,0.0,10.0,0.0,0.0,0.0,10.0,-0.201468136464,0.0175768631945,-0.0286289817184,1.0,0.0,0.0,0.0,1.0,0.0,0.0,0.0,1.0,0.0239501953125,0.950822753906,10.0734521484,0.1,0.0,0.0,0.0,0.1,0.0,0.0,0.0,0.1
1446037381380118673,149,1446037381376909971,robocape,6.83285424964,9.74270495431,-14.5327219321,0.0,10.0,0.0,0.0,0.0,10.0,0.0,0.0,0.0,10.0,-0.285757184966,0.0151800182135,0.00892158965177,1.0,0.0,0.0,0.0,1.0,0.0,0.0,0.0,1.0,0.0383203125,0.817899169922,10.0339343262,0.1,0.0,0.0,0.0,0.1,0.0,0.0,0.0,0.1
1446037381411570173,150,1446037381408297061,robocape,6.26619776167,9.7593747849,-14.5387411943,0.0,10.0,0.0,0.0,0.0,10.0,0.0,0.0,0.0,10.0,-0.290151400764,0.0154463343225,-0.0162452826495,1.0,0.0,0.0,0.0,1.0,0.0,0.0,0.0,1.0,0.0323327636719,0.245489501953,10.0614770508,0.1,0.0,0.0,0.0,0.1,0.0,0.0,0.0,0.1
1446037381444285798,151,1446037381441287040,robocape,5.8407937861,9.79961391442,-14.8681989251,0.0,10.0,0.0,0.0,0.0,10.0,0.0,0.0,0.0,10.0,-0.185888644088,0.0125168571234,-0.187619698796,1.0,0.0,0.0,0.0,1.0,0.0,0.0,0.0,1.0,0.0407153320313,0.544866943359,9.97166381836,0.1,0.0,0.0,0.0,0.1,0.0,0.0,0.0,0.1
1446037381478012964,152,1446037381474912881,robocape,5.37649723615,9.83191754321,-15.3591778469,0.0,10.0,0.0,0.0,0.0,10.0,0.0,0.0,0.0,10.0,-0.191481282377,0.00253000303558,-0.272175063406,1.0,0.0,0.0,0.0,1.0,0.0,0.0,0.0,1.0,-0.0850231933594,0.74724609375,10.0123791504,0.1,0.0,0.0,0.0,0.1,0.0,0.0,0.0,0.1
1446037381511121673,153,1446037381508069038,robocape,4.49152278622,9.81918395423,-15.4846220424,0.0,10.0,0.0,0.0,0.0,10.0,0.0,0.0,0.0,10.0,-0.447411063133,-0.00479368996214,-0.0769653555033,1.0,0.0,0.0,0.0,1.0,0.0,0.0,0.0,1.0,-0.166453857422,1.09332641602,10.1357226563,0.1,0.0,0.0,0.0,0.1,0.0,0.0,0.0,0.1
1446037381547784214,154,1446037381544045925,robocape,3.52934071637,9.74731418495,-15.2005036852,0.0,10.0,0.0,0.0,0.0,10.0,0.0,0.0,0.0,10.0,-0.526506947509,-0.0223705531567,0.140481747502,1.0,0.0,0.0,0.0,1.0,0.0,0.0,0.0,1.0,-0.208366699219,-1.82380737305,10.0818347168,0.1,0.0,0.0,0.0,0.1,0.0,0.0,0.0,0.1
1446037381577918756,155,1446037381574812889,robocape,3.11075075242,9.77220226417,-15.353836787,0.0,10.0,0.0,0.0,0.0,10.0,0.0,0.0,0.0,10.0,-0.201201820355,0.0175768631945,-0.0952080089703,1.0,0.0,0.0,0.0,1.0,0.0,0.0,0.0,1.0,0.849034423828,-2.31358886719,9.96208374023,0.1,0.0,0.0,0.0,0.1,0.0,0.0,0.0,0.1
1446037381611084131,156,1446037381607942104,robocape,2.96725582042,9.77860475839,-15.2364499261,0.0,10.0,0.0,0.0,0.0,10.0,0.0,0.0,0.0,10.0,-0.0818922035199,0.0146473859954,0.0468716351854,1.0,0.0,0.0,0.0,1.0,0.0,0.0,0.0,1.0,-0.125738525391,-0.93884765625,9.97046630859,0.1,0.0,0.0,0.0,0.1,0.0,0.0,0.0,0.1
1446037381644851631,157,1446037381641463994,robocape,3.42720890513,9.82311855268,-15.354724352,0.0,10.0,0.0,0.0,0.0,10.0,0.0,0.0,0.0,10.0,0.256728729084,0.0304931944814,-0.0798948327024,1.0,0.0,0.0,0.0,1.0,0.0,0.0,0.0,1.0,0.409548339844,-1.56873779297,9.94412109375,0.1,0.0,0.0,0.0,0.1,0.0,0.0,0.0,0.1
1446037381678145714,158,1446037381674808979,robocape,4.16925861058,9.89671738776,-15.6519426052,0.0,10.0,0.0,0.0,0.0,10.0,0.0,0.0,0.0,10.0,0.422510506941,0.0407463646782,-0.176700738327,1.0,0.0,0.0,0.0,1.0,0.0,0.0,0.0,1.0,0.227526855469,0.129331054688,10.0411193848,0.1,0.0,0.0,0.0,0.1,0.0,0.0,0.0,0.1
1446037381711488256,159,1446037381708107948,robocape,4.48323418045,9.92135332874,-15.5742229687,0.0,10.0,0.0,0.0,0.0,10.0,0.0,0.0,0.0,10.0,0.163251774822,0.0253000303558,0.0229031853747,1.0,0.0,0.0,0.0,1.0,0.0,0.0,0.0,1.0,-0.215551757813,1.01189575195,10.1201550293,0.1,0.0,0.0,0.0,0.1,0.0,0.0,0.0,0.1
1446037381744732881,160,1446037381741580009,robocape,4.4704068787,9.91944400536,-15.122513065,0.0,10.0,0.0,0.0,0.0,10.0,0.0,0.0,0.0,10.0,-0.0435426838228,0.0235689756472,0.221708160749,1.0,0.0,0.0,0.0,1.0,0.0,0.0,0.0,1.0,-0.294587402344,-0.280217285156,10.0794396973,0.1,0.0,0.0,0.0,0.1,0.0,0.0,0.0,0.1
1446037381778289590,161,1446037381775034904,robocape,4.81781273043,9.96227319007,-15.1886666893,0.0,10.0,0.0,0.0,0.0,10.0,0.0,0.0,0.0,10.0,0.194677075685,0.0299605622634,-0.0531300637471,1.0,0.0,0.0,0.0,1.0,0.0,0.0,0.0,1.0,0.522114257812,-0.353265380859,9.9596887207,0.1,0.0,0.0,0.0,0.1,0.0,0.0,0.0,0.1
1446037381811285798,162,1446037381808232069,robocape,4.87883727544,9.96736835922,-15.0381244088,0.0,10.0,0.0,0.0,0.0,10.0,0.0,0.0,0.0,10.0,0.0238352917562,0.0175768631945,0.0632500758894,1.0,0.0,0.0,0.0,1.0,0.0,0.0,0.0,1.0,0.0299377441406,1.50167724609,10.003996582,0.1,0.0,0.0,0.0,0.1,0.0,0.0,0.0,0.1
1446037381844583340,163,1446037381841540098,robocape,4.81784575512,9.97654328255,-14.8027712336,0.0,10.0,0.0,0.0,0.0,10.0,0.0,0.0,0.0,10.0,-0.0483363737849,0.0226368692657,0.108124340257,1.0,0.0,0.0,0.0,1.0,0.0,0.0,0.0,1.0,-0.307760009766,-0.0934057617188,10.0902172852,0.1,0.0,0.0,0.0,0.1,0.0,0.0,0.0,0.1
1446037381878093381,164,1446037381874919891,robocape,4.80919595755,9.98635709973,-14.658952689,0.0,10.0,0.0,0.0,0.0,10.0,0.0,0.0,0.0,10.0,-0.0122505410144,0.0195742340121,0.0601874406358,1.0,0.0,0.0,0.0,1.0,0.0,0.0,0.0,1.0,0.296982421875,-0.0634680175781,9.95250366211,0.1,0.0,0.0,0.0,0.1,0.0,0.0,0.0,0.1
1446037381911130923,165,1446037381908129930,robocape,5.05976521201,10.0223555642,-14.8388397711,0.0,10.0,0.0,0.0,0.0,10.0,0.0,0.0,0.0,10.0,0.154862817388,0.0215716048296,-0.111586449674,1.0,0.0,0.0,0.0,1.0,0.0,0.0,0.0,1.0,0.0778381347656,-0.419128417969,9.96926879883,0.1,0.0,0.0,0.0,0.1,0.0,0.0,0.0,0.1
1446037381944685881,166,1446037381941582918,robocape,5.41100012416,10.0722540823,-15.3849008499,0.0,10.0,0.0,0.0,0.0,10.0,0.0,0.0,0.0,10.0,0.243412923633,0.0135821215594,-0.305198260923,1.0,0.0,0.0,0.0,1.0,0.0,0.0,0.0,1.0,-0.15328125,1.17954711914,10.0459094238,0.1,0.0,0.0,0.0,0.1,0.0,0.0,0.0,0.1
1446037381979131881,167,1446037381975836038,robocape,5.13197798973,10.0566856042,-15.260195931,0.0,10.0,0.0,0.0,0.0,10.0,0.0,0.0,0.0,10.0,-0.152199656298,0.00545948023466,0.051798483202,1.0,0.0,0.0,0.0,1.0,0.0,0.0,0.0,1.0,-0.138911132813,1.99984130859,10.1069824219,0.1,0.0,0.0,0.0,0.1,0.0,0.0,0.0,0.1
1446037382012292465,168,1446037382009287118,robocape,4.40420656879,10.0123252932,-14.8824161187,0.0,10.0,0.0,0.0,0.0,10.0,0.0,0.0,0.0,10.0,-0.412523652853,-0.00199737081756,0.187886014905,1.0,0.0,0.0,0.0,1.0,0.0,0.0,0.0,1.0,-0.104183349609,-0.199984130859,10.0902172852,0.1,0.0,0.0,0.0,0.1,0.0,0.0,0.0,0.1
1446037382045709840,169,1446037382042572975,robocape,4.08273064712,10.0024540402,-14.7179004345,0.0,10.0,0.0,0.0,0.0,10.0,0.0,0.0,0.0,10.0,-0.179097583308,0.00852211548825,0.0731037719227,1.0,0.0,0.0,0.0,1.0,0.0,0.0,0.0,1.0,0.276624755859,-1.27175537109,9.94412109375,0.1,0.0,0.0,0.0,0.1,0.0,0.0,0.0,0.1
1446037382079212631,170,1446037382075998067,robocape,4.06416260451,10.0201874646,-14.666354998,0.0,10.0,0.0,0.0,0.0,10.0,0.0,0.0,0.0,10.0,-0.00945422186978,0.0199737081756,0.0118510668509,1.0,0.0,0.0,0.0,1.0,0.0,0.0,0.0,1.0,0.226329345703,-1.05141357422,9.99082397461,0.1,0.0,0.0,0.0,0.1,0.0,0.0,0.0,0.1
1446037382113194215,171,1446037382110074043,robocape,4.50052830854,10.073774314,-14.8857105321,0.0,10.0,0.0,0.0,0.0,10.0,0.0,0.0,0.0,10.0,0.255530306593,0.0310258266994,-0.133291212558,1.0,0.0,0.0,0.0,1.0,0.0,0.0,0.0,1.0,0.193996582031,-0.695753173828,10.0267492676,0.1,0.0,0.0,0.0,0.1,0.0,0.0,0.0,0.1
1446037382146483715,172,1446037382142900943,robocape,4.73651888923,10.099085012,-14.9000142971,0.0,10.0,0.0,0.0,0.0,10.0,0.0,0.0,0.0,10.0,0.131160683686,0.0225037112112,-0.0243679239742,1.0,0.0,0.0,0.0,1.0,0.0,0.0,0.0,1.0,0.118553466797,0.754431152344,10.5129382324,0.1,0.0,0.0,0.0,0.1,0.0,0.0,0.0,0.1
1446037382180093048,173,1446037382176433086,robocape,4.93892498434,10.1215731142,-14.9013103315,0.0,10.0,0.0,0.0,0.0,10.0,0.0,0.0,0.0,10.0,0.112518556056,0.0214384467751,-0.01744370514,1.0,0.0,0.0,0.0,1.0,0.0,0.0,0.0,1.0,-3.08837768555,0.067060546875,10.9141040039,0.1,0.0,0.0,0.0,0.1,0.0,0.0,0.0,0.1
1446037382216705756,174,1446037382213184118,robocape,5.52253721563,9.96989437853,-15.2895152485,0.0,10.0,0.0,0.0,0.0,10.0,0.0,0.0,0.0,10.0,0.349939367236,-0.085354312937,-0.212387096934,1.0,0.0,0.0,0.0,1.0,0.0,0.0,0.0,1.0,-10.0147741699,-0.996328125,10.3285217285,0.1,0.0,0.0,0.0,0.1,0.0,0.0,0.0,0.1
1446037382246088965,175,1446037382242085933,robocape,5.96311670338,9.79510269944,-15.7497062992,0.0,10.0,0.0,0.0,0.0,10.0,0.0,0.0,0.0,10.0,0.28176244333,-0.102931176132,-0.248472929704,1.0,0.0,0.0,0.0,1.0,0.0,0.0,0.0,1.0,-9.34536621094,0.731678466797,8.42208618164,0.1,0.0,0.0,0.0,0.1,0.0,0.0,0.0,0.1
1446037382281803840,176,1446037382278399944,robocape,5.45665741102,9.84907270805,-15.8959248708,0.0,10.0,0.0,0.0,0.0,10.0,0.0,0.0,0.0,10.0,-0.245543452505,0.0292947719909,-0.0937432703708,1.0,0.0,0.0,0.0,1.0,0.0,0.0,0.0,1.0,-7.47485595703,2.33634155273,11.894864502,0.1,0.0,0.0,0.0,0.1,0.0,0.0,0.0,0.1
1446037382314996298,177,1446037382311976909,robocape,4.39951763825,9.83084388091,-15.7845451158,0.0,10.0,0.0,0.0,0.0,10.0,0.0,0.0,0.0,10.0,-0.559929619189,0.00106526443603,0.0479368996214,1.0,0.0,0.0,0.0,1.0,0.0,0.0,0.0,1.0,-11.6026721191,0.0562829589844,10.8123156738,0.1,0.0,0.0,0.0,0.1,0.0,0.0,0.0,0.1
1446037382348169298,178,1446037382344721078,robocape,3.32396490746,10.3757301226,-16.0753041834,0.0,10.0,0.0,0.0,0.0,10.0,0.0,0.0,0.0,10.0,-0.531034321362,0.285757184966,-0.187752856851,1.0,0.0,0.0,0.0,1.0,0.0,0.0,0.0,1.0,-9.98363891602,-0.610729980469,12.7295288086,0.1,0.0,0.0,0.0,0.1,0.0,0.0,0.0,0.1
1446037382381617381,179,1446037382378179073,robocape,3.43718020228,10.447678829,-17.2098433664,0.0,10.0,0.0,0.0,0.0,10.0,0.0,0.0,0.0,10.0,0.175768631945,0.0209058145571,-0.616921266517,1.0,0.0,0.0,0.0,1.0,0.0,0.0,0.0,1.0,-7.40540039063,-2.11719726563,10.4554577637,0.1,0.0,0.0,0.0,0.1,0.0,0.0,0.0,0.1
1446037382414521882,180,1446037382411494970,robocape,4.38717677623,10.8160133819,-18.4094580215,0.0,10.0,0.0,0.0,0.0,10.0,0.0,0.0,0.0,10.0,0.627041278659,0.172972312801,-0.670850278591,1.0,0.0,0.0,0.0,1.0,0.0,0.0,0.0,1.0,-7.85326904297,0.192799072266,12.0601208496,0.1,0.0,0.0,0.0,0.1,0.0,0.0,0.0,0.1
1446037382448690840,181,1446037382445281028,robocape,5.53320450442,11.2130729603,-19.6486300774,0.0,10.0,0.0,0.0,0.0,10.0,0.0,0.0,0.0,10.0,0.742622469969,0.177766002763,-0.702408737508,1.0,0.0,0.0,0.0,1.0,0.0,0.0,0.0,1.0,-1.20349731445,-1.00950073242,12.1906494141,0.1,0.0,0.0,0.0,0.1,0.0,0.0,0.0,0.1
1446037382482046590,182,1446037382477957010,robocape,8.20443141719,11.1159864175,-21.0563925335,0.0,10.0,0.0,0.0,0.0,10.0,0.0,0.0,0.0,10.0,1.57299609786,-0.106925917767,-0.777376722194,1.0,0.0,0.0,0.0,1.0,0.0,0.0,0.0,1.0,-5.84983520508,-1.8357824707,10.0339343262,0.1,0.0,0.0,0.0,0.1,0.0,0.0,0.0,0.1
1446037382515552840,183,1446037382511956930,robocape,12.1240663976,11.1861616235,-22.3613767181,0.0,10.0,0.0,0.0,0.0,10.0,0.0,0.0,0.0,10.0,2.24304742812,-0.0444747902043,-0.759933017054,1.0,0.0,0.0,0.0,1.0,0.0,0.0,0.0,1.0,-10.0435144043,-1.19511474609,9.17771484375,0.1,0.0,0.0,0.0,0.1,0.0,0.0,0.0,0.1
1446037382548774673,184,1446037382545186996,robocape,17.0416860744,11.1397639772,-22.2816325046,0.0,10.0,0.0,0.0,0.0,10.0,0.0,0.0,0.0,10.0,2.64638317521,0.0223705531567,-0.0503337446025,1.0,0.0,0.0,0.0,1.0,0.0,0.0,0.0,1.0,-12.3463256836,0.234711914063,11.0278674316,0.1,0.0,0.0,0.0,0.1,0.0,0.0,0.0,0.1
1446037382582709465,185,1446037382579159975,robocape,22.7650473797,11.7027966845,-21.0009284731,0.0,10.0,0.0,0.0,0.0,10.0,0.0,0.0,0.0,10.0,2.99099622027,0.545548549303,0.401338376275,1.0,0.0,0.0,0.0,1.0,0.0,0.0,0.0,1.0,-1.98666870117,-0.123343505859,7.75986328125,0.1,0.0,0.0,0.0,0.1,0.0,0.0,0.0,0.1
1446037382613584007,186,1446037382610418081,robocape,29.2274851757,11.3801597938,-18.9176603953,0.0,10.0,0.0,0.0,0.0,10.0,0.0,0.0,0.0,10.0,3.35758034432,0.365918333777,0.905341612572,1.0,0.0,0.0,0.0,1.0,0.0,0.0,0.0,1.0,-6.18513793945,0.0586779785156,8.43525878906,0.1,0.0,0.0,0.0,0.1,0.0,0.0,0.0,0.1
1446037382649268298,187,1446037382645680904,robocape,34.5798065901,11.5273416867,-14.5895017718,0.0,10.0,0.0,0.0,0.0,10.0,0.0,0.0,0.0,10.0,2.53466356748,1.28470890985,1.75435736809,1.0,0.0,0.0,0.0,1.0,0.0,0.0,0.0,1.0,-3.72186035156,8.14665893555,13.7941149902,0.1,0.0,0.0,0.0,0.1,0.0,0.0,0.0,0.1
1446037382682170048,188,1446037382678713083,robocape,35.9830333985,10.9767130178,-8.81446233254,0.0,10.0,0.0,0.0,0.0,10.0,0.0,0.0,0.0,10.0,0.123836990689,1.4736601892,2.59671522088,1.0,0.0,0.0,0.0,1.0,0.0,0.0,0.0,1.0,-7.89278686523,12.1954394531,17.4249645996,0.1,0.0,0.0,0.0,0.1,0.0,0.0,0.0,0.1
1446037382714649090,189,1446037382711395025,robocape,32.3190095933,10.6688638143,-3.77840637219,0.0,10.0,0.0,0.0,0.0,10.0,0.0,0.0,0.0,10.0,-2.63000473451,1.25408255732,2.28925327303,1.0,0.0,0.0,0.0,1.0,0.0,0.0,0.0,1.0,-14.7581103516,10.0614770508,14.8718737793,0.1,0.0,0.0,0.0,0.1,0.0,0.0,0.0,0.1
1446037382748321590,190,1446037382745182991,robocape,25.1568494171,9.88718136799,-1.48937583885,0.0,10.0,0.0,0.0,0.0,10.0,0.0,0.0,0.0,10.0,-4.20153609376,0.11944277489,1.27405626549,1.0,0.0,0.0,0.0,1.0,0.0,0.0,0.0,1.0,-13.0947692871,2.95305908203,8.16701660156,0.1,0.0,0.0,0.0,0.1,0.0,0.0,0.0,0.1
1446037382780826965,191,1446037382777415037,robocape,17.403459658,8.9144788714,-0.53130015079,0.0,10.0,0.0,0.0,0.0,10.0,0.0,0.0,0.0,10.0,-4.27570513012,-0.360325695488,0.665257640302,1.0,0.0,0.0,0.0,1.0,0.0,0.0,0.0,1.0,-8.55500976562,-2.25131835938,4.71459594727,0.1,0.0,0.0,0.0,0.1,0.0,0.0,0.0,0.1
1446037382815923340,192,1446037382812788009,robocape,12.0815924611,9.44388828593,-1.03818326658,0.0,10.0,0.0,0.0,0.0,10.0,0.0,0.0,0.0,10.0,-2.77687806863,0.17856495109,-0.317981434155,1.0,0.0,0.0,0.0,1.0,0.0,0.0,0.0,1.0,-9.51301757812,-4.07871826172,8.6987109375,0.1,0.0,0.0,0.0,0.1,0.0,0.0,0.0,0.1
1446037382847831882,193,1446037382844759941,robocape,8.76574231468,10.1330649449,-2.22567948698,0.0,10.0,0.0,0.0,0.0,10.0,0.0,0.0,0.0,10.0,-1.63411564487,0.240616604489,-0.66698869501,1.0,0.0,0.0,0.0,1.0,0.0,0.0,0.0,1.0,-4.5601171875,-4.72178100586,13.6180810547,0.1,0.0,0.0,0.0,0.1,0.0,0.0,0.0,0.1
1446037382879864090,194,1446037382876616954,robocape,7.90902380944,10.35321071,-4.03134014225,0.0,10.0,0.0,0.0,0.0,10.0,0.0,0.0,0.0,10.0,-0.273240327842,-0.0123836990689,-0.941427445343,1.0,0.0,0.0,0.0,1.0,0.0,0.0,0.0,1.0,-7.95984741211,-2.99616943359,9.07472900391,0.1,0.0,0.0,0.0,0.1,0.0,0.0,0.0,0.1
