%time,field.header.seq,field.header.stamp,field.header.frame_id,field.magnetic_field.x,field.magnetic_field.y,field.magnetic_field.z,field.magnetic_field_covariance0,field.magnetic_field_covariance1,field.magnetic_field_covariance2,field.magnetic_field_covariance3,field.magnetic_field_covariance4,field.magnetic_field_covariance5,field.magnetic_field_covariance6,field.magnetic_field_covariance7,field.magnetic_field_covariance8
1446036458453071495,1,1446036458438669919,robocape_mag,10.65,-16.35,-24.45,10.0,0.0,0.0,0.0,10.0,0.0,0.0,0.0,10.0
1446036458475165245,2,1446036458468002080,robocape_mag,11.25,-15.75,-25.65,10.0,0.0,0.0,0.0,10.0,0.0,0.0,0.0,10.0
1446036458506033661,3,1446036458500988006,robocape_mag,11.25,-15.75,-25.65,10.0,0.0,0.0,0.0,10.0,0.0,0.0,0.0,10.0
1446036458539482995,4,1446036458534431934,robocape_mag,11.25,-15.75,-25.65,10.0,0.0,0.0,0.0,10.0,0.0,0.0,0.0,10.0
1446036458572889953,5,1446036458567545890,robocape_mag,11.25,-15.75,-25.65,10.0,0.0,0.0,0.0,10.0,0.0,0.0,0.0,10.0
1446036458606440536,6,1446036458601273059,robocape_mag,11.25,-15.75,-25.65,10.0,0.0,0.0,0.0,10.0,0.0,0.0,0.0,10.0
1446036458639202370,7,1446036458634309053,robocape_mag,10.35,-16.05,-25.95,10.0,0.0,0.0,0.0,10.0,0.0,0.0,0.0,10.0
1446036458673008828,8,1446036458667777061,robocape_mag,10.35,-16.05,-25.95,10.0,0.0,0.0,0.0,10.0,0.0,0.0,0.0,10.0
1446036458706170536,9,1446036458701183080,robocape_mag,10.35,-16.05,-25.95,10.0,0.0,0.0,0.0,10.0,0.0,0.0,0.0,10.0
1446036458739155786,10,1446036458734318017,robocape_mag,10.35,-16.05,-25.95,10.0,0.0,0.0,0.0,10.0,0.0,0.0,0.0,10.0
1446036458774949536,11,1446036458767657041,robocape_mag,10.35,-16.05,-25.95,10.0,0.0,0.0,0.0,10.0,0.0,0.0,0.0,10.0
1446036458806147078,12,1446036458801217079,robocape_mag,10.35,-17.25,-25.95,10.0,0.0,0.0,0.0,10.0,0.0,0.0,0.0,10.0
1446036458840416120,13,1446036458835596084,robocape_mag,10.35,-17.25,-25.95,10.0,0.0,0.0,0.0,10.0,0.0,0.0,0.0,10.0
1446036458873404120,14,1446036458867928028,robocape_mag,10.35,-17.25,-25.95,10.0,0.0,0.0,0.0,10.0,0.0,0.0,0.0,10.0
1446036458907521661,15,1446036458902534961,robocape_mag,10.35,-17.25,-25.95,10.0,0.0,0.0,0.0,10.0,0.0,0.0,0.0,10.0
1446036458939976536,16,1446036458935230970,robocape_mag,10.35,-17.25,-25.95,10.0,0.0,0.0,0.0,10.0,0.0,0.0,0.0,10.0
1446036458978415578,17,1446036458969188928,robocape_mag,7.65,-17.55,-24.45,10.0,0.0,0.0,0.0,10.0,0.0,0.0,0.0,10.0
1446036459011111120,18,1446036459006027936,robocape_mag,7.65,-17.55,-24.45,10.0,0.0,0.0,0.0,10.0,0.0,0.0,0.0,10.0
1446036459041262620,19,1446036459036039113,robocape_mag,7.65,-17.55,-24.45,10.0,0.0,0.0,0.0,10.0,0.0,0.0,0.0,10.0
1446036459079513703,20,1446036459071759939,robocape_mag,7.65,-17.55,-24.45,10.0,0.0,0.0,0.0,10.0,0.0,0.0,0.0,10.0
1446036459110364370,21,1446036459105120897,robocape_mag,10.05,-16.35,-26.25,10.0,0.0,0.0,0.0,10.0,0.0,0.0,0.0,10.0
1446036459142713120,22,1446036459136087894,robocape_mag,10.05,-16.35,-26.25,10.0,0.0,0.0,0.0,10.0,0.0,0.0,0.0,10.0
1446036459178609745,23,1446036459172728061,robocape_mag,10.05,-16.35,-26.25,10.0,0.0,0.0,0.0,10.0,0.0,0.0,0.0,10.0
1446036459209226537,24,1446036459204091072,robocape_mag,10.05,-16.35,-26.25,10.0,0.0,0.0,0.0,10.0,0.0,0.0,0.0,10.0
1446036459247922537,25,1446036459237076997,robocape_mag,10.05,-16.35,-26.25,10.0,0.0,0.0,0.0,10.0,0.0,0.0,0.0,10.0
1446036459286211745,26,1446036459273500919,robocape_mag,10.95,-16.65,-24.75,10.0,0.0,0.0,0.0,10.0,0.0,0.0,0.0,10.0
1446036459310803787,27,1446036459304651975,robocape_mag,10.95,-16.65,-24.75,10.0,0.0,0.0,0.0,10.0,0.0,0.0,0.0,10.0
1446036459346117537,28,1446036459337608098,robocape_mag,10.95,-16.65,-24.75,10.0,0.0,0.0,0.0,10.0,0.0,0.0,0.0,10.0
1446036459376859870,29,1446036459370913028,robocape_mag,10.95,-16.65,-24.75,10.0,0.0,0.0,0.0,10.0,0.0,0.0,0.0,10.0
1446036459411264495,30,1446036459404495000,robocape_mag,10.95,-16.65,-24.75,10.0,0.0,0.0,0.0,10.0,0.0,0.0,0.0,10.0
1446036459442848328,31,1446036459437674045,robocape_mag,10.05,-14.55,-25.65,10.0,0.0,0.0,0.0,10.0,0.0,0.0,0.0,10.0
1446036459476997495,32,1446036459471860885,robocape_mag,10.05,-14.55,-25.65,10.0,0.0,0.0,0.0,10.0,0.0,0.0,0.0,10.0
1446036459510386120,33,1446036459505336999,robocape_mag,10.05,-14.55,-25.65,10.0,0.0,0.0,0.0,10.0,0.0,0.0,0.0,10.0
1446036459543191037,34,1446036459538297891,robocape_mag,10.05,-14.55,-25.65,10.0,0.0,0.0,0.0,10.0,0.0,0.0,0.0,10.0
1446036459575642995,35,1446036459570642948,robocape_mag,10.05,-14.55,-25.65,10.0,0.0,0.0,0.0,10.0,0.0,0.0,0.0,10.0
1446036459609719078,36,1446036459604603052,robocape_mag,10.05,-15.75,-24.45,10.0,0.0,0.0,0.0,10.0,0.0,0.0,0.0,10.0
1446036459642797870,37,1446036459638026952,robocape_mag,10.05,-15.75,-24.45,10.0,0.0,0.0,0.0,10.0,0.0,0.0,0.0,10.0
1446036459676428370,38,1446036459671485900,robocape_mag,10.05,-15.75,-24.45,10.0,0.0,0.0,0.0,10.0,0.0,0.0,0.0,10.0
1446036459709151704,39,1446036459704133987,robocape_mag,10.05,-15.75,-24.45,10.0,0.0,0.0,0.0,10.0,0.0,0.0,0.0,10.0
1446036459742726870,40,1446036459737824916,robocape_mag,10.05,-15.75,-24.45,10.0,0.0,0.0,0.0,10.0,0.0,0.0,0.0,10.0
1446036459775280370,41,1446036459770255088,robocape_mag,9.15,-16.05,-24.15,10.0,0.0,0.0,0.0,10.0,0.0,0.0,0.0,10.0
1446036459809078620,42,1446036459804311037,robocape_mag,9.15,-16.05,-24.15,10.0,0.0,0.0,0.0,10.0,0.0,0.0,0.0,10.0
1446036459841308162,43,1446036459836231946,robocape_mag,9.15,-16.05,-24.15,10.0,0.0,0.0,0.0,10.0,0.0,0.0,0.0,10.0
1446036459873925454,44,1446036459869046926,robocape_mag,9.15,-16.05,-24.15,10.0,0.0,0.0,0.0,10.0,0.0,0.0,0.0,10.0
1446036459911889162,45,1446036459901938915,robocape_mag,16.05,-19.35,-23.85,10.0,0.0,0.0,0.0,10.0,0.0,0.0,0.0,10.0
1446036459941046745,46,1446036459936141967,robocape_mag,16.05,-19.35,-23.85,10.0,0.0,0.0,0.0,10.0,0.0,0.0,0.0,10.0
1446036459973440037,47,1446036459968630075,robocape_mag,16.05,-19.35,-23.85,10.0,0.0,0.0,0.0,10.0,0.0,0.0,0.0,10.0
1446036460006740704,48,1446036460001858949,robocape_mag,16.05,-19.35,-23.85,10.0,0.0,0.0,0.0,10.0,0.0,0.0,0.0,10.0
1446036460039594620,49,1446036460034723997,robocape_mag,16.05,-19.35,-23.85,10.0,0.0,0.0,0.0,10.0,0.0,0.0,0.0,10.0
1446036460072551620,50,1446036460067724943,robocape_mag,6.75,-14.85,-24.75,10.0,0.0,0.0,0.0,10.0,0.0,0.0,0.0,10.0
1446036460107231995,51,1446036460102410078,robocape_mag,6.75,-14.85,-24.75,10.0,0.0,0.0,0.0,10.0,0.0,0.0,0.0,10.0
1446036460139233829,52,1446036460134272098,robocape_mag,6.75,-14.85,-24.75,10.0,0.0,0.0,0.0,10.0,0.0,0.0,0.0,10.0
1446036460172779620,53,1446036460167962074,robocape_mag,6.75,-14.85,-24.75,10.0,0.0,0.0,0.0,10.0,0.0,0.0,0.0,10.0
1446036460206232412,54,1446036460201327085,robocape_mag,6.75,-14.85,-24.75,10.0,0.0,0.0,0.0,10.0,0.0,0.0,0.0,10.0
1446036460239740287,55,1446036460234673976,robocape_mag,15.45,-22.95,-23.85,10.0,0.0,0.0,0.0,10.0,0.0,0.0,0.0,10.0
1446036460280071245,56,1446036460269102096,robocape_mag,15.45,-22.95,-23.85,10.0,0.0,0.0,0.0,10.0,0.0,0.0,0.0,10.0
1446036460306632079,57,1446036460301810026,robocape_mag,15.45,-22.95,-23.85,10.0,0.0,0.0,0.0,10.0,0.0,0.0,0.0,10.0
1446036460339661829,58,1446036460334733009,robocape_mag,15.45,-22.95,-23.85,10.0,0.0,0.0,0.0,10.0,0.0,0.0,0.0,10.0
1446036460372454496,59,1446036460367649078,robocape_mag,15.45,-22.95,-23.85,10.0,0.0,0.0,0.0,10.0,0.0,0.0,0.0,10.0
1446036460405985787,60,1446036460401205062,robocape_mag,14.85,-20.55,-27.45,10.0,0.0,0.0,0.0,10.0,0.0,0.0,0.0,10.0
1446036460439412746,61,1446036460434539079,robocape_mag,14.85,-20.55,-27.45,10.0,0.0,0.0,0.0,10.0,0.0,0.0,0.0,10.0
1446036460472513162,62,1446036460467741966,robocape_mag,14.85,-20.55,-27.45,10.0,0.0,0.0,0.0,10.0,0.0,0.0,0.0,10.0
1446036460506131912,63,1446036460501321077,robocape_mag,14.85,-20.55,-27.45,10.0,0.0,0.0,0.0,10.0,0.0,0.0,0.0,10.0
1446036460541854454,64,1446036460536086082,robocape_mag,14.85,-20.55,-27.45,10.0,0.0,0.0,0.0,10.0,0.0,0.0,0.0,10.0
1446036460572759204,65,1446036460567912101,robocape_mag,13.35,-16.65,-24.75,10.0,0.0,0.0,0.0,10.0,0.0,0.0,0.0,10.0
1446036460606101329,66,1446036460600948095,robocape_mag,13.35,-16.65,-24.75,10.0,0.0,0.0,0.0,10.0,0.0,0.0,0.0,10.0
1446036460640441954,67,1446036460634613990,robocape_mag,13.35,-16.65,-24.75,10.0,0.0,0.0,0.0,10.0,0.0,0.0,0.0,10.0
1446036460672726996,68,1446036460667714118,robocape_mag,13.35,-16.65,-24.75,10.0,0.0,0.0,0.0,10.0,0.0,0.0,0.0,10.0
1446036460708223371,69,1446036460701086044,robocape_mag,16.05,-22.35,-22.05,10.0,0.0,0.0,0.0,10.0,0.0,0.0,0.0,10.0
1446036460741296746,70,1446036460734414100,robocape_mag,16.05,-22.35,-22.05,10.0,0.0,0.0,0.0,10.0,0.0,0.0,0.0,10.0
1446036460772681246,71,1446036460767556905,robocape_mag,16.05,-22.35,-22.05,10.0,0.0,0.0,0.0,10.0,0.0,0.0,0.0,10.0
1446036460806269496,72,1446036460800904989,robocape_mag,16.05,-22.35,-22.05,10.0,0.0,0.0,0.0,10.0,0.0,0.0,0.0,10.0
1446036460839551287,73,1446036460834315061,robocape_mag,16.05,-22.35,-22.05,10.0,0.0,0.0,0.0,10.0,0.0,0.0,0.0,10.0
1446036460872590871,74,1446036460867465019,robocape_mag,14.25,-16.35,-24.45,10.0,0.0,0.0,0.0,10.0,0.0,0.0,0.0,10.0
1446036460906551246,75,1446036460901201963,robocape_mag,14.25,-16.35,-24.45,10.0,0.0,0.0,0.0,10.0,0.0,0.0,0.0,10.0
1446036460939588621,76,1446036460934581995,robocape_mag,14.25,-16.35,-24.45,10.0,0.0,0.0,0.0,10.0,0.0,0.0,0.0,10.0
1446036460972648704,77,1446036460967771053,robocape_mag,14.25,-16.35,-24.45,10.0,0.0,0.0,0.0,10.0,0.0,0.0,0.0,10.0
1446036461008344871,78,1446036461001264095,robocape_mag,14.25,-16.35,-24.45,10.0,0.0,0.0,0.0,10.0,0.0,0.0,0.0,10.0
1446036461039268996,79,1446036461034413099,robocape_mag,13.65,-14.55,-27.45,10.0,0.0,0.0,0.0,10.0,0.0,0.0,0.0,10.0
1446036461072432663,80,1446036461067670106,robocape_mag,13.65,-14.55,-27.45,10.0,0.0,0.0,0.0,10.0,0.0,0.0,0.0,10.0
1446036461106375663,81,1446036461101038932,robocape_mag,13.65,-14.55,-27.45,10.0,0.0,0.0,0.0,10.0,0.0,0.0,0.0,10.0
1446036461139596788,82,1446036461134416103,robocape_mag,13.65,-14.55,-27.45,10.0,0.0,0.0,0.0,10.0,0.0,0.0,0.0,10.0
1446036461173187329,83,1446036461168342113,robocape_mag,13.65,-14.55,-27.45,10.0,0.0,0.0,0.0,10.0,0.0,0.0,0.0,10.0
1446036461209105538,84,1446036461202318906,robocape_mag,17.85,-18.75,-26.85,10.0,0.0,0.0,0.0,10.0,0.0,0.0,0.0,10.0
1446036461241436663,85,1446036461235775947,robocape_mag,17.85,-18.75,-26.85,10.0,0.0,0.0,0.0,10.0,0.0,0.0,0.0,10.0
1446036461278765496,86,1446036461269202947,robocape_mag,17.85,-18.75,-26.85,10.0,0.0,0.0,0.0,10.0,0.0,0.0,0.0,10.0
1446036461308688121,87,1446036461303323984,robocape_mag,17.85,-18.75,-26.85,10.0,0.0,0.0,0.0,10.0,0.0,0.0,0.0,10.0
1446036461345405329,88,1446036461340281963,robocape_mag,17.85,-18.75,-26.85,10.0,0.0,0.0,0.0,10.0,0.0,0.0,0.0,10.0
1446036461374039663,89,1446036461369160890,robocape_mag,13.05,-18.15,-27.45,10.0,0.0,0.0,0.0,10.0,0.0,0.0,0.0,10.0
1446036461410929038,90,1446036461402787923,robocape_mag,13.05,-18.15,-27.45,10.0,0.0,0.0,0.0,10.0,0.0,0.0,0.0,10.0
1446036461445722496,91,1446036461436639070,robocape_mag,13.05,-18.15,-27.45,10.0,0.0,0.0,0.0,10.0,0.0,0.0,0.0,10.0
1446036461476136246,92,1446036461471333026,robocape_mag,13.05,-18.15,-27.45,10.0,0.0,0.0,0.0,10.0,0.0,0.0,0.0,10.0
1446036461510380121,93,1446036461505007028,robocape_mag,15.75,-20.25,-19.95,10.0,0.0,0.0,0.0,10.0,0.0,0.0,0.0,10.0
1446036461548667038,94,1446036461538657903,robocape_mag,15.75,-20.25,-19.95,10.0,0.0,0.0,0.0,10.0,0.0,0.0,0.0,10.0
1446036461575730954,95,1446036461570888042,robocape_mag,15.75,-20.25,-19.95,10.0,0.0,0.0,0.0,10.0,0.0,0.0,0.0,10.0
1446036461615169246,96,1446036461604239940,robocape_mag,15.75,-20.25,-19.95,10.0,0.0,0.0,0.0,10.0,0.0,0.0,0.0,10.0
1446036461645010329,97,1446036461638431072,robocape_mag,15.75,-20.25,-19.95,10.0,0.0,0.0,0.0,10.0,0.0,0.0,0.0,10.0
1446036461676943996,98,1446036461671899080,robocape_mag,9.45,-6.15,-23.25,10.0,0.0,0.0,0.0,10.0,0.0,0.0,0.0,10.0
1446036461711507829,99,1446036461705926895,robocape_mag,9.45,-6.15,-23.25,10.0,0.0,0.0,0.0,10.0,0.0,0.0,0.0,10.0
1446036461742956163,100,1446036461737725973,robocape_mag,9.45,-6.15,-23.25,10.0,0.0,0.0,0.0,10.0,0.0,0.0,0.0,10.0
1446036461775544705,101,1446036461769850969,robocape_mag,9.45,-6.15,-23.25,10.0,0.0,0.0,0.0,10.0,0.0,0.0,0.0,10.0
1446036461808916413,102,1446036461803579092,robocape_mag,9.45,-6.15,-23.25,10.0,0.0,0.0,0.0,10.0,0.0,0.0,0.0,10.0
1446036461844831496,103,1446036461839993000,robocape_mag,7.95,3.75,-4.95,10.0,0.0,0.0,0.0,10.0,0.0,0.0,0.0,10.0
1446036461877000455,104,1446036461872148036,robocape_mag,7.95,3.75,-4.95,10.0,0.0,0.0,0.0,10.0,0.0,0.0,0.0,10.0
1446036461909169288,105,1446036461904007911,robocape_mag,7.95,3.75,-4.95,10.0,0.0,0.0,0.0,10.0,0.0,0.0,0.0,10.0
1446036461942726955,106,1446036461937832117,robocape_mag,7.95,3.75,-4.95,10.0,0.0,0.0,0.0,10.0,0.0,0.0,0.0,10.0
1446036461980479913,107,1446036461970377922,robocape_mag,7.95,3.75,-4.95,10.0,0.0,0.0,0.0,10.0,0.0,0.0,0.0,10.0
1446036462009326496,108,1446036462004254102,robocape_mag,16.05,1.05,-17.85,10.0,0.0,0.0,0.0,10.0,0.0,0.0,0.0,10.0
1446036462041151413,109,1446036462036187887,robocape_mag,16.05,1.05,-17.85,10.0,0.0,0.0,0.0,10.0,0.0,0.0,0.0,10.0
1446036462074372080,110,1446036462069586038,robocape_mag,16.05,1.05,-17.85,10.0,0.0,0.0,0.0,10.0,0.0,0.0,0.0,10.0
1446036462109055038,111,1446036462104228973,robocape_mag,16.05,1.05,-17.85,10.0,0.0,0.0,0.0,10.0,0.0,0.0,0.0,10.0
1446036462141627121,112,1446036462136259078,robocape_mag,16.05,1.05,-17.85,10.0,0.0,0.0,0.0,10.0,0.0,0.0,0.0,10.0
1446036462173811705,113,1446036462169058084,robocape_mag,16.35,-25.05,-10.95,10.0,0.0,0.0,0.0,10.0,0.0,0.0,0.0,10.0
1446036462210268746,114,1446036462203975915,robocape_mag,16.35,-25.05,-10.95,10.0,0.0,0.0,0.0,10.0,0.0,0.0,0.0,10.0
1446036462244666621,115,1446036462239805936,robocape_mag,16.35,-25.05,-10.95,10.0,0.0,0.0,0.0,10.0,0.0,0.0,0.0,10.0
1446036462280256621,116,1446036462268089056,robocape_mag,16.35,-25.05,-10.95,10.0,0.0,0.0,0.0,10.0,0.0,0.0,0.0,10.0
1446036462307644788,117,1446036462302318096,robocape_mag,33.75,-19.05,-21.15,10.0,0.0,0.0,0.0,10.0,0.0,0.0,0.0,10.0
1446036462340164580,118,1446036462335057973,robocape_mag,33.75,-19.05,-21.15,10.0,0.0,0.0,0.0,10.0,0.0,0.0,0.0,10.0
1446036462372764205,119,1446036462367928028,robocape_mag,33.75,-19.05,-21.15,10.0,0.0,0.0,0.0,10.0,0.0,0.0,0.0,10.0
1446036462406047871,120,1446036462401266098,robocape_mag,33.75,-19.05,-21.15,10.0,0.0,0.0,0.0,10.0,0.0,0.0,0.0,10.0
1446036462439439538,121,1446036462434582948,robocape_mag,33.75,-19.05,-21.15,10.0,0.0,0.0,0.0,10.0,0.0,0.0,0.0,10.0
1446036462472513038,122,1446036462467734098,robocape_mag,13.65,6.45,-8.25,10.0,0.0,0.0,0.0,10.0,0.0,0.0,0.0,10.0
1446036462506017663,123,1446036462501234054,robocape_mag,13.65,6.45,-8.25,10.0,0.0,0.0,0.0,10.0,0.0,0.0,0.0,10.0
1446036462539307455,124,1446036462534457921,robocape_mag,13.65,6.45,-8.25,10.0,0.0,0.0,0.0,10.0,0.0,0.0,0.0,10.0
1446036462572521413,125,1446036462567662000,robocape_mag,13.65,6.45,-8.25,10.0,0.0,0.0,0.0,10.0,0.0,0.0,0.0,10.0
1446036462605895622,126,1446036462601077079,robocape_mag,13.65,6.45,-8.25,10.0,0.0,0.0,0.0,10.0,0.0,0.0,0.0,10.0
1446036462639267205,127,1446036462634355068,robocape_mag,-10.65,-16.65,-6.15,10.0,0.0,0.0,0.0,10.0,0.0,0.0,0.0,10.0
1446036462672703080,128,1446036462667768001,robocape_mag,-10.65,-16.65,-6.15,10.0,0.0,0.0,0.0,10.0,0.0,0.0,0.0,10.0
1446036462706216205,129,1446036462701332092,robocape_mag,-10.65,-16.65,-6.15,10.0,0.0,0.0,0.0,10.0,0.0,0.0,0.0,10.0
1446036462743990288,130,1446036462734231948,robocape_mag,-10.65,-16.65,-6.15,10.0,0.0,0.0,0.0,10.0,0.0,0.0,0.0,10.0
1446036462774385622,131,1446036462767801046,robocape_mag,-10.65,-16.65,-6.15,10.0,0.0,0.0,0.0,10.0,0.0,0.0,0.0,10.0
1446036462805975830,132,1446036462801177024,robocape_mag,-7.35,2.85,-10.05,10.0,0.0,0.0,0.0,10.0,0.0,0.0,0.0,10.0
1446036462839453038,133,1446036462834558010,robocape_mag,-7.35,2.85,-10.05,10.0,0.0,0.0,0.0,10.0,0.0,0.0,0.0,10.0
1446036462874909205,134,1446036462867676973,robocape_mag,-7.35,2.85,-10.05,10.0,0.0,0.0,0.0,10.0,0.0,0.0,0.0,10.0
1446036462905950538,135,1446036462901164054,robocape_mag,-7.35,2.85,-10.05,10.0,0.0,0.0,0.0,10.0,0.0,0.0,0.0,10.0
1446036462942687455,136,1446036462935851097,robocape_mag,-7.35,2.85,-10.05,10.0,0.0,0.0,0.0,10.0,0.0,0.0,0.0,10.0
1446036462972429205,137,1446036462967545986,robocape_mag,-0.15,2.25,-14.25,10.0,0.0,0.0,0.0,10.0,0.0,0.0,0.0,10.0
1446036463006123413,138,1446036463001147985,robocape_mag,-0.15,2.25,-14.25,10.0,0.0,0.0,0.0,10.0,0.0,0.0,0.0,10.0
1446036463039990580,139,1446036463034251928,robocape_mag,-0.15,2.25,-14.25,10.0,0.0,0.0,0.0,10.0,0.0,0.0,0.0,10.0
1446036463073472872,140,1446036463067543029,robocape_mag,-0.15,2.25,-14.25,10.0,0.0,0.0,0.0,10.0,0.0,0.0,0.0,10.0
1446036463106106747,141,1446036463101090908,robocape_mag,3.75,-8.25,-3.15,10.0,0.0,0.0,0.0,10.0,0.0,0.0,0.0,10.0
1446036463141054539,142,1446036463134264945,robocape_mag,3.75,-8.25,-3.15,10.0,0.0,0.0,0.0,10.0,0.0,0.0,0.0,10.0
1446036463172402747,143,1446036463167481899,robocape_mag,3.75,-8.25,-3.15,10.0,0.0,0.0,0.0,10.0,0.0,0.0,0.0,10.0
1446036463206155455,144,1446036463201025009,robocape_mag,3.75,-8.25,-3.15,10.0,0.0,0.0,0.0,10.0,0.0,0.0,0.0,10.0
1446036463241507247,145,1446036463234636068,robocape_mag,3.75,-8.25,-3.15,10.0,0.0,0.0,0.0,10.0,0.0,0.0,0.0,10.0
1446036463278803872,146,1446036463267777919,robocape_mag,35.55,-17.25,-25.95,10.0,0.0,0.0,0.0,10.0,0.0,0.0,0.0,10.0
1446036463306960497,147,1446036463302174091,robocape_mag,35.55,-17.25,-25.95,10.0,0.0,0.0,0.0,10.0,0.0,0.0,0.0,10.0
1446036463342096205,148,1446036463334784030,robocape_mag,35.55,-17.25,-25.95,10.0,0.0,0.0,0.0,10.0,0.0,0.0,0.0,10.0
1446036463372392372,149,1446036463367516040,robocape_mag,35.55,-17.25,-25.95,10.0,0.0,0.0,0.0,10.0,0.0,0.0,0.0,10.0
1446036463405833830,150,1446036463401081085,robocape_mag,35.55,-17.25,-25.95,10.0,0.0,0.0,0.0,10.0,0.0,0.0,0.0,10.0
1446036463439709747,151,1446036463434784889,robocape_mag,24.75,-26.85,-15.75,10.0,0.0,0.0,0.0,10.0,0.0,0.0,0.0,10.0
1446036463472427247,152,1446036463467668056,robocape_mag,24.75,-26.85,-15.75,10.0,0.0,0.0,0.0,10.0,0.0,0.0,0.0,10.0
1446036463506004289,153,1446036463501182079,robocape_mag,24.75,-26.85,-15.75,10.0,0.0,0.0,0.0,10.0,0.0,0.0,0.0,10.0
1446036463541874330,154,1446036463535665035,robocape_mag,24.75,-26.85,-15.75,10.0,0.0,0.0,0.0,10.0,0.0,0.0,0.0,10.0
1446036463573720330,155,1446036463568887948,robocape_mag,24.75,-26.85,-15.75,10.0,0.0,0.0,0.0,10.0,0.0,0.0,0.0,10.0
1446036463607546497,156,1446036463602752923,robocape_mag,16.05,-4.95,-8.85,10.0,0.0,0.0,0.0,10.0,0.0,0.0,0.0,10.0
1446036463640848539,157,1446036463635633945,robocape_mag,16.05,-4.95,-8.85,10.0,0.0,0.0,0.0,10.0,0.0,0.0,0.0,10.0
1446036463673607622,158,1446036463668824911,robocape_mag,16.05,-4.95,-8.85,10.0,0.0,0.0,0.0,10.0,0.0,0.0,0.0,10.0
1446036463707497997,159,1446036463702701091,robocape_mag,16.05,-4.95,-8.85,10.0,0.0,0.0,0.0,10.0,0.0,0.0,0.0,10.0
1446036463741021455,160,1446036463735850095,robocape_mag,16.05,-4.95,-8.85,10.0,0.0,0.0,0.0,10.0,0.0,0.0,0.0,10.0
1446036463776152747,161,1446036463770513057,robocape_mag,23.25,-12.75,-16.65,10.0,0.0,0.0,0.0,10.0,0.0,0.0,0.0,10.0
1446036463809579580,162,1446036463803983926,robocape_mag,23.25,-12.75,-16.65,10.0,0.0,0.0,0.0,10.0,0.0,0.0,0.0,10.0
1446036463842849122,163,1446036463837883949,robocape_mag,23.25,-12.75,-16.65,10.0,0.0,0.0,0.0,10.0,0.0,0.0,0.0,10.0
1446036463876514706,164,1446036463870259046,robocape_mag,23.25,-12.75,-16.65,10.0,0.0,0.0,0.0,10.0,0.0,0.0,0.0,10.0
1446036463908658414,165,1446036463903857946,robocape_mag,0.15,-22.05,-11.55,10.0,0.0,0.0,0.0,10.0,0.0,0.0,0.0,10.0
1446036463941825997,166,1446036463935432910,robocape_mag,0.15,-22.05,-11.55,10.0,0.0,0.0,0.0,10.0,0.0,0.0,0.0,10.0
1446036463974413831,167,1446036463969640016,robocape_mag,0.15,-22.05,-11.55,10.0,0.0,0.0,0.0,10.0,0.0,0.0,0.0,10.0
1446036464010747081,168,1446036464005489110,robocape_mag,0.15,-22.05,-11.55,10.0,0.0,0.0,0.0,10.0,0.0,0.0,0.0,10.0
1446036464043605122,169,1446036464038463115,robocape_mag,0.15,-22.05,-11.55,10.0,0.0,0.0,0.0,10.0,0.0,0.0,0.0,10.0
1446036464076490497,170,1446036464071373939,robocape_mag,-15.15,7.05,-9.45,10.0,0.0,0.0,0.0,10.0,0.0,0.0,0.0,10.0
1446036464112574164,171,1446036464104290008,robocape_mag,-15.15,7.05,-9.45,10.0,0.0,0.0,0.0,10.0,0.0,0.0,0.0,10.0
1446036464147876206,172,1446036464138766050,robocape_mag,-15.15,7.05,-9.45,10.0,0.0,0.0,0.0,10.0,0.0,0.0,0.0,10.0
1446036464176250789,173,1446036464171278953,robocape_mag,-15.15,7.05,-9.45,10.0,0.0,0.0,0.0,10.0,0.0,0.0,0.0,10.0
1446036464212742872,174,1446036464203654050,robocape_mag,-15.15,7.05,-9.45,10.0,0.0,0.0,0.0,10.0,0.0,0.0,0.0,10.0
1446036464243024997,175,1446036464237827062,robocape_mag,1.05,-3.15,-13.65,10.0,0.0,0.0,0.0,10.0,0.0,0.0,0.0,10.0
1446036464280354997,176,1446036464271696090,robocape_mag,1.05,-3.15,-13.65,10.0,0.0,0.0,0.0,10.0,0.0,0.0,0.0,10.0
1446036464310143872,177,1446036464304595947,robocape_mag,1.05,-3.15,-13.65,10.0,0.0,0.0,0.0,10.0,0.0,0.0,0.0,10.0
1446036464342331164,178,1446036464337308883,robocape_mag,1.05,-3.15,-13.65,10.0,0.0,0.0,0.0,10.0,0.0,0.0,0.0,10.0
1446036464374408789,179,1446036464369492053,robocape_mag,1.05,-3.15,-13.65,10.0,0.0,0.0,0.0,10.0,0.0,0.0,0.0,10.0
1446036464408723914,180,1446036464403397083,robocape_mag,4.65,-27.15,-13.05,10.0,0.0,0.0,0.0,10.0,0.0,0.0,0.0,10.0
1446036464441676706,181,1446036464436912059,robocape_mag,4.65,-27.15,-13.05,10.0,0.0,0.0,0.0,10.0,0.0,0.0,0.0,10.0
1446036464474432039,182,1446036464469578027,robocape_mag,4.65,-27.15,-13.05,10.0,0.0,0.0,0.0,10.0,0.0,0.0,0.0,10.0
1446036464508313164,183,1446036464503004074,robocape_mag,4.65,-27.15,-13.05,10.0,0.0,0.0,0.0,10.0,0.0,0.0,0.0,10.0
1446036464540753039,184,1446036464536017894,robocape_mag,4.65,-27.15,-13.05,10.0,0.0,0.0,0.0,10.0,0.0,0.0,0.0,10.0
1446036464573688498,185,1446036464568854093,robocape_mag,8.25,-31.35,-13.05,10.0,0.0,0.0,0.0,10.0,0.0,0.0,0.0,10.0
1446036464607523289,186,1446036464602334022,robocape_mag,8.25,-31.35,-13.05,10.0,0.0,0.0,0.0,10.0,0.0,0.0,0.0,10.0
1446036464640417164,187,1446036464635392904,robocape_mag,8.25,-31.35,-13.05,10.0,0.0,0.0,0.0,10.0,0.0,0.0,0.0,10.0
1446036464677505331,188,1446036464668492078,robocape_mag,8.25,-31.35,-13.05,10.0,0.0,0.0,0.0,10.0,0.0,0.0,0.0,10.0
1446036464706324539,189,1446036464701471090,robocape_mag,24.45,2.25,-14.85,10.0,0.0,0.0,0.0,10.0,0.0,0.0,0.0,10.0
1446036464739721748,190,1446036464734612941,robocape_mag,24.45,2.25,-14.85,10.0,0.0,0.0,0.0,10.0,0.0,0.0,0.0,10.0
1446036464772901789,191,1446036464767802000,robocape_mag,24.45,2.25,-14.85,10.0,0.0,0.0,0.0,10.0,0.0,0.0,0.0,10.0
1446036464805948873,192,1446036464801117897,robocape_mag,24.45,2.25,-14.85,10.0,0.0,0.0,0.0,10.0,0.0,0.0,0.0,10.0
1446036464843473414,193,1446036464834464073,robocape_mag,24.45,2.25,-14.85,10.0,0.0,0.0,0.0,10.0,0.0,0.0,0.0,10.0
1446036464872426748,194,1446036464867635965,robocape_mag,28.05,-27.15,-22.05,10.0,0.0,0.0,0.0,10.0,0.0,0.0,0.0,10.0
1446036464905643706,195,1446036464900846958,robocape_mag,28.05,-27.15,-22.05,10.0,0.0,0.0,0.0,10.0,0.0,0.0,0.0,10.0
1446036464939357456,196,1446036464934458971,robocape_mag,28.05,-27.15,-22.05,10.0,0.0,0.0,0.0,10.0,0.0,0.0,0.0,10.0
1446036464972380831,197,1446036464967622995,robocape_mag,28.05,-27.15,-22.05,10.0,0.0,0.0,0.0,10.0,0.0,0.0,0.0,10.0
1446036465005980956,198,1446036465001188993,robocape_mag,28.05,-27.15,-22.05,10.0,0.0,0.0,0.0,10.0,0.0,0.0,0.0,10.0
1446036465039483539,199,1446036465034317016,robocape_mag,29.85,-25.95,-17.85,10.0,0.0,0.0,0.0,10.0,0.0,0.0,0.0,10.0
1446036465072509456,200,1446036465067791938,robocape_mag,29.85,-25.95,-17.85,10.0,0.0,0.0,0.0,10.0,0.0,0.0,0.0,10.0
1446036465105837623,201,1446036465101013898,robocape_mag,29.85,-25.95,-17.85,10.0,0.0,0.0,0.0,10.0,0.0,0.0,0.0,10.0
1446036465139753498,202,1446036465134641885,robocape_mag,29.85,-25.95,-17.85,10.0,0.0,0.0,0.0,10.0,0.0,0.0,0.0,10.0
1446036465173094831,203,1446036465168198108,robocape_mag,29.85,-25.95,-17.85,10.0,0.0,0.0,0.0,10.0,0.0,0.0,0.0,10.0
1446036465207181789,204,1446036465202372074,robocape_mag,18.45,-24.75,-13.65,10.0,0.0,0.0,0.0,10.0,0.0,0.0,0.0,10.0
1446036465239486165,205,1446036465234384059,robocape_mag,18.45,-24.75,-13.65,10.0,0.0,0.0,0.0,10.0,0.0,0.0,0.0,10.0
1446036465280615706,206,1446036465267827987,robocape_mag,18.45,-24.75,-13.65,10.0,0.0,0.0,0.0,10.0,0.0,0.0,0.0,10.0
1446036465307635415,207,1446036465302145004,robocape_mag,18.45,-24.75,-13.65,10.0,0.0,0.0,0.0,10.0,0.0,0.0,0.0,10.0
1446036465340477123,208,1446036465334722042,robocape_mag,18.45,-24.75,-13.65,10.0,0.0,0.0,0.0,10.0,0.0,0.0,0.0,10.0
1446036465373277290,209,1446036465367918014,robocape_mag,13.35,-20.85,-10.35,10.0,0.0,0.0,0.0,10.0,0.0,0.0,0.0,10.0
1446036465439113081,210,1446036465401123046,robocape_mag,13.35,-20.85,-10.35,10.0,0.0,0.0,0.0,10.0,0.0,0.0,0.0,10.0
1446036465459603498,211,1446036465454725980,robocape_mag,13.35,-20.85,-10.35,10.0,0.0,0.0,0.0,10.0,0.0,0.0,0.0,10.0
1446036465480606415,212,1446036465475929975,robocape_mag,13.35,-20.85,-10.35,10.0,0.0,0.0,0.0,10.0,0.0,0.0,0.0,10.0
1446036465505654540,213,1446036465500895977,robocape_mag,62.85,-21.75,-12.45,10.0,0.0,0.0,0.0,10.0,0.0,0.0,0.0,10.0
1446036465539678498,214,1446036465534442901,robocape_mag,-13.95,-21.75,-12.45,10.0,0.0,0.0,0.0,10.0,0.0,0.0,0.0,10.0
1446036465572336540,215,1446036465567562103,robocape_mag,-13.95,-21.75,-12.45,10.0,0.0,0.0,0.0,10.0,0.0,0.0,0.0,10.0
1446036465605603998,216,1446036465600831985,robocape_mag,-13.95,-21.75,-12.45,10.0,0.0,0.0,0.0,10.0,0.0,0.0,0.0,10.0
1446036465639919165,217,1446036465634830951,robocape_mag,-13.95,-21.75,-12.45,10.0,0.0,0.0,0.0,10.0,0.0,0.0,0.0,10.0
1446036465672349873,218,1446036465667516946,robocape_mag,-11.25,-0.45,-13.95,10.0,0.0,0.0,0.0,10.0,0.0,0.0,0.0,10.0
1446036465706015790,219,1446036465700982093,robocape_mag,-11.25,-0.45,-13.95,10.0,0.0,0.0,0.0,10.0,0.0,0.0,0.0,10.0
1446036465741672290,220,1446036465734309911,robocape_mag,-11.25,-0.45,-13.95,10.0,0.0,0.0,0.0,10.0,0.0,0.0,0.0,10.0
1446036465772747956,221,1446036465767915964,robocape_mag,-11.25,-0.45,-13.95,10.0,0.0,0.0,0.0,10.0,0.0,0.0,0.0,10.0
1446036465807259915,222,1446036465802463054,robocape_mag,-11.25,-0.45,-13.95,10.0,0.0,0.0,0.0,10.0,0.0,0.0,0.0,10.0
1446036465843346790,223,1446036465836764097,robocape_mag,-13.95,-29.55,-15.45,10.0,0.0,0.0,0.0,10.0,0.0,0.0,0.0,10.0
1446036465873116873,224,1446036465867683887,robocape_mag,-13.95,-29.55,-15.45,10.0,0.0,0.0,0.0,10.0,0.0,0.0,0.0,10.0
1446036465907228165,225,1446036465902380943,robocape_mag,-13.95,-29.55,-15.45,10.0,0.0,0.0,0.0,10.0,0.0,0.0,0.0,10.0
1446036465942652498,226,1446036465935478925,robocape_mag,-13.95,-29.55,-15.45,10.0,0.0,0.0,0.0,10.0,0.0,0.0,0.0,10.0
1446036465974364332,227,1446036465969557046,robocape_mag,-13.95,-29.55,-15.45,10.0,0.0,0.0,0.0,10.0,0.0,0.0,0.0,10.0
1446036466007565457,228,1446036466002769947,robocape_mag,-7.35,-4.35,-12.45,10.0,0.0,0.0,0.0,10.0,0.0,0.0,0.0,10.0
1446036466041332248,229,1446036466036113023,robocape_mag,-7.35,-4.35,-12.45,10.0,0.0,0.0,0.0,10.0,0.0,0.0,0.0,10.0
1446036466076581957,230,1446036466070167064,robocape_mag,-7.35,-4.35,-12.45,10.0,0.0,0.0,0.0,10.0,0.0,0.0,0.0,10.0
1446036466107170915,231,1446036466102412939,robocape_mag,-7.35,-4.35,-12.45,10.0,0.0,0.0,0.0,10.0,0.0,0.0,0.0,10.0
1446036466145982582,232,1446036466138812065,robocape_mag,-7.35,-4.35,-12.45,10.0,0.0,0.0,0.0,10.0,0.0,0.0,0.0,10.0
1446036466182933498,233,1446036466169411897,robocape_mag,4.35,-16.65,-13.95,10.0,0.0,0.0,0.0,10.0,0.0,0.0,0.0,10.0
1446036466211101707,234,1446036466204240083,robocape_mag,4.35,-16.65,-13.95,10.0,0.0,0.0,0.0,10.0,0.0,0.0,0.0,10.0
1446036466245211457,235,1446036466238583087,robocape_mag,4.35,-16.65,-13.95,10.0,0.0,0.0,0.0,10.0,0.0,0.0,0.0,10.0
1446036466286315498,236,1446036466272062063,robocape_mag,4.35,-16.65,-13.95,10.0,0.0,0.0,0.0,10.0,0.0,0.0,0.0,10.0
1446036466310168998,237,1446036466304886102,robocape_mag,15.15,-29.25,-12.15,10.0,0.0,0.0,0.0,10.0,0.0,0.0,0.0,10.0
1446036466343875165,238,1446036466336709022,robocape_mag,15.15,-29.25,-12.15,10.0,0.0,0.0,0.0,10.0,0.0,0.0,0.0,10.0
1446036466376915665,239,1446036466371829032,robocape_mag,15.15,-29.25,-12.15,10.0,0.0,0.0,0.0,10.0,0.0,0.0,0.0,10.0
1446036466409978623,240,1446036466404833078,robocape_mag,15.15,-29.25,-12.15,10.0,0.0,0.0,0.0,10.0,0.0,0.0,0.0,10.0
1446036466447457373,241,1446036466437529087,robocape_mag,15.15,-29.25,-12.15,10.0,0.0,0.0,0.0,10.0,0.0,0.0,0.0,10.0
1446036466475416290,242,1446036466470223903,robocape_mag,12.15,-10.05,-16.95,10.0,0.0,0.0,0.0,10.0,0.0,0.0,0.0,10.0
1446036466509057082,243,1446036466503853082,robocape_mag,12.15,-10.05,-16.95,10.0,0.0,0.0,0.0,10.0,0.0,0.0,0.0,10.0
1446036466546951290,244,1446036466537708997,robocape_mag,12.15,-10.05,-16.95,10.0,0.0,0.0,0.0,10.0,0.0,0.0,0.0,10.0
1446036466575632165,245,1446036466570609092,robocape_mag,12.15,-10.05,-16.95,10.0,0.0,0.0,0.0,10.0,0.0,0.0,0.0,10.0
1446036466608398665,246,1446036466603296995,robocape_mag,12.15,-10.05,-16.95,10.0,0.0,0.0,0.0,10.0,0.0,0.0,0.0,10.0
1446036466643352082,247,1446036466636574983,robocape_mag,23.25,-2.55,-12.45,10.0,0.0,0.0,0.0,10.0,0.0,0.0,0.0,10.0
1446036466675230624,248,1446036466670052051,robocape_mag,23.25,-2.55,-12.45,10.0,0.0,0.0,0.0,10.0,0.0,0.0,0.0,10.0
1446036466708384499,249,1446036466703511953,robocape_mag,23.25,-2.55,-12.45,10.0,0.0,0.0,0.0,10.0,0.0,0.0,0.0,10.0
1446036466742835249,250,1446036466737095117,robocape_mag,23.25,-2.55,-12.45,10.0,0.0,0.0,0.0,10.0,0.0,0.0,0.0,10.0
1446036466775549874,251,1446036466770487070,robocape_mag,23.25,-2.55,-12.45,10.0,0.0,0.0,0.0,10.0,0.0,0.0,0.0,10.0
1446036466808361874,252,1446036466803570985,robocape_mag,3.45,1.65,-11.85,10.0,0.0,0.0,0.0,10.0,0.0,0.0,0.0,10.0
1446036466846935874,253,1446036466837044954,robocape_mag,3.45,1.65,-11.85,10.0,0.0,0.0,0.0,10.0,0.0,0.0,0.0,10.0
1446036466873562332,254,1446036466868805885,robocape_mag,3.45,1.65,-11.85,10.0,0.0,0.0,0.0,10.0,0.0,0.0,0.0,10.0
1446036466906487749,255,1446036466901653051,robocape_mag,3.45,1.65,-11.85,10.0,0.0,0.0,0.0,10.0,0.0,0.0,0.0,10.0
1446036466940539207,256,1446036466935444116,robocape_mag,3.45,1.65,-11.85,10.0,0.0,0.0,0.0,10.0,0.0,0.0,0.0,10.0
1446036466973081207,257,1446036466968293905,robocape_mag,-11.25,-11.85,-11.55,10.0,0.0,0.0,0.0,10.0,0.0,0.0,0.0,10.0
1446036467006586415,258,1446036467001740932,robocape_mag,-11.25,-11.85,-11.55,10.0,0.0,0.0,0.0,10.0,0.0,0.0,0.0,10.0
1446036467040802707,259,1446036467035610914,robocape_mag,-11.25,-11.85,-11.55,10.0,0.0,0.0,0.0,10.0,0.0,0.0,0.0,10.0
1446036467072392374,260,1446036467067626953,robocape_mag,-11.25,-11.85,-11.55,10.0,0.0,0.0,0.0,10.0,0.0,0.0,0.0,10.0
1446036467105845207,261,1446036467101063966,robocape_mag,5.25,-19.35,-11.85,10.0,0.0,0.0,0.0,10.0,0.0,0.0,0.0,10.0
1446036467139452249,262,1446036467134474992,robocape_mag,5.25,-19.35,-11.85,10.0,0.0,0.0,0.0,10.0,0.0,0.0,0.0,10.0
1446036467172474499,263,1446036467167718887,robocape_mag,5.25,-19.35,-11.85,10.0,0.0,0.0,0.0,10.0,0.0,0.0,0.0,10.0
1446036467205698499,264,1446036467200922012,robocape_mag,5.25,-19.35,-11.85,10.0,0.0,0.0,0.0,10.0,0.0,0.0,0.0,10.0
1446036467239041582,265,1446036467234183073,robocape_mag,5.25,-19.35,-11.85,10.0,0.0,0.0,0.0,10.0,0.0,0.0,0.0,10.0
1446036467276941332,266,1446036467267839908,robocape_mag,-5.25,-4.65,-12.15,10.0,0.0,0.0,0.0,10.0,0.0,0.0,0.0,10.0
1446036467306878249,267,1446036467302022933,robocape_mag,-5.25,-4.65,-12.15,10.0,0.0,0.0,0.0,10.0,0.0,0.0,0.0,10.0
1446036467339359874,268,1446036467334475994,robocape_mag,-5.25,-4.65,-12.15,10.0,0.0,0.0,0.0,10.0,0.0,0.0,0.0,10.0
1446036467372454582,269,1446036467367672920,robocape_mag,-5.25,-4.65,-12.15,10.0,0.0,0.0,0.0,10.0,0.0,0.0,0.0,10.0
1446036467405926707,270,1446036467401174068,robocape_mag,-5.25,-4.65,-12.15,10.0,0.0,0.0,0.0,10.0,0.0,0.0,0.0,10.0
1446036467439390541,271,1446036467434362888,robocape_mag,10.05,-30.75,-13.05,10.0,0.0,0.0,0.0,10.0,0.0,0.0,0.0,10.0
1446036467472538832,272,1446036467467818021,robocape_mag,10.05,-30.75,-13.05,10.0,0.0,0.0,0.0,10.0,0.0,0.0,0.0,10.0
1446036467505883499,273,1446036467501075029,robocape_mag,10.05,-30.75,-13.05,10.0,0.0,0.0,0.0,10.0,0.0,0.0,0.0,10.0
1446036467539312666,274,1446036467534425020,robocape_mag,10.05,-30.75,-13.05,10.0,0.0,0.0,0.0,10.0,0.0,0.0,0.0,10.0
1446036467572901499,275,1446036467568065881,robocape_mag,10.05,-30.75,-13.05,10.0,0.0,0.0,0.0,10.0,0.0,0.0,0.0,10.0
1446036467605660999,276,1446036467600858926,robocape_mag,10.35,-2.25,-13.95,10.0,0.0,0.0,0.0,10.0,0.0,0.0,0.0,10.0
1446036467639029916,277,1446036467634161949,robocape_mag,10.35,-2.25,-13.95,10.0,0.0,0.0,0.0,10.0,0.0,0.0,0.0,10.0
1446036467672706416,278,1446036467667689085,robocape_mag,10.35,-2.25,-13.95,10.0,0.0,0.0,0.0,10.0,0.0,0.0,0.0,10.0
1446036467706713374,279,1446036467700947999,robocape_mag,10.35,-2.25,-13.95,10.0,0.0,0.0,0.0,10.0,0.0,0.0,0.0,10.0
1446036467739605332,280,1446036467734122991,robocape_mag,10.35,-2.25,-13.95,10.0,0.0,0.0,0.0,10.0,0.0,0.0,0.0,10.0
1446036467772613374,281,1446036467767595052,robocape_mag,17.85,-12.15,-22.65,10.0,0.0,0.0,0.0,10.0,0.0,0.0,0.0,10.0
1446036467806123291,282,1446036467800978899,robocape_mag,17.85,-12.15,-22.65,10.0,0.0,0.0,0.0,10.0,0.0,0.0,0.0,10.0
1446036467839423166,283,1446036467834191083,robocape_mag,17.85,-12.15,-22.65,10.0,0.0,0.0,0.0,10.0,0.0,0.0,0.0,10.0
1446036467872642082,284,1446036467867543935,robocape_mag,17.85,-12.15,-22.65,10.0,0.0,0.0,0.0,10.0,0.0,0.0,0.0,10.0
1446036467906025666,285,1446036467900866031,robocape_mag,31.05,-27.15,-19.65,10.0,0.0,0.0,0.0,10.0,0.0,0.0,0.0,10.0
1446036467939362707,286,1446036467934293985,robocape_mag,31.05,-27.15,-19.65,10.0,0.0,0.0,0.0,10.0,0.0,0.0,0.0,10.0
1446036467972490291,287,1446036467967596054,robocape_mag,31.05,-27.15,-19.65,10.0,0.0,0.0,0.0,10.0,0.0,0.0,0.0,10.0
1446036468005991124,288,1446036468001085996,robocape_mag,31.05,-27.15,-19.65,10.0,0.0,0.0,0.0,10.0,0.0,0.0,0.0,10.0
1446036468039223833,289,1446036468034223079,robocape_mag,31.05,-27.15,-19.65,10.0,0.0,0.0,0.0,10.0,0.0,0.0,0.0,10.0
1446036468072399416,290,1446036468067651987,robocape_mag,12.15,-1.05,-14.55,10.0,0.0,0.0,0.0,10.0,0.0,0.0,0.0,10.0
1446036468105766874,291,1446036468100939035,robocape_mag,12.15,-1.05,-14.55,10.0,0.0,0.0,0.0,10.0,0.0,0.0,0.0,10.0
1446036468139429124,292,1446036468134336948,robocape_mag,12.15,-1.05,-14.55,10.0,0.0,0.0,0.0,10.0,0.0,0.0,0.0,10.0
1446036468173575958,293,1446036468168867111,robocape_mag,12.15,-1.05,-14.55,10.0,0.0,0.0,0.0,10.0,0.0,0.0,0.0,10.0
1446036468206915833,294,1446036468202152967,robocape_mag,12.15,-1.05,-14.55,10.0,0.0,0.0,0.0,10.0,0.0,0.0,0.0,10.0
1446036468240401999,295,1446036468235452890,robocape_mag,37.95,-17.85,-17.55,10.0,0.0,0.0,0.0,10.0,0.0,0.0,0.0,10.0
1446036468278872916,296,1446036468269087076,robocape_mag,37.95,-17.85,-17.55,10.0,0.0,0.0,0.0,10.0,0.0,0.0,0.0,10.0
1446036468307826041,297,1446036468302798032,robocape_mag,37.95,-17.85,-17.55,10.0,0.0,0.0,0.0,10.0,0.0,0.0,0.0,10.0
1446036468340895624,298,1446036468335957050,robocape_mag,37.95,-17.85,-17.55,10.0,0.0,0.0,0.0,10.0,0.0,0.0,0.0,10.0
1446036468373940999,299,1446036468369095087,robocape_mag,37.95,-17.85,-17.55,10.0,0.0,0.0,0.0,10.0,0.0,0.0,0.0,10.0
1446036468407420999,300,1446036468402501106,robocape_mag,39.45,-21.75,-21.45,10.0,0.0,0.0,0.0,10.0,0.0,0.0,0.0,10.0
1446036468439998124,301,1446036468435256958,robocape_mag,39.45,-21.75,-21.45,10.0,0.0,0.0,0.0,10.0,0.0,0.0,0.0,10.0
1446036468482123541,302,1446036468473520994,robocape_mag,39.45,-21.75,-21.45,10.0,0.0,0.0,0.0,10.0,0.0,0.0,0.0,10.0
1446036468510744458,303,1446036468502681016,robocape_mag,39.45,-21.75,-21.45,10.0,0.0,0.0,0.0,10.0,0.0,0.0,0.0,10.0
1446036468543350708,304,1446036468537043094,robocape_mag,39.45,-21.75,-21.45,10.0,0.0,0.0,0.0,10.0,0.0,0.0,0.0,10.0
1446036468574529874,305,1446036468568430900,robocape_mag,5.85,0.45,-10.65,10.0,0.0,0.0,0.0,10.0,0.0,0.0,0.0,10.0
1446036468610222374,306,1446036468603936910,robocape_mag,5.85,0.45,-10.65,10.0,0.0,0.0,0.0,10.0,0.0,0.0,0.0,10.0
1446036468641134124,307,1446036468636229038,robocape_mag,5.85,0.45,-10.65,10.0,0.0,0.0,0.0,10.0,0.0,0.0,0.0,10.0
1446036468677342791,308,1446036468672149896,robocape_mag,5.85,0.45,-10.65,10.0,0.0,0.0,0.0,10.0,0.0,0.0,0.0,10.0
1446036468709399666,309,1446036468704468965,robocape_mag,-2.55,8.25,-8.25,10.0,0.0,0.0,0.0,10.0,0.0,0.0,0.0,10.0
1446036468745548583,310,1446036468738225936,robocape_mag,-2.55,8.25,-8.25,10.0,0.0,0.0,0.0,10.0,0.0,0.0,0.0,10.0
1446036468775632083,311,1446036468770298004,robocape_mag,-2.55,8.25,-8.25,10.0,0.0,0.0,0.0,10.0,0.0,0.0,0.0,10.0
1446036468812553375,312,1446036468803577899,robocape_mag,-2.55,8.25,-8.25,10.0,0.0,0.0,0.0,10.0,0.0,0.0,0.0,10.0
1446036468845683541,313,1446036468838454008,robocape_mag,-2.55,8.25,-8.25,10.0,0.0,0.0,0.0,10.0,0.0,0.0,0.0,10.0
1446036468875612000,314,1446036468870695114,robocape_mag,4.05,5.85,-9.45,10.0,0.0,0.0,0.0,10.0,0.0,0.0,0.0,10.0
1446036468908957916,315,1446036468903959989,robocape_mag,4.05,5.85,-9.45,10.0,0.0,0.0,0.0,10.0,0.0,0.0,0.0,10.0
1446036468941715666,316,1446036468936602115,robocape_mag,4.05,5.85,-9.45,10.0,0.0,0.0,0.0,10.0,0.0,0.0,0.0,10.0
1446036468974771291,317,1446036468969829082,robocape_mag,4.05,5.85,-9.45,10.0,0.0,0.0,0.0,10.0,0.0,0.0,0.0,10.0
1446036469008899458,318,1446036469004051923,robocape_mag,4.05,5.85,-9.45,10.0,0.0,0.0,0.0,10.0,0.0,0.0,0.0,10.0
1446036469042975625,319,1446036469037998914,robocape_mag,15.45,-23.55,-16.05,10.0,0.0,0.0,0.0,10.0,0.0,0.0,0.0,10.0
1446036469074312625,320,1446036469069518089,robocape_mag,15.45,-23.55,-16.05,10.0,0.0,0.0,0.0,10.0,0.0,0.0,0.0,10.0
1446036469108374791,321,1446036469103518962,robocape_mag,15.45,-23.55,-16.05,10.0,0.0,0.0,0.0,10.0,0.0,0.0,0.0,10.0
1446036469141679500,322,1446036469136707067,robocape_mag,15.45,-23.55,-16.05,10.0,0.0,0.0,0.0,10.0,0.0,0.0,0.0,10.0
1446036469174294958,323,1446036469169539928,robocape_mag,15.45,-23.55,-16.05,10.0,0.0,0.0,0.0,10.0,0.0,0.0,0.0,10.0
1446036469206636541,324,1446036469201781988,robocape_mag,21.15,-0.45,-19.35,10.0,0.0,0.0,0.0,10.0,0.0,0.0,0.0,10.0
1446036469240022416,325,1446036469235255956,robocape_mag,21.15,-0.45,-19.35,10.0,0.0,0.0,0.0,10.0,0.0,0.0,0.0,10.0
1446036469283153333,326,1446036469270627021,robocape_mag,21.15,-0.45,-19.35,10.0,0.0,0.0,0.0,10.0,0.0,0.0,0.0,10.0
1446036469306318791,327,1446036469301178932,robocape_mag,21.15,-0.45,-19.35,10.0,0.0,0.0,0.0,10.0,0.0,0.0,0.0,10.0
1446036469339492750,328,1446036469334501028,robocape_mag,21.15,-0.45,-19.35,10.0,0.0,0.0,0.0,10.0,0.0,0.0,0.0,10.0
1446036469373549458,329,1446036469368781089,robocape_mag,16.95,-13.65,-9.15,10.0,0.0,0.0,0.0,10.0,0.0,0.0,0.0,10.0
1446036469406429291,330,1446036469401128053,robocape_mag,16.95,-13.65,-9.15,10.0,0.0,0.0,0.0,10.0,0.0,0.0,0.0,10.0
1446036469441002792,331,1446036469436155080,robocape_mag,16.95,-13.65,-9.15,10.0,0.0,0.0,0.0,10.0,0.0,0.0,0.0,10.0
1446036469473875792,332,1446036469469022989,robocape_mag,16.95,-13.65,-9.15,10.0,0.0,0.0,0.0,10.0,0.0,0.0,0.0,10.0
1446036469507504458,333,1446036469502388000,robocape_mag,-9.15,5.25,-12.45,10.0,0.0,0.0,0.0,10.0,0.0,0.0,0.0,10.0
1446036469544598208,334,1446036469537659883,robocape_mag,-9.15,5.25,-12.45,10.0,0.0,0.0,0.0,10.0,0.0,0.0,0.0,10.0
1446036469573186833,335,1446036469568306922,robocape_mag,-9.15,5.25,-12.45,10.0,0.0,0.0,0.0,10.0,0.0,0.0,0.0,10.0
1446036469609576083,336,1446036469603676080,robocape_mag,-9.15,5.25,-12.45,10.0,0.0,0.0,0.0,10.0,0.0,0.0,0.0,10.0
1446036469644050458,337,1446036469637231111,robocape_mag,-9.15,5.25,-12.45,10.0,0.0,0.0,0.0,10.0,0.0,0.0,0.0,10.0
1446036469672284583,338,1446036469667468070,robocape_mag,-1.35,-25.35,-9.45,10.0,0.0,0.0,0.0,10.0,0.0,0.0,0.0,10.0
1446036469705809875,339,1446036469701031923,robocape_mag,-1.35,-25.35,-9.45,10.0,0.0,0.0,0.0,10.0,0.0,0.0,0.0,10.0
1446036469739971458,340,1446036469735096931,robocape_mag,-1.35,-25.35,-9.45,10.0,0.0,0.0,0.0,10.0,0.0,0.0,0.0,10.0
1446036469773053250,341,1446036469767846107,robocape_mag,-1.35,-25.35,-9.45,10.0,0.0,0.0,0.0,10.0,0.0,0.0,0.0,10.0
1446036469806322542,342,1446036469801244020,robocape_mag,-1.35,-25.35,-9.45,10.0,0.0,0.0,0.0,10.0,0.0,0.0,0.0,10.0
1446036469843440917,343,1446036469838378906,robocape_mag,-15.15,2.85,-12.45,10.0,0.0,0.0,0.0,10.0,0.0,0.0,0.0,10.0
1446036469872242958,344,1446036469867429018,robocape_mag,-15.15,2.85,-12.45,10.0,0.0,0.0,0.0,10.0,0.0,0.0,0.0,10.0
1446036469905444167,345,1446036469900734901,robocape_mag,-15.15,2.85,-12.45,10.0,0.0,0.0,0.0,10.0,0.0,0.0,0.0,10.0
1446036469939493875,346,1446036469934340953,robocape_mag,-15.15,2.85,-12.45,10.0,0.0,0.0,0.0,10.0,0.0,0.0,0.0,10.0
1446036469972277125,347,1446036469967546939,robocape_mag,-15.15,2.85,-12.45,10.0,0.0,0.0,0.0,10.0,0.0,0.0,0.0,10.0
1446036470005686833,348,1446036470000941038,robocape_mag,-2.55,-10.35,-14.85,10.0,0.0,0.0,0.0,10.0,0.0,0.0,0.0,10.0
1446036470039543208,349,1446036470034252882,robocape_mag,-2.55,-10.35,-14.85,10.0,0.0,0.0,0.0,10.0,0.0,0.0,0.0,10.0
1446036470072519333,350,1446036470067745923,robocape_mag,-2.55,-10.35,-14.85,10.0,0.0,0.0,0.0,10.0,0.0,0.0,0.0,10.0
1446036470105519000,351,1446036470100797891,robocape_mag,-2.55,-10.35,-14.85,10.0,0.0,0.0,0.0,10.0,0.0,0.0,0.0,10.0
1446036470142870625,352,1446036470137741088,robocape_mag,-2.55,-10.35,-14.85,10.0,0.0,0.0,0.0,10.0,0.0,0.0,0.0,10.0
1446036470172453917,353,1446036470167717933,robocape_mag,-17.55,-29.55,-16.65,10.0,0.0,0.0,0.0,10.0,0.0,0.0,0.0,10.0
1446036470205834917,354,1446036470200794935,robocape_mag,-17.55,-29.55,-16.65,10.0,0.0,0.0,0.0,10.0,0.0,0.0,0.0,10.0
1446036470239319125,355,1446036470234420061,robocape_mag,-17.55,-29.55,-16.65,10.0,0.0,0.0,0.0,10.0,0.0,0.0,0.0,10.0
1446036470281683292,356,1446036470268767118,robocape_mag,-17.55,-29.55,-16.65,10.0,0.0,0.0,0.0,10.0,0.0,0.0,0.0,10.0
1446036470306417750,357,1446036470301485061,robocape_mag,-33.45,-9.45,-18.15,10.0,0.0,0.0,0.0,10.0,0.0,0.0,0.0,10.0
1446036470339329584,358,1446036470334314107,robocape_mag,-33.45,-9.45,-18.15,10.0,0.0,0.0,0.0,10.0,0.0,0.0,0.0,10.0
1446036470372598000,359,1446036470367681980,robocape_mag,-33.45,-9.45,-18.15,10.0,0.0,0.0,0.0,10.0,0.0,0.0,0.0,10.0
1446036470405712875,360,1446036470400888919,robocape_mag,-33.45,-9.45,-18.15,10.0,0.0,0.0,0.0,10.0,0.0,0.0,0.0,10.0
1446036470439486875,361,1446036470434505939,robocape_mag,-33.45,-9.45,-18.15,10.0,0.0,0.0,0.0,10.0,0.0,0.0,0.0,10.0
1446036470473955917,362,1446036470469149112,robocape_mag,-18.75,-25.35,-22.05,10.0,0.0,0.0,0.0,10.0,0.0,0.0,0.0,10.0
1446036470506968917,363,1446036470502018928,robocape_mag,-18.75,-25.35,-22.05,10.0,0.0,0.0,0.0,10.0,0.0,0.0,0.0,10.0
1446036470540739084,364,1446036470535906076,robocape_mag,-18.75,-25.35,-22.05,10.0,0.0,0.0,0.0,10.0,0.0,0.0,0.0,10.0
1446036470573839209,365,1446036470569091081,robocape_mag,-18.75,-25.35,-22.05,10.0,0.0,0.0,0.0,10.0,0.0,0.0,0.0,10.0
1446036470607406792,366,1446036470602297067,robocape_mag,-18.75,-25.35,-22.05,10.0,0.0,0.0,0.0,10.0,0.0,0.0,0.0,10.0
1446036470640899209,367,1446036470635838985,robocape_mag,-17.85,-8.25,-19.35,10.0,0.0,0.0,0.0,10.0,0.0,0.0,0.0,10.0
1446036470674425750,368,1446036470669547080,robocape_mag,-17.85,-8.25,-19.35,10.0,0.0,0.0,0.0,10.0,0.0,0.0,0.0,10.0
1446036470707295542,369,1446036470702450037,robocape_mag,-17.85,-8.25,-19.35,10.0,0.0,0.0,0.0,10.0,0.0,0.0,0.0,10.0
1446036470740967167,370,1446036470735934972,robocape_mag,-17.85,-8.25,-19.35,10.0,0.0,0.0,0.0,10.0,0.0,0.0,0.0,10.0
1446036470779600125,371,1446036470773673057,robocape_mag,-17.85,-8.25,-19.35,10.0,0.0,0.0,0.0,10.0,0.0,0.0,0.0,10.0
1446036470816081334,372,1446036470803142070,robocape_mag,-24.75,-19.95,-14.85,10.0,0.0,0.0,0.0,10.0,0.0,0.0,0.0,10.0
1446036470845040792,373,1446036470838628053,robocape_mag,-24.75,-19.95,-14.85,10.0,0.0,0.0,0.0,10.0,0.0,0.0,0.0,10.0
1446036470876183542,374,1446036470871332883,robocape_mag,-24.75,-19.95,-14.85,10.0,0.0,0.0,0.0,10.0,0.0,0.0,0.0,10.0
1446036470913141292,375,1446036470904334068,robocape_mag,-24.75,-19.95,-14.85,10.0,0.0,0.0,0.0,10.0,0.0,0.0,0.0,10.0
1446036470943290376,376,1446036470937191009,robocape_mag,-24.75,-19.95,-14.85,10.0,0.0,0.0,0.0,10.0,0.0,0.0,0.0,10.0
1446036470980395209,377,1446036470970772981,robocape_mag,8.25,-12.75,-10.05,10.0,0.0,0.0,0.0,10.0,0.0,0.0,0.0,10.0
1446036471010218417,378,1446036471004982948,robocape_mag,8.25,-12.75,-10.05,10.0,0.0,0.0,0.0,10.0,0.0,0.0,0.0,10.0
1446036471043406459,379,1446036471038072109,robocape_mag,8.25,-12.75,-10.05,10.0,0.0,0.0,0.0,10.0,0.0,0.0,0.0,10.0
1446036471072260042,380,1446036471067495107,robocape_mag,8.25,-12.75,-10.05,10.0,0.0,0.0,0.0,10.0,0.0,0.0,0.0,10.0
1446036471105957417,381,1446036471100935935,robocape_mag,-55.65,-17.25,-11.55,10.0,0.0,0.0,0.0,10.0,0.0,0.0,0.0,10.0
1446036471148226501,382,1446036471139115095,robocape_mag,21.15,-17.25,-11.55,10.0,0.0,0.0,0.0,10.0,0.0,0.0,0.0,10.0
1446036471176269459,383,1446036471170989990,robocape_mag,21.15,-17.25,-11.55,10.0,0.0,0.0,0.0,10.0,0.0,0.0,0.0,10.0
1446036471209099376,384,1446036471203988075,robocape_mag,21.15,-17.25,-11.55,10.0,0.0,0.0,0.0,10.0,0.0,0.0,0.0,10.0
1446036471242050917,385,1446036471236737012,robocape_mag,21.15,-17.25,-11.55,10.0,0.0,0.0,0.0,10.0,0.0,0.0,0.0,10.0
1446036471283301959,386,1446036471272011041,robocape_mag,11.55,-16.05,-12.75,10.0,0.0,0.0,0.0,10.0,0.0,0.0,0.0,10.0
1446036471306021084,387,1446036471300885915,robocape_mag,11.55,-16.05,-12.75,10.0,0.0,0.0,0.0,10.0,0.0,0.0,0.0,10.0
1446036471339959834,388,1446036471334804058,robocape_mag,11.55,-16.05,-12.75,10.0,0.0,0.0,0.0,10.0,0.0,0.0,0.0,10.0
1446036471372894376,389,1446036471367753028,robocape_mag,11.55,-16.05,-12.75,10.0,0.0,0.0,0.0,10.0,0.0,0.0,0.0,10.0
1446036471406084292,390,1446036471400913000,robocape_mag,11.55,-16.05,-12.75,10.0,0.0,0.0,0.0,10.0,0.0,0.0,0.0,10.0
1446036471439698584,391,1446036471434618949,robocape_mag,-25.95,-9.75,-15.45,10.0,0.0,0.0,0.0,10.0,0.0,0.0,0.0,10.0
1446036471472600126,392,1446036471467679977,robocape_mag,-25.95,-9.75,-15.45,10.0,0.0,0.0,0.0,10.0,0.0,0.0,0.0,10.0
1446036471505988751,393,1446036471501051902,robocape_mag,-25.95,-9.75,-15.45,10.0,0.0,0.0,0.0,10.0,0.0,0.0,0.0,10.0
1446036471539563418,394,1446036471534569978,robocape_mag,-25.95,-9.75,-15.45,10.0,0.0,0.0,0.0,10.0,0.0,0.0,0.0,10.0
1446036471572493959,395,1446036471567737102,robocape_mag,-25.95,-9.75,-15.45,10.0,0.0,0.0,0.0,10.0,0.0,0.0,0.0,10.0
1446036471605899084,396,1446036471600963115,robocape_mag,-22.05,-19.65,-22.95,10.0,0.0,0.0,0.0,10.0,0.0,0.0,0.0,10.0
1446036471642040751,397,1446036471637078046,robocape_mag,-22.05,-19.65,-22.95,10.0,0.0,0.0,0.0,10.0,0.0,0.0,0.0,10.0
1446036471673016001,398,1446036471668109893,robocape_mag,-22.05,-19.65,-22.95,10.0,0.0,0.0,0.0,10.0,0.0,0.0,0.0,10.0
1446036471706946168,399,1446036471702069044,robocape_mag,-22.05,-19.65,-22.95,10.0,0.0,0.0,0.0,10.0,0.0,0.0,0.0,10.0
1446036471745977043,400,1446036471739913940,robocape_mag,-22.05,-13.95,-22.05,10.0,0.0,0.0,0.0,10.0,0.0,0.0,0.0,10.0
1446036471774304043,401,1446036471768949985,robocape_mag,-38.55,-13.95,-22.05,10.0,0.0,0.0,0.0,10.0,0.0,0.0,0.0,10.0
1446036471807632001,402,1446036471802577972,robocape_mag,-38.55,-13.95,-22.05,10.0,0.0,0.0,0.0,10.0,0.0,0.0,0.0,10.0
1446036471842428626,403,1446036471837218046,robocape_mag,-38.55,-13.95,-22.05,10.0,0.0,0.0,0.0,10.0,0.0,0.0,0.0,10.0
1446036471875069251,404,1446036471869426012,robocape_mag,-38.55,-13.95,-22.05,10.0,0.0,0.0,0.0,10.0,0.0,0.0,0.0,10.0
1446036471910196418,405,1446036471905390977,robocape_mag,-8.25,5.55,-7.35,10.0,0.0,0.0,0.0,10.0,0.0,0.0,0.0,10.0
1446036471941378959,406,1446036471935811042,robocape_mag,-8.25,5.55,-7.35,10.0,0.0,0.0,0.0,10.0,0.0,0.0,0.0,10.0
1446036471974090668,407,1446036471969238996,robocape_mag,-8.25,5.55,-7.35,10.0,0.0,0.0,0.0,10.0,0.0,0.0,0.0,10.0
1446036472010305376,408,1446036472002747058,robocape_mag,-8.25,5.55,-7.35,10.0,0.0,0.0,0.0,10.0,0.0,0.0,0.0,10.0
1446036472044639084,409,1446036472038395881,robocape_mag,-8.25,5.55,-7.35,10.0,0.0,0.0,0.0,10.0,0.0,0.0,0.0,10.0
1446036472081876584,410,1446036472071192979,robocape_mag,10.05,-10.95,-9.45,10.0,0.0,0.0,0.0,10.0,0.0,0.0,0.0,10.0
1446036472111791209,411,1446036472104381084,robocape_mag,10.05,-10.95,-9.45,10.0,0.0,0.0,0.0,10.0,0.0,0.0,0.0,10.0
1446036472144970418,412,1446036472138057947,robocape_mag,10.05,-10.95,-9.45,10.0,0.0,0.0,0.0,10.0,0.0,0.0,0.0,10.0
1446036472176864209,413,1446036472171823024,robocape_mag,10.05,-10.95,-9.45,10.0,0.0,0.0,0.0,10.0,0.0,0.0,0.0,10.0
1446036472210019418,414,1446036472204920053,robocape_mag,10.05,-10.95,-9.45,10.0,0.0,0.0,0.0,10.0,0.0,0.0,0.0,10.0
1446036472248117251,415,1446036472237946033,robocape_mag,7.35,-1.05,-7.95,10.0,0.0,0.0,0.0,10.0,0.0,0.0,0.0,10.0
1446036472286760876,416,1446036472272892951,robocape_mag,7.35,-1.05,-7.95,10.0,0.0,0.0,0.0,10.0,0.0,0.0,0.0,10.0
1446036472308753126,417,1446036472303705930,robocape_mag,7.35,-1.05,-7.95,10.0,0.0,0.0,0.0,10.0,0.0,0.0,0.0,10.0
1446036472343931835,418,1446036472338743925,robocape_mag,7.35,-1.05,-7.95,10.0,0.0,0.0,0.0,10.0,0.0,0.0,0.0,10.0
1446036472376525043,419,1446036472371057987,robocape_mag,7.35,-1.05,-7.95,10.0,0.0,0.0,0.0,10.0,0.0,0.0,0.0,10.0
1446036472408546835,420,1446036472403383016,robocape_mag,-6.75,-25.35,-13.05,10.0,0.0,0.0,0.0,10.0,0.0,0.0,0.0,10.0
1446036472443608126,421,1446036472437457084,robocape_mag,-6.75,-25.35,-13.05,10.0,0.0,0.0,0.0,10.0,0.0,0.0,0.0,10.0
1446036472476167835,422,1446036472470817089,robocape_mag,-6.75,-25.35,-13.05,10.0,0.0,0.0,0.0,10.0,0.0,0.0,0.0,10.0
1446036472508070918,423,1446036472503062009,robocape_mag,-6.75,-25.35,-13.05,10.0,0.0,0.0,0.0,10.0,0.0,0.0,0.0,10.0
1446036472541887376,424,1446036472536993026,robocape_mag,-6.75,-25.35,-13.05,10.0,0.0,0.0,0.0,10.0,0.0,0.0,0.0,10.0
1446036472575755043,425,1446036472569952011,robocape_mag,-29.85,-26.85,-22.95,10.0,0.0,0.0,0.0,10.0,0.0,0.0,0.0,10.0
1446036472608170085,426,1446036472603128910,robocape_mag,-29.85,-26.85,-22.95,10.0,0.0,0.0,0.0,10.0,0.0,0.0,0.0,10.0
1446036472641178710,427,1446036472636329889,robocape_mag,-29.85,-26.85,-22.95,10.0,0.0,0.0,0.0,10.0,0.0,0.0,0.0,10.0
1446036472673971001,428,1446036472669217109,robocape_mag,-29.85,-26.85,-22.95,10.0,0.0,0.0,0.0,10.0,0.0,0.0,0.0,10.0
1446036472706668126,429,1446036472701715946,robocape_mag,-42.75,-16.95,-23.25,10.0,0.0,0.0,0.0,10.0,0.0,0.0,0.0,10.0
1446036472739934585,430,1446036472734999895,robocape_mag,-42.75,-16.95,-23.25,10.0,0.0,0.0,0.0,10.0,0.0,0.0,0.0,10.0
1446036472773254793,431,1446036472768110990,robocape_mag,-42.75,-16.95,-23.25,10.0,0.0,0.0,0.0,10.0,0.0,0.0,0.0,10.0
1446036472806044335,432,1446036472801259040,robocape_mag,-42.75,-16.95,-23.25,10.0,0.0,0.0,0.0,10.0,0.0,0.0,0.0,10.0
1446036472840065543,433,1446036472835009098,robocape_mag,-42.75,-16.95,-23.25,10.0,0.0,0.0,0.0,10.0,0.0,0.0,0.0,10.0
1446036472873221043,434,1446036472868446111,robocape_mag,-32.25,-16.05,-19.95,10.0,0.0,0.0,0.0,10.0,0.0,0.0,0.0,10.0
1446036472906010918,435,1446036472901185035,robocape_mag,-32.25,-16.05,-19.95,10.0,0.0,0.0,0.0,10.0,0.0,0.0,0.0,10.0
1446036472938958502,436,1446036472934088945,robocape_mag,-32.25,-16.05,-19.95,10.0,0.0,0.0,0.0,10.0,0.0,0.0,0.0,10.0
1446036472972331127,437,1446036472967639923,robocape_mag,-32.25,-16.05,-19.95,10.0,0.0,0.0,0.0,10.0,0.0,0.0,0.0,10.0
1446036473005814127,438,1446036473000981092,robocape_mag,-32.25,-16.05,-19.95,10.0,0.0,0.0,0.0,10.0,0.0,0.0,0.0,10.0
1446036473039124960,439,1446036473034280061,robocape_mag,-31.35,2.25,-14.85,10.0,0.0,0.0,0.0,10.0,0.0,0.0,0.0,10.0
1446036473072494002,440,1446036473067742109,robocape_mag,-31.35,2.25,-14.85,10.0,0.0,0.0,0.0,10.0,0.0,0.0,0.0,10.0
1446036473105782960,441,1446036473100855112,robocape_mag,-31.35,2.25,-14.85,10.0,0.0,0.0,0.0,10.0,0.0,0.0,0.0,10.0
1446036473139981877,442,1446036473134171962,robocape_mag,-31.35,2.25,-14.85,10.0,0.0,0.0,0.0,10.0,0.0,0.0,0.0,10.0
1446036473173827627,443,1446036473167509078,robocape_mag,-31.35,2.25,-14.85,10.0,0.0,0.0,0.0,10.0,0.0,0.0,0.0,10.0
1446036473205888752,444,1446036473200917005,robocape_mag,-20.55,13.05,-10.05,10.0,0.0,0.0,0.0,10.0,0.0,0.0,0.0,10.0
1446036473240240085,445,1446036473234221935,robocape_mag,-20.55,13.05,-10.05,10.0,0.0,0.0,0.0,10.0,0.0,0.0,0.0,10.0
1446036473277349293,446,1446036473267585039,robocape_mag,-20.55,13.05,-10.05,10.0,0.0,0.0,0.0,10.0,0.0,0.0,0.0,10.0
1446036473306734210,447,1446036473301714897,robocape_mag,-20.55,13.05,-10.05,10.0,0.0,0.0,0.0,10.0,0.0,0.0,0.0,10.0
1446036473344345418,448,1446036473339258909,robocape_mag,-20.55,13.05,-10.05,10.0,0.0,0.0,0.0,10.0,0.0,0.0,0.0,10.0
1446036473372304752,449,1446036473367427110,robocape_mag,-16.35,-11.55,-10.05,10.0,0.0,0.0,0.0,10.0,0.0,0.0,0.0,10.0
1446036473405550002,450,1446036473400824069,robocape_mag,-16.35,-11.55,-10.05,10.0,0.0,0.0,0.0,10.0,0.0,0.0,0.0,10.0
1446036473443099793,451,1446036473434158086,robocape_mag,-16.35,-11.55,-10.05,10.0,0.0,0.0,0.0,10.0,0.0,0.0,0.0,10.0
1446036473472457918,452,1446036473467717885,robocape_mag,-16.35,-11.55,-10.05,10.0,0.0,0.0,0.0,10.0,0.0,0.0,0.0,10.0
1446036473505796752,453,1446036473500991106,robocape_mag,4.35,-17.25,-6.15,10.0,0.0,0.0,0.0,10.0,0.0,0.0,0.0,10.0
1446036473539992460,454,1446036473534202098,robocape_mag,4.35,-17.25,-6.15,10.0,0.0,0.0,0.0,10.0,0.0,0.0,0.0,10.0
1446036473572329960,455,1446036473567622900,robocape_mag,4.35,-17.25,-6.15,10.0,0.0,0.0,0.0,10.0,0.0,0.0,0.0,10.0
1446036473605831377,456,1446036473601064920,robocape_mag,4.35,-17.25,-6.15,10.0,0.0,0.0,0.0,10.0,0.0,0.0,0.0,10.0
1446036473639894502,457,1446036473634082078,robocape_mag,4.35,-17.25,-6.15,10.0,0.0,0.0,0.0,10.0,0.0,0.0,0.0,10.0
1446036473672824044,458,1446036473667726993,robocape_mag,-11.55,10.65,-10.05,10.0,0.0,0.0,0.0,10.0,0.0,0.0,0.0,10.0
1446036473705664627,459,1446036473700913906,robocape_mag,-11.55,10.65,-10.05,10.0,0.0,0.0,0.0,10.0,0.0,0.0,0.0,10.0
1446036473739231127,460,1446036473734090089,robocape_mag,-11.55,10.65,-10.05,10.0,0.0,0.0,0.0,10.0,0.0,0.0,0.0,10.0
1446036473772850960,461,1446036473767661094,robocape_mag,-11.55,10.65,-10.05,10.0,0.0,0.0,0.0,10.0,0.0,0.0,0.0,10.0
1446036473806041085,462,1446036473801078081,robocape_mag,-11.55,10.65,-10.05,10.0,0.0,0.0,0.0,10.0,0.0,0.0,0.0,10.0
1446036473839648919,463,1446036473834300041,robocape_mag,-21.75,-18.75,-10.65,10.0,0.0,0.0,0.0,10.0,0.0,0.0,0.0,10.0
1446036473872551710,464,1446036473867743015,robocape_mag,-21.75,-18.75,-10.65,10.0,0.0,0.0,0.0,10.0,0.0,0.0,0.0,10.0
1446036473905963710,465,1446036473901179075,robocape_mag,-21.75,-18.75,-10.65,10.0,0.0,0.0,0.0,10.0,0.0,0.0,0.0,10.0
1446036473939632627,466,1446036473934410095,robocape_mag,-21.75,-18.75,-10.65,10.0,0.0,0.0,0.0,10.0,0.0,0.0,0.0,10.0
1446036473972767794,467,1446036473967952013,robocape_mag,-21.75,-18.75,-10.65,10.0,0.0,0.0,0.0,10.0,0.0,0.0,0.0,10.0
1446036474007047335,468,1446036474002171039,robocape_mag,-17.55,-6.15,-20.25,10.0,0.0,0.0,0.0,10.0,0.0,0.0,0.0,10.0
1446036474040754752,469,1446036474035418033,robocape_mag,-17.55,-6.15,-20.25,10.0,0.0,0.0,0.0,10.0,0.0,0.0,0.0,10.0
1446036474073386002,470,1446036474068486928,robocape_mag,-17.55,-6.15,-20.25,10.0,0.0,0.0,0.0,10.0,0.0,0.0,0.0,10.0
1446036474106984669,471,1446036474102159976,robocape_mag,-17.55,-6.15,-20.25,10.0,0.0,0.0,0.0,10.0,0.0,0.0,0.0,10.0
1446036474140816377,472,1446036474135519027,robocape_mag,-17.55,-6.15,-20.25,10.0,0.0,0.0,0.0,10.0,0.0,0.0,0.0,10.0
1446036474173970710,473,1446036474169130086,robocape_mag,-49.95,-4.95,-29.85,10.0,0.0,0.0,0.0,10.0,0.0,0.0,0.0,10.0
1446036474207512085,474,1446036474202570915,robocape_mag,-49.95,-4.95,-29.85,10.0,0.0,0.0,0.0,10.0,0.0,0.0,0.0,10.0
1446036474247328460,475,1446036474242141008,robocape_mag,-49.95,-4.95,-29.85,10.0,0.0,0.0,0.0,10.0,0.0,0.0,0.0,10.0
1446036474282279669,476,1446036474269412994,robocape_mag,-49.95,-4.95,-29.85,10.0,0.0,0.0,0.0,10.0,0.0,0.0,0.0,10.0
1446036474310407835,477,1446036474302704095,robocape_mag,-41.55,8.85,-19.65,10.0,0.0,0.0,0.0,10.0,0.0,0.0,0.0,10.0
1446036474349004169,478,1446036474338238954,robocape_mag,-41.55,8.85,-19.65,10.0,0.0,0.0,0.0,10.0,0.0,0.0,0.0,10.0
1446036474375039836,479,1446036474368465900,robocape_mag,-41.55,8.85,-19.65,10.0,0.0,0.0,0.0,10.0,0.0,0.0,0.0,10.0
1446036474415375586,480,1446036474403939962,robocape_mag,-41.55,8.85,-19.65,10.0,0.0,0.0,0.0,10.0,0.0,0.0,0.0,10.0
1446036474443693169,481,1446036474437442064,robocape_mag,-41.55,8.85,-19.65,10.0,0.0,0.0,0.0,10.0,0.0,0.0,0.0,10.0
1446036474474605336,482,1446036474469715118,robocape_mag,-15.15,-3.15,-14.25,10.0,0.0,0.0,0.0,10.0,0.0,0.0,0.0,10.0
1446036474509548127,483,1446036474504314899,robocape_mag,-15.15,-3.15,-14.25,10.0,0.0,0.0,0.0,10.0,0.0,0.0,0.0,10.0
1446036474543803461,484,1446036474538187980,robocape_mag,-15.15,-3.15,-14.25,10.0,0.0,0.0,0.0,10.0,0.0,0.0,0.0,10.0
1446036474575751169,485,1446036474570719003,robocape_mag,-15.15,-3.15,-14.25,10.0,0.0,0.0,0.0,10.0,0.0,0.0,0.0,10.0
1446036474613293877,486,1446036474604262113,robocape_mag,-15.15,-3.15,-14.25,10.0,0.0,0.0,0.0,10.0,0.0,0.0,0.0,10.0
1446036474642027211,487,1446036474636883974,robocape_mag,-34.95,-0.75,-17.25,10.0,0.0,0.0,0.0,10.0,0.0,0.0,0.0,10.0
1446036474675753377,488,1446036474670666933,robocape_mag,-34.95,-0.75,-17.25,10.0,0.0,0.0,0.0,10.0,0.0,0.0,0.0,10.0
1446036474712831127,489,1446036474703982114,robocape_mag,-34.95,-0.75,-17.25,10.0,0.0,0.0,0.0,10.0,0.0,0.0,0.0,10.0
1446036474741659877,490,1446036474736438989,robocape_mag,-34.95,-0.75,-17.25,10.0,0.0,0.0,0.0,10.0,0.0,0.0,0.0,10.0
1446036474778918961,491,1446036474770133018,robocape_mag,-34.95,-0.75,-17.25,10.0,0.0,0.0,0.0,10.0,0.0,0.0,0.0,10.0
1446036474808140961,492,1446036474803025007,robocape_mag,-45.75,8.25,-24.45,10.0,0.0,0.0,0.0,10.0,0.0,0.0,0.0,10.0
1446036474842659502,493,1446036474837829113,robocape_mag,-45.75,8.25,-24.45,10.0,0.0,0.0,0.0,10.0,0.0,0.0,0.0,10.0
1446036474874751377,494,1446036474869980096,robocape_mag,-45.75,8.25,-24.45,10.0,0.0,0.0,0.0,10.0,0.0,0.0,0.0,10.0
1446036474908954211,495,1446036474904114961,robocape_mag,-45.75,8.25,-24.45,10.0,0.0,0.0,0.0,10.0,0.0,0.0,0.0,10.0
1446036474941832127,496,1446036474937048912,robocape_mag,-45.75,8.25,-24.45,10.0,0.0,0.0,0.0,10.0,0.0,0.0,0.0,10.0
1446036474977632586,497,1446036474969345092,robocape_mag,-49.65,15.15,-30.75,10.0,0.0,0.0,0.0,10.0,0.0,0.0,0.0,10.0
1446036475007529044,498,1446036475002715110,robocape_mag,-49.65,15.15,-30.75,10.0,0.0,0.0,0.0,10.0,0.0,0.0,0.0,10.0
1446036475040539878,499,1446036475035654067,robocape_mag,-49.65,15.15,-30.75,10.0,0.0,0.0,0.0,10.0,0.0,0.0,0.0,10.0
1446036475073575794,500,1446036475068717956,robocape_mag,-49.65,15.15,-30.75,10.0,0.0,0.0,0.0,10.0,0.0,0.0,0.0,10.0
1446036475105723419,501,1446036475100805044,robocape_mag,-25.35,7.05,-22.65,10.0,0.0,0.0,0.0,10.0,0.0,0.0,0.0,10.0
1446036475139025086,502,1446036475134324073,robocape_mag,-25.35,7.05,-22.65,10.0,0.0,0.0,0.0,10.0,0.0,0.0,0.0,10.0
1446036475173284211,503,1446036475168356895,robocape_mag,-25.35,7.05,-22.65,10.0,0.0,0.0,0.0,10.0,0.0,0.0,0.0,10.0
1446036475206411503,504,1446036475201257944,robocape_mag,-25.35,7.05,-22.65,10.0,0.0,0.0,0.0,10.0,0.0,0.0,0.0,10.0
1446036475238763003,505,1446036475234105110,robocape_mag,-25.35,7.05,-22.65,10.0,0.0,0.0,0.0,10.0,0.0,0.0,0.0,10.0
1446036475280772044,506,1446036475267592906,robocape_mag,-47.85,4.95,-28.95,10.0,0.0,0.0,0.0,10.0,0.0,0.0,0.0,10.0
1446036475306314711,507,1446036475301326990,robocape_mag,-47.85,4.95,-28.95,10.0,0.0,0.0,0.0,10.0,0.0,0.0,0.0,10.0
1446036475339548003,508,1446036475334767103,robocape_mag,-47.85,4.95,-28.95,10.0,0.0,0.0,0.0,10.0,0.0,0.0,0.0,10.0
1446036475372731794,509,1446036475367877006,robocape_mag,-47.85,4.95,-28.95,10.0,0.0,0.0,0.0,10.0,0.0,0.0,0.0,10.0
1446036475405828044,510,1446036475401079893,robocape_mag,-47.85,4.95,-28.95,10.0,0.0,0.0,0.0,10.0,0.0,0.0,0.0,10.0
1446036475439111044,511,1446036475434343099,robocape_mag,-35.55,0.45,-32.85,10.0,0.0,0.0,0.0,10.0,0.0,0.0,0.0,10.0
1446036475472574336,512,1446036475467804908,robocape_mag,-35.55,0.45,-32.85,10.0,0.0,0.0,0.0,10.0,0.0,0.0,0.0,10.0
1446036475505952586,513,1446036475501074075,robocape_mag,-35.55,0.45,-32.85,10.0,0.0,0.0,0.0,10.0,0.0,0.0,0.0,10.0
1446036475539190669,514,1446036475534395933,robocape_mag,-35.55,0.45,-32.85,10.0,0.0,0.0,0.0,10.0,0.0,0.0,0.0,10.0
1446036475572672836,515,1446036475567858934,robocape_mag,-35.55,0.45,-32.85,10.0,0.0,0.0,0.0,10.0,0.0,0.0,0.0,10.0
1446036475605905753,516,1446036475600867033,robocape_mag,-44.25,27.75,-31.35,10.0,0.0,0.0,0.0,10.0,0.0,0.0,0.0,10.0
1446036475639261586,517,1446036475634483098,robocape_mag,-44.25,27.75,-31.35,10.0,0.0,0.0,0.0,10.0,0.0,0.0,0.0,10.0
