%time,field.header.seq,field.header.stamp,field.header.frame_id,field.magnetic_field.x,field.magnetic_field.y,field.magnetic_field.z,field.magnetic_field_covariance0,field.magnetic_field_covariance1,field.magnetic_field_covariance2,field.magnetic_field_covariance3,field.magnetic_field_covariance4,field.magnetic_field_covariance5,field.magnetic_field_covariance6,field.magnetic_field_covariance7,field.magnetic_field_covariance8
1446038728136122540,1,1446038728131216049,robocape_mag,22.65,7.05,5.25,10.0,0.0,0.0,0.0,10.0,0.0,0.0,0.0,10.0
1446038728169213956,2,1446038728164594888,robocape_mag,22.65,7.05,5.25,10.0,0.0,0.0,0.0,10.0,0.0,0.0,0.0,10.0
1446038728203198873,3,1446038728198260068,robocape_mag,22.65,7.05,5.25,10.0,0.0,0.0,0.0,10.0,0.0,0.0,0.0,10.0
1446038728236104373,4,1446038728231300115,robocape_mag,25.05,7.65,6.45,10.0,0.0,0.0,0.0,10.0,0.0,0.0,0.0,10.0
1446038728269200581,5,1446038728264394998,robocape_mag,25.05,7.65,6.45,10.0,0.0,0.0,0.0,10.0,0.0,0.0,0.0,10.0
1446038728303190831,6,1446038728298312902,robocape_mag,25.05,7.65,6.45,10.0,0.0,0.0,0.0,10.0,0.0,0.0,0.0,10.0
1446038728336921040,7,1446038728331284999,robocape_mag,25.05,7.65,6.45,10.0,0.0,0.0,0.0,10.0,0.0,0.0,0.0,10.0
1446038728369187415,8,1446038728364342927,robocape_mag,25.05,7.65,6.45,10.0,0.0,0.0,0.0,10.0,0.0,0.0,0.0,10.0
1446038728403096540,9,1446038728398212909,robocape_mag,30.45,2.85,3.45,10.0,0.0,0.0,0.0,10.0,0.0,0.0,0.0,10.0
1446038728436348081,10,1446038728431502103,robocape_mag,30.45,2.85,3.45,10.0,0.0,0.0,0.0,10.0,0.0,0.0,0.0,10.0
1446038728469627956,11,1446038728464449882,robocape_mag,30.45,2.85,3.45,10.0,0.0,0.0,0.0,10.0,0.0,0.0,0.0,10.0
1446038728502967873,12,1446038728498166084,robocape_mag,30.45,2.85,3.45,10.0,0.0,0.0,0.0,10.0,0.0,0.0,0.0,10.0
1446038728536709831,13,1446038728531485080,robocape_mag,30.45,2.85,3.45,10.0,0.0,0.0,0.0,10.0,0.0,0.0,0.0,10.0
1446038728569592831,14,1446038728564795017,robocape_mag,28.65,-1.35,2.85,10.0,0.0,0.0,0.0,10.0,0.0,0.0,0.0,10.0
1446038728603157790,15,1446038728598275899,robocape_mag,28.65,-1.35,2.85,10.0,0.0,0.0,0.0,10.0,0.0,0.0,0.0,10.0
1446038728636003915,16,1446038728631227016,robocape_mag,28.65,-1.35,2.85,10.0,0.0,0.0,0.0,10.0,0.0,0.0,0.0,10.0
1446038728669274748,17,1446038728664431095,robocape_mag,28.65,-1.35,2.85,10.0,0.0,0.0,0.0,10.0,0.0,0.0,0.0,10.0
1446038728703567623,18,1446038728698360919,robocape_mag,28.65,-1.35,2.85,10.0,0.0,0.0,0.0,10.0,0.0,0.0,0.0,10.0
1446038728737787540,19,1446038728732630968,robocape_mag,26.85,-10.95,4.65,10.0,0.0,0.0,0.0,10.0,0.0,0.0,0.0,10.0
1446038728769321748,20,1446038728764309883,robocape_mag,26.85,-10.95,4.65,10.0,0.0,0.0,0.0,10.0,0.0,0.0,0.0,10.0
1446038728810244040,21,1446038728805253028,robocape_mag,26.85,-10.95,4.65,10.0,0.0,0.0,0.0,10.0,0.0,0.0,0.0,10.0
1446038728835658748,22,1446038728831008911,robocape_mag,26.85,-10.95,4.65,10.0,0.0,0.0,0.0,10.0,0.0,0.0,0.0,10.0
1446038728869373707,23,1446038728864335060,robocape_mag,20.25,-15.15,6.45,10.0,0.0,0.0,0.0,10.0,0.0,0.0,0.0,10.0
1446038728902965623,24,1446038728898067951,robocape_mag,20.25,-15.15,6.45,10.0,0.0,0.0,0.0,10.0,0.0,0.0,0.0,10.0
1446038728936087082,25,1446038728931402921,robocape_mag,20.25,-15.15,6.45,10.0,0.0,0.0,0.0,10.0,0.0,0.0,0.0,10.0
1446038728969774998,26,1446038728964435100,robocape_mag,20.25,-15.15,6.45,10.0,0.0,0.0,0.0,10.0,0.0,0.0,0.0,10.0
1446038729003206040,27,1446038728998321056,robocape_mag,20.25,-15.15,6.45,10.0,0.0,0.0,0.0,10.0,0.0,0.0,0.0,10.0
1446038729036781040,28,1446038729031414031,robocape_mag,16.65,-12.75,8.85,10.0,0.0,0.0,0.0,10.0,0.0,0.0,0.0,10.0
1446038729077085248,29,1446038729072379112,robocape_mag,16.65,-12.75,8.85,10.0,0.0,0.0,0.0,10.0,0.0,0.0,0.0,10.0
1446038729102884248,30,1446038729098227024,robocape_mag,16.65,-12.75,8.85,10.0,0.0,0.0,0.0,10.0,0.0,0.0,0.0,10.0
1446038729142791582,31,1446038729138196945,robocape_mag,16.65,-12.75,8.85,10.0,0.0,0.0,0.0,10.0,0.0,0.0,0.0,10.0
1446038729169322248,32,1446038729164442062,robocape_mag,16.65,-12.75,8.85,10.0,0.0,0.0,0.0,10.0,0.0,0.0,0.0,10.0
1446038729206742582,33,1446038729201546907,robocape_mag,14.85,-14.55,9.45,10.0,0.0,0.0,0.0,10.0,0.0,0.0,0.0,10.0
1446038729235981457,34,1446038729231329917,robocape_mag,14.85,-14.55,9.45,10.0,0.0,0.0,0.0,10.0,0.0,0.0,0.0,10.0
1446038729279728873,35,1446038729274897098,robocape_mag,14.85,-14.55,9.45,10.0,0.0,0.0,0.0,10.0,0.0,0.0,0.0,10.0
1446038729303296373,36,1446038729298360109,robocape_mag,14.85,-14.55,9.45,10.0,0.0,0.0,0.0,10.0,0.0,0.0,0.0,10.0
1446038729335988665,37,1446038729331119060,robocape_mag,14.85,-14.55,9.45,10.0,0.0,0.0,0.0,10.0,0.0,0.0,0.0,10.0
1446038729369331290,38,1446038729364322900,robocape_mag,13.95,-15.45,7.35,10.0,0.0,0.0,0.0,10.0,0.0,0.0,0.0,10.0
1446038729404119123,39,1446038729398363113,robocape_mag,13.95,-15.45,7.35,10.0,0.0,0.0,0.0,10.0,0.0,0.0,0.0,10.0
1446038729435955457,40,1446038729431201934,robocape_mag,13.95,-15.45,7.35,10.0,0.0,0.0,0.0,10.0,0.0,0.0,0.0,10.0
1446038729469769123,41,1446038729464484930,robocape_mag,13.95,-15.45,7.35,10.0,0.0,0.0,0.0,10.0,0.0,0.0,0.0,10.0
1446038729502786165,42,1446038729498136997,robocape_mag,13.95,-15.45,7.35,10.0,0.0,0.0,0.0,10.0,0.0,0.0,0.0,10.0
1446038729536509832,43,1446038729531203031,robocape_mag,12.15,-13.65,9.15,10.0,0.0,0.0,0.0,10.0,0.0,0.0,0.0,10.0
1446038729569479249,44,1446038729564443111,robocape_mag,12.15,-13.65,9.15,10.0,0.0,0.0,0.0,10.0,0.0,0.0,0.0,10.0
1446038729602916582,45,1446038729598238945,robocape_mag,12.15,-13.65,9.15,10.0,0.0,0.0,0.0,10.0,0.0,0.0,0.0,10.0
1446038729635854082,46,1446038729631123065,robocape_mag,12.15,-13.65,9.15,10.0,0.0,0.0,0.0,10.0,0.0,0.0,0.0,10.0
1446038729669493707,47,1446038729664496898,robocape_mag,11.25,-15.75,5.85,10.0,0.0,0.0,0.0,10.0,0.0,0.0,0.0,10.0
1446038729703069249,48,1446038729698194026,robocape_mag,11.25,-15.75,5.85,10.0,0.0,0.0,0.0,10.0,0.0,0.0,0.0,10.0
1446038729735883582,49,1446038729731117010,robocape_mag,11.25,-15.75,5.85,10.0,0.0,0.0,0.0,10.0,0.0,0.0,0.0,10.0
1446038729769448290,50,1446038729764462947,robocape_mag,11.25,-15.75,5.85,10.0,0.0,0.0,0.0,10.0,0.0,0.0,0.0,10.0
1446038729810468374,51,1446038729805484056,robocape_mag,11.25,-15.75,5.85,10.0,0.0,0.0,0.0,10.0,0.0,0.0,0.0,10.0
1446038729835897915,52,1446038729831316947,robocape_mag,11.25,-16.95,5.25,10.0,0.0,0.0,0.0,10.0,0.0,0.0,0.0,10.0
1446038729869371290,53,1446038729864455938,robocape_mag,11.25,-16.95,5.25,10.0,0.0,0.0,0.0,10.0,0.0,0.0,0.0,10.0
1446038729903212957,54,1446038729898293018,robocape_mag,11.25,-16.95,5.25,10.0,0.0,0.0,0.0,10.0,0.0,0.0,0.0,10.0
1446038729935823957,55,1446038729931128978,robocape_mag,11.25,-16.95,5.25,10.0,0.0,0.0,0.0,10.0,0.0,0.0,0.0,10.0
1446038729969255290,56,1446038729964478015,robocape_mag,11.25,-16.95,5.25,10.0,0.0,0.0,0.0,10.0,0.0,0.0,0.0,10.0
1446038730003240707,57,1446038729998265981,robocape_mag,10.65,-18.75,3.45,10.0,0.0,0.0,0.0,10.0,0.0,0.0,0.0,10.0
1446038730036636249,58,1446038730031239032,robocape_mag,10.65,-18.75,3.45,10.0,0.0,0.0,0.0,10.0,0.0,0.0,0.0,10.0
1446038730069348957,59,1446038730064465999,robocape_mag,10.65,-18.75,3.45,10.0,0.0,0.0,0.0,10.0,0.0,0.0,0.0,10.0
1446038730103174957,60,1446038730098038911,robocape_mag,10.65,-18.75,3.45,10.0,0.0,0.0,0.0,10.0,0.0,0.0,0.0,10.0
1446038730135878582,61,1446038730131134033,robocape_mag,10.65,-18.75,3.45,10.0,0.0,0.0,0.0,10.0,0.0,0.0,0.0,10.0
1446038730170189082,62,1446038730164396047,robocape_mag,12.15,-19.05,4.35,10.0,0.0,0.0,0.0,10.0,0.0,0.0,0.0,10.0
1446038730203260249,63,1446038730198143005,robocape_mag,12.15,-19.05,4.35,10.0,0.0,0.0,0.0,10.0,0.0,0.0,0.0,10.0
1446038730236163874,64,1446038730231215953,robocape_mag,12.15,-19.05,4.35,10.0,0.0,0.0,0.0,10.0,0.0,0.0,0.0,10.0
1446038730269116041,65,1446038730264373064,robocape_mag,12.15,-19.05,4.35,10.0,0.0,0.0,0.0,10.0,0.0,0.0,0.0,10.0
1446038730303584916,66,1446038730298348903,robocape_mag,12.15,-19.05,4.35,10.0,0.0,0.0,0.0,10.0,0.0,0.0,0.0,10.0
1446038730335930374,67,1446038730331091880,robocape_mag,13.35,-21.45,-2.25,10.0,0.0,0.0,0.0,10.0,0.0,0.0,0.0,10.0
1446038730369456791,68,1446038730364623069,robocape_mag,13.35,-21.45,-2.25,10.0,0.0,0.0,0.0,10.0,0.0,0.0,0.0,10.0
1446038730403417957,69,1446038730398226022,robocape_mag,13.35,-21.45,-2.25,10.0,0.0,0.0,0.0,10.0,0.0,0.0,0.0,10.0
1446038730435880082,70,1446038730431178092,robocape_mag,13.35,-21.45,-2.25,10.0,0.0,0.0,0.0,10.0,0.0,0.0,0.0,10.0
1446038730469550249,71,1446038730464762926,robocape_mag,11.85,-34.35,13.65,10.0,0.0,0.0,0.0,10.0,0.0,0.0,0.0,10.0
1446038730503296541,72,1446038730498140096,robocape_mag,11.85,-34.35,13.65,10.0,0.0,0.0,0.0,10.0,0.0,0.0,0.0,10.0
1446038730538420166,73,1446038730532018899,robocape_mag,11.85,-34.35,13.65,10.0,0.0,0.0,0.0,10.0,0.0,0.0,0.0,10.0
1446038730569343249,74,1446038730564369916,robocape_mag,11.85,-34.35,13.65,10.0,0.0,0.0,0.0,10.0,0.0,0.0,0.0,10.0
1446038730603188207,75,1446038730597729921,robocape_mag,11.85,-34.35,13.65,10.0,0.0,0.0,0.0,10.0,0.0,0.0,0.0,10.0
1446038730635565249,76,1446038730630981922,robocape_mag,13.65,-16.95,11.25,10.0,0.0,0.0,0.0,10.0,0.0,0.0,0.0,10.0
1446038730669278457,77,1446038730664541006,robocape_mag,13.65,-16.95,11.25,10.0,0.0,0.0,0.0,10.0,0.0,0.0,0.0,10.0
1446038730703334457,78,1446038730697702884,robocape_mag,13.65,-16.95,11.25,10.0,0.0,0.0,0.0,10.0,0.0,0.0,0.0,10.0
1446038730736542416,79,1446038730731693029,robocape_mag,13.65,-16.95,11.25,10.0,0.0,0.0,0.0,10.0,0.0,0.0,0.0,10.0
1446038730769424999,80,1446038730764442920,robocape_mag,13.65,-16.95,11.25,10.0,0.0,0.0,0.0,10.0,0.0,0.0,0.0,10.0
1446038730809658624,81,1446038730804877996,robocape_mag,13.35,-32.25,21.15,10.0,0.0,0.0,0.0,10.0,0.0,0.0,0.0,10.0
1446038730835758249,82,1446038730831080913,robocape_mag,13.35,-32.25,21.15,10.0,0.0,0.0,0.0,10.0,0.0,0.0,0.0,10.0
1446038730869378916,83,1446038730864483118,robocape_mag,13.35,-32.25,21.15,10.0,0.0,0.0,0.0,10.0,0.0,0.0,0.0,10.0
1446038730903556916,84,1446038730897896051,robocape_mag,13.35,-32.25,21.15,10.0,0.0,0.0,0.0,10.0,0.0,0.0,0.0,10.0
1446038730935741958,85,1446038730931158065,robocape_mag,13.35,-32.25,21.15,10.0,0.0,0.0,0.0,10.0,0.0,0.0,0.0,10.0
1446038730969393499,86,1446038730964644908,robocape_mag,16.05,-12.75,1.65,10.0,0.0,0.0,0.0,10.0,0.0,0.0,0.0,10.0
1446038731003522666,87,1446038730997864961,robocape_mag,16.05,-12.75,1.65,10.0,0.0,0.0,0.0,10.0,0.0,0.0,0.0,10.0
1446038731036165291,88,1446038731031128883,robocape_mag,16.05,-12.75,1.65,10.0,0.0,0.0,0.0,10.0,0.0,0.0,0.0,10.0
1446038731069551833,89,1446038731064619064,robocape_mag,16.05,-12.75,1.65,10.0,0.0,0.0,0.0,10.0,0.0,0.0,0.0,10.0
1446038731103567958,90,1446038731097814083,robocape_mag,16.05,-12.75,1.65,10.0,0.0,0.0,0.0,10.0,0.0,0.0,0.0,10.0
1446038731135754499,91,1446038731131102085,robocape_mag,14.55,-30.45,7.95,10.0,0.0,0.0,0.0,10.0,0.0,0.0,0.0,10.0
1446038731169029624,92,1446038731164402961,robocape_mag,14.55,-30.45,7.95,10.0,0.0,0.0,0.0,10.0,0.0,0.0,0.0,10.0
1446038731203500874,93,1446038731197841882,robocape_mag,14.55,-30.45,7.95,10.0,0.0,0.0,0.0,10.0,0.0,0.0,0.0,10.0
1446038731236116083,94,1446038731231302976,robocape_mag,14.55,-30.45,7.95,10.0,0.0,0.0,0.0,10.0,0.0,0.0,0.0,10.0
1446038731268955458,95,1446038731264389038,robocape_mag,14.85,-28.35,19.05,10.0,0.0,0.0,0.0,10.0,0.0,0.0,0.0,10.0
1446038731303763124,96,1446038731298047065,robocape_mag,14.85,-28.35,19.05,10.0,0.0,0.0,0.0,10.0,0.0,0.0,0.0,10.0
1446038731335969416,97,1446038731331146955,robocape_mag,14.85,-28.35,19.05,10.0,0.0,0.0,0.0,10.0,0.0,0.0,0.0,10.0
1446038731369031749,98,1446038731364391088,robocape_mag,14.85,-28.35,19.05,10.0,0.0,0.0,0.0,10.0,0.0,0.0,0.0,10.0
1446038731404239291,99,1446038731398355007,robocape_mag,14.85,-28.35,19.05,10.0,0.0,0.0,0.0,10.0,0.0,0.0,0.0,10.0
1446038731435841791,100,1446038731431164026,robocape_mag,14.55,-28.65,22.35,10.0,0.0,0.0,0.0,10.0,0.0,0.0,0.0,10.0
1446038731469167083,101,1446038731464585065,robocape_mag,14.55,-28.65,22.35,10.0,0.0,0.0,0.0,10.0,0.0,0.0,0.0,10.0
1446038731503131333,102,1446038731498029947,robocape_mag,14.55,-28.65,22.35,10.0,0.0,0.0,0.0,10.0,0.0,0.0,0.0,10.0
1446038731536423291,103,1446038731531100988,robocape_mag,14.55,-28.65,22.35,10.0,0.0,0.0,0.0,10.0,0.0,0.0,0.0,10.0
1446038731569293083,104,1446038731564533948,robocape_mag,14.55,-28.65,22.35,10.0,0.0,0.0,0.0,10.0,0.0,0.0,0.0,10.0
1446038731603096541,105,1446038731598023891,robocape_mag,13.65,-31.35,22.05,10.0,0.0,0.0,0.0,10.0,0.0,0.0,0.0,10.0
1446038731637846875,106,1446038731632873058,robocape_mag,13.65,-31.35,22.05,10.0,0.0,0.0,0.0,10.0,0.0,0.0,0.0,10.0
1446038731669133875,107,1446038731664515018,robocape_mag,13.65,-31.35,22.05,10.0,0.0,0.0,0.0,10.0,0.0,0.0,0.0,10.0
1446038731702852208,108,1446038731697995901,robocape_mag,13.65,-31.35,22.05,10.0,0.0,0.0,0.0,10.0,0.0,0.0,0.0,10.0
1446038731736137208,109,1446038731731201887,robocape_mag,13.65,-31.35,22.05,10.0,0.0,0.0,0.0,10.0,0.0,0.0,0.0,10.0
1446038731768947291,110,1446038731764375925,robocape_mag,14.25,-29.55,24.45,10.0,0.0,0.0,0.0,10.0,0.0,0.0,0.0,10.0
1446038731810556708,111,1446038731805005073,robocape_mag,14.25,-29.55,24.45,10.0,0.0,0.0,0.0,10.0,0.0,0.0,0.0,10.0
1446038731835948041,112,1446038731831017017,robocape_mag,14.25,-29.55,24.45,10.0,0.0,0.0,0.0,10.0,0.0,0.0,0.0,10.0
1446038731869162833,113,1446038731864447116,robocape_mag,14.25,-29.55,24.45,10.0,0.0,0.0,0.0,10.0,0.0,0.0,0.0,10.0
1446038731902827625,114,1446038731897922039,robocape_mag,14.25,-29.55,24.45,10.0,0.0,0.0,0.0,10.0,0.0,0.0,0.0,10.0
1446038731936122875,115,1446038731931227922,robocape_mag,14.25,-28.35,22.65,10.0,0.0,0.0,0.0,10.0,0.0,0.0,0.0,10.0
1446038731969113958,116,1446038731964472055,robocape_mag,14.25,-28.35,22.65,10.0,0.0,0.0,0.0,10.0,0.0,0.0,0.0,10.0
1446038732002837833,117,1446038731997932910,robocape_mag,14.25,-28.35,22.65,10.0,0.0,0.0,0.0,10.0,0.0,0.0,0.0,10.0
1446038732037127833,118,1446038732031083106,robocape_mag,14.25,-28.35,22.65,10.0,0.0,0.0,0.0,10.0,0.0,0.0,0.0,10.0
1446038732069122916,119,1446038732064435005,robocape_mag,14.55,-29.85,22.35,10.0,0.0,0.0,0.0,10.0,0.0,0.0,0.0,10.0
1446038732102820083,120,1446038732097825050,robocape_mag,14.55,-29.85,22.35,10.0,0.0,0.0,0.0,10.0,0.0,0.0,0.0,10.0
1446038732136236458,121,1446038732131139993,robocape_mag,14.55,-29.85,22.35,10.0,0.0,0.0,0.0,10.0,0.0,0.0,0.0,10.0
1446038732169210541,122,1446038732164565086,robocape_mag,14.55,-29.85,22.35,10.0,0.0,0.0,0.0,10.0,0.0,0.0,0.0,10.0
1446038732202825083,123,1446038732197712898,robocape_mag,14.55,-29.85,22.35,10.0,0.0,0.0,0.0,10.0,0.0,0.0,0.0,10.0
1446038732236073291,124,1446038732231076002,robocape_mag,15.45,-30.75,21.45,10.0,0.0,0.0,0.0,10.0,0.0,0.0,0.0,10.0
1446038732268912041,125,1446038732264381885,robocape_mag,15.45,-30.75,21.45,10.0,0.0,0.0,0.0,10.0,0.0,0.0,0.0,10.0
1446038732303042292,126,1446038732297946929,robocape_mag,15.45,-30.75,21.45,10.0,0.0,0.0,0.0,10.0,0.0,0.0,0.0,10.0
1446038732336190042,127,1446038732331166028,robocape_mag,15.45,-30.75,21.45,10.0,0.0,0.0,0.0,10.0,0.0,0.0,0.0,10.0
1446038732369271750,128,1446038732364497900,robocape_mag,15.45,-30.75,21.45,10.0,0.0,0.0,0.0,10.0,0.0,0.0,0.0,10.0
1446038732402469458,129,1446038732397819995,robocape_mag,13.95,-29.85,22.95,10.0,0.0,0.0,0.0,10.0,0.0,0.0,0.0,10.0
1446038732436068833,130,1446038732431117057,robocape_mag,13.95,-29.85,22.95,10.0,0.0,0.0,0.0,10.0,0.0,0.0,0.0,10.0
1446038732469057375,131,1446038732464457988,robocape_mag,13.95,-29.85,22.95,10.0,0.0,0.0,0.0,10.0,0.0,0.0,0.0,10.0
1446038732502434792,132,1446038732497806072,robocape_mag,13.95,-29.85,22.95,10.0,0.0,0.0,0.0,10.0,0.0,0.0,0.0,10.0
1446038732536190042,133,1446038732531168937,robocape_mag,13.95,-29.85,22.95,10.0,0.0,0.0,0.0,10.0,0.0,0.0,0.0,10.0
1446038732569241458,134,1446038732564446926,robocape_mag,13.65,-27.75,23.25,10.0,0.0,0.0,0.0,10.0,0.0,0.0,0.0,10.0
1446038732602545125,135,1446038732597774982,robocape_mag,13.65,-27.75,23.25,10.0,0.0,0.0,0.0,10.0,0.0,0.0,0.0,10.0
1446038732636091750,136,1446038732631088972,robocape_mag,13.65,-27.75,23.25,10.0,0.0,0.0,0.0,10.0,0.0,0.0,0.0,10.0
1446038732668975167,137,1446038732664424896,robocape_mag,13.65,-27.75,23.25,10.0,0.0,0.0,0.0,10.0,0.0,0.0,0.0,10.0
1446038732702644042,138,1446038732697741031,robocape_mag,13.65,-27.75,23.25,10.0,0.0,0.0,0.0,10.0,0.0,0.0,0.0,10.0
1446038732736099875,139,1446038732731179952,robocape_mag,15.15,-30.45,24.75,10.0,0.0,0.0,0.0,10.0,0.0,0.0,0.0,10.0
1446038732769120083,140,1446038732764425039,robocape_mag,15.15,-30.45,24.75,10.0,0.0,0.0,0.0,10.0,0.0,0.0,0.0,10.0
1446038732809642292,141,1446038732804776906,robocape_mag,15.15,-30.45,24.75,10.0,0.0,0.0,0.0,10.0,0.0,0.0,0.0,10.0
1446038732835902708,142,1446038732831073045,robocape_mag,15.15,-30.45,24.75,10.0,0.0,0.0,0.0,10.0,0.0,0.0,0.0,10.0
1446038732869460333,143,1446038732864607095,robocape_mag,13.95,-29.25,22.95,10.0,0.0,0.0,0.0,10.0,0.0,0.0,0.0,10.0
1446038732902757667,144,1446038732897954940,robocape_mag,13.95,-29.25,22.95,10.0,0.0,0.0,0.0,10.0,0.0,0.0,0.0,10.0
1446038732935944042,145,1446038732931221961,robocape_mag,13.95,-29.25,22.95,10.0,0.0,0.0,0.0,10.0,0.0,0.0,0.0,10.0
1446038732969185333,146,1446038732964549064,robocape_mag,13.95,-29.25,22.95,10.0,0.0,0.0,0.0,10.0,0.0,0.0,0.0,10.0
1446038733002710292,147,1446038732997910022,robocape_mag,13.95,-29.25,22.95,10.0,0.0,0.0,0.0,10.0,0.0,0.0,0.0,10.0
1446038733035852625,148,1446038733031140089,robocape_mag,14.55,-30.45,23.55,10.0,0.0,0.0,0.0,10.0,0.0,0.0,0.0,10.0
1446038733075747000,149,1446038733070879936,robocape_mag,14.55,-30.45,23.55,10.0,0.0,0.0,0.0,10.0,0.0,0.0,0.0,10.0
1446038733102878917,150,1446038733098129034,robocape_mag,14.55,-30.45,23.55,10.0,0.0,0.0,0.0,10.0,0.0,0.0,0.0,10.0
1446038733136244459,151,1446038733131310939,robocape_mag,14.55,-30.45,23.55,10.0,0.0,0.0,0.0,10.0,0.0,0.0,0.0,10.0
1446038733169150042,152,1446038733164551019,robocape_mag,14.55,-30.45,23.55,10.0,0.0,0.0,0.0,10.0,0.0,0.0,0.0,10.0
1446038733202503584,153,1446038733197853088,robocape_mag,13.65,-28.95,23.25,10.0,0.0,0.0,0.0,10.0,0.0,0.0,0.0,10.0
1446038733235966792,154,1446038733231189012,robocape_mag,13.65,-28.95,23.25,10.0,0.0,0.0,0.0,10.0,0.0,0.0,0.0,10.0
1446038733269078084,155,1446038733264441013,robocape_mag,13.65,-28.95,23.25,10.0,0.0,0.0,0.0,10.0,0.0,0.0,0.0,10.0
1446038733303100709,156,1446038733298355102,robocape_mag,13.65,-28.95,23.25,10.0,0.0,0.0,0.0,10.0,0.0,0.0,0.0,10.0
1446038733336056292,157,1446038733331280946,robocape_mag,13.65,-28.95,23.25,10.0,0.0,0.0,0.0,10.0,0.0,0.0,0.0,10.0
1446038733369092000,158,1446038733364419937,robocape_mag,13.65,-29.55,21.45,10.0,0.0,0.0,0.0,10.0,0.0,0.0,0.0,10.0
1446038733403038375,159,1446038733398235082,robocape_mag,13.65,-29.55,21.45,10.0,0.0,0.0,0.0,10.0,0.0,0.0,0.0,10.0
1446038733436157500,160,1446038733431442022,robocape_mag,13.65,-29.55,21.45,10.0,0.0,0.0,0.0,10.0,0.0,0.0,0.0,10.0
1446038733469075042,161,1446038733464440107,robocape_mag,13.65,-29.55,21.45,10.0,0.0,0.0,0.0,10.0,0.0,0.0,0.0,10.0
1446038733502549084,162,1446038733497834920,robocape_mag,13.65,-29.55,21.45,10.0,0.0,0.0,0.0,10.0,0.0,0.0,0.0,10.0
1446038733535966417,163,1446038733531193017,robocape_mag,14.55,-29.85,21.15,10.0,0.0,0.0,0.0,10.0,0.0,0.0,0.0,10.0
1446038733577308375,164,1446038733572423934,robocape_mag,14.55,-29.85,21.15,10.0,0.0,0.0,0.0,10.0,0.0,0.0,0.0,10.0
1446038733602485167,165,1446038733597796916,robocape_mag,14.55,-29.85,21.15,10.0,0.0,0.0,0.0,10.0,0.0,0.0,0.0,10.0
1446038733636073375,166,1446038733631047010,robocape_mag,14.55,-29.85,21.15,10.0,0.0,0.0,0.0,10.0,0.0,0.0,0.0,10.0
1446038733669004167,167,1446038733664396047,robocape_mag,14.55,-29.85,22.35,10.0,0.0,0.0,0.0,10.0,0.0,0.0,0.0,10.0
1446038733702463626,168,1446038733697802066,robocape_mag,14.55,-29.85,22.35,10.0,0.0,0.0,0.0,10.0,0.0,0.0,0.0,10.0
1446038733735823126,169,1446038733731071949,robocape_mag,14.55,-29.85,22.35,10.0,0.0,0.0,0.0,10.0,0.0,0.0,0.0,10.0
1446038733769273542,170,1446038733764540910,robocape_mag,14.55,-29.85,22.35,10.0,0.0,0.0,0.0,10.0,0.0,0.0,0.0,10.0
1446038733809651209,171,1446038733804727077,robocape_mag,14.55,-29.85,22.35,10.0,0.0,0.0,0.0,10.0,0.0,0.0,0.0,10.0
1446038733835995626,172,1446038733831213951,robocape_mag,15.15,-29.85,22.95,10.0,0.0,0.0,0.0,10.0,0.0,0.0,0.0,10.0
1446038733869365501,173,1446038733864552021,robocape_mag,15.15,-29.85,22.95,10.0,0.0,0.0,0.0,10.0,0.0,0.0,0.0,10.0
1446038733902779084,174,1446038733897815942,robocape_mag,15.15,-29.85,22.95,10.0,0.0,0.0,0.0,10.0,0.0,0.0,0.0,10.0
1446038733935880709,175,1446038733931199073,robocape_mag,15.15,-29.85,22.95,10.0,0.0,0.0,0.0,10.0,0.0,0.0,0.0,10.0
1446038733969270667,176,1446038733964443922,robocape_mag,15.15,-29.85,22.95,10.0,0.0,0.0,0.0,10.0,0.0,0.0,0.0,10.0
1446038734002867167,177,1446038733998029947,robocape_mag,14.55,-29.25,22.35,10.0,0.0,0.0,0.0,10.0,0.0,0.0,0.0,10.0
1446038734035757542,178,1446038734031079053,robocape_mag,14.55,-29.25,22.35,10.0,0.0,0.0,0.0,10.0,0.0,0.0,0.0,10.0
1446038734069292292,179,1446038734064460039,robocape_mag,14.55,-29.25,22.35,10.0,0.0,0.0,0.0,10.0,0.0,0.0,0.0,10.0
1446038734105409376,180,1446038734100285053,robocape_mag,14.55,-29.25,22.35,10.0,0.0,0.0,0.0,10.0,0.0,0.0,0.0,10.0
1446038734135826501,181,1446038734131149053,robocape_mag,14.55,-29.25,22.35,10.0,0.0,0.0,0.0,10.0,0.0,0.0,0.0,10.0
1446038734169247376,182,1446038734164442062,robocape_mag,15.15,-28.05,23.55,10.0,0.0,0.0,0.0,10.0,0.0,0.0,0.0,10.0
1446038734202691126,183,1446038734197792053,robocape_mag,15.15,-28.05,23.55,10.0,0.0,0.0,0.0,10.0,0.0,0.0,0.0,10.0
1446038734235719792,184,1446038734231076955,robocape_mag,15.15,-28.05,23.55,10.0,0.0,0.0,0.0,10.0,0.0,0.0,0.0,10.0
1446038734269195042,185,1446038734264328002,robocape_mag,15.15,-28.05,23.55,10.0,0.0,0.0,0.0,10.0,0.0,0.0,0.0,10.0
1446038734303048042,186,1446038734298017978,robocape_mag,15.15,-28.05,23.55,10.0,0.0,0.0,0.0,10.0,0.0,0.0,0.0,10.0
1446038734336155709,187,1446038734331389904,robocape_mag,13.35,-29.25,23.55,10.0,0.0,0.0,0.0,10.0,0.0,0.0,0.0,10.0
1446038734369355126,188,1446038734364459037,robocape_mag,13.35,-29.25,23.55,10.0,0.0,0.0,0.0,10.0,0.0,0.0,0.0,10.0
1446038734402702626,189,1446038734397722005,robocape_mag,13.35,-29.25,23.55,10.0,0.0,0.0,0.0,10.0,0.0,0.0,0.0,10.0
1446038734435815126,190,1446038734431150913,robocape_mag,13.35,-29.25,23.55,10.0,0.0,0.0,0.0,10.0,0.0,0.0,0.0,10.0
1446038734469157918,191,1446038734464370965,robocape_mag,14.55,-30.45,23.55,10.0,0.0,0.0,0.0,10.0,0.0,0.0,0.0,10.0
1446038734502649376,192,1446038734497853994,robocape_mag,14.55,-30.45,23.55,10.0,0.0,0.0,0.0,10.0,0.0,0.0,0.0,10.0
1446038734535852418,193,1446038734531176090,robocape_mag,14.55,-30.45,23.55,10.0,0.0,0.0,0.0,10.0,0.0,0.0,0.0,10.0
1446038734569385501,194,1446038734564512968,robocape_mag,14.55,-30.45,23.55,10.0,0.0,0.0,0.0,10.0,0.0,0.0,0.0,10.0
1446038734602694376,195,1446038734597839117,robocape_mag,14.55,-30.45,23.55,10.0,0.0,0.0,0.0,10.0,0.0,0.0,0.0,10.0
1446038734635746293,196,1446038734631072998,robocape_mag,14.55,-30.45,22.35,10.0,0.0,0.0,0.0,10.0,0.0,0.0,0.0,10.0
1446038734669706001,197,1446038734664716958,robocape_mag,14.55,-30.45,22.35,10.0,0.0,0.0,0.0,10.0,0.0,0.0,0.0,10.0
1446038734702681209,198,1446038734697807073,robocape_mag,14.55,-30.45,22.35,10.0,0.0,0.0,0.0,10.0,0.0,0.0,0.0,10.0
1446038734736018751,199,1446038734731280088,robocape_mag,14.55,-30.45,22.35,10.0,0.0,0.0,0.0,10.0,0.0,0.0,0.0,10.0
1446038734769370084,200,1446038734764487028,robocape_mag,14.55,-30.45,22.35,10.0,0.0,0.0,0.0,10.0,0.0,0.0,0.0,10.0
1446038734809284668,201,1446038734804173946,robocape_mag,13.35,-30.45,22.35,10.0,0.0,0.0,0.0,10.0,0.0,0.0,0.0,10.0
1446038734836078084,202,1446038734831348896,robocape_mag,13.35,-30.45,22.35,10.0,0.0,0.0,0.0,10.0,0.0,0.0,0.0,10.0
1446038734869544918,203,1446038734864758968,robocape_mag,13.35,-30.45,22.35,10.0,0.0,0.0,0.0,10.0,0.0,0.0,0.0,10.0
1446038734902752126,204,1446038734898021936,robocape_mag,13.35,-30.45,22.35,10.0,0.0,0.0,0.0,10.0,0.0,0.0,0.0,10.0
1446038734935956709,205,1446038734931180000,robocape_mag,13.35,-30.45,22.35,10.0,0.0,0.0,0.0,10.0,0.0,0.0,0.0,10.0
1446038734969498501,206,1446038734964545965,robocape_mag,13.95,-29.25,22.35,10.0,0.0,0.0,0.0,10.0,0.0,0.0,0.0,10.0
1446038735002738418,207,1446038734997879028,robocape_mag,13.95,-29.25,22.35,10.0,0.0,0.0,0.0,10.0,0.0,0.0,0.0,10.0
1446038735035879918,208,1446038735031054973,robocape_mag,13.95,-29.25,22.35,10.0,0.0,0.0,0.0,10.0,0.0,0.0,0.0,10.0
1446038735069387793,209,1446038735064467906,robocape_mag,13.95,-29.25,22.35,10.0,0.0,0.0,0.0,10.0,0.0,0.0,0.0,10.0
1446038735102842835,210,1446038735097959995,robocape_mag,13.95,-29.25,22.35,10.0,0.0,0.0,0.0,10.0,0.0,0.0,0.0,10.0
1446038735136151585,211,1446038735131304025,robocape_mag,15.45,-30.75,22.65,10.0,0.0,0.0,0.0,10.0,0.0,0.0,0.0,10.0
1446038735169247751,212,1446038735164398908,robocape_mag,15.45,-30.75,22.65,10.0,0.0,0.0,0.0,10.0,0.0,0.0,0.0,10.0
1446038735202520210,213,1446038735197729110,robocape_mag,15.45,-30.75,22.65,10.0,0.0,0.0,0.0,10.0,0.0,0.0,0.0,10.0
1446038735236511001,214,1446038735231628894,robocape_mag,15.45,-30.75,22.65,10.0,0.0,0.0,0.0,10.0,0.0,0.0,0.0,10.0
1446038735269194335,215,1446038735264377117,robocape_mag,13.95,-29.25,22.95,10.0,0.0,0.0,0.0,10.0,0.0,0.0,0.0,10.0
1446038735303076960,216,1446038735298063039,robocape_mag,13.95,-29.25,22.95,10.0,0.0,0.0,0.0,10.0,0.0,0.0,0.0,10.0
1446038735337068751,217,1446038735332228899,robocape_mag,13.95,-29.25,22.95,10.0,0.0,0.0,0.0,10.0,0.0,0.0,0.0,10.0
1446038735369040460,218,1446038735364321947,robocape_mag,13.95,-29.25,22.95,10.0,0.0,0.0,0.0,10.0,0.0,0.0,0.0,10.0
1446038735403002376,219,1446038735398082017,robocape_mag,13.95,-29.25,22.95,10.0,0.0,0.0,0.0,10.0,0.0,0.0,0.0,10.0
1446038735437003043,220,1446038735432123899,robocape_mag,15.15,-30.45,22.95,10.0,0.0,0.0,0.0,10.0,0.0,0.0,0.0,10.0
1446038735469077460,221,1446038735464488983,robocape_mag,15.15,-30.45,22.95,10.0,0.0,0.0,0.0,10.0,0.0,0.0,0.0,10.0
1446038735502899001,222,1446038735498022079,robocape_mag,15.15,-30.45,22.95,10.0,0.0,0.0,0.0,10.0,0.0,0.0,0.0,10.0
1446038735537167501,223,1446038735532340049,robocape_mag,15.15,-30.45,22.95,10.0,0.0,0.0,0.0,10.0,0.0,0.0,0.0,10.0
1446038735569152501,224,1446038735564440965,robocape_mag,15.15,-30.45,22.95,10.0,0.0,0.0,0.0,10.0,0.0,0.0,0.0,10.0
1446038735602771251,225,1446038735597827911,robocape_mag,14.85,-30.15,22.05,10.0,0.0,0.0,0.0,10.0,0.0,0.0,0.0,10.0
1446038735636332335,226,1446038735631432056,robocape_mag,14.85,-30.15,22.05,10.0,0.0,0.0,0.0,10.0,0.0,0.0,0.0,10.0
1446038735669125710,227,1446038735664447069,robocape_mag,14.85,-30.15,22.05,10.0,0.0,0.0,0.0,10.0,0.0,0.0,0.0,10.0
1446038735702924960,228,1446038735698019027,robocape_mag,14.85,-30.15,22.05,10.0,0.0,0.0,0.0,10.0,0.0,0.0,0.0,10.0
1446038735736641876,229,1446038735731669902,robocape_mag,14.85,-30.15,22.05,10.0,0.0,0.0,0.0,10.0,0.0,0.0,0.0,10.0
1446038735769296126,230,1446038735764611959,robocape_mag,15.45,-29.55,23.25,10.0,0.0,0.0,0.0,10.0,0.0,0.0,0.0,10.0
1446038735808956502,231,1446038735803957939,robocape_mag,15.45,-29.55,23.25,10.0,0.0,0.0,0.0,10.0,0.0,0.0,0.0,10.0
1446038735837453168,232,1446038735832500934,robocape_mag,15.45,-29.55,23.25,10.0,0.0,0.0,0.0,10.0,0.0,0.0,0.0,10.0
1446038735869016918,233,1446038735864336013,robocape_mag,15.45,-29.55,23.25,10.0,0.0,0.0,0.0,10.0,0.0,0.0,0.0,10.0
1446038735903171293,234,1446038735898190975,robocape_mag,15.45,-29.55,23.25,10.0,0.0,0.0,0.0,10.0,0.0,0.0,0.0,10.0
1446038735936750668,235,1446038735931680917,robocape_mag,14.25,-26.55,21.45,10.0,0.0,0.0,0.0,10.0,0.0,0.0,0.0,10.0
1446038735969143668,236,1446038735964483976,robocape_mag,14.25,-26.55,21.45,10.0,0.0,0.0,0.0,10.0,0.0,0.0,0.0,10.0
1446038736002800710,237,1446038735997848033,robocape_mag,14.25,-26.55,21.45,10.0,0.0,0.0,0.0,10.0,0.0,0.0,0.0,10.0
1446038736036337960,238,1446038736031456947,robocape_mag,14.25,-26.55,21.45,10.0,0.0,0.0,0.0,10.0,0.0,0.0,0.0,10.0
1446038736069054585,239,1446038736064420938,robocape_mag,13.65,-29.55,22.05,10.0,0.0,0.0,0.0,10.0,0.0,0.0,0.0,10.0
1446038736103233710,240,1446038736098176956,robocape_mag,13.65,-29.55,22.05,10.0,0.0,0.0,0.0,10.0,0.0,0.0,0.0,10.0
1446038736136331543,241,1446038736131407022,robocape_mag,13.65,-29.55,22.05,10.0,0.0,0.0,0.0,10.0,0.0,0.0,0.0,10.0
1446038736169089543,242,1446038736164454936,robocape_mag,13.65,-29.55,22.05,10.0,0.0,0.0,0.0,10.0,0.0,0.0,0.0,10.0
1446038736202958793,243,1446038736197937011,robocape_mag,13.65,-29.55,22.05,10.0,0.0,0.0,0.0,10.0,0.0,0.0,0.0,10.0
1446038736236606793,244,1446038736231647014,robocape_mag,14.85,-30.15,23.25,10.0,0.0,0.0,0.0,10.0,0.0,0.0,0.0,10.0
1446038736269197210,245,1446038736264543056,robocape_mag,14.85,-30.15,23.25,10.0,0.0,0.0,0.0,10.0,0.0,0.0,0.0,10.0
1446038736303059127,246,1446038736298062086,robocape_mag,14.85,-30.15,23.25,10.0,0.0,0.0,0.0,10.0,0.0,0.0,0.0,10.0
1446038736336373460,247,1446038736331562042,robocape_mag,14.85,-30.15,23.25,10.0,0.0,0.0,0.0,10.0,0.0,0.0,0.0,10.0
1446038736369457127,248,1446038736364769935,robocape_mag,14.85,-30.15,23.25,10.0,0.0,0.0,0.0,10.0,0.0,0.0,0.0,10.0
1446038736402944752,249,1446038736397756099,robocape_mag,15.45,-30.75,22.05,10.0,0.0,0.0,0.0,10.0,0.0,0.0,0.0,10.0
1446038736436512835,250,1446038736431580066,robocape_mag,15.45,-30.75,22.05,10.0,0.0,0.0,0.0,10.0,0.0,0.0,0.0,10.0
1446038736469239168,251,1446038736464627981,robocape_mag,15.45,-30.75,22.05,10.0,0.0,0.0,0.0,10.0,0.0,0.0,0.0,10.0
1446038736503116794,252,1446038736497968912,robocape_mag,15.45,-30.75,22.05,10.0,0.0,0.0,0.0,10.0,0.0,0.0,0.0,10.0
1446038736536318502,253,1446038736531511068,robocape_mag,15.45,-30.75,22.05,10.0,0.0,0.0,0.0,10.0,0.0,0.0,0.0,10.0
1446038736569036002,254,1446038736564419031,robocape_mag,14.85,-28.95,22.05,10.0,0.0,0.0,0.0,10.0,0.0,0.0,0.0,10.0
1446038736603688210,255,1446038736597841024,robocape_mag,14.85,-28.95,22.05,10.0,0.0,0.0,0.0,10.0,0.0,0.0,0.0,10.0
1446038736636632627,256,1446038736631697893,robocape_mag,14.85,-28.95,22.05,10.0,0.0,0.0,0.0,10.0,0.0,0.0,0.0,10.0
1446038736669188502,257,1446038736664572000,robocape_mag,14.85,-28.95,22.05,10.0,0.0,0.0,0.0,10.0,0.0,0.0,0.0,10.0
1446038736703018544,258,1446038736697701930,robocape_mag,14.85,-28.95,22.05,10.0,0.0,0.0,0.0,10.0,0.0,0.0,0.0,10.0
1446038736736507752,259,1446038736731657981,robocape_mag,13.65,-29.55,23.85,10.0,0.0,0.0,0.0,10.0,0.0,0.0,0.0,10.0
1446038736769231835,260,1446038736764552116,robocape_mag,13.65,-29.55,23.85,10.0,0.0,0.0,0.0,10.0,0.0,0.0,0.0,10.0
1446038736809050502,261,1446038736803833007,robocape_mag,13.65,-29.55,23.85,10.0,0.0,0.0,0.0,10.0,0.0,0.0,0.0,10.0
1446038736836439919,262,1446038736831619977,robocape_mag,13.65,-29.55,23.85,10.0,0.0,0.0,0.0,10.0,0.0,0.0,0.0,10.0
1446038736869395919,263,1446038736864761114,robocape_mag,13.95,-29.85,23.55,10.0,0.0,0.0,0.0,10.0,0.0,0.0,0.0,10.0
1446038736903405127,264,1446038736898447990,robocape_mag,13.95,-29.85,23.55,10.0,0.0,0.0,0.0,10.0,0.0,0.0,0.0,10.0
1446038736936405794,265,1446038736931616067,robocape_mag,13.95,-29.85,23.55,10.0,0.0,0.0,0.0,10.0,0.0,0.0,0.0,10.0
1446038736969279669,266,1446038736964648962,robocape_mag,13.95,-29.85,23.55,10.0,0.0,0.0,0.0,10.0,0.0,0.0,0.0,10.0
1446038737002745960,267,1446038736997833013,robocape_mag,13.95,-29.85,23.55,10.0,0.0,0.0,0.0,10.0,0.0,0.0,0.0,10.0
1446038737036382294,268,1446038737031542062,robocape_mag,14.25,-30.15,22.05,10.0,0.0,0.0,0.0,10.0,0.0,0.0,0.0,10.0
1446038737069255960,269,1446038737064574956,robocape_mag,14.25,-30.15,22.05,10.0,0.0,0.0,0.0,10.0,0.0,0.0,0.0,10.0
1446038737102642502,270,1446038737097661972,robocape_mag,14.25,-30.15,22.05,10.0,0.0,0.0,0.0,10.0,0.0,0.0,0.0,10.0
1446038737136467544,271,1446038737131551027,robocape_mag,14.25,-30.15,22.05,10.0,0.0,0.0,0.0,10.0,0.0,0.0,0.0,10.0
1446038737169209377,272,1446038737164510011,robocape_mag,14.25,-30.15,22.05,10.0,0.0,0.0,0.0,10.0,0.0,0.0,0.0,10.0
1446038737202963211,273,1446038737197731018,robocape_mag,16.05,-28.95,22.05,10.0,0.0,0.0,0.0,10.0,0.0,0.0,0.0,10.0
1446038737236348502,274,1446038737231475114,robocape_mag,16.05,-28.95,22.05,10.0,0.0,0.0,0.0,10.0,0.0,0.0,0.0,10.0
1446038737269115502,275,1446038737264430999,robocape_mag,16.05,-28.95,22.05,10.0,0.0,0.0,0.0,10.0,0.0,0.0,0.0,10.0
1446038737302979044,276,1446038737297995090,robocape_mag,16.05,-28.95,22.05,10.0,0.0,0.0,0.0,10.0,0.0,0.0,0.0,10.0
1446038737336309627,277,1446038737331407070,robocape_mag,16.05,-28.95,22.05,10.0,0.0,0.0,0.0,10.0,0.0,0.0,0.0,10.0
1446038737369179836,278,1446038737364512920,robocape_mag,15.15,-31.05,24.15,10.0,0.0,0.0,0.0,10.0,0.0,0.0,0.0,10.0
1446038737403061669,279,1446038737397702932,robocape_mag,15.15,-31.05,24.15,10.0,0.0,0.0,0.0,10.0,0.0,0.0,0.0,10.0
1446038737436675502,280,1446038737431404113,robocape_mag,15.15,-31.05,24.15,10.0,0.0,0.0,0.0,10.0,0.0,0.0,0.0,10.0
1446038737469331252,281,1446038737464607954,robocape_mag,15.15,-31.05,24.15,10.0,0.0,0.0,0.0,10.0,0.0,0.0,0.0,10.0
1446038737502805294,282,1446038737497916936,robocape_mag,15.15,-31.05,24.15,10.0,0.0,0.0,0.0,10.0,0.0,0.0,0.0,10.0
1446038737536704127,283,1446038737531418085,robocape_mag,14.55,-29.25,21.75,10.0,0.0,0.0,0.0,10.0,0.0,0.0,0.0,10.0
1446038737569232794,284,1446038737564605951,robocape_mag,14.55,-29.25,21.75,10.0,0.0,0.0,0.0,10.0,0.0,0.0,0.0,10.0
1446038737602636461,285,1446038737597671985,robocape_mag,14.55,-29.25,21.75,10.0,0.0,0.0,0.0,10.0,0.0,0.0,0.0,10.0
1446038737636697502,286,1446038737631443977,robocape_mag,14.55,-29.25,21.75,10.0,0.0,0.0,0.0,10.0,0.0,0.0,0.0,10.0
1446038737669171419,287,1446038737664568901,robocape_mag,14.55,-29.25,22.95,10.0,0.0,0.0,0.0,10.0,0.0,0.0,0.0,10.0
1446038737702946794,288,1446038737697765111,robocape_mag,14.55,-29.25,22.95,10.0,0.0,0.0,0.0,10.0,0.0,0.0,0.0,10.0
1446038737736650877,289,1446038737731425046,robocape_mag,14.55,-29.25,22.95,10.0,0.0,0.0,0.0,10.0,0.0,0.0,0.0,10.0
1446038737769268419,290,1446038737764544010,robocape_mag,14.55,-29.25,22.95,10.0,0.0,0.0,0.0,10.0,0.0,0.0,0.0,10.0
1446038737808694044,291,1446038737803692102,robocape_mag,14.55,-29.25,22.95,10.0,0.0,0.0,0.0,10.0,0.0,0.0,0.0,10.0
1446038737836597377,292,1446038737831267118,robocape_mag,14.85,-30.15,23.25,10.0,0.0,0.0,0.0,10.0,0.0,0.0,0.0,10.0
1446038737869217669,293,1446038737864542961,robocape_mag,14.85,-30.15,23.25,10.0,0.0,0.0,0.0,10.0,0.0,0.0,0.0,10.0
1446038737902786086,294,1446038737897717952,robocape_mag,14.85,-30.15,23.25,10.0,0.0,0.0,0.0,10.0,0.0,0.0,0.0,10.0
1446038737936544544,295,1446038737931337118,robocape_mag,14.85,-30.15,23.25,10.0,0.0,0.0,0.0,10.0,0.0,0.0,0.0,10.0
1446038737970086003,296,1446038737965167999,robocape_mag,14.85,-30.15,23.25,10.0,0.0,0.0,0.0,10.0,0.0,0.0,0.0,10.0
1446038738002579294,297,1446038737997715950,robocape_mag,13.35,-29.85,22.95,10.0,0.0,0.0,0.0,10.0,0.0,0.0,0.0,10.0
1446038738036627628,298,1446038738031505107,robocape_mag,13.35,-29.85,22.95,10.0,0.0,0.0,0.0,10.0,0.0,0.0,0.0,10.0
1446038738069165711,299,1446038738064421892,robocape_mag,13.35,-29.85,22.95,10.0,0.0,0.0,0.0,10.0,0.0,0.0,0.0,10.0
1446038738102505669,300,1446038738097667932,robocape_mag,13.35,-29.85,22.95,10.0,0.0,0.0,0.0,10.0,0.0,0.0,0.0,10.0
1446038738141495753,301,1446038738136379957,robocape_mag,13.35,-29.85,22.95,10.0,0.0,0.0,0.0,10.0,0.0,0.0,0.0,10.0
1446038738169153336,302,1446038738164525985,robocape_mag,15.45,-28.95,22.05,10.0,0.0,0.0,0.0,10.0,0.0,0.0,0.0,10.0
1446038738202713128,303,1446038738197765111,robocape_mag,15.45,-28.95,22.05,10.0,0.0,0.0,0.0,10.0,0.0,0.0,0.0,10.0
1446038738236431794,304,1446038738231235980,robocape_mag,15.45,-28.95,22.05,10.0,0.0,0.0,0.0,10.0,0.0,0.0,0.0,10.0
1446038738269176336,305,1446038738264491081,robocape_mag,15.45,-28.95,22.05,10.0,0.0,0.0,0.0,10.0,0.0,0.0,0.0,10.0
1446038738302820253,306,1446038738297816991,robocape_mag,15.45,-28.95,22.05,10.0,0.0,0.0,0.0,10.0,0.0,0.0,0.0,10.0
1446038738336234669,307,1446038738331197977,robocape_mag,14.25,-30.75,22.65,10.0,0.0,0.0,0.0,10.0,0.0,0.0,0.0,10.0
1446038738369171169,308,1446038738364468097,robocape_mag,14.25,-30.75,22.65,10.0,0.0,0.0,0.0,10.0,0.0,0.0,0.0,10.0
1446038738402559128,309,1446038738397661924,robocape_mag,14.25,-30.75,22.65,10.0,0.0,0.0,0.0,10.0,0.0,0.0,0.0,10.0
1446038738435847544,310,1446038738431205034,robocape_mag,14.25,-30.75,22.65,10.0,0.0,0.0,0.0,10.0,0.0,0.0,0.0,10.0
1446038738469428253,311,1446038738464643955,robocape_mag,14.55,-29.85,22.95,10.0,0.0,0.0,0.0,10.0,0.0,0.0,0.0,10.0
1446038738502672128,312,1446038738497813940,robocape_mag,14.55,-29.85,22.95,10.0,0.0,0.0,0.0,10.0,0.0,0.0,0.0,10.0
1446038738535920836,313,1446038738531254053,robocape_mag,14.55,-29.85,22.95,10.0,0.0,0.0,0.0,10.0,0.0,0.0,0.0,10.0
1446038738569630253,314,1446038738564938068,robocape_mag,14.55,-29.85,22.95,10.0,0.0,0.0,0.0,10.0,0.0,0.0,0.0,10.0
1446038738602545503,315,1446038738597659111,robocape_mag,14.55,-29.85,22.95,10.0,0.0,0.0,0.0,10.0,0.0,0.0,0.0,10.0
1446038738635864336,316,1446038738631197929,robocape_mag,12.75,-28.05,22.35,10.0,0.0,0.0,0.0,10.0,0.0,0.0,0.0,10.0
1446038738669193503,317,1446038738664536952,robocape_mag,12.75,-28.05,22.35,10.0,0.0,0.0,0.0,10.0,0.0,0.0,0.0,10.0
1446038738702526253,318,1446038738697735071,robocape_mag,12.75,-28.05,22.35,10.0,0.0,0.0,0.0,10.0,0.0,0.0,0.0,10.0
1446038738736075711,319,1446038738731240034,robocape_mag,12.75,-28.05,22.35,10.0,0.0,0.0,0.0,10.0,0.0,0.0,0.0,10.0
1446038738769539670,320,1446038738764787912,robocape_mag,12.75,-28.05,22.35,10.0,0.0,0.0,0.0,10.0,0.0,0.0,0.0,10.0
1446038738809648045,321,1446038738804712057,robocape_mag,13.35,-28.65,22.35,10.0,0.0,0.0,0.0,10.0,0.0,0.0,0.0,10.0
1446038738836115503,322,1446038738831418037,robocape_mag,13.35,-28.65,22.35,10.0,0.0,0.0,0.0,10.0,0.0,0.0,0.0,10.0
1446038738869278045,323,1446038738864583015,robocape_mag,13.35,-28.65,22.35,10.0,0.0,0.0,0.0,10.0,0.0,0.0,0.0,10.0
1446038738902708170,324,1446038738897670984,robocape_mag,13.35,-28.65,22.35,10.0,0.0,0.0,0.0,10.0,0.0,0.0,0.0,10.0
1446038738943768128,325,1446038738938452005,robocape_mag,13.35,-28.65,22.35,10.0,0.0,0.0,0.0,10.0,0.0,0.0,0.0,10.0
1446038738969255503,326,1446038738964651107,robocape_mag,13.95,-28.65,22.95,10.0,0.0,0.0,0.0,10.0,0.0,0.0,0.0,10.0
1446038739002789211,327,1446038738997853994,robocape_mag,13.95,-28.65,22.95,10.0,0.0,0.0,0.0,10.0,0.0,0.0,0.0,10.0
1446038739037087128,328,1446038739031131982,robocape_mag,13.95,-28.65,22.95,10.0,0.0,0.0,0.0,10.0,0.0,0.0,0.0,10.0
1446038739069345128,329,1446038739064678907,robocape_mag,13.95,-28.65,22.95,10.0,0.0,0.0,0.0,10.0,0.0,0.0,0.0,10.0
1446038739102832503,330,1446038739097712039,robocape_mag,13.95,-28.65,22.95,10.0,0.0,0.0,0.0,10.0,0.0,0.0,0.0,10.0
1446038739136019545,331,1446038739131076097,robocape_mag,14.85,-28.35,22.05,10.0,0.0,0.0,0.0,10.0,0.0,0.0,0.0,10.0
1446038739171009253,332,1446038739165859937,robocape_mag,14.85,-28.35,22.05,10.0,0.0,0.0,0.0,10.0,0.0,0.0,0.0,10.0
1446038739202825420,333,1446038739197818994,robocape_mag,14.85,-28.35,22.05,10.0,0.0,0.0,0.0,10.0,0.0,0.0,0.0,10.0
1446038739236168836,334,1446038739231040000,robocape_mag,14.85,-28.35,22.05,10.0,0.0,0.0,0.0,10.0,0.0,0.0,0.0,10.0
1446038739269514462,335,1446038739264601945,robocape_mag,13.95,-29.85,24.75,10.0,0.0,0.0,0.0,10.0,0.0,0.0,0.0,10.0
1446038739302868920,336,1446038739297882080,robocape_mag,13.95,-29.85,24.75,10.0,0.0,0.0,0.0,10.0,0.0,0.0,0.0,10.0
1446038739344048503,337,1446038739338776111,robocape_mag,13.95,-29.85,24.75,10.0,0.0,0.0,0.0,10.0,0.0,0.0,0.0,10.0
1446038739369312462,338,1446038739364360094,robocape_mag,13.95,-29.85,24.75,10.0,0.0,0.0,0.0,10.0,0.0,0.0,0.0,10.0
1446038739402930753,339,1446038739398041009,robocape_mag,13.95,-29.85,24.75,10.0,0.0,0.0,0.0,10.0,0.0,0.0,0.0,10.0
1446038739436100878,340,1446038739431150913,robocape_mag,15.15,-29.25,23.55,10.0,0.0,0.0,0.0,10.0,0.0,0.0,0.0,10.0
1446038739469297920,341,1446038739464466094,robocape_mag,15.15,-29.25,23.55,10.0,0.0,0.0,0.0,10.0,0.0,0.0,0.0,10.0
1446038739502949087,342,1446038739497951030,robocape_mag,15.15,-29.25,23.55,10.0,0.0,0.0,0.0,10.0,0.0,0.0,0.0,10.0
1446038739536010212,343,1446038739531073093,robocape_mag,15.15,-29.25,23.55,10.0,0.0,0.0,0.0,10.0,0.0,0.0,0.0,10.0
1446038739569151045,344,1446038739564450025,robocape_mag,15.15,-29.25,23.55,10.0,0.0,0.0,0.0,10.0,0.0,0.0,0.0,10.0
1446038739602548295,345,1446038739597708940,robocape_mag,15.15,-30.45,21.75,10.0,0.0,0.0,0.0,10.0,0.0,0.0,0.0,10.0
1446038739635909045,346,1446038739631026983,robocape_mag,15.15,-30.45,21.75,10.0,0.0,0.0,0.0,10.0,0.0,0.0,0.0,10.0
1446038739669164795,347,1446038739664524078,robocape_mag,15.15,-30.45,21.75,10.0,0.0,0.0,0.0,10.0,0.0,0.0,0.0,10.0
1446038739706227670,348,1446038739697722911,robocape_mag,15.15,-30.45,21.75,10.0,0.0,0.0,0.0,10.0,0.0,0.0,0.0,10.0
1446038739736069087,349,1446038739730999946,robocape_mag,15.15,-30.45,21.75,10.0,0.0,0.0,0.0,10.0,0.0,0.0,0.0,10.0
1446038739769258378,350,1446038739764494895,robocape_mag,15.15,-29.85,22.35,10.0,0.0,0.0,0.0,10.0,0.0,0.0,0.0,10.0
1446038739809775462,351,1446038739804719924,robocape_mag,15.15,-29.85,22.35,10.0,0.0,0.0,0.0,10.0,0.0,0.0,0.0,10.0
1446038739836081837,352,1446038739830985069,robocape_mag,15.15,-29.85,22.35,10.0,0.0,0.0,0.0,10.0,0.0,0.0,0.0,10.0
1446038739869223420,353,1446038739864428997,robocape_mag,15.15,-29.85,22.35,10.0,0.0,0.0,0.0,10.0,0.0,0.0,0.0,10.0
1446038739902667878,354,1446038739897665023,robocape_mag,15.15,-29.85,22.35,10.0,0.0,0.0,0.0,10.0,0.0,0.0,0.0,10.0
1446038739936474087,355,1446038739931344032,robocape_mag,16.05,-28.95,22.65,10.0,0.0,0.0,0.0,10.0,0.0,0.0,0.0,10.0
1446038739969327587,356,1446038739964390039,robocape_mag,16.05,-28.95,22.65,10.0,0.0,0.0,0.0,10.0,0.0,0.0,0.0,10.0
1446038740002743670,357,1446038739997813940,robocape_mag,16.05,-28.95,22.65,10.0,0.0,0.0,0.0,10.0,0.0,0.0,0.0,10.0
1446038740036229587,358,1446038740031157016,robocape_mag,16.05,-28.95,22.65,10.0,0.0,0.0,0.0,10.0,0.0,0.0,0.0,10.0
1446038740069119462,359,1446038740064425945,robocape_mag,14.85,-27.75,22.65,10.0,0.0,0.0,0.0,10.0,0.0,0.0,0.0,10.0
1446038740102699879,360,1446038740097759008,robocape_mag,14.85,-27.75,22.65,10.0,0.0,0.0,0.0,10.0,0.0,0.0,0.0,10.0
1446038740136635920,361,1446038740131211996,robocape_mag,14.85,-27.75,22.65,10.0,0.0,0.0,0.0,10.0,0.0,0.0,0.0,10.0
1446038740169248420,362,1446038740164561033,robocape_mag,14.85,-27.75,22.65,10.0,0.0,0.0,0.0,10.0,0.0,0.0,0.0,10.0
1446038740202744837,363,1446038740197724103,robocape_mag,14.85,-27.75,22.65,10.0,0.0,0.0,0.0,10.0,0.0,0.0,0.0,10.0
1446038740236475212,364,1446038740231183052,robocape_mag,13.95,-29.85,23.55,10.0,0.0,0.0,0.0,10.0,0.0,0.0,0.0,10.0
1446038740269426129,365,1446038740264646053,robocape_mag,13.95,-29.85,23.55,10.0,0.0,0.0,0.0,10.0,0.0,0.0,0.0,10.0
1446038740311742712,366,1446038740306318998,robocape_mag,13.95,-29.85,23.55,10.0,0.0,0.0,0.0,10.0,0.0,0.0,0.0,10.0
1446038740337885587,367,1446038740332436084,robocape_mag,13.95,-29.85,23.55,10.0,0.0,0.0,0.0,10.0,0.0,0.0,0.0,10.0
1446038740371178212,368,1446038740366178035,robocape_mag,13.95,-29.85,23.55,10.0,0.0,0.0,0.0,10.0,0.0,0.0,0.0,10.0
1446038740404323504,369,1446038740399025917,robocape_mag,14.85,-28.95,22.65,10.0,0.0,0.0,0.0,10.0,0.0,0.0,0.0,10.0
1446038740439187504,370,1446038740432391881,robocape_mag,14.85,-28.95,22.65,10.0,0.0,0.0,0.0,10.0,0.0,0.0,0.0,10.0
1446038740470913795,371,1446038740465949058,robocape_mag,14.85,-28.95,22.65,10.0,0.0,0.0,0.0,10.0,0.0,0.0,0.0,10.0
1446038740505515254,372,1446038740498944044,robocape_mag,14.85,-28.95,22.65,10.0,0.0,0.0,0.0,10.0,0.0,0.0,0.0,10.0
1446038740537358295,373,1446038740531868934,robocape_mag,14.85,-28.95,22.65,10.0,0.0,0.0,0.0,10.0,0.0,0.0,0.0,10.0
1446038740574384379,374,1446038740569288969,robocape_mag,14.85,-28.95,23.25,10.0,0.0,0.0,0.0,10.0,0.0,0.0,0.0,10.0
1446038740605489545,375,1446038740599154949,robocape_mag,14.85,-28.95,23.25,10.0,0.0,0.0,0.0,10.0,0.0,0.0,0.0,10.0
1446038740637390587,376,1446038740632055997,robocape_mag,14.85,-28.95,23.25,10.0,0.0,0.0,0.0,10.0,0.0,0.0,0.0,10.0
1446038740670302212,377,1446038740665492057,robocape_mag,14.85,-28.95,23.25,10.0,0.0,0.0,0.0,10.0,0.0,0.0,0.0,10.0
1446038740703379171,378,1446038740698318004,robocape_mag,14.85,-28.95,23.25,10.0,0.0,0.0,0.0,10.0,0.0,0.0,0.0,10.0
1446038740738685171,379,1446038740731642961,robocape_mag,14.25,-28.35,22.65,10.0,0.0,0.0,0.0,10.0,0.0,0.0,0.0,10.0
1446038740770596129,380,1446038740765228033,robocape_mag,14.25,-28.35,22.65,10.0,0.0,0.0,0.0,10.0,0.0,0.0,0.0,10.0
1446038740807903879,381,1446038740800204038,robocape_mag,14.25,-28.35,22.65,10.0,0.0,0.0,0.0,10.0,0.0,0.0,0.0,10.0
1446038740838692212,382,1446038740831860065,robocape_mag,14.25,-28.35,22.65,10.0,0.0,0.0,0.0,10.0,0.0,0.0,0.0,10.0
1446038740870312587,383,1446038740865410089,robocape_mag,15.75,-29.85,21.15,10.0,0.0,0.0,0.0,10.0,0.0,0.0,0.0,10.0
1446038740903830379,384,1446038740898801088,robocape_mag,15.75,-29.85,21.15,10.0,0.0,0.0,0.0,10.0,0.0,0.0,0.0,10.0
1446038740937603837,385,1446038740932406902,robocape_mag,15.75,-29.85,21.15,10.0,0.0,0.0,0.0,10.0,0.0,0.0,0.0,10.0
1446038740975199254,386,1446038740966181039,robocape_mag,15.75,-29.85,21.15,10.0,0.0,0.0,0.0,10.0,0.0,0.0,0.0,10.0
1446038741003506087,387,1446038740998482942,robocape_mag,15.75,-29.85,21.15,10.0,0.0,0.0,0.0,10.0,0.0,0.0,0.0,10.0
1446038741037604171,388,1446038741031841993,robocape_mag,15.75,-29.25,22.35,10.0,0.0,0.0,0.0,10.0,0.0,0.0,0.0,10.0
1446038741071349129,389,1446038741066267013,robocape_mag,15.75,-29.25,22.35,10.0,0.0,0.0,0.0,10.0,0.0,0.0,0.0,10.0
1446038741104157421,390,1446038741099148988,robocape_mag,15.75,-29.25,22.35,10.0,0.0,0.0,0.0,10.0,0.0,0.0,0.0,10.0
1446038741138721171,391,1446038741132215023,robocape_mag,15.75,-29.25,22.35,10.0,0.0,0.0,0.0,10.0,0.0,0.0,0.0,10.0
1446038741170732837,392,1446038741165769100,robocape_mag,15.75,-29.25,22.35,10.0,0.0,0.0,0.0,10.0,0.0,0.0,0.0,10.0
1446038741203846462,393,1446038741198965072,robocape_mag,13.05,-29.55,22.05,10.0,0.0,0.0,0.0,10.0,0.0,0.0,0.0,10.0
1446038741238523212,394,1446038741232264041,robocape_mag,13.05,-29.55,22.05,10.0,0.0,0.0,0.0,10.0,0.0,0.0,0.0,10.0
1446038741274007379,395,1446038741268897056,robocape_mag,13.05,-29.55,22.05,10.0,0.0,0.0,0.0,10.0,0.0,0.0,0.0,10.0
1446038741303074462,396,1446038741298202037,robocape_mag,13.05,-29.55,22.05,10.0,0.0,0.0,0.0,10.0,0.0,0.0,0.0,10.0
1446038741336475421,397,1446038741331641912,robocape_mag,13.05,-29.55,22.05,10.0,0.0,0.0,0.0,10.0,0.0,0.0,0.0,10.0
1446038741371114713,398,1446038741366070032,robocape_mag,13.65,-28.95,22.65,10.0,0.0,0.0,0.0,10.0,0.0,0.0,0.0,10.0
1446038741402881129,399,1446038741398096084,robocape_mag,13.65,-28.95,22.65,10.0,0.0,0.0,0.0,10.0,0.0,0.0,0.0,10.0
1446038741436347713,400,1446038741431543111,robocape_mag,13.65,-28.95,22.65,10.0,0.0,0.0,0.0,10.0,0.0,0.0,0.0,10.0
1446038741471061421,401,1446038741465845108,robocape_mag,13.65,-28.95,22.65,10.0,0.0,0.0,0.0,10.0,0.0,0.0,0.0,10.0
1446038741504204171,402,1446038741498980045,robocape_mag,13.65,-28.95,22.65,10.0,0.0,0.0,0.0,10.0,0.0,0.0,0.0,10.0
1446038741537196421,403,1446038741532284975,robocape_mag,15.45,-30.15,23.25,10.0,0.0,0.0,0.0,10.0,0.0,0.0,0.0,10.0
1446038741570962754,404,1446038741566013097,robocape_mag,15.45,-30.15,23.25,10.0,0.0,0.0,0.0,10.0,0.0,0.0,0.0,10.0
1446038741604168838,405,1446038741599174022,robocape_mag,15.45,-30.15,23.25,10.0,0.0,0.0,0.0,10.0,0.0,0.0,0.0,10.0
1446038741637505546,406,1446038741632549047,robocape_mag,15.45,-30.15,23.25,10.0,0.0,0.0,0.0,10.0,0.0,0.0,0.0,10.0
1446038741672227546,407,1446038741665868997,robocape_mag,14.85,-29.55,23.25,10.0,0.0,0.0,0.0,10.0,0.0,0.0,0.0,10.0
1446038741703974088,408,1446038741698916912,robocape_mag,14.85,-29.55,23.25,10.0,0.0,0.0,0.0,10.0,0.0,0.0,0.0,10.0
1446038741735959463,409,1446038741731049060,robocape_mag,14.85,-29.55,23.25,10.0,0.0,0.0,0.0,10.0,0.0,0.0,0.0,10.0
1446038741770685463,410,1446038741765655994,robocape_mag,14.85,-29.55,23.25,10.0,0.0,0.0,0.0,10.0,0.0,0.0,0.0,10.0
1446038741810172838,411,1446038741799793004,robocape_mag,14.85,-29.55,23.25,10.0,0.0,0.0,0.0,10.0,0.0,0.0,0.0,10.0
1446038741837320504,412,1446038741832485914,robocape_mag,14.55,-28.65,24.15,10.0,0.0,0.0,0.0,10.0,0.0,0.0,0.0,10.0
1446038741869955796,413,1446038741865025043,robocape_mag,14.55,-28.65,24.15,10.0,0.0,0.0,0.0,10.0,0.0,0.0,0.0,10.0
1446038741903003713,414,1446038741898221969,robocape_mag,14.55,-28.65,24.15,10.0,0.0,0.0,0.0,10.0,0.0,0.0,0.0,10.0
1446038741936214629,415,1446038741931456089,robocape_mag,14.55,-28.65,24.15,10.0,0.0,0.0,0.0,10.0,0.0,0.0,0.0,10.0
1446038741973721088,416,1446038741966202020,robocape_mag,14.55,-28.65,24.15,10.0,0.0,0.0,0.0,10.0,0.0,0.0,0.0,10.0
1446038742004082921,417,1446038741998989105,robocape_mag,14.85,-30.15,22.05,10.0,0.0,0.0,0.0,10.0,0.0,0.0,0.0,10.0
1446038742037375838,418,1446038742032347917,robocape_mag,14.85,-30.15,22.05,10.0,0.0,0.0,0.0,10.0,0.0,0.0,0.0,10.0
1446038742071142963,419,1446038742065243959,robocape_mag,14.85,-30.15,22.05,10.0,0.0,0.0,0.0,10.0,0.0,0.0,0.0,10.0
1446038742104105421,420,1446038742099136114,robocape_mag,14.85,-30.15,22.05,10.0,0.0,0.0,0.0,10.0,0.0,0.0,0.0,10.0
1446038742139183046,421,1446038742131999969,robocape_mag,14.85,-30.15,22.05,10.0,0.0,0.0,0.0,10.0,0.0,0.0,0.0,10.0
1446038742170079671,422,1446038742165235996,robocape_mag,12.75,-28.65,22.35,10.0,0.0,0.0,0.0,10.0,0.0,0.0,0.0,10.0
1446038742203677463,423,1446038742198721885,robocape_mag,12.75,-28.65,22.35,10.0,0.0,0.0,0.0,10.0,0.0,0.0,0.0,10.0
1446038742237954796,424,1446038742232692956,robocape_mag,12.75,-28.65,22.35,10.0,0.0,0.0,0.0,10.0,0.0,0.0,0.0,10.0
1446038742270808546,425,1446038742265739917,robocape_mag,12.75,-28.65,22.35,10.0,0.0,0.0,0.0,10.0,0.0,0.0,0.0,10.0
1446038742303604963,426,1446038742298692941,robocape_mag,12.75,-28.65,22.35,10.0,0.0,0.0,0.0,10.0,0.0,0.0,0.0,10.0
1446038742337576963,427,1446038742332411050,robocape_mag,14.25,-30.15,23.25,10.0,0.0,0.0,0.0,10.0,0.0,0.0,0.0,10.0
1446038742371605755,428,1446038742366386890,robocape_mag,14.25,-30.15,23.25,10.0,0.0,0.0,0.0,10.0,0.0,0.0,0.0,10.0
1446038742404129713,429,1446038742399205923,robocape_mag,14.25,-30.15,23.25,10.0,0.0,0.0,0.0,10.0,0.0,0.0,0.0,10.0
1446038742437928671,430,1446038742432770967,robocape_mag,14.25,-30.15,23.25,10.0,0.0,0.0,0.0,10.0,0.0,0.0,0.0,10.0
1446038742471452963,431,1446038742466331005,robocape_mag,13.05,-30.15,21.45,10.0,0.0,0.0,0.0,10.0,0.0,0.0,0.0,10.0
1446038742504186296,432,1446038742499241113,robocape_mag,13.05,-30.15,21.45,10.0,0.0,0.0,0.0,10.0,0.0,0.0,0.0,10.0
1446038742537916921,433,1446038742532756090,robocape_mag,13.05,-30.15,21.45,10.0,0.0,0.0,0.0,10.0,0.0,0.0,0.0,10.0
1446038742571298005,434,1446038742566272974,robocape_mag,13.05,-30.15,21.45,10.0,0.0,0.0,0.0,10.0,0.0,0.0,0.0,10.0
1446038742604030671,435,1446038742599185943,robocape_mag,13.05,-30.15,21.45,10.0,0.0,0.0,0.0,10.0,0.0,0.0,0.0,10.0
1446038742637905671,436,1446038742632507085,robocape_mag,13.65,-28.35,21.45,10.0,0.0,0.0,0.0,10.0,0.0,0.0,0.0,10.0
1446038742671140421,437,1446038742665891885,robocape_mag,13.65,-28.35,21.45,10.0,0.0,0.0,0.0,10.0,0.0,0.0,0.0,10.0
1446038742705093255,438,1446038742700011014,robocape_mag,13.65,-28.35,21.45,10.0,0.0,0.0,0.0,10.0,0.0,0.0,0.0,10.0
1446038742738747838,439,1446038742732508897,robocape_mag,13.65,-28.35,21.45,10.0,0.0,0.0,0.0,10.0,0.0,0.0,0.0,10.0
1446038742772068547,440,1446038742765957117,robocape_mag,13.65,-28.35,21.45,10.0,0.0,0.0,0.0,10.0,0.0,0.0,0.0,10.0
1446038742807461463,441,1446038742800085067,robocape_mag,13.35,-29.25,22.35,10.0,0.0,0.0,0.0,10.0,0.0,0.0,0.0,10.0
1446038742837107547,442,1446038742832298040,robocape_mag,13.35,-29.25,22.35,10.0,0.0,0.0,0.0,10.0,0.0,0.0,0.0,10.0
1446038742872080422,443,1446038742866090059,robocape_mag,13.35,-29.25,22.35,10.0,0.0,0.0,0.0,10.0,0.0,0.0,0.0,10.0
1446038742903813213,444,1446038742898878097,robocape_mag,13.35,-29.25,22.35,10.0,0.0,0.0,0.0,10.0,0.0,0.0,0.0,10.0
1446038742937361797,445,1446038742932441949,robocape_mag,13.35,-29.25,22.35,10.0,0.0,0.0,0.0,10.0,0.0,0.0,0.0,10.0
1446038742970506880,446,1446038742965495109,robocape_mag,14.55,-28.65,22.35,10.0,0.0,0.0,0.0,10.0,0.0,0.0,0.0,10.0
1446038743002842297,447,1446038742998161077,robocape_mag,14.55,-28.65,22.35,10.0,0.0,0.0,0.0,10.0,0.0,0.0,0.0,10.0
1446038743035950380,448,1446038743031183958,robocape_mag,14.55,-28.65,22.35,10.0,0.0,0.0,0.0,10.0,0.0,0.0,0.0,10.0
1446038743073418672,449,1446038743067166090,robocape_mag,14.55,-28.65,22.35,10.0,0.0,0.0,0.0,10.0,0.0,0.0,0.0,10.0
1446038743107386172,450,1446038743102425098,robocape_mag,14.55,-29.85,22.35,10.0,0.0,0.0,0.0,10.0,0.0,0.0,0.0,10.0
1446038743137198255,451,1446038743132384061,robocape_mag,15.15,-29.85,22.35,10.0,0.0,0.0,0.0,10.0,0.0,0.0,0.0,10.0
1446038743174560713,452,1446038743168045997,robocape_mag,15.15,-29.85,22.35,10.0,0.0,0.0,0.0,10.0,0.0,0.0,0.0,10.0
1446038743206231547,453,1446038743201404094,robocape_mag,15.15,-29.85,22.35,10.0,0.0,0.0,0.0,10.0,0.0,0.0,0.0,10.0
1446038743241253172,454,1446038743236294984,robocape_mag,15.15,-29.85,22.35,10.0,0.0,0.0,0.0,10.0,0.0,0.0,0.0,10.0
1446038743272620338,455,1446038743267745971,robocape_mag,14.85,-29.55,22.65,10.0,0.0,0.0,0.0,10.0,0.0,0.0,0.0,10.0
1446038743309951047,456,1446038743300767898,robocape_mag,14.85,-29.55,22.65,10.0,0.0,0.0,0.0,10.0,0.0,0.0,0.0,10.0
1446038743348522047,457,1446038743337918043,robocape_mag,14.85,-29.55,22.65,10.0,0.0,0.0,0.0,10.0,0.0,0.0,0.0,10.0
1446038743376201922,458,1446038743367105960,robocape_mag,14.85,-29.55,22.65,10.0,0.0,0.0,0.0,10.0,0.0,0.0,0.0,10.0
1446038743406052505,459,1446038743401148080,robocape_mag,14.85,-29.55,22.65,10.0,0.0,0.0,0.0,10.0,0.0,0.0,0.0,10.0
1446038743455767088,460,1446038743435719013,robocape_mag,14.55,-28.65,24.15,10.0,0.0,0.0,0.0,10.0,0.0,0.0,0.0,10.0
1446038743477149547,461,1446038743471995115,robocape_mag,14.55,-28.65,24.15,10.0,0.0,0.0,0.0,10.0,0.0,0.0,0.0,10.0
1446038743514447172,462,1446038743506138086,robocape_mag,14.55,-28.65,24.15,10.0,0.0,0.0,0.0,10.0,0.0,0.0,0.0,10.0
1446038743553193964,463,1446038743537780046,robocape_mag,14.55,-28.65,24.15,10.0,0.0,0.0,0.0,10.0,0.0,0.0,0.0,10.0
1446038743581244422,464,1446038743573803901,robocape_mag,14.55,-28.65,24.15,10.0,0.0,0.0,0.0,10.0,0.0,0.0,0.0,10.0
1446038743608991297,465,1446038743603640079,robocape_mag,16.05,-27.75,22.05,10.0,0.0,0.0,0.0,10.0,0.0,0.0,0.0,10.0
1446038743644713797,466,1446038743637298107,robocape_mag,16.05,-27.75,22.05,10.0,0.0,0.0,0.0,10.0,0.0,0.0,0.0,10.0
1446038743674345172,467,1446038743668327093,robocape_mag,16.05,-27.75,22.05,10.0,0.0,0.0,0.0,10.0,0.0,0.0,0.0,10.0
1446038743707191214,468,1446038743701520919,robocape_mag,16.05,-27.75,22.05,10.0,0.0,0.0,0.0,10.0,0.0,0.0,0.0,10.0
1446038743740815672,469,1446038743735450983,robocape_mag,16.05,-27.75,22.05,10.0,0.0,0.0,0.0,10.0,0.0,0.0,0.0,10.0
1446038743777867797,470,1446038743767858028,robocape_mag,13.35,-28.65,22.35,10.0,0.0,0.0,0.0,10.0,0.0,0.0,0.0,10.0
1446038743821968339,471,1446038743801292896,robocape_mag,13.35,-28.65,22.35,10.0,0.0,0.0,0.0,10.0,0.0,0.0,0.0,10.0
1446038743848103755,472,1446038743835650920,robocape_mag,13.35,-28.65,22.35,10.0,0.0,0.0,0.0,10.0,0.0,0.0,0.0,10.0
1446038743878106214,473,1446038743872674942,robocape_mag,13.35,-28.65,22.35,10.0,0.0,0.0,0.0,10.0,0.0,0.0,0.0,10.0
1446038743912920505,474,1446038743903249025,robocape_mag,13.35,-28.35,21.45,10.0,0.0,0.0,0.0,10.0,0.0,0.0,0.0,10.0
1446038743945688005,475,1446038743937055110,robocape_mag,16.05,-28.35,21.45,10.0,0.0,0.0,0.0,10.0,0.0,0.0,0.0,10.0
1446038743975317547,476,1446038743969949007,robocape_mag,16.05,-28.35,21.45,10.0,0.0,0.0,0.0,10.0,0.0,0.0,0.0,10.0
1446038744011984505,477,1446038744000711917,robocape_mag,16.05,-28.35,21.45,10.0,0.0,0.0,0.0,10.0,0.0,0.0,0.0,10.0
1446038744046101214,478,1446038744038014888,robocape_mag,16.05,-28.35,21.45,10.0,0.0,0.0,0.0,10.0,0.0,0.0,0.0,10.0
1446038744077150922,479,1446038744069161891,robocape_mag,16.35,-30.45,23.55,10.0,0.0,0.0,0.0,10.0,0.0,0.0,0.0,10.0
1446038744105886547,480,1446038744100722074,robocape_mag,16.35,-30.45,23.55,10.0,0.0,0.0,0.0,10.0,0.0,0.0,0.0,10.0
1446038744142002630,481,1446038744136981010,robocape_mag,16.35,-30.45,23.55,10.0,0.0,0.0,0.0,10.0,0.0,0.0,0.0,10.0
1446038744176111172,482,1446038744168462991,robocape_mag,16.35,-30.45,23.55,10.0,0.0,0.0,0.0,10.0,0.0,0.0,0.0,10.0
1446038744210066381,483,1446038744204935073,robocape_mag,16.35,-30.45,23.55,10.0,0.0,0.0,0.0,10.0,0.0,0.0,0.0,10.0
1446038744237990589,484,1446038744232619047,robocape_mag,13.05,-31.95,22.05,10.0,0.0,0.0,0.0,10.0,0.0,0.0,0.0,10.0
1446038744272704006,485,1446038744267504930,robocape_mag,13.05,-31.95,22.05,10.0,0.0,0.0,0.0,10.0,0.0,0.0,0.0,10.0
1446038744310318756,486,1446038744305171012,robocape_mag,13.05,-31.95,22.05,10.0,0.0,0.0,0.0,10.0,0.0,0.0,0.0,10.0
1446038744340985881,487,1446038744335309028,robocape_mag,13.05,-31.95,22.05,10.0,0.0,0.0,0.0,10.0,0.0,0.0,0.0,10.0
1446038744377328839,488,1446038744367808103,robocape_mag,13.05,-31.95,22.05,10.0,0.0,0.0,0.0,10.0,0.0,0.0,0.0,10.0
1446038744410748506,489,1446038744403449058,robocape_mag,13.65,-29.55,22.65,10.0,0.0,0.0,0.0,10.0,0.0,0.0,0.0,10.0
1446038744443535756,490,1446038744434961080,robocape_mag,13.65,-29.55,22.65,10.0,0.0,0.0,0.0,10.0,0.0,0.0,0.0,10.0
1446038744481988339,491,1446038744471043109,robocape_mag,13.65,-29.55,22.65,10.0,0.0,0.0,0.0,10.0,0.0,0.0,0.0,10.0
1446038744507324131,492,1446038744501588106,robocape_mag,13.65,-29.55,22.65,10.0,0.0,0.0,0.0,10.0,0.0,0.0,0.0,10.0
1446038744545214839,493,1446038744537952899,robocape_mag,13.65,-29.55,22.65,10.0,0.0,0.0,0.0,10.0,0.0,0.0,0.0,10.0
1446038744579137006,494,1446038744570702075,robocape_mag,19.95,-31.05,19.95,10.0,0.0,0.0,0.0,10.0,0.0,0.0,0.0,10.0
1446038744606083172,495,1446038744600720882,robocape_mag,19.95,-31.05,19.95,10.0,0.0,0.0,0.0,10.0,0.0,0.0,0.0,10.0
1446038744645524131,496,1446038744637835979,robocape_mag,19.95,-31.05,19.95,10.0,0.0,0.0,0.0,10.0,0.0,0.0,0.0,10.0
1446038744672933756,497,1446038744667840003,robocape_mag,19.95,-31.05,19.95,10.0,0.0,0.0,0.0,10.0,0.0,0.0,0.0,10.0
1446038744714032506,498,1446038744705718994,robocape_mag,13.35,-29.25,23.55,10.0,0.0,0.0,0.0,10.0,0.0,0.0,0.0,10.0
1446038744742188089,499,1446038744736166954,robocape_mag,13.35,-29.25,23.55,10.0,0.0,0.0,0.0,10.0,0.0,0.0,0.0,10.0
1446038744777341714,500,1446038744768887996,robocape_mag,13.35,-29.25,23.55,10.0,0.0,0.0,0.0,10.0,0.0,0.0,0.0,10.0
1446038744808540964,501,1446038744803109884,robocape_mag,13.35,-29.25,23.55,10.0,0.0,0.0,0.0,10.0,0.0,0.0,0.0,10.0
1446038744841854006,502,1446038744836277008,robocape_mag,13.35,-29.25,23.55,10.0,0.0,0.0,0.0,10.0,0.0,0.0,0.0,10.0
1446038744881121173,503,1446038744871093034,robocape_mag,18.15,-31.65,24.75,10.0,0.0,0.0,0.0,10.0,0.0,0.0,0.0,10.0
1446038744907246339,504,1446038744900511026,robocape_mag,18.15,-31.65,24.75,10.0,0.0,0.0,0.0,10.0,0.0,0.0,0.0,10.0
1446038744942999923,505,1446038744935185909,robocape_mag,18.15,-31.65,24.75,10.0,0.0,0.0,0.0,10.0,0.0,0.0,0.0,10.0
1446038744977135881,506,1446038744970110893,robocape_mag,18.15,-31.65,24.75,10.0,0.0,0.0,0.0,10.0,0.0,0.0,0.0,10.0
1446038745007645923,507,1446038745002084016,robocape_mag,18.15,-31.65,24.75,10.0,0.0,0.0,0.0,10.0,0.0,0.0,0.0,10.0
1446038745045433464,508,1446038745035981893,robocape_mag,16.35,-28.65,23.55,10.0,0.0,0.0,0.0,10.0,0.0,0.0,0.0,10.0
1446038745076607923,509,1446038745067456007,robocape_mag,16.35,-28.65,23.55,10.0,0.0,0.0,0.0,10.0,0.0,0.0,0.0,10.0
1446038745108665839,510,1446038745103128910,robocape_mag,16.35,-28.65,23.55,10.0,0.0,0.0,0.0,10.0,0.0,0.0,0.0,10.0
1446038745141683964,511,1446038745134278059,robocape_mag,16.35,-28.65,23.55,10.0,0.0,0.0,0.0,10.0,0.0,0.0,0.0,10.0
1446038745174121714,512,1446038745168483018,robocape_mag,16.35,-28.65,23.55,10.0,0.0,0.0,0.0,10.0,0.0,0.0,0.0,10.0
1446038745211400714,513,1446038745203210115,robocape_mag,15.15,-31.65,23.55,10.0,0.0,0.0,0.0,10.0,0.0,0.0,0.0,10.0
1446038745241868131,514,1446038745236670970,robocape_mag,15.15,-31.65,23.55,10.0,0.0,0.0,0.0,10.0,0.0,0.0,0.0,10.0
1446038745274619464,515,1446038745267211914,robocape_mag,15.15,-31.65,23.55,10.0,0.0,0.0,0.0,10.0,0.0,0.0,0.0,10.0
1446038745311130881,516,1446038745303037881,robocape_mag,15.15,-31.65,23.55,10.0,0.0,0.0,0.0,10.0,0.0,0.0,0.0,10.0
1446038745342426673,517,1446038745333220005,robocape_mag,15.15,-31.65,23.55,10.0,0.0,0.0,0.0,10.0,0.0,0.0,0.0,10.0
1446038745374591256,518,1446038745368468999,robocape_mag,19.05,-29.55,21.45,10.0,0.0,0.0,0.0,10.0,0.0,0.0,0.0,10.0
1446038745408275881,519,1446038745402772903,robocape_mag,19.05,-29.55,21.45,10.0,0.0,0.0,0.0,10.0,0.0,0.0,0.0,10.0
