%time,field.header.seq,field.header.stamp,field.header.frame_id,field.magnetic_field.x,field.magnetic_field.y,field.magnetic_field.z,field.magnetic_field_covariance0,field.magnetic_field_covariance1,field.magnetic_field_covariance2,field.magnetic_field_covariance3,field.magnetic_field_covariance4,field.magnetic_field_covariance5,field.magnetic_field_covariance6,field.magnetic_field_covariance7,field.magnetic_field_covariance8
1446039378139492253,1,1446039377779309988,robocape_mag,-9.9,-19.5,-6.0,10.0,0.0,0.0,0.0,10.0,0.0,0.0,0.0,10.0
1446039378157818878,2,1446039377802175045,robocape_mag,-8.7,-20.1,-6.0,10.0,0.0,0.0,0.0,10.0,0.0,0.0,0.0,10.0
1446039378159707128,3,1446039377837214946,robocape_mag,-8.7,-20.1,-6.0,10.0,0.0,0.0,0.0,10.0,0.0,0.0,0.0,10.0
1446039378159972378,4,1446039377869656085,robocape_mag,-8.7,-20.1,-6.0,10.0,0.0,0.0,0.0,10.0,0.0,0.0,0.0,10.0
1446039378160016253,5,1446039377910913944,robocape_mag,-8.7,-20.1,-6.0,10.0,0.0,0.0,0.0,10.0,0.0,0.0,0.0,10.0
1446039378160169462,6,1446039377938893079,robocape_mag,-10.2,-19.8,-5.7,10.0,0.0,0.0,0.0,10.0,0.0,0.0,0.0,10.0
1446039378160213712,7,1446039377970423936,robocape_mag,-10.2,-19.8,-5.7,10.0,0.0,0.0,0.0,10.0,0.0,0.0,0.0,10.0
1446039378160254087,8,1446039378004319906,robocape_mag,-10.2,-19.8,-5.7,10.0,0.0,0.0,0.0,10.0,0.0,0.0,0.0,10.0
1446039378160291128,9,1446039378036371946,robocape_mag,-10.2,-19.8,-5.7,10.0,0.0,0.0,0.0,10.0,0.0,0.0,0.0,10.0
1446039378161002087,10,1446039378096081018,robocape_mag,-10.2,-19.8,-6.0,10.0,0.0,0.0,0.0,10.0,0.0,0.0,0.0,10.0
1446039378164306420,11,1446039378122519969,robocape_mag,-9.3,-18.9,-6.0,10.0,0.0,0.0,0.0,10.0,0.0,0.0,0.0,10.0
1446039378182259295,12,1446039378144673109,robocape_mag,-9.3,-18.9,-6.0,10.0,0.0,0.0,0.0,10.0,0.0,0.0,0.0,10.0
1446039378191519795,13,1446039378168271064,robocape_mag,-9.3,-18.9,-6.0,10.0,0.0,0.0,0.0,10.0,0.0,0.0,0.0,10.0
1446039378210382462,14,1446039378204076051,robocape_mag,-9.3,-18.9,-6.0,10.0,0.0,0.0,0.0,10.0,0.0,0.0,0.0,10.0
1446039378240237753,15,1446039378235490083,robocape_mag,-9.3,-18.9,-6.0,10.0,0.0,0.0,0.0,10.0,0.0,0.0,0.0,10.0
1446039378273433420,16,1446039378268707990,robocape_mag,-3.0,-20.4,-6.9,10.0,0.0,0.0,0.0,10.0,0.0,0.0,0.0,10.0
1446039378306752837,17,1446039378301649093,robocape_mag,-3.0,-20.4,-6.9,10.0,0.0,0.0,0.0,10.0,0.0,0.0,0.0,10.0
1446039378340133170,18,1446039378335381984,robocape_mag,-3.0,-20.4,-6.9,10.0,0.0,0.0,0.0,10.0,0.0,0.0,0.0,10.0
1446039378374111253,19,1446039378369019985,robocape_mag,-3.0,-20.4,-6.9,10.0,0.0,0.0,0.0,10.0,0.0,0.0,0.0,10.0
1446039378410766629,20,1446039378402512073,robocape_mag,-3.0,-20.4,-6.9,10.0,0.0,0.0,0.0,10.0,0.0,0.0,0.0,10.0
1446039378443667712,21,1446039378435818910,robocape_mag,-8.4,-19.2,-7.5,10.0,0.0,0.0,0.0,10.0,0.0,0.0,0.0,10.0
1446039378473464837,22,1446039378468676090,robocape_mag,-8.4,-19.2,-7.5,10.0,0.0,0.0,0.0,10.0,0.0,0.0,0.0,10.0
1446039378506704462,23,1446039378501657009,robocape_mag,-8.4,-19.2,-7.5,10.0,0.0,0.0,0.0,10.0,0.0,0.0,0.0,10.0
1446039378545547295,24,1446039378540549039,robocape_mag,-8.4,-19.2,-7.5,10.0,0.0,0.0,0.0,10.0,0.0,0.0,0.0,10.0
1446039378577373962,25,1446039378570013999,robocape_mag,-8.4,-19.2,-7.5,10.0,0.0,0.0,0.0,10.0,0.0,0.0,0.0,10.0
1446039378609453379,26,1446039378603640079,robocape_mag,-10.5,-18.9,-6.0,10.0,0.0,0.0,0.0,10.0,0.0,0.0,0.0,10.0
1446039378644504420,27,1446039378639170885,robocape_mag,-10.5,-18.9,-6.0,10.0,0.0,0.0,0.0,10.0,0.0,0.0,0.0,10.0
1446039378680257170,28,1446039378671890020,robocape_mag,-10.5,-18.9,-6.0,10.0,0.0,0.0,0.0,10.0,0.0,0.0,0.0,10.0
1446039378709526170,29,1446039378702578067,robocape_mag,-10.5,-18.9,-6.0,10.0,0.0,0.0,0.0,10.0,0.0,0.0,0.0,10.0
1446039378748403087,30,1446039378738533020,robocape_mag,-5.7,-18.9,-7.2,10.0,0.0,0.0,0.0,10.0,0.0,0.0,0.0,10.0
1446039378776687420,31,1446039378771404981,robocape_mag,-5.7,-18.9,-7.2,10.0,0.0,0.0,0.0,10.0,0.0,0.0,0.0,10.0
1446039378810577004,32,1446039378805156946,robocape_mag,-5.7,-18.9,-7.2,10.0,0.0,0.0,0.0,10.0,0.0,0.0,0.0,10.0
1446039378845212295,33,1446039378838088989,robocape_mag,-5.7,-18.9,-7.2,10.0,0.0,0.0,0.0,10.0,0.0,0.0,0.0,10.0
1446039378876550962,34,1446039378871329069,robocape_mag,-5.7,-18.9,-7.2,10.0,0.0,0.0,0.0,10.0,0.0,0.0,0.0,10.0
1446039378909975545,35,1446039378904803037,robocape_mag,-8.4,-18.6,-6.3,10.0,0.0,0.0,0.0,10.0,0.0,0.0,0.0,10.0
1446039378947529170,36,1446039378937263965,robocape_mag,-8.4,-18.6,-6.3,10.0,0.0,0.0,0.0,10.0,0.0,0.0,0.0,10.0
1446039378980746129,37,1446039378971158027,robocape_mag,-8.4,-18.6,-6.3,10.0,0.0,0.0,0.0,10.0,0.0,0.0,0.0,10.0
1446039379008173170,38,1446039379002890110,robocape_mag,-8.4,-18.6,-6.3,10.0,0.0,0.0,0.0,10.0,0.0,0.0,0.0,10.0
1446039379042109795,39,1446039379036761045,robocape_mag,-8.4,-18.6,-6.3,10.0,0.0,0.0,0.0,10.0,0.0,0.0,0.0,10.0
1446039379075150462,40,1446039379070137977,robocape_mag,-6.0,-20.4,-7.5,10.0,0.0,0.0,0.0,10.0,0.0,0.0,0.0,10.0
1446039379109527296,41,1446039379104582071,robocape_mag,-6.0,-20.4,-7.5,10.0,0.0,0.0,0.0,10.0,0.0,0.0,0.0,10.0
1446039379143006046,42,1446039379137831926,robocape_mag,-6.0,-20.4,-7.5,10.0,0.0,0.0,0.0,10.0,0.0,0.0,0.0,10.0
1446039379174628421,43,1446039379169795036,robocape_mag,-6.0,-20.4,-7.5,10.0,0.0,0.0,0.0,10.0,0.0,0.0,0.0,10.0
1446039379207802462,44,1446039379202985048,robocape_mag,-6.0,-20.4,-7.5,10.0,0.0,0.0,0.0,10.0,0.0,0.0,0.0,10.0
1446039379240393587,45,1446039379235218048,robocape_mag,-8.7,-19.5,-6.6,10.0,0.0,0.0,0.0,10.0,0.0,0.0,0.0,10.0
1446039379273038962,46,1446039379268193960,robocape_mag,-8.7,-19.5,-6.6,10.0,0.0,0.0,0.0,10.0,0.0,0.0,0.0,10.0
1446039379306464754,47,1446039379301376104,robocape_mag,-8.7,-19.5,-6.6,10.0,0.0,0.0,0.0,10.0,0.0,0.0,0.0,10.0
1446039379339968087,48,1446039379334738969,robocape_mag,-8.7,-19.5,-6.6,10.0,0.0,0.0,0.0,10.0,0.0,0.0,0.0,10.0
1446039379372693462,49,1446039379367491006,robocape_mag,-8.7,-19.5,-6.6,10.0,0.0,0.0,0.0,10.0,0.0,0.0,0.0,10.0
1446039379405854796,50,1446039379400990009,robocape_mag,-6.0,-21.0,-5.7,10.0,0.0,0.0,0.0,10.0,0.0,0.0,0.0,10.0
1446039379439420046,51,1446039379434156894,robocape_mag,-6.0,-21.0,-5.7,10.0,0.0,0.0,0.0,10.0,0.0,0.0,0.0,10.0
1446039379472527462,52,1446039379467655897,robocape_mag,-6.0,-21.0,-5.7,10.0,0.0,0.0,0.0,10.0,0.0,0.0,0.0,10.0
1446039379505620046,53,1446039379500718116,robocape_mag,-6.0,-21.0,-5.7,10.0,0.0,0.0,0.0,10.0,0.0,0.0,0.0,10.0
1446039379542996879,54,1446039379534229040,robocape_mag,-6.3,-21.3,-7.8,10.0,0.0,0.0,0.0,10.0,0.0,0.0,0.0,10.0
1446039379575909004,55,1446039379567190885,robocape_mag,-6.3,-21.3,-7.8,10.0,0.0,0.0,0.0,10.0,0.0,0.0,0.0,10.0
1446039379605547921,56,1446039379600759029,robocape_mag,-6.3,-21.3,-7.8,10.0,0.0,0.0,0.0,10.0,0.0,0.0,0.0,10.0
1446039379639074046,57,1446039379633909940,robocape_mag,-6.3,-21.3,-7.8,10.0,0.0,0.0,0.0,10.0,0.0,0.0,0.0,10.0
1446039379673132546,58,1446039379668175935,robocape_mag,-6.3,-21.3,-7.8,10.0,0.0,0.0,0.0,10.0,0.0,0.0,0.0,10.0
1446039379706186046,59,1446039379701280117,robocape_mag,-6.3,-20.7,-6.0,10.0,0.0,0.0,0.0,10.0,0.0,0.0,0.0,10.0
1446039379743509379,60,1446039379734172105,robocape_mag,-6.3,-20.7,-6.0,10.0,0.0,0.0,0.0,10.0,0.0,0.0,0.0,10.0
1446039379776401921,61,1446039379767621994,robocape_mag,-6.3,-20.7,-6.0,10.0,0.0,0.0,0.0,10.0,0.0,0.0,0.0,10.0
1446039379805549379,62,1446039379800605058,robocape_mag,-6.3,-20.7,-6.0,10.0,0.0,0.0,0.0,10.0,0.0,0.0,0.0,10.0
1446039379839277338,63,1446039379834052085,robocape_mag,-6.3,-20.7,-6.0,10.0,0.0,0.0,0.0,10.0,0.0,0.0,0.0,10.0
1446039379872421546,64,1446039379867463111,robocape_mag,-2.4,-21.6,-6.9,10.0,0.0,0.0,0.0,10.0,0.0,0.0,0.0,10.0
1446039379905706046,65,1446039379900715112,robocape_mag,-2.4,-21.6,-6.9,10.0,0.0,0.0,0.0,10.0,0.0,0.0,0.0,10.0
1446039379941251921,66,1446039379935126066,robocape_mag,-2.4,-21.6,-6.9,10.0,0.0,0.0,0.0,10.0,0.0,0.0,0.0,10.0
1446039379972397213,67,1446039379967582941,robocape_mag,-2.4,-21.6,-6.9,10.0,0.0,0.0,0.0,10.0,0.0,0.0,0.0,10.0
1446039380006895921,68,1446039380000859022,robocape_mag,-2.4,-21.6,-6.9,10.0,0.0,0.0,0.0,10.0,0.0,0.0,0.0,10.0
1446039380040856629,69,1446039380033845901,robocape_mag,-9.0,-19.2,-6.9,10.0,0.0,0.0,0.0,10.0,0.0,0.0,0.0,10.0
1446039380073844129,70,1446039380067441940,robocape_mag,-9.0,-19.2,-6.9,10.0,0.0,0.0,0.0,10.0,0.0,0.0,0.0,10.0
1446039380106039421,71,1446039380100466966,robocape_mag,-9.0,-19.2,-6.9,10.0,0.0,0.0,0.0,10.0,0.0,0.0,0.0,10.0
1446039380140194879,72,1446039380135066986,robocape_mag,-9.0,-19.2,-6.9,10.0,0.0,0.0,0.0,10.0,0.0,0.0,0.0,10.0
1446039380176159379,73,1446039380171036005,robocape_mag,-9.0,-19.2,-6.9,10.0,0.0,0.0,0.0,10.0,0.0,0.0,0.0,10.0
1446039380208496338,74,1446039380203248977,robocape_mag,-8.4,-20.4,-6.3,10.0,0.0,0.0,0.0,10.0,0.0,0.0,0.0,10.0
1446039380242001754,75,1446039380236717939,robocape_mag,-8.4,-20.4,-6.3,10.0,0.0,0.0,0.0,10.0,0.0,0.0,0.0,10.0
1446039380275119171,76,1446039380270159959,robocape_mag,-8.4,-20.4,-6.3,10.0,0.0,0.0,0.0,10.0,0.0,0.0,0.0,10.0
1446039380308816171,77,1446039380303348064,robocape_mag,-8.4,-20.4,-6.3,10.0,0.0,0.0,0.0,10.0,0.0,0.0,0.0,10.0
1446039380341475004,78,1446039380335968971,robocape_mag,-8.1,-20.7,-7.2,10.0,0.0,0.0,0.0,10.0,0.0,0.0,0.0,10.0
1446039380374578546,79,1446039380369690895,robocape_mag,-8.1,-20.7,-7.2,10.0,0.0,0.0,0.0,10.0,0.0,0.0,0.0,10.0
1446039380408376254,80,1446039380403125047,robocape_mag,-8.1,-20.7,-7.2,10.0,0.0,0.0,0.0,10.0,0.0,0.0,0.0,10.0
1446039380439924338,81,1446039380434457063,robocape_mag,-8.1,-20.7,-7.2,10.0,0.0,0.0,0.0,10.0,0.0,0.0,0.0,10.0
1446039380472979088,82,1446039380468146085,robocape_mag,-8.1,-20.7,-7.2,10.0,0.0,0.0,0.0,10.0,0.0,0.0,0.0,10.0
1446039380506270213,83,1446039380501347064,robocape_mag,-4.8,-20.4,-6.9,10.0,0.0,0.0,0.0,10.0,0.0,0.0,0.0,10.0
1446039380540367046,84,1446039380535362005,robocape_mag,-4.8,-20.4,-6.9,10.0,0.0,0.0,0.0,10.0,0.0,0.0,0.0,10.0
1446039380573110130,85,1446039380568276882,robocape_mag,-4.8,-20.4,-6.9,10.0,0.0,0.0,0.0,10.0,0.0,0.0,0.0,10.0
1446039380605748588,86,1446039380600905895,robocape_mag,-4.8,-20.4,-6.9,10.0,0.0,0.0,0.0,10.0,0.0,0.0,0.0,10.0
1446039380639190921,87,1446039380634213924,robocape_mag,-4.8,-20.4,-6.9,10.0,0.0,0.0,0.0,10.0,0.0,0.0,0.0,10.0
1446039380672246130,88,1446039380667402982,robocape_mag,-1.5,-23.7,-8.4,10.0,0.0,0.0,0.0,10.0,0.0,0.0,0.0,10.0
1446039380705596796,89,1446039380700753927,robocape_mag,-1.5,-23.7,-8.4,10.0,0.0,0.0,0.0,10.0,0.0,0.0,0.0,10.0
1446039380739002755,90,1446039380734005928,robocape_mag,-1.5,-23.7,-8.4,10.0,0.0,0.0,0.0,10.0,0.0,0.0,0.0,10.0
1446039380772573380,91,1446039380767391920,robocape_mag,-1.5,-23.7,-8.4,10.0,0.0,0.0,0.0,10.0,0.0,0.0,0.0,10.0
1446039380805591671,92,1446039380800827026,robocape_mag,-1.5,-23.7,-8.4,10.0,0.0,0.0,0.0,10.0,0.0,0.0,0.0,10.0
1446039380839417421,93,1446039380834561109,robocape_mag,-7.2,-21.6,-6.9,10.0,0.0,0.0,0.0,10.0,0.0,0.0,0.0,10.0
1446039380872044338,94,1446039380867269992,robocape_mag,-7.2,-21.6,-6.9,10.0,0.0,0.0,0.0,10.0,0.0,0.0,0.0,10.0
1446039380905920880,95,1446039380901084899,robocape_mag,-7.2,-21.6,-6.9,10.0,0.0,0.0,0.0,10.0,0.0,0.0,0.0,10.0
1446039380939449130,96,1446039380934653043,robocape_mag,-7.2,-21.6,-6.9,10.0,0.0,0.0,0.0,10.0,0.0,0.0,0.0,10.0
1446039380972396171,97,1446039380967267990,robocape_mag,-7.2,-21.6,-6.9,10.0,0.0,0.0,0.0,10.0,0.0,0.0,0.0,10.0
1446039381005717088,98,1446039381000825881,robocape_mag,-6.3,-21.3,-7.8,10.0,0.0,0.0,0.0,10.0,0.0,0.0,0.0,10.0
1446039381040683505,99,1446039381035748004,robocape_mag,-6.3,-21.3,-7.8,10.0,0.0,0.0,0.0,10.0,0.0,0.0,0.0,10.0
1446039381072320796,100,1446039381067538976,robocape_mag,-6.3,-21.3,-7.8,10.0,0.0,0.0,0.0,10.0,0.0,0.0,0.0,10.0
1446039381106896296,101,1446039381101855039,robocape_mag,-6.3,-21.3,-7.8,10.0,0.0,0.0,0.0,10.0,0.0,0.0,0.0,10.0
1446039381142339796,102,1446039381137208938,robocape_mag,-5.7,-20.7,-6.0,10.0,0.0,0.0,0.0,10.0,0.0,0.0,0.0,10.0
1446039381172368255,103,1446039381167448997,robocape_mag,-5.7,-20.7,-6.0,10.0,0.0,0.0,0.0,10.0,0.0,0.0,0.0,10.0
1446039381206310422,104,1446039381200722932,robocape_mag,-5.7,-20.7,-6.0,10.0,0.0,0.0,0.0,10.0,0.0,0.0,0.0,10.0
1446039381239610630,105,1446039381234278917,robocape_mag,-5.7,-20.7,-6.0,10.0,0.0,0.0,0.0,10.0,0.0,0.0,0.0,10.0
1446039381272396422,106,1446039381267381906,robocape_mag,-5.7,-20.7,-6.0,10.0,0.0,0.0,0.0,10.0,0.0,0.0,0.0,10.0
1446039381305809255,107,1446039381300844907,robocape_mag,-5.7,-20.1,-7.8,10.0,0.0,0.0,0.0,10.0,0.0,0.0,0.0,10.0
1446039381339349713,108,1446039381334074974,robocape_mag,-5.7,-20.1,-7.8,10.0,0.0,0.0,0.0,10.0,0.0,0.0,0.0,10.0
1446039381372501088,109,1446039381367254018,robocape_mag,-5.7,-20.1,-7.8,10.0,0.0,0.0,0.0,10.0,0.0,0.0,0.0,10.0
1446039381405640588,110,1446039381400505065,robocape_mag,-5.7,-20.1,-7.8,10.0,0.0,0.0,0.0,10.0,0.0,0.0,0.0,10.0
1446039381440933547,111,1446039381433971881,robocape_mag,-5.7,-20.1,-7.8,10.0,0.0,0.0,0.0,10.0,0.0,0.0,0.0,10.0
1446039381474115255,112,1446039381467081069,robocape_mag,-1.5,-22.5,-7.8,10.0,0.0,0.0,0.0,10.0,0.0,0.0,0.0,10.0
1446039381505440922,113,1446039381500472068,robocape_mag,-1.5,-22.5,-7.8,10.0,0.0,0.0,0.0,10.0,0.0,0.0,0.0,10.0
1446039381541035213,114,1446039381534540891,robocape_mag,-1.5,-22.5,-7.8,10.0,0.0,0.0,0.0,10.0,0.0,0.0,0.0,10.0
1446039381573750172,115,1446039381567255020,robocape_mag,-1.5,-22.5,-7.8,10.0,0.0,0.0,0.0,10.0,0.0,0.0,0.0,10.0
1446039381605451463,116,1446039381600697040,robocape_mag,-1.5,-22.5,-7.8,10.0,0.0,0.0,0.0,10.0,0.0,0.0,0.0,10.0
1446039381639366213,117,1446039381634160041,robocape_mag,-5.4,-21.0,-7.5,10.0,0.0,0.0,0.0,10.0,0.0,0.0,0.0,10.0
1446039381672435380,118,1446039381667414903,robocape_mag,-5.4,-21.0,-7.5,10.0,0.0,0.0,0.0,10.0,0.0,0.0,0.0,10.0
1446039381705436713,119,1446039381700655937,robocape_mag,-5.4,-21.0,-7.5,10.0,0.0,0.0,0.0,10.0,0.0,0.0,0.0,10.0
1446039381740198255,120,1446039381735260009,robocape_mag,-5.4,-21.0,-7.5,10.0,0.0,0.0,0.0,10.0,0.0,0.0,0.0,10.0
1446039381774861380,121,1446039381768280982,robocape_mag,-5.4,-21.0,-7.5,10.0,0.0,0.0,0.0,10.0,0.0,0.0,0.0,10.0
1446039381807868755,122,1446039381800894021,robocape_mag,-9.6,-19.2,-7.5,10.0,0.0,0.0,0.0,10.0,0.0,0.0,0.0,10.0
1446039381840487463,123,1446039381835642099,robocape_mag,-9.6,-19.2,-7.5,10.0,0.0,0.0,0.0,10.0,0.0,0.0,0.0,10.0
1446039381874156797,124,1446039381868936061,robocape_mag,-9.6,-19.2,-7.5,10.0,0.0,0.0,0.0,10.0,0.0,0.0,0.0,10.0
1446039381907478839,125,1446039381902558088,robocape_mag,-9.6,-19.2,-7.5,10.0,0.0,0.0,0.0,10.0,0.0,0.0,0.0,10.0
1446039381943465130,126,1446039381935925960,robocape_mag,-6.9,-20.7,-6.6,10.0,0.0,0.0,0.0,10.0,0.0,0.0,0.0,10.0
1446039381980330714,127,1446039381970699071,robocape_mag,-6.9,-20.7,-6.6,10.0,0.0,0.0,0.0,10.0,0.0,0.0,0.0,10.0
1446039382010664255,128,1446039382002167940,robocape_mag,-6.9,-20.7,-6.6,10.0,0.0,0.0,0.0,10.0,0.0,0.0,0.0,10.0
1446039382042179922,129,1446039382034923076,robocape_mag,-6.9,-20.7,-6.6,10.0,0.0,0.0,0.0,10.0,0.0,0.0,0.0,10.0
1446039382081006339,130,1446039382070642948,robocape_mag,-6.9,-20.7,-6.6,10.0,0.0,0.0,0.0,10.0,0.0,0.0,0.0,10.0
1446039382105370214,131,1446039382100442886,robocape_mag,-7.5,-20.1,-6.6,10.0,0.0,0.0,0.0,10.0,0.0,0.0,0.0,10.0
1446039382142695714,132,1446039382137157917,robocape_mag,-7.5,-20.1,-6.6,10.0,0.0,0.0,0.0,10.0,0.0,0.0,0.0,10.0
1446039382175341089,133,1446039382167710065,robocape_mag,-7.5,-20.1,-6.6,10.0,0.0,0.0,0.0,10.0,0.0,0.0,0.0,10.0
1446039382205460672,134,1446039382200508117,robocape_mag,-7.5,-20.1,-6.6,10.0,0.0,0.0,0.0,10.0,0.0,0.0,0.0,10.0
1446039382239010755,135,1446039382234133005,robocape_mag,-7.5,-20.1,-6.6,10.0,0.0,0.0,0.0,10.0,0.0,0.0,0.0,10.0
1446039382272164797,136,1446039382267406940,robocape_mag,-3.0,-24.0,-4.5,10.0,0.0,0.0,0.0,10.0,0.0,0.0,0.0,10.0
1446039382305523589,137,1446039382300582885,robocape_mag,-3.0,-24.0,-4.5,10.0,0.0,0.0,0.0,10.0,0.0,0.0,0.0,10.0
1446039382339253172,138,1446039382334121942,robocape_mag,-3.0,-24.0,-4.5,10.0,0.0,0.0,0.0,10.0,0.0,0.0,0.0,10.0
1446039382372867422,139,1446039382367355108,robocape_mag,-3.0,-24.0,-4.5,10.0,0.0,0.0,0.0,10.0,0.0,0.0,0.0,10.0
1446039382406096589,140,1446039382400455951,robocape_mag,-3.0,-24.0,-4.5,10.0,0.0,0.0,0.0,10.0,0.0,0.0,0.0,10.0
1446039382440725422,141,1446039382433871984,robocape_mag,-6.0,-21.0,-6.9,10.0,0.0,0.0,0.0,10.0,0.0,0.0,0.0,10.0
1446039382472568880,142,1446039382467334985,robocape_mag,-6.0,-21.0,-6.9,10.0,0.0,0.0,0.0,10.0,0.0,0.0,0.0,10.0
1446039382505731214,143,1446039382500545978,robocape_mag,-6.0,-21.0,-6.9,10.0,0.0,0.0,0.0,10.0,0.0,0.0,0.0,10.0
1446039382539135255,144,1446039382533946990,robocape_mag,-6.0,-21.0,-6.9,10.0,0.0,0.0,0.0,10.0,0.0,0.0,0.0,10.0
1446039382574594047,145,1446039382567173004,robocape_mag,-6.0,-21.0,-6.9,10.0,0.0,0.0,0.0,10.0,0.0,0.0,0.0,10.0
1446039382605904589,146,1446039382600609064,robocape_mag,-5.1,-20.1,-7.2,10.0,0.0,0.0,0.0,10.0,0.0,0.0,0.0,10.0
1446039382639215339,147,1446039382634098052,robocape_mag,-5.1,-20.1,-7.2,10.0,0.0,0.0,0.0,10.0,0.0,0.0,0.0,10.0
1446039382672550589,148,1446039382667615890,robocape_mag,-5.1,-20.1,-7.2,10.0,0.0,0.0,0.0,10.0,0.0,0.0,0.0,10.0
1446039382707278547,149,1446039382700465917,robocape_mag,-5.1,-20.1,-7.2,10.0,0.0,0.0,0.0,10.0,0.0,0.0,0.0,10.0
1446039382739209964,150,1446039382734076023,robocape_mag,-4.2,-21.0,-5.7,10.0,0.0,0.0,0.0,10.0,0.0,0.0,0.0,10.0
1446039382772280756,151,1446039382767266988,robocape_mag,-4.2,-21.0,-5.7,10.0,0.0,0.0,0.0,10.0,0.0,0.0,0.0,10.0
1446039382805748714,152,1446039382800672054,robocape_mag,-4.2,-21.0,-5.7,10.0,0.0,0.0,0.0,10.0,0.0,0.0,0.0,10.0
1446039382838969089,153,1446039382833931922,robocape_mag,-4.2,-21.0,-5.7,10.0,0.0,0.0,0.0,10.0,0.0,0.0,0.0,10.0
1446039382873661339,154,1446039382868673086,robocape_mag,-4.2,-21.0,-5.7,10.0,0.0,0.0,0.0,10.0,0.0,0.0,0.0,10.0
1446039382906849047,155,1446039382901798963,robocape_mag,-1.8,-22.2,-6.3,10.0,0.0,0.0,0.0,10.0,0.0,0.0,0.0,10.0
1446039382940398297,156,1446039382935245037,robocape_mag,-1.8,-22.2,-6.3,10.0,0.0,0.0,0.0,10.0,0.0,0.0,0.0,10.0
1446039382973980672,157,1446039382968681097,robocape_mag,-1.8,-22.2,-6.3,10.0,0.0,0.0,0.0,10.0,0.0,0.0,0.0,10.0
1446039383007486464,158,1446039383002074003,robocape_mag,-1.8,-22.2,-6.3,10.0,0.0,0.0,0.0,10.0,0.0,0.0,0.0,10.0
1446039383041168214,159,1446039383035816907,robocape_mag,-1.8,-22.2,-6.3,10.0,0.0,0.0,0.0,10.0,0.0,0.0,0.0,10.0
1446039383077101339,160,1446039383068834066,robocape_mag,-8.1,-20.7,-6.6,10.0,0.0,0.0,0.0,10.0,0.0,0.0,0.0,10.0
1446039383107309964,161,1446039383101192951,robocape_mag,-8.1,-20.7,-6.6,10.0,0.0,0.0,0.0,10.0,0.0,0.0,0.0,10.0
1446039383150359631,162,1446039383137564897,robocape_mag,-8.1,-20.7,-6.6,10.0,0.0,0.0,0.0,10.0,0.0,0.0,0.0,10.0
1446039383173791797,163,1446039383168411970,robocape_mag,-8.1,-20.7,-6.6,10.0,0.0,0.0,0.0,10.0,0.0,0.0,0.0,10.0
1446039383206391589,164,1446039383201414108,robocape_mag,-8.1,-20.7,-6.6,10.0,0.0,0.0,0.0,10.0,0.0,0.0,0.0,10.0
1446039383242089964,165,1446039383237116098,robocape_mag,-8.7,-20.1,-6.6,10.0,0.0,0.0,0.0,10.0,0.0,0.0,0.0,10.0
1446039383272186422,166,1446039383267225027,robocape_mag,-8.7,-20.1,-6.6,10.0,0.0,0.0,0.0,10.0,0.0,0.0,0.0,10.0
1446039383305481339,167,1446039383300745964,robocape_mag,-8.7,-20.1,-6.6,10.0,0.0,0.0,0.0,10.0,0.0,0.0,0.0,10.0
1446039383339095923,168,1446039383334085941,robocape_mag,-8.7,-20.1,-6.6,10.0,0.0,0.0,0.0,10.0,0.0,0.0,0.0,10.0
1446039383372480673,169,1446039383367468118,robocape_mag,-8.7,-20.1,-6.6,10.0,0.0,0.0,0.0,10.0,0.0,0.0,0.0,10.0
1446039383405435964,170,1446039383400579929,robocape_mag,-7.5,-19.5,-7.2,10.0,0.0,0.0,0.0,10.0,0.0,0.0,0.0,10.0
1446039383442158131,171,1446039383435349941,robocape_mag,-7.5,-19.5,-7.2,10.0,0.0,0.0,0.0,10.0,0.0,0.0,0.0,10.0
1446039383473254381,172,1446039383467097043,robocape_mag,-7.5,-19.5,-7.2,10.0,0.0,0.0,0.0,10.0,0.0,0.0,0.0,10.0
1446039383505244339,173,1446039383500441074,robocape_mag,-7.5,-19.5,-7.2,10.0,0.0,0.0,0.0,10.0,0.0,0.0,0.0,10.0
1446039383541570923,174,1446039383536492109,robocape_mag,-6.3,-20.1,-4.8,10.0,0.0,0.0,0.0,10.0,0.0,0.0,0.0,10.0
1446039383572744673,175,1446039383567161083,robocape_mag,-6.3,-20.1,-4.8,10.0,0.0,0.0,0.0,10.0,0.0,0.0,0.0,10.0
1446039383607375881,176,1446039383600591897,robocape_mag,-6.3,-20.1,-4.8,10.0,0.0,0.0,0.0,10.0,0.0,0.0,0.0,10.0
1446039383639579881,177,1446039383634406089,robocape_mag,-6.3,-20.1,-4.8,10.0,0.0,0.0,0.0,10.0,0.0,0.0,0.0,10.0
1446039383674121839,178,1446039383667340993,robocape_mag,-6.3,-20.1,-4.8,10.0,0.0,0.0,0.0,10.0,0.0,0.0,0.0,10.0
1446039383705488048,179,1446039383700438976,robocape_mag,-6.3,-19.5,-4.8,10.0,0.0,0.0,0.0,10.0,0.0,0.0,0.0,10.0
1446039383740722798,180,1446039383733959913,robocape_mag,-6.3,-19.5,-4.8,10.0,0.0,0.0,0.0,10.0,0.0,0.0,0.0,10.0
1446039383772641131,181,1446039383767455101,robocape_mag,-6.3,-19.5,-4.8,10.0,0.0,0.0,0.0,10.0,0.0,0.0,0.0,10.0
1446039383805496089,182,1446039383800549983,robocape_mag,-6.3,-19.5,-4.8,10.0,0.0,0.0,0.0,10.0,0.0,0.0,0.0,10.0
1446039383840887923,183,1446039383834074974,robocape_mag,-6.3,-19.5,-4.8,10.0,0.0,0.0,0.0,10.0,0.0,0.0,0.0,10.0
1446039383876305048,184,1446039383867297887,robocape_mag,-4.2,-24.6,-6.9,10.0,0.0,0.0,0.0,10.0,0.0,0.0,0.0,10.0
1446039383905547131,185,1446039383900716066,robocape_mag,-4.2,-24.6,-6.9,10.0,0.0,0.0,0.0,10.0,0.0,0.0,0.0,10.0
1446039383939128589,186,1446039383934016942,robocape_mag,-4.2,-24.6,-6.9,10.0,0.0,0.0,0.0,10.0,0.0,0.0,0.0,10.0
1446039383972089131,187,1446039383967206954,robocape_mag,-4.2,-24.6,-6.9,10.0,0.0,0.0,0.0,10.0,0.0,0.0,0.0,10.0
1446039384008668673,188,1446039384003691911,robocape_mag,-4.2,-24.6,-6.9,10.0,0.0,0.0,0.0,10.0,0.0,0.0,0.0,10.0
1446039384040287090,189,1446039384035268068,robocape_mag,-4.5,-21.9,-4.2,10.0,0.0,0.0,0.0,10.0,0.0,0.0,0.0,10.0
1446039384073499840,190,1446039384068316936,robocape_mag,-4.5,-21.9,-4.2,10.0,0.0,0.0,0.0,10.0,0.0,0.0,0.0,10.0
1446039384105890381,191,1446039384100929021,robocape_mag,-4.5,-21.9,-4.2,10.0,0.0,0.0,0.0,10.0,0.0,0.0,0.0,10.0
1446039384145002340,192,1446039384136615037,robocape_mag,-4.5,-21.9,-4.2,10.0,0.0,0.0,0.0,10.0,0.0,0.0,0.0,10.0
1446039384174936298,193,1446039384169255971,robocape_mag,-4.5,-21.9,-4.2,10.0,0.0,0.0,0.0,10.0,0.0,0.0,0.0,10.0
1446039384211176131,194,1446039384205471038,robocape_mag,-5.4,-20.4,-7.5,10.0,0.0,0.0,0.0,10.0,0.0,0.0,0.0,10.0
1446039384240144923,195,1446039384234756946,robocape_mag,-5.4,-20.4,-7.5,10.0,0.0,0.0,0.0,10.0,0.0,0.0,0.0,10.0
1446039384274183131,196,1446039384268948078,robocape_mag,-5.4,-20.4,-7.5,10.0,0.0,0.0,0.0,10.0,0.0,0.0,0.0,10.0
1446039384310192840,197,1446039384304192066,robocape_mag,-5.4,-20.4,-7.5,10.0,0.0,0.0,0.0,10.0,0.0,0.0,0.0,10.0
1446039384342967465,198,1446039384334706068,robocape_mag,-7.5,-20.7,-6.0,10.0,0.0,0.0,0.0,10.0,0.0,0.0,0.0,10.0
1446039384378398006,199,1446039384372594118,robocape_mag,-7.5,-20.7,-6.0,10.0,0.0,0.0,0.0,10.0,0.0,0.0,0.0,10.0
1446039384411273465,200,1446039384402834892,robocape_mag,-7.5,-20.7,-6.0,10.0,0.0,0.0,0.0,10.0,0.0,0.0,0.0,10.0
1446039384447443340,201,1446039384436326026,robocape_mag,-7.5,-20.7,-6.0,10.0,0.0,0.0,0.0,10.0,0.0,0.0,0.0,10.0
1446039384481136548,202,1446039384470248937,robocape_mag,-7.5,-20.7,-6.0,10.0,0.0,0.0,0.0,10.0,0.0,0.0,0.0,10.0
1446039384510090881,203,1446039384505060911,robocape_mag,-5.4,-20.4,-6.3,10.0,0.0,0.0,0.0,10.0,0.0,0.0,0.0,10.0
1446039384547342173,204,1446039384539150953,robocape_mag,-5.4,-20.4,-6.3,10.0,0.0,0.0,0.0,10.0,0.0,0.0,0.0,10.0
1446039384576100715,205,1446039384569762945,robocape_mag,-5.4,-20.4,-6.3,10.0,0.0,0.0,0.0,10.0,0.0,0.0,0.0,10.0
1446039384608746131,206,1446039384603660106,robocape_mag,-5.4,-20.4,-6.3,10.0,0.0,0.0,0.0,10.0,0.0,0.0,0.0,10.0
1446039384645053756,207,1446039384638127088,robocape_mag,-5.4,-20.4,-6.3,10.0,0.0,0.0,0.0,10.0,0.0,0.0,0.0,10.0
1446039384676622715,208,1446039384670974969,robocape_mag,-5.7,-22.5,-6.6,10.0,0.0,0.0,0.0,10.0,0.0,0.0,0.0,10.0
1446039384712236840,209,1446039384704936027,robocape_mag,-5.7,-22.5,-6.6,10.0,0.0,0.0,0.0,10.0,0.0,0.0,0.0,10.0
1446039384742687465,210,1446039384736867904,robocape_mag,-5.7,-22.5,-6.6,10.0,0.0,0.0,0.0,10.0,0.0,0.0,0.0,10.0
1446039384780964632,211,1446039384770697116,robocape_mag,-5.7,-22.5,-6.6,10.0,0.0,0.0,0.0,10.0,0.0,0.0,0.0,10.0
1446039384808614048,212,1446039384803632974,robocape_mag,-5.7,-22.5,-6.6,10.0,0.0,0.0,0.0,10.0,0.0,0.0,0.0,10.0
1446039384842389590,213,1446039384836579084,robocape_mag,-4.8,-21.0,-5.7,10.0,0.0,0.0,0.0,10.0,0.0,0.0,0.0,10.0
1446039384875384840,214,1446039384870217084,robocape_mag,-4.8,-21.0,-5.7,10.0,0.0,0.0,0.0,10.0,0.0,0.0,0.0,10.0
1446039384909040048,215,1446039384903991937,robocape_mag,-4.8,-21.0,-5.7,10.0,0.0,0.0,0.0,10.0,0.0,0.0,0.0,10.0
1446039384942163590,216,1446039384937139987,robocape_mag,-4.8,-21.0,-5.7,10.0,0.0,0.0,0.0,10.0,0.0,0.0,0.0,10.0
1446039384974913090,217,1446039384969618082,robocape_mag,-4.8,-21.0,-5.7,10.0,0.0,0.0,0.0,10.0,0.0,0.0,0.0,10.0
1446039385011117298,218,1446039385002813100,robocape_mag,-7.2,-21.0,-6.3,10.0,0.0,0.0,0.0,10.0,0.0,0.0,0.0,10.0
1446039385043819382,219,1446039385036556005,robocape_mag,-7.2,-21.0,-6.3,10.0,0.0,0.0,0.0,10.0,0.0,0.0,0.0,10.0
1446039385073740965,220,1446039385068698883,robocape_mag,-7.2,-21.0,-6.3,10.0,0.0,0.0,0.0,10.0,0.0,0.0,0.0,10.0
1446039385107443298,221,1446039385102231025,robocape_mag,-7.2,-21.0,-6.3,10.0,0.0,0.0,0.0,10.0,0.0,0.0,0.0,10.0
1446039385142026048,222,1446039385137181043,robocape_mag,-6.0,-21.0,-6.9,10.0,0.0,0.0,0.0,10.0,0.0,0.0,0.0,10.0
1446039385176694173,223,1446039385168337106,robocape_mag,-6.0,-21.0,-6.9,10.0,0.0,0.0,0.0,10.0,0.0,0.0,0.0,10.0
1446039385205775548,224,1446039385200969934,robocape_mag,-6.0,-21.0,-6.9,10.0,0.0,0.0,0.0,10.0,0.0,0.0,0.0,10.0
1446039385239467423,225,1446039385234478950,robocape_mag,-6.0,-21.0,-6.9,10.0,0.0,0.0,0.0,10.0,0.0,0.0,0.0,10.0
1446039385272233423,226,1446039385267419099,robocape_mag,-6.0,-21.0,-6.9,10.0,0.0,0.0,0.0,10.0,0.0,0.0,0.0,10.0
1446039385306076298,227,1446039385301074981,robocape_mag,-6.6,-21.6,-5.1,10.0,0.0,0.0,0.0,10.0,0.0,0.0,0.0,10.0
1446039385339999965,228,1446039385335182905,robocape_mag,-6.6,-21.6,-5.1,10.0,0.0,0.0,0.0,10.0,0.0,0.0,0.0,10.0
1446039385372131715,229,1446039385367219924,robocape_mag,-6.6,-21.6,-5.1,10.0,0.0,0.0,0.0,10.0,0.0,0.0,0.0,10.0
1446039385405872007,230,1446039385400809049,robocape_mag,-6.6,-21.6,-5.1,10.0,0.0,0.0,0.0,10.0,0.0,0.0,0.0,10.0
1446039385438730757,231,1446039385433896064,robocape_mag,-6.6,-21.6,-5.1,10.0,0.0,0.0,0.0,10.0,0.0,0.0,0.0,10.0
1446039385471961257,232,1446039385467113971,robocape_mag,0.0,-24.0,-3.9,10.0,0.0,0.0,0.0,10.0,0.0,0.0,0.0,10.0
1446039385505619424,233,1446039385500602960,robocape_mag,0.0,-24.0,-3.9,10.0,0.0,0.0,0.0,10.0,0.0,0.0,0.0,10.0
1446039385539655965,234,1446039385534734964,robocape_mag,0.0,-24.0,-3.9,10.0,0.0,0.0,0.0,10.0,0.0,0.0,0.0,10.0
1446039385572338507,235,1446039385567491054,robocape_mag,0.0,-24.0,-3.9,10.0,0.0,0.0,0.0,10.0,0.0,0.0,0.0,10.0
1446039385605646549,236,1446039385600845098,robocape_mag,0.0,-24.0,-3.9,10.0,0.0,0.0,0.0,10.0,0.0,0.0,0.0,10.0
1446039385639321465,237,1446039385634342908,robocape_mag,-4.5,-20.1,-5.4,10.0,0.0,0.0,0.0,10.0,0.0,0.0,0.0,10.0
1446039385672261757,238,1446039385667458057,robocape_mag,-4.5,-20.1,-5.4,10.0,0.0,0.0,0.0,10.0,0.0,0.0,0.0,10.0
1446039385705554340,239,1446039385700741052,robocape_mag,-4.5,-20.1,-5.4,10.0,0.0,0.0,0.0,10.0,0.0,0.0,0.0,10.0
1446039385739431424,240,1446039385734349012,robocape_mag,-4.5,-20.1,-5.4,10.0,0.0,0.0,0.0,10.0,0.0,0.0,0.0,10.0
1446039385772152340,241,1446039385767335891,robocape_mag,-4.5,-20.1,-5.4,10.0,0.0,0.0,0.0,10.0,0.0,0.0,0.0,10.0
1446039385805406465,242,1446039385800591945,robocape_mag,-6.3,-20.1,-6.0,10.0,0.0,0.0,0.0,10.0,0.0,0.0,0.0,10.0
1446039385839023590,243,1446039385833827018,robocape_mag,-6.3,-20.1,-6.0,10.0,0.0,0.0,0.0,10.0,0.0,0.0,0.0,10.0
1446039385872219090,244,1446039385867189884,robocape_mag,-6.3,-20.1,-6.0,10.0,0.0,0.0,0.0,10.0,0.0,0.0,0.0,10.0
1446039385906144590,245,1446039385900705099,robocape_mag,-6.3,-20.1,-6.0,10.0,0.0,0.0,0.0,10.0,0.0,0.0,0.0,10.0
1446039385939449632,246,1446039385933953046,robocape_mag,-2.4,-21.0,-5.7,10.0,0.0,0.0,0.0,10.0,0.0,0.0,0.0,10.0
1446039385972207049,247,1446039385967098951,robocape_mag,-2.4,-21.0,-5.7,10.0,0.0,0.0,0.0,10.0,0.0,0.0,0.0,10.0
1446039386005675424,248,1446039386000644922,robocape_mag,-2.4,-21.0,-5.7,10.0,0.0,0.0,0.0,10.0,0.0,0.0,0.0,10.0
1446039386039249132,249,1446039386033971071,robocape_mag,-2.4,-21.0,-5.7,10.0,0.0,0.0,0.0,10.0,0.0,0.0,0.0,10.0
1446039386072585382,250,1446039386067414045,robocape_mag,-2.4,-21.0,-5.7,10.0,0.0,0.0,0.0,10.0,0.0,0.0,0.0,10.0
1446039386105658049,251,1446039386100737094,robocape_mag,-5.1,-20.7,-6.0,10.0,0.0,0.0,0.0,10.0,0.0,0.0,0.0,10.0
1446039386139823257,252,1446039386134669065,robocape_mag,-5.1,-20.7,-6.0,10.0,0.0,0.0,0.0,10.0,0.0,0.0,0.0,10.0
1446039386172695091,253,1446039386167464017,robocape_mag,-5.1,-20.7,-6.0,10.0,0.0,0.0,0.0,10.0,0.0,0.0,0.0,10.0
1446039386205625966,254,1446039386200678110,robocape_mag,-5.1,-20.7,-6.0,10.0,0.0,0.0,0.0,10.0,0.0,0.0,0.0,10.0
1446039386238924674,255,1446039386234026908,robocape_mag,-5.1,-20.7,-6.0,10.0,0.0,0.0,0.0,10.0,0.0,0.0,0.0,10.0
1446039386272681341,256,1446039386267590999,robocape_mag,-0.9,-23.7,-4.8,10.0,0.0,0.0,0.0,10.0,0.0,0.0,0.0,10.0
1446039386305788924,257,1446039386300780057,robocape_mag,-0.9,-23.7,-4.8,10.0,0.0,0.0,0.0,10.0,0.0,0.0,0.0,10.0
1446039386338957716,258,1446039386333960056,robocape_mag,-0.9,-23.7,-4.8,10.0,0.0,0.0,0.0,10.0,0.0,0.0,0.0,10.0
1446039386373513924,259,1446039386368648052,robocape_mag,-0.9,-23.7,-4.8,10.0,0.0,0.0,0.0,10.0,0.0,0.0,0.0,10.0
1446039386407507174,260,1446039386402506113,robocape_mag,-0.9,-23.7,-4.8,10.0,0.0,0.0,0.0,10.0,0.0,0.0,0.0,10.0
1446039386439961257,261,1446039386435081958,robocape_mag,-3.9,-19.5,-4.2,10.0,0.0,0.0,0.0,10.0,0.0,0.0,0.0,10.0
1446039386474395299,262,1446039386469322919,robocape_mag,-3.9,-19.5,-4.2,10.0,0.0,0.0,0.0,10.0,0.0,0.0,0.0,10.0
1446039386510995757,263,1446039386502674102,robocape_mag,-3.9,-19.5,-4.2,10.0,0.0,0.0,0.0,10.0,0.0,0.0,0.0,10.0
1446039386541924341,264,1446039386535553932,robocape_mag,-3.9,-19.5,-4.2,10.0,0.0,0.0,0.0,10.0,0.0,0.0,0.0,10.0
1446039386573551132,265,1446039386568645000,robocape_mag,-3.9,-19.5,-4.2,10.0,0.0,0.0,0.0,10.0,0.0,0.0,0.0,10.0
1446039386609854591,266,1446039386602458000,robocape_mag,2.1,-23.7,-6.0,10.0,0.0,0.0,0.0,10.0,0.0,0.0,0.0,10.0
1446039386640171799,267,1446039386635157108,robocape_mag,2.1,-23.7,-6.0,10.0,0.0,0.0,0.0,10.0,0.0,0.0,0.0,10.0
1446039386681805591,268,1446039386673213005,robocape_mag,2.1,-23.7,-6.0,10.0,0.0,0.0,0.0,10.0,0.0,0.0,0.0,10.0
1446039386706814091,269,1446039386701930046,robocape_mag,2.1,-23.7,-6.0,10.0,0.0,0.0,0.0,10.0,0.0,0.0,0.0,10.0
1446039386748201591,270,1446039386736876964,robocape_mag,-4.5,-22.5,-7.2,10.0,0.0,0.0,0.0,10.0,0.0,0.0,0.0,10.0
1446039386774811091,271,1446039386769979000,robocape_mag,-4.5,-22.5,-7.2,10.0,0.0,0.0,0.0,10.0,0.0,0.0,0.0,10.0
1446039386810315549,272,1446039386804176092,robocape_mag,-4.5,-22.5,-7.2,10.0,0.0,0.0,0.0,10.0,0.0,0.0,0.0,10.0
1446039386848249549,273,1446039386838155031,robocape_mag,-4.5,-22.5,-7.2,10.0,0.0,0.0,0.0,10.0,0.0,0.0,0.0,10.0
1446039386879270924,274,1446039386870770931,robocape_mag,-4.5,-22.5,-7.2,10.0,0.0,0.0,0.0,10.0,0.0,0.0,0.0,10.0
1446039386909695091,275,1446039386904591083,robocape_mag,-5.1,-20.7,-8.4,10.0,0.0,0.0,0.0,10.0,0.0,0.0,0.0,10.0
1446039386945871508,276,1446039386937845945,robocape_mag,-5.1,-20.7,-8.4,10.0,0.0,0.0,0.0,10.0,0.0,0.0,0.0,10.0
1446039386980801549,277,1446039386970694065,robocape_mag,-5.1,-20.7,-8.4,10.0,0.0,0.0,0.0,10.0,0.0,0.0,0.0,10.0
1446039387012207299,278,1446039387004554033,robocape_mag,-5.1,-20.7,-8.4,10.0,0.0,0.0,0.0,10.0,0.0,0.0,0.0,10.0
1446039387044089008,279,1446039387038532018,robocape_mag,-5.1,-20.7,-8.4,10.0,0.0,0.0,0.0,10.0,0.0,0.0,0.0,10.0
1446039387075707674,280,1446039387070502042,robocape_mag,-5.7,-20.7,-9.0,10.0,0.0,0.0,0.0,10.0,0.0,0.0,0.0,10.0
1446039387109346758,281,1446039387104510068,robocape_mag,-5.7,-20.7,-9.0,10.0,0.0,0.0,0.0,10.0,0.0,0.0,0.0,10.0
1446039387143132091,282,1446039387137181997,robocape_mag,-5.7,-20.7,-9.0,10.0,0.0,0.0,0.0,10.0,0.0,0.0,0.0,10.0
1446039387175717716,283,1446039387170825004,robocape_mag,-5.7,-20.7,-9.0,10.0,0.0,0.0,0.0,10.0,0.0,0.0,0.0,10.0
1446039387209024466,284,1446039387204255104,robocape_mag,-5.7,-20.7,-9.0,10.0,0.0,0.0,0.0,10.0,0.0,0.0,0.0,10.0
1446039387245885966,285,1446039387236558914,robocape_mag,-3.9,-19.5,-6.6,10.0,0.0,0.0,0.0,10.0,0.0,0.0,0.0,10.0
1446039387275011799,286,1446039387270148038,robocape_mag,-3.9,-19.5,-6.6,10.0,0.0,0.0,0.0,10.0,0.0,0.0,0.0,10.0
1446039387308014383,287,1446039387302974939,robocape_mag,-3.9,-19.5,-6.6,10.0,0.0,0.0,0.0,10.0,0.0,0.0,0.0,10.0
1446039387345561466,288,1446039387336647033,robocape_mag,-3.9,-19.5,-6.6,10.0,0.0,0.0,0.0,10.0,0.0,0.0,0.0,10.0
1446039387374425174,289,1446039387369378089,robocape_mag,-3.9,-19.5,-6.6,10.0,0.0,0.0,0.0,10.0,0.0,0.0,0.0,10.0
1446039387407618633,290,1446039387402591943,robocape_mag,-4.5,-21.3,-7.8,10.0,0.0,0.0,0.0,10.0,0.0,0.0,0.0,10.0
1446039387440017633,291,1446039387434731006,robocape_mag,-4.5,-21.3,-7.8,10.0,0.0,0.0,0.0,10.0,0.0,0.0,0.0,10.0
1446039387473451674,292,1446039387468669891,robocape_mag,-4.5,-21.3,-7.8,10.0,0.0,0.0,0.0,10.0,0.0,0.0,0.0,10.0
1446039387506539341,293,1446039387501605987,robocape_mag,-4.5,-21.3,-7.8,10.0,0.0,0.0,0.0,10.0,0.0,0.0,0.0,10.0
1446039387540663091,294,1446039387535547018,robocape_mag,-2.1,-22.5,-7.2,10.0,0.0,0.0,0.0,10.0,0.0,0.0,0.0,10.0
1446039387572679050,295,1446039387567775011,robocape_mag,-2.1,-22.5,-7.2,10.0,0.0,0.0,0.0,10.0,0.0,0.0,0.0,10.0
1446039387606416675,296,1446039387601665973,robocape_mag,-2.1,-22.5,-7.2,10.0,0.0,0.0,0.0,10.0,0.0,0.0,0.0,10.0
1446039387639456883,297,1446039387634381055,robocape_mag,-2.1,-22.5,-7.2,10.0,0.0,0.0,0.0,10.0,0.0,0.0,0.0,10.0
1446039387672468466,298,1446039387667632102,robocape_mag,-2.1,-22.5,-7.2,10.0,0.0,0.0,0.0,10.0,0.0,0.0,0.0,10.0
1446039387706211841,299,1446039387701371908,robocape_mag,-3.3,-19.5,-6.0,10.0,0.0,0.0,0.0,10.0,0.0,0.0,0.0,10.0
1446039387742020008,300,1446039387733941078,robocape_mag,-3.3,-19.5,-6.0,10.0,0.0,0.0,0.0,10.0,0.0,0.0,0.0,10.0
1446039387772260716,301,1446039387767460107,robocape_mag,-3.3,-19.5,-6.0,10.0,0.0,0.0,0.0,10.0,0.0,0.0,0.0,10.0
1446039387805773050,302,1446039387800692081,robocape_mag,-3.3,-19.5,-6.0,10.0,0.0,0.0,0.0,10.0,0.0,0.0,0.0,10.0
1446039387839281550,303,1446039387834002971,robocape_mag,-3.3,-19.5,-6.0,10.0,0.0,0.0,0.0,10.0,0.0,0.0,0.0,10.0
1446039387872046925,304,1446039387867268085,robocape_mag,-5.7,-19.5,-6.0,10.0,0.0,0.0,0.0,10.0,0.0,0.0,0.0,10.0
1446039387906097341,305,1446039387901005983,robocape_mag,-5.7,-19.5,-6.0,10.0,0.0,0.0,0.0,10.0,0.0,0.0,0.0,10.0
1446039387939859758,306,1446039387934039115,robocape_mag,-5.7,-19.5,-6.0,10.0,0.0,0.0,0.0,10.0,0.0,0.0,0.0,10.0
1446039387972349675,307,1446039387967490911,robocape_mag,-5.7,-19.5,-6.0,10.0,0.0,0.0,0.0,10.0,0.0,0.0,0.0,10.0
1446039388006359091,308,1446039388001296997,robocape_mag,-5.7,-19.5,-6.0,10.0,0.0,0.0,0.0,10.0,0.0,0.0,0.0,10.0
1446039388040392425,309,1446039388034442901,robocape_mag,-6.3,-19.5,-7.2,10.0,0.0,0.0,0.0,10.0,0.0,0.0,0.0,10.0
1446039388073758591,310,1446039388068887948,robocape_mag,-6.3,-19.5,-7.2,10.0,0.0,0.0,0.0,10.0,0.0,0.0,0.0,10.0
1446039388105600216,311,1446039388100739955,robocape_mag,-6.3,-19.5,-7.2,10.0,0.0,0.0,0.0,10.0,0.0,0.0,0.0,10.0
1446039388141970341,312,1446039388134747982,robocape_mag,-6.3,-19.5,-7.2,10.0,0.0,0.0,0.0,10.0,0.0,0.0,0.0,10.0
1446039388174715883,313,1446039388167428016,robocape_mag,-6.3,-19.5,-7.2,10.0,0.0,0.0,0.0,10.0,0.0,0.0,0.0,10.0
1446039388206578008,314,1446039388200875997,robocape_mag,-3.0,-22.2,-5.7,10.0,0.0,0.0,0.0,10.0,0.0,0.0,0.0,10.0
1446039388239799217,315,1446039388233870029,robocape_mag,-3.0,-22.2,-5.7,10.0,0.0,0.0,0.0,10.0,0.0,0.0,0.0,10.0
1446039388274048717,316,1446039388267113924,robocape_mag,-3.0,-22.2,-5.7,10.0,0.0,0.0,0.0,10.0,0.0,0.0,0.0,10.0
1446039388306206092,317,1446039388300937891,robocape_mag,-3.0,-22.2,-5.7,10.0,0.0,0.0,0.0,10.0,0.0,0.0,0.0,10.0
1446039388338940550,318,1446039388333940029,robocape_mag,-3.0,-21.6,-6.9,10.0,0.0,0.0,0.0,10.0,0.0,0.0,0.0,10.0
1446039388372746383,319,1446039388367412090,robocape_mag,-3.6,-21.6,-6.9,10.0,0.0,0.0,0.0,10.0,0.0,0.0,0.0,10.0
1446039388408318508,320,1446039388400752067,robocape_mag,-3.6,-21.6,-6.9,10.0,0.0,0.0,0.0,10.0,0.0,0.0,0.0,10.0
1446039388440976758,321,1446039388433873891,robocape_mag,-3.6,-21.6,-6.9,10.0,0.0,0.0,0.0,10.0,0.0,0.0,0.0,10.0
1446039388474313883,322,1446039388467077970,robocape_mag,-3.6,-21.6,-6.9,10.0,0.0,0.0,0.0,10.0,0.0,0.0,0.0,10.0
1446039388506084758,323,1446039388500895023,robocape_mag,-6.9,-18.9,-6.0,10.0,0.0,0.0,0.0,10.0,0.0,0.0,0.0,10.0
1446039388539842967,324,1446039388534007072,robocape_mag,-6.9,-18.9,-6.0,10.0,0.0,0.0,0.0,10.0,0.0,0.0,0.0,10.0
1446039388572638508,325,1446039388567648887,robocape_mag,-6.9,-18.9,-6.0,10.0,0.0,0.0,0.0,10.0,0.0,0.0,0.0,10.0
1446039388608649467,326,1446039388601535081,robocape_mag,-6.9,-18.9,-6.0,10.0,0.0,0.0,0.0,10.0,0.0,0.0,0.0,10.0
1446039388638999175,327,1446039388633975982,robocape_mag,-6.9,-18.9,-6.0,10.0,0.0,0.0,0.0,10.0,0.0,0.0,0.0,10.0
1446039388672471758,328,1446039388667428970,robocape_mag,-2.7,-21.3,-3.0,10.0,0.0,0.0,0.0,10.0,0.0,0.0,0.0,10.0
1446039388707520883,329,1446039388702491998,robocape_mag,-2.7,-21.3,-3.0,10.0,0.0,0.0,0.0,10.0,0.0,0.0,0.0,10.0
1446039388740158675,330,1446039388735090970,robocape_mag,-2.7,-21.3,-3.0,10.0,0.0,0.0,0.0,10.0,0.0,0.0,0.0,10.0
1446039388773579175,331,1446039388768492937,robocape_mag,-2.7,-21.3,-3.0,10.0,0.0,0.0,0.0,10.0,0.0,0.0,0.0,10.0
1446039388808479383,332,1446039388801302909,robocape_mag,-2.7,-21.3,-3.0,10.0,0.0,0.0,0.0,10.0,0.0,0.0,0.0,10.0
1446039388840579717,333,1446039388835731029,robocape_mag,-5.7,-18.3,-5.4,10.0,0.0,0.0,0.0,10.0,0.0,0.0,0.0,10.0
1446039388872639133,334,1446039388867464065,robocape_mag,-5.7,-18.3,-5.4,10.0,0.0,0.0,0.0,10.0,0.0,0.0,0.0,10.0
1446039388906202217,335,1446039388901015996,robocape_mag,-5.7,-18.3,-5.4,10.0,0.0,0.0,0.0,10.0,0.0,0.0,0.0,10.0
1446039388938955842,336,1446039388934106111,robocape_mag,-5.7,-18.3,-5.4,10.0,0.0,0.0,0.0,10.0,0.0,0.0,0.0,10.0
1446039388972417384,337,1446039388967612981,robocape_mag,-5.7,-18.3,-5.4,10.0,0.0,0.0,0.0,10.0,0.0,0.0,0.0,10.0
1446039389006229509,338,1446039389001148939,robocape_mag,-5.1,-20.7,-6.0,10.0,0.0,0.0,0.0,10.0,0.0,0.0,0.0,10.0
1446039389039163634,339,1446039389034336090,robocape_mag,-5.1,-20.7,-6.0,10.0,0.0,0.0,0.0,10.0,0.0,0.0,0.0,10.0
1446039389072355425,340,1446039389067588090,robocape_mag,-5.1,-20.7,-6.0,10.0,0.0,0.0,0.0,10.0,0.0,0.0,0.0,10.0
1446039389106400592,341,1446039389101352930,robocape_mag,-5.1,-20.7,-6.0,10.0,0.0,0.0,0.0,10.0,0.0,0.0,0.0,10.0
1446039389141008342,342,1446039389135873079,robocape_mag,-4.2,-19.2,-6.3,10.0,0.0,0.0,0.0,10.0,0.0,0.0,0.0,10.0
1446039389173401300,343,1446039389168385982,robocape_mag,-4.2,-19.2,-6.3,10.0,0.0,0.0,0.0,10.0,0.0,0.0,0.0,10.0
1446039389206354425,344,1446039389201291084,robocape_mag,-4.2,-19.2,-6.3,10.0,0.0,0.0,0.0,10.0,0.0,0.0,0.0,10.0
1446039389238917925,345,1446039389234029054,robocape_mag,-4.2,-19.2,-6.3,10.0,0.0,0.0,0.0,10.0,0.0,0.0,0.0,10.0
1446039389272319050,346,1446039389267582893,robocape_mag,-4.2,-19.2,-6.3,10.0,0.0,0.0,0.0,10.0,0.0,0.0,0.0,10.0
1446039389305834342,347,1446039389300704002,robocape_mag,-4.5,-19.5,-6.6,10.0,0.0,0.0,0.0,10.0,0.0,0.0,0.0,10.0
1446039389338642925,348,1446039389333776950,robocape_mag,-4.5,-19.5,-6.6,10.0,0.0,0.0,0.0,10.0,0.0,0.0,0.0,10.0
1446039389372284717,349,1446039389367211103,robocape_mag,-4.5,-19.5,-6.6,10.0,0.0,0.0,0.0,10.0,0.0,0.0,0.0,10.0
1446039389406383300,350,1446039389400701045,robocape_mag,-4.5,-19.5,-6.6,10.0,0.0,0.0,0.0,10.0,0.0,0.0,0.0,10.0
1446039389440689925,351,1446039389433878898,robocape_mag,-4.5,-19.5,-6.6,10.0,0.0,0.0,0.0,10.0,0.0,0.0,0.0,10.0
1446039389472044884,352,1446039389467030048,robocape_mag,-7.8,-19.8,-5.7,10.0,0.0,0.0,0.0,10.0,0.0,0.0,0.0,10.0
1446039389506037884,353,1446039389500612020,robocape_mag,-7.8,-19.8,-5.7,10.0,0.0,0.0,0.0,10.0,0.0,0.0,0.0,10.0
1446039389539688009,354,1446039389534497976,robocape_mag,-7.8,-19.8,-5.7,10.0,0.0,0.0,0.0,10.0,0.0,0.0,0.0,10.0
1446039389572543092,355,1446039389567461013,robocape_mag,-7.8,-19.8,-5.7,10.0,0.0,0.0,0.0,10.0,0.0,0.0,0.0,10.0
1446039389606033259,356,1446039389600667953,robocape_mag,-7.8,-19.8,-5.7,10.0,0.0,0.0,0.0,10.0,0.0,0.0,0.0,10.0
1446039389639304926,357,1446039389634103059,robocape_mag,-5.7,-19.5,-6.6,10.0,0.0,0.0,0.0,10.0,0.0,0.0,0.0,10.0
1446039389672064051,358,1446039389667143106,robocape_mag,-5.7,-19.5,-6.6,10.0,0.0,0.0,0.0,10.0,0.0,0.0,0.0,10.0
1446039389705992676,359,1446039389700695991,robocape_mag,-5.7,-19.5,-6.6,10.0,0.0,0.0,0.0,10.0,0.0,0.0,0.0,10.0
1446039389738885259,360,1446039389734078884,robocape_mag,-5.7,-19.5,-6.6,10.0,0.0,0.0,0.0,10.0,0.0,0.0,0.0,10.0
1446039389772206801,361,1446039389767199039,robocape_mag,-5.7,-19.5,-6.6,10.0,0.0,0.0,0.0,10.0,0.0,0.0,0.0,10.0
1446039389806151134,362,1446039389800652980,robocape_mag,-3.9,-21.9,-7.2,10.0,0.0,0.0,0.0,10.0,0.0,0.0,0.0,10.0
1446039389840094467,363,1446039389834508895,robocape_mag,-3.9,-21.9,-7.2,10.0,0.0,0.0,0.0,10.0,0.0,0.0,0.0,10.0
1446039389873184342,364,1446039389868417024,robocape_mag,-3.9,-21.9,-7.2,10.0,0.0,0.0,0.0,10.0,0.0,0.0,0.0,10.0
1446039389907434051,365,1446039389901894092,robocape_mag,-3.9,-21.9,-7.2,10.0,0.0,0.0,0.0,10.0,0.0,0.0,0.0,10.0
1446039389940110384,366,1446039389935348033,robocape_mag,-3.9,-21.0,-4.5,10.0,0.0,0.0,0.0,10.0,0.0,0.0,0.0,10.0
1446039389974087676,367,1446039389968480110,robocape_mag,-3.0,-21.0,-4.5,10.0,0.0,0.0,0.0,10.0,0.0,0.0,0.0,10.0
1446039390007893592,368,1446039390001894950,robocape_mag,-3.0,-21.0,-4.5,10.0,0.0,0.0,0.0,10.0,0.0,0.0,0.0,10.0
1446039390041759592,369,1446039390036783933,robocape_mag,-3.0,-21.0,-4.5,10.0,0.0,0.0,0.0,10.0,0.0,0.0,0.0,10.0
1446039390084328509,370,1446039390073818922,robocape_mag,-3.0,-21.0,-4.5,10.0,0.0,0.0,0.0,10.0,0.0,0.0,0.0,10.0
1446039390110432967,371,1446039390102041959,robocape_mag,-6.0,-21.0,-7.5,10.0,0.0,0.0,0.0,10.0,0.0,0.0,0.0,10.0
1446039390143629926,372,1446039390135349035,robocape_mag,-6.0,-21.0,-7.5,10.0,0.0,0.0,0.0,10.0,0.0,0.0,0.0,10.0
1446039390176618467,373,1446039390171103954,robocape_mag,-6.0,-21.0,-7.5,10.0,0.0,0.0,0.0,10.0,0.0,0.0,0.0,10.0
1446039390212573217,374,1446039390204233884,robocape_mag,-6.0,-21.0,-7.5,10.0,0.0,0.0,0.0,10.0,0.0,0.0,0.0,10.0
1446039390244008217,375,1446039390237102031,robocape_mag,-6.0,-21.0,-7.5,10.0,0.0,0.0,0.0,10.0,0.0,0.0,0.0,10.0
1446039390277670926,376,1446039390271213054,robocape_mag,-4.2,-22.8,-5.1,10.0,0.0,0.0,0.0,10.0,0.0,0.0,0.0,10.0
1446039390310599468,377,1446039390301506996,robocape_mag,-4.2,-22.8,-5.1,10.0,0.0,0.0,0.0,10.0,0.0,0.0,0.0,10.0
1446039390343080426,378,1446039390337374925,robocape_mag,-4.2,-22.8,-5.1,10.0,0.0,0.0,0.0,10.0,0.0,0.0,0.0,10.0
1446039390376311843,379,1446039390369671106,robocape_mag,-4.2,-22.8,-5.1,10.0,0.0,0.0,0.0,10.0,0.0,0.0,0.0,10.0
1446039390410324426,380,1446039390404452085,robocape_mag,-4.2,-22.8,-5.1,10.0,0.0,0.0,0.0,10.0,0.0,0.0,0.0,10.0
1446039390443622968,381,1446039390438271999,robocape_mag,-6.3,-20.1,-5.4,10.0,0.0,0.0,0.0,10.0,0.0,0.0,0.0,10.0
1446039390476508093,382,1446039390471182107,robocape_mag,-6.3,-20.1,-5.4,10.0,0.0,0.0,0.0,10.0,0.0,0.0,0.0,10.0
1446039390510222051,383,1446039390504672050,robocape_mag,-6.3,-20.1,-5.4,10.0,0.0,0.0,0.0,10.0,0.0,0.0,0.0,10.0
1446039390544173634,384,1446039390538803100,robocape_mag,-6.3,-20.1,-5.4,10.0,0.0,0.0,0.0,10.0,0.0,0.0,0.0,10.0
1446039390605953551,385,1446039390570830106,robocape_mag,-6.3,-20.1,-5.4,10.0,0.0,0.0,0.0,10.0,0.0,0.0,0.0,10.0
1446039390624995301,386,1446039390619910001,robocape_mag,-5.4,-19.2,-8.1,10.0,0.0,0.0,0.0,10.0,0.0,0.0,0.0,10.0
1446039390648523051,387,1446039390643347024,robocape_mag,-5.4,-19.2,-8.1,10.0,0.0,0.0,0.0,10.0,0.0,0.0,0.0,10.0
1446039390675063176,388,1446039390670109033,robocape_mag,-5.4,-19.2,-8.1,10.0,0.0,0.0,0.0,10.0,0.0,0.0,0.0,10.0
1446039390710701468,389,1446039390702616930,robocape_mag,-5.4,-19.2,-8.1,10.0,0.0,0.0,0.0,10.0,0.0,0.0,0.0,10.0
1446039390741300134,390,1446039390736311912,robocape_mag,-4.8,-19.2,-6.9,10.0,0.0,0.0,0.0,10.0,0.0,0.0,0.0,10.0
1446039390774788968,391,1446039390769936084,robocape_mag,-4.8,-19.2,-6.9,10.0,0.0,0.0,0.0,10.0,0.0,0.0,0.0,10.0
1446039390808543968,392,1446039390803436994,robocape_mag,-4.8,-19.2,-6.9,10.0,0.0,0.0,0.0,10.0,0.0,0.0,0.0,10.0
1446039390840962093,393,1446039390836070060,robocape_mag,-4.8,-19.2,-6.9,10.0,0.0,0.0,0.0,10.0,0.0,0.0,0.0,10.0
1446039390874608634,394,1446039390869497060,robocape_mag,-4.8,-19.2,-6.9,10.0,0.0,0.0,0.0,10.0,0.0,0.0,0.0,10.0
1446039390906725968,395,1446039390901789903,robocape_mag,-5.7,-21.3,-6.6,10.0,0.0,0.0,0.0,10.0,0.0,0.0,0.0,10.0
1446039390939932218,396,1446039390935008049,robocape_mag,-5.7,-21.3,-6.6,10.0,0.0,0.0,0.0,10.0,0.0,0.0,0.0,10.0
1446039390972913968,397,1446039390968111038,robocape_mag,-5.7,-21.3,-6.6,10.0,0.0,0.0,0.0,10.0,0.0,0.0,0.0,10.0
1446039391006605135,398,1446039391001800060,robocape_mag,-5.7,-21.3,-6.6,10.0,0.0,0.0,0.0,10.0,0.0,0.0,0.0,10.0
1446039391043294593,399,1446039391034881114,robocape_mag,-5.7,-21.3,-6.6,10.0,0.0,0.0,0.0,10.0,0.0,0.0,0.0,10.0
1446039391072876468,400,1446039391067948102,robocape_mag,-0.6,-22.2,-5.1,10.0,0.0,0.0,0.0,10.0,0.0,0.0,0.0,10.0
1446039391105841885,401,1446039391100922107,robocape_mag,-0.6,-22.2,-5.1,10.0,0.0,0.0,0.0,10.0,0.0,0.0,0.0,10.0
1446039391143293468,402,1446039391138191938,robocape_mag,-0.6,-22.2,-5.1,10.0,0.0,0.0,0.0,10.0,0.0,0.0,0.0,10.0
1446039391172644510,403,1446039391167885065,robocape_mag,-0.6,-22.2,-5.1,10.0,0.0,0.0,0.0,10.0,0.0,0.0,0.0,10.0
1446039391205739885,404,1446039391200735092,robocape_mag,-0.6,-22.2,-5.1,10.0,0.0,0.0,0.0,10.0,0.0,0.0,0.0,10.0
1446039391239139926,405,1446039391234226942,robocape_mag,-6.0,-21.6,-6.3,10.0,0.0,0.0,0.0,10.0,0.0,0.0,0.0,10.0
1446039391272139801,406,1446039391267374992,robocape_mag,-6.0,-21.6,-6.3,10.0,0.0,0.0,0.0,10.0,0.0,0.0,0.0,10.0
1446039391305602135,407,1446039391300645112,robocape_mag,-6.0,-21.6,-6.3,10.0,0.0,0.0,0.0,10.0,0.0,0.0,0.0,10.0
1446039391339548718,408,1446039391334342002,robocape_mag,-6.0,-21.6,-6.3,10.0,0.0,0.0,0.0,10.0,0.0,0.0,0.0,10.0
1446039391372585926,409,1446039391367784023,robocape_mag,-6.0,-21.6,-6.3,10.0,0.0,0.0,0.0,10.0,0.0,0.0,0.0,10.0
1446039391405863093,410,1446039391400820016,robocape_mag,-7.5,-19.5,-7.2,10.0,0.0,0.0,0.0,10.0,0.0,0.0,0.0,10.0
1446039391438930176,411,1446039391433892011,robocape_mag,-7.5,-19.5,-7.2,10.0,0.0,0.0,0.0,10.0,0.0,0.0,0.0,10.0
1446039391472417260,412,1446039391467396974,robocape_mag,-7.5,-19.5,-7.2,10.0,0.0,0.0,0.0,10.0,0.0,0.0,0.0,10.0
1446039391508997551,413,1446039391500792026,robocape_mag,-7.5,-19.5,-7.2,10.0,0.0,0.0,0.0,10.0,0.0,0.0,0.0,10.0
1446039391539991760,414,1446039391534272909,robocape_mag,-7.5,-18.9,-5.4,10.0,0.0,0.0,0.0,10.0,0.0,0.0,0.0,10.0
1446039391572392551,415,1446039391567166090,robocape_mag,-6.9,-18.9,-5.4,10.0,0.0,0.0,0.0,10.0,0.0,0.0,0.0,10.0
1446039391607218551,416,1446039391600652933,robocape_mag,-6.9,-18.9,-5.4,10.0,0.0,0.0,0.0,10.0,0.0,0.0,0.0,10.0
1446039391642610635,417,1446039391635521888,robocape_mag,-6.9,-18.9,-5.4,10.0,0.0,0.0,0.0,10.0,0.0,0.0,0.0,10.0
1446039391672244676,418,1446039391667298078,robocape_mag,-6.9,-18.9,-5.4,10.0,0.0,0.0,0.0,10.0,0.0,0.0,0.0,10.0
1446039391707940260,419,1446039391700453996,robocape_mag,-4.8,-19.2,-7.5,10.0,0.0,0.0,0.0,10.0,0.0,0.0,0.0,10.0
1446039391739514510,420,1446039391733932971,robocape_mag,-4.8,-19.2,-7.5,10.0,0.0,0.0,0.0,10.0,0.0,0.0,0.0,10.0
1446039391773789343,421,1446039391767141103,robocape_mag,-4.8,-19.2,-7.5,10.0,0.0,0.0,0.0,10.0,0.0,0.0,0.0,10.0
1446039391806096343,422,1446039391800580024,robocape_mag,-4.8,-19.2,-7.5,10.0,0.0,0.0,0.0,10.0,0.0,0.0,0.0,10.0
1446039391839253927,423,1446039391834073066,robocape_mag,-4.8,-19.2,-7.5,10.0,0.0,0.0,0.0,10.0,0.0,0.0,0.0,10.0
1446039391872335385,424,1446039391867237091,robocape_mag,-5.1,-20.1,-6.6,10.0,0.0,0.0,0.0,10.0,0.0,0.0,0.0,10.0
1446039391907364010,425,1446039391900444984,robocape_mag,-5.1,-20.1,-6.6,10.0,0.0,0.0,0.0,10.0,0.0,0.0,0.0,10.0
1446039391939070718,426,1446039391933804035,robocape_mag,-5.1,-20.1,-6.6,10.0,0.0,0.0,0.0,10.0,0.0,0.0,0.0,10.0
1446039391972393302,427,1446039391967329978,robocape_mag,-5.1,-20.1,-6.6,10.0,0.0,0.0,0.0,10.0,0.0,0.0,0.0,10.0
1446039392005943468,428,1446039392000736951,robocape_mag,-5.1,-20.1,-6.6,10.0,0.0,0.0,0.0,10.0,0.0,0.0,0.0,10.0
1446039392041224218,429,1446039392033984899,robocape_mag,-6.9,-21.3,-7.2,10.0,0.0,0.0,0.0,10.0,0.0,0.0,0.0,10.0
1446039392073875510,430,1446039392068738937,robocape_mag,-6.9,-21.3,-7.2,10.0,0.0,0.0,0.0,10.0,0.0,0.0,0.0,10.0
1446039392108342427,431,1446039392100929021,robocape_mag,-6.9,-21.3,-7.2,10.0,0.0,0.0,0.0,10.0,0.0,0.0,0.0,10.0
1446039392144727302,432,1446039392137231111,robocape_mag,-6.9,-21.3,-7.2,10.0,0.0,0.0,0.0,10.0,0.0,0.0,0.0,10.0
1446039392172458802,433,1446039392167359113,robocape_mag,-6.9,-21.3,-7.2,10.0,0.0,0.0,0.0,10.0,0.0,0.0,0.0,10.0
1446039392208186302,434,1446039392201803922,robocape_mag,-6.3,-18.3,-4.2,10.0,0.0,0.0,0.0,10.0,0.0,0.0,0.0,10.0
1446039392246947468,435,1446039392241919040,robocape_mag,-6.3,-18.3,-4.2,10.0,0.0,0.0,0.0,10.0,0.0,0.0,0.0,10.0
1446039392273182843,436,1446039392268381118,robocape_mag,-6.3,-18.3,-4.2,10.0,0.0,0.0,0.0,10.0,0.0,0.0,0.0,10.0
1446039392308316468,437,1446039392301536083,robocape_mag,-6.3,-18.3,-4.2,10.0,0.0,0.0,0.0,10.0,0.0,0.0,0.0,10.0
1446039392341121218,438,1446039392335860013,robocape_mag,-6.3,-31.5,-4.8,10.0,0.0,0.0,0.0,10.0,0.0,0.0,0.0,10.0
1446039392374219552,439,1446039392369298934,robocape_mag,-2.1,-31.5,-4.8,10.0,0.0,0.0,0.0,10.0,0.0,0.0,0.0,10.0
1446039392411475677,440,1446039392402621030,robocape_mag,-2.1,-31.5,-4.8,10.0,0.0,0.0,0.0,10.0,0.0,0.0,0.0,10.0
1446039392439736927,441,1446039392434745073,robocape_mag,-2.1,-31.5,-4.8,10.0,0.0,0.0,0.0,10.0,0.0,0.0,0.0,10.0
1446039392476424302,442,1446039392470530986,robocape_mag,-2.1,-31.5,-4.8,10.0,0.0,0.0,0.0,10.0,0.0,0.0,0.0,10.0
1446039392511891635,443,1446039392503851890,robocape_mag,3.3,-7.5,7.8,10.0,0.0,0.0,0.0,10.0,0.0,0.0,0.0,10.0
1446039392545275510,444,1446039392536077976,robocape_mag,3.3,-7.5,7.8,10.0,0.0,0.0,0.0,10.0,0.0,0.0,0.0,10.0
1446039392576614469,445,1446039392570008039,robocape_mag,3.3,-7.5,7.8,10.0,0.0,0.0,0.0,10.0,0.0,0.0,0.0,10.0
1446039392616935552,446,1446039392603813886,robocape_mag,3.3,-7.5,7.8,10.0,0.0,0.0,0.0,10.0,0.0,0.0,0.0,10.0
1446039392644395802,447,1446039392638427972,robocape_mag,3.3,-7.5,7.8,10.0,0.0,0.0,0.0,10.0,0.0,0.0,0.0,10.0
1446039392676648010,448,1446039392670814037,robocape_mag,30.9,-29.1,0.0,10.0,0.0,0.0,0.0,10.0,0.0,0.0,0.0,10.0
1446039392709903385,449,1446039392704610109,robocape_mag,30.9,-29.1,0.0,10.0,0.0,0.0,0.0,10.0,0.0,0.0,0.0,10.0
1446039392742618510,450,1446039392735816955,robocape_mag,30.9,-29.1,0.0,10.0,0.0,0.0,0.0,10.0,0.0,0.0,0.0,10.0
1446039392775690052,451,1446039392770349025,robocape_mag,30.9,-29.1,0.0,10.0,0.0,0.0,0.0,10.0,0.0,0.0,0.0,10.0
1446039392811897302,452,1446039392804984092,robocape_mag,30.9,-29.1,0.0,10.0,0.0,0.0,0.0,10.0,0.0,0.0,0.0,10.0
1446039392842597469,453,1446039392837316989,robocape_mag,15.3,-5.7,4.8,10.0,0.0,0.0,0.0,10.0,0.0,0.0,0.0,10.0
1446039392875917552,454,1446039392870798110,robocape_mag,15.3,-5.7,4.8,10.0,0.0,0.0,0.0,10.0,0.0,0.0,0.0,10.0
1446039392909877469,455,1446039392904454946,robocape_mag,15.3,-5.7,4.8,10.0,0.0,0.0,0.0,10.0,0.0,0.0,0.0,10.0
1446039392942128010,456,1446039392936911106,robocape_mag,15.3,-5.7,4.8,10.0,0.0,0.0,0.0,10.0,0.0,0.0,0.0,10.0
1446039392975556219,457,1446039392970573902,robocape_mag,15.3,-5.7,4.8,10.0,0.0,0.0,0.0,10.0,0.0,0.0,0.0,10.0
1446039393011026385,458,1446039393004604101,robocape_mag,0.9,-31.5,4.2,10.0,0.0,0.0,0.0,10.0,0.0,0.0,0.0,10.0
1446039393045202969,459,1446039393037755012,robocape_mag,0.9,-31.5,4.2,10.0,0.0,0.0,0.0,10.0,0.0,0.0,0.0,10.0
1446039393075059677,460,1446039393069802045,robocape_mag,0.9,-31.5,4.2,10.0,0.0,0.0,0.0,10.0,0.0,0.0,0.0,10.0
1446039393107653344,461,1446039393102557897,robocape_mag,0.9,-31.5,4.2,10.0,0.0,0.0,0.0,10.0,0.0,0.0,0.0,10.0
1446039393141944261,462,1446039393136970043,robocape_mag,-52.8,-12.0,6.3,10.0,0.0,0.0,0.0,10.0,0.0,0.0,0.0,10.0
1446039393176026969,463,1446039393171231031,robocape_mag,24.0,-12.0,6.3,10.0,0.0,0.0,0.0,10.0,0.0,0.0,0.0,10.0
1446039393207611677,464,1446039393202574014,robocape_mag,24.0,-12.0,6.3,10.0,0.0,0.0,0.0,10.0,0.0,0.0,0.0,10.0
1446039393241701011,465,1446039393236499071,robocape_mag,24.0,-12.0,6.3,10.0,0.0,0.0,0.0,10.0,0.0,0.0,0.0,10.0
1446039393273595594,466,1446039393268702030,robocape_mag,24.0,-12.0,6.3,10.0,0.0,0.0,0.0,10.0,0.0,0.0,0.0,10.0
1446039393306456927,467,1446039393301573991,robocape_mag,15.6,-34.8,5.7,10.0,0.0,0.0,0.0,10.0,0.0,0.0,0.0,10.0
1446039393339831802,468,1446039393334650993,robocape_mag,15.6,-34.8,5.7,10.0,0.0,0.0,0.0,10.0,0.0,0.0,0.0,10.0
1446039393373614844,469,1446039393368724107,robocape_mag,15.6,-34.8,5.7,10.0,0.0,0.0,0.0,10.0,0.0,0.0,0.0,10.0
1446039393406061011,470,1446039393401014089,robocape_mag,15.6,-34.8,5.7,10.0,0.0,0.0,0.0,10.0,0.0,0.0,0.0,10.0
1446039393439360261,471,1446039393434379100,robocape_mag,15.6,-34.8,5.7,10.0,0.0,0.0,0.0,10.0,0.0,0.0,0.0,10.0
1446039393472820344,472,1446039393467925071,robocape_mag,0.3,-10.5,9.6,10.0,0.0,0.0,0.0,10.0,0.0,0.0,0.0,10.0
1446039393505626177,473,1446039393500814914,robocape_mag,0.3,-10.5,9.6,10.0,0.0,0.0,0.0,10.0,0.0,0.0,0.0,10.0
1446039393542114552,474,1446039393534293889,robocape_mag,0.3,-10.5,9.6,10.0,0.0,0.0,0.0,10.0,0.0,0.0,0.0,10.0
1446039393572249427,475,1446039393567449092,robocape_mag,0.3,-10.5,9.6,10.0,0.0,0.0,0.0,10.0,0.0,0.0,0.0,10.0
1446039393605421219,476,1446039393600616931,robocape_mag,0.3,-10.5,9.6,10.0,0.0,0.0,0.0,10.0,0.0,0.0,0.0,10.0
1446039393639364761,477,1446039393634397983,robocape_mag,-1.2,-28.2,2.1,10.0,0.0,0.0,0.0,10.0,0.0,0.0,0.0,10.0
1446039393673955844,478,1446039393667823076,robocape_mag,-1.2,-28.2,2.1,10.0,0.0,0.0,0.0,10.0,0.0,0.0,0.0,10.0
1446039393705222344,479,1446039393700449943,robocape_mag,-1.2,-28.2,2.1,10.0,0.0,0.0,0.0,10.0,0.0,0.0,0.0,10.0
1446039393738940219,480,1446039393733973026,robocape_mag,-1.2,-28.2,2.1,10.0,0.0,0.0,0.0,10.0,0.0,0.0,0.0,10.0
1446039393772215552,481,1446039393767333984,robocape_mag,-1.2,-28.2,2.1,10.0,0.0,0.0,0.0,10.0,0.0,0.0,0.0,10.0
1446039393805388428,482,1446039393800580024,robocape_mag,23.7,-20.7,10.8,10.0,0.0,0.0,0.0,10.0,0.0,0.0,0.0,10.0
1446039393839137719,483,1446039393834142923,robocape_mag,23.7,-20.7,10.8,10.0,0.0,0.0,0.0,10.0,0.0,0.0,0.0,10.0
1446039393872701511,484,1446039393867767095,robocape_mag,23.7,-20.7,10.8,10.0,0.0,0.0,0.0,10.0,0.0,0.0,0.0,10.0
1446039393906875344,485,1446039393901988029,robocape_mag,23.7,-20.7,10.8,10.0,0.0,0.0,0.0,10.0,0.0,0.0,0.0,10.0
1446039393938843803,486,1446039393933897972,robocape_mag,23.7,-20.7,4.8,10.0,0.0,0.0,0.0,10.0,0.0,0.0,0.0,10.0
1446039393972310844,487,1446039393967302083,robocape_mag,33.9,-17.7,4.8,10.0,0.0,0.0,0.0,10.0,0.0,0.0,0.0,10.0
1446039394005422178,488,1446039394000596046,robocape_mag,33.9,-17.7,4.8,10.0,0.0,0.0,0.0,10.0,0.0,0.0,0.0,10.0
1446039394040101469,489,1446039394034205913,robocape_mag,33.9,-17.7,4.8,10.0,0.0,0.0,0.0,10.0,0.0,0.0,0.0,10.0
1446039394074219761,490,1446039394067478895,robocape_mag,33.9,-17.7,4.8,10.0,0.0,0.0,0.0,10.0,0.0,0.0,0.0,10.0
1446039394107375761,491,1446039394100734949,robocape_mag,29.7,-12.3,-1.8,10.0,0.0,0.0,0.0,10.0,0.0,0.0,0.0,10.0
1446039394142115594,492,1446039394135056018,robocape_mag,29.7,-12.3,-1.8,10.0,0.0,0.0,0.0,10.0,0.0,0.0,0.0,10.0
1446039394173028303,493,1446039394167462110,robocape_mag,29.7,-12.3,-1.8,10.0,0.0,0.0,0.0,10.0,0.0,0.0,0.0,10.0
1446039394205374886,494,1446039394200438022,robocape_mag,29.7,-12.3,-1.8,10.0,0.0,0.0,0.0,10.0,0.0,0.0,0.0,10.0
1446039394239147553,495,1446039394233912944,robocape_mag,29.7,-12.3,-1.8,10.0,0.0,0.0,0.0,10.0,0.0,0.0,0.0,10.0
1446039394272622719,496,1446039394267379045,robocape_mag,28.8,-11.4,2.7,10.0,0.0,0.0,0.0,10.0,0.0,0.0,0.0,10.0
1446039394305472928,497,1446039394300523042,robocape_mag,28.8,-11.4,2.7,10.0,0.0,0.0,0.0,10.0,0.0,0.0,0.0,10.0
1446039394338976136,498,1446039394333875894,robocape_mag,28.8,-11.4,2.7,10.0,0.0,0.0,0.0,10.0,0.0,0.0,0.0,10.0
1446039394372385511,499,1446039394367255926,robocape_mag,28.8,-11.4,2.7,10.0,0.0,0.0,0.0,10.0,0.0,0.0,0.0,10.0
1446039394405509344,500,1446039394400625944,robocape_mag,28.8,-11.4,2.7,10.0,0.0,0.0,0.0,10.0,0.0,0.0,0.0,10.0
1446039394439166303,501,1446039394434209108,robocape_mag,23.4,-26.4,-0.9,10.0,0.0,0.0,0.0,10.0,0.0,0.0,0.0,10.0
1446039394472427428,502,1446039394467431068,robocape_mag,23.4,-26.4,-0.9,10.0,0.0,0.0,0.0,10.0,0.0,0.0,0.0,10.0
1446039394505727386,503,1446039394500607013,robocape_mag,23.4,-26.4,-0.9,10.0,0.0,0.0,0.0,10.0,0.0,0.0,0.0,10.0
1446039394540487220,504,1446039394535414934,robocape_mag,23.4,-26.4,-0.9,10.0,0.0,0.0,0.0,10.0,0.0,0.0,0.0,10.0
1446039394573482511,505,1446039394568639039,robocape_mag,23.4,-26.4,-0.9,10.0,0.0,0.0,0.0,10.0,0.0,0.0,0.0,10.0
1446039394612081678,506,1446039394605696916,robocape_mag,37.8,-10.2,4.5,10.0,0.0,0.0,0.0,10.0,0.0,0.0,0.0,10.0
1446039394640053345,507,1446039394635111093,robocape_mag,37.8,-10.2,4.5,10.0,0.0,0.0,0.0,10.0,0.0,0.0,0.0,10.0
1446039394673899595,508,1446039394668760061,robocape_mag,37.8,-10.2,4.5,10.0,0.0,0.0,0.0,10.0,0.0,0.0,0.0,10.0
1446039394705878845,509,1446039394701103925,robocape_mag,37.8,-10.2,4.5,10.0,0.0,0.0,0.0,10.0,0.0,0.0,0.0,10.0
1446039394740300886,510,1446039394734299898,robocape_mag,37.8,-10.2,3.3,10.0,0.0,0.0,0.0,10.0,0.0,0.0,0.0,10.0
1446039394773255720,511,1446039394768121957,robocape_mag,27.6,-6.0,3.3,10.0,0.0,0.0,0.0,10.0,0.0,0.0,0.0,10.0
1446039394806929220,512,1446039394802143096,robocape_mag,27.6,-6.0,3.3,10.0,0.0,0.0,0.0,10.0,0.0,0.0,0.0,10.0
1446039394842897303,513,1446039394836018085,robocape_mag,27.6,-6.0,3.3,10.0,0.0,0.0,0.0,10.0,0.0,0.0,0.0,10.0
1446039394875654886,514,1446039394869179010,robocape_mag,27.6,-6.0,3.3,10.0,0.0,0.0,0.0,10.0,0.0,0.0,0.0,10.0
1446039394909762636,515,1446039394903506994,robocape_mag,34.5,-9.3,7.8,10.0,0.0,0.0,0.0,10.0,0.0,0.0,0.0,10.0
1446039394944102720,516,1446039394935571908,robocape_mag,34.5,-9.3,7.8,10.0,0.0,0.0,0.0,10.0,0.0,0.0,0.0,10.0
1446039394978084136,517,1446039394971082925,robocape_mag,34.5,-9.3,7.8,10.0,0.0,0.0,0.0,10.0,0.0,0.0,0.0,10.0
1446039395013939178,518,1446039395005034923,robocape_mag,34.5,-9.3,7.8,10.0,0.0,0.0,0.0,10.0,0.0,0.0,0.0,10.0
1446039395043599553,519,1446039395037991046,robocape_mag,34.5,-9.3,7.8,10.0,0.0,0.0,0.0,10.0,0.0,0.0,0.0,10.0
1446039395075997095,520,1446039395070884943,robocape_mag,21.6,-19.8,8.1,10.0,0.0,0.0,0.0,10.0,0.0,0.0,0.0,10.0
1446039395112250470,521,1446039395102466106,robocape_mag,21.6,-19.8,8.1,10.0,0.0,0.0,0.0,10.0,0.0,0.0,0.0,10.0
1446039395150577845,522,1446039395141369104,robocape_mag,21.6,-19.8,8.1,10.0,0.0,0.0,0.0,10.0,0.0,0.0,0.0,10.0
1446039395177132178,523,1446039395171889066,robocape_mag,21.6,-19.8,8.1,10.0,0.0,0.0,0.0,10.0,0.0,0.0,0.0,10.0
1446039395209498303,524,1446039395204564094,robocape_mag,21.6,-19.8,8.1,10.0,0.0,0.0,0.0,10.0,0.0,0.0,0.0,10.0
1446039395242417512,525,1446039395237109899,robocape_mag,20.1,-11.1,-5.4,10.0,0.0,0.0,0.0,10.0,0.0,0.0,0.0,10.0
1446039395275469428,526,1446039395270337104,robocape_mag,20.1,-11.1,-5.4,10.0,0.0,0.0,0.0,10.0,0.0,0.0,0.0,10.0
1446039395308079345,527,1446039395302848100,robocape_mag,20.1,-11.1,-5.4,10.0,0.0,0.0,0.0,10.0,0.0,0.0,0.0,10.0
1446039395342316137,528,1446039395337296009,robocape_mag,20.1,-11.1,-5.4,10.0,0.0,0.0,0.0,10.0,0.0,0.0,0.0,10.0
1446039395375139887,529,1446039395370249032,robocape_mag,20.1,-11.1,-5.4,10.0,0.0,0.0,0.0,10.0,0.0,0.0,0.0,10.0
1446039395408450262,530,1446039395403387069,robocape_mag,21.9,-10.5,-9.6,10.0,0.0,0.0,0.0,10.0,0.0,0.0,0.0,10.0
1446039395441885845,531,1446039395436953067,robocape_mag,21.9,-10.5,-9.6,10.0,0.0,0.0,0.0,10.0,0.0,0.0,0.0,10.0
1446039395475055137,532,1446039395470279932,robocape_mag,21.9,-10.5,-9.6,10.0,0.0,0.0,0.0,10.0,0.0,0.0,0.0,10.0
1446039395507816137,533,1446039395502780914,robocape_mag,21.9,-10.5,-9.6,10.0,0.0,0.0,0.0,10.0,0.0,0.0,0.0,10.0
