%time,field.header.seq,field.header.stamp,field.header.frame_id,field.magnetic_field.x,field.magnetic_field.y,field.magnetic_field.z,field.magnetic_field_covariance0,field.magnetic_field_covariance1,field.magnetic_field_covariance2,field.magnetic_field_covariance3,field.magnetic_field_covariance4,field.magnetic_field_covariance5,field.magnetic_field_covariance6,field.magnetic_field_covariance7,field.magnetic_field_covariance8
1446038180551604224,1,1446038180151773929,robocape_mag,8.25,-21.45,-1.65,10.0,0.0,0.0,0.0,10.0,0.0,0.0,0.0,10.0
1446038180556069307,2,1446038180187850952,robocape_mag,4.65,-21.45,-2.85,10.0,0.0,0.0,0.0,10.0,0.0,0.0,0.0,10.0
1446038180579671641,3,1446038180215962886,robocape_mag,4.65,-21.45,-2.85,10.0,0.0,0.0,0.0,10.0,0.0,0.0,0.0,10.0
1446038180582668974,4,1446038180255654096,robocape_mag,4.65,-21.45,-2.85,10.0,0.0,0.0,0.0,10.0,0.0,0.0,0.0,10.0
1446038180582761557,5,1446038180297446966,robocape_mag,4.65,-21.45,-2.85,10.0,0.0,0.0,0.0,10.0,0.0,0.0,0.0,10.0
1446038180585729974,6,1446038180327229976,robocape_mag,4.65,-21.45,-2.85,10.0,0.0,0.0,0.0,10.0,0.0,0.0,0.0,10.0
1446038180613015724,7,1446038180350159883,robocape_mag,4.95,-19.95,-0.75,10.0,0.0,0.0,0.0,10.0,0.0,0.0,0.0,10.0
1446038180613111599,8,1446038180381686925,robocape_mag,4.95,-19.95,-0.75,10.0,0.0,0.0,0.0,10.0,0.0,0.0,0.0,10.0
1446038180632721391,9,1446038180415101051,robocape_mag,4.95,-19.95,-0.75,10.0,0.0,0.0,0.0,10.0,0.0,0.0,0.0,10.0
1446038180636124182,10,1446038180449183940,robocape_mag,4.95,-19.95,-0.75,10.0,0.0,0.0,0.0,10.0,0.0,0.0,0.0,10.0
1446038180636281682,11,1446038180522619009,robocape_mag,3.75,-19.95,-1.35,10.0,0.0,0.0,0.0,10.0,0.0,0.0,0.0,10.0
1446038180636420307,12,1446038180542103052,robocape_mag,3.75,-19.95,-1.35,10.0,0.0,0.0,0.0,10.0,0.0,0.0,0.0,10.0
1446038180636492932,13,1446038180567466020,robocape_mag,3.75,-19.95,-1.35,10.0,0.0,0.0,0.0,10.0,0.0,0.0,0.0,10.0
1446038180636615974,14,1446038180588531017,robocape_mag,3.75,-19.95,-1.35,10.0,0.0,0.0,0.0,10.0,0.0,0.0,0.0,10.0
1446038180636682057,15,1446038180622992992,robocape_mag,3.75,-19.95,-1.35,10.0,0.0,0.0,0.0,10.0,0.0,0.0,0.0,10.0
1446038180655118099,16,1446038180650665044,robocape_mag,3.75,-23.25,0.15,10.0,0.0,0.0,0.0,10.0,0.0,0.0,0.0,10.0
1446038180686830474,17,1446038180681947946,robocape_mag,6.45,-23.25,0.15,10.0,0.0,0.0,0.0,10.0,0.0,0.0,0.0,10.0
1446038180728897224,18,1446038180716896057,robocape_mag,6.45,-23.25,0.15,10.0,0.0,0.0,0.0,10.0,0.0,0.0,0.0,10.0
1446038180754072516,19,1446038180749239921,robocape_mag,6.45,-23.25,0.15,10.0,0.0,0.0,0.0,10.0,0.0,0.0,0.0,10.0
1446038180786698932,20,1446038180781887054,robocape_mag,6.45,-23.25,0.15,10.0,0.0,0.0,0.0,10.0,0.0,0.0,0.0,10.0
1446038180819882557,21,1446038180814771890,robocape_mag,4.95,-22.35,-2.55,10.0,0.0,0.0,0.0,10.0,0.0,0.0,0.0,10.0
1446038180852663557,22,1446038180847842931,robocape_mag,4.95,-22.35,-2.55,10.0,0.0,0.0,0.0,10.0,0.0,0.0,0.0,10.0
1446038180885894599,23,1446038180881041049,robocape_mag,4.95,-22.35,-2.55,10.0,0.0,0.0,0.0,10.0,0.0,0.0,0.0,10.0
1446038180919579891,24,1446038180914478063,robocape_mag,4.95,-22.35,-2.55,10.0,0.0,0.0,0.0,10.0,0.0,0.0,0.0,10.0
1446038180954946641,25,1446038180947561025,robocape_mag,4.95,-22.35,-2.55,10.0,0.0,0.0,0.0,10.0,0.0,0.0,0.0,10.0
1446038180985944558,26,1446038180980993986,robocape_mag,5.25,-22.65,-2.85,10.0,0.0,0.0,0.0,10.0,0.0,0.0,0.0,10.0
1446038181019324308,27,1446038181014210939,robocape_mag,5.25,-22.65,-2.85,10.0,0.0,0.0,0.0,10.0,0.0,0.0,0.0,10.0
1446038181052685558,28,1446038181047641992,robocape_mag,5.25,-22.65,-2.85,10.0,0.0,0.0,0.0,10.0,0.0,0.0,0.0,10.0
1446038181085657349,29,1446038181080712080,robocape_mag,5.25,-22.65,-2.85,10.0,0.0,0.0,0.0,10.0,0.0,0.0,0.0,10.0
1446038181119320016,30,1446038181114084959,robocape_mag,5.25,-22.65,-2.85,10.0,0.0,0.0,0.0,10.0,0.0,0.0,0.0,10.0
1446038181152656099,31,1446038181147676944,robocape_mag,5.55,-21.75,-0.15,10.0,0.0,0.0,0.0,10.0,0.0,0.0,0.0,10.0
1446038181185985724,32,1446038181180923938,robocape_mag,5.55,-21.75,-0.15,10.0,0.0,0.0,0.0,10.0,0.0,0.0,0.0,10.0
1446038181219569641,33,1446038181214565992,robocape_mag,5.55,-21.75,-0.15,10.0,0.0,0.0,0.0,10.0,0.0,0.0,0.0,10.0
1446038181252317558,34,1446038181247520923,robocape_mag,5.55,-21.75,-0.15,10.0,0.0,0.0,0.0,10.0,0.0,0.0,0.0,10.0
1446038181285985683,35,1446038181281002998,robocape_mag,5.55,-21.75,-0.15,10.0,0.0,0.0,0.0,10.0,0.0,0.0,0.0,10.0
1446038181319679558,36,1446038181314564943,robocape_mag,4.65,-22.05,-1.05,10.0,0.0,0.0,0.0,10.0,0.0,0.0,0.0,10.0
1446038181352151433,37,1446038181347366094,robocape_mag,4.65,-22.05,-1.05,10.0,0.0,0.0,0.0,10.0,0.0,0.0,0.0,10.0
1446038181385992766,38,1446038181380949020,robocape_mag,4.65,-22.05,-1.05,10.0,0.0,0.0,0.0,10.0,0.0,0.0,0.0,10.0
1446038181420043808,39,1446038181414119958,robocape_mag,4.65,-22.05,-1.05,10.0,0.0,0.0,0.0,10.0,0.0,0.0,0.0,10.0
1446038181452448641,40,1446038181447453975,robocape_mag,4.65,-22.05,-1.05,10.0,0.0,0.0,0.0,10.0,0.0,0.0,0.0,10.0
1446038181487878474,41,1446038181480849981,robocape_mag,4.35,-21.15,-1.35,10.0,0.0,0.0,0.0,10.0,0.0,0.0,0.0,10.0
1446038181519848141,42,1446038181514413118,robocape_mag,4.35,-21.15,-1.35,10.0,0.0,0.0,0.0,10.0,0.0,0.0,0.0,10.0
1446038181562072099,43,1446038181547329902,robocape_mag,4.35,-21.15,-1.35,10.0,0.0,0.0,0.0,10.0,0.0,0.0,0.0,10.0
1446038181586887849,44,1446038181581688880,robocape_mag,4.35,-21.15,-1.35,10.0,0.0,0.0,0.0,10.0,0.0,0.0,0.0,10.0
1446038181621521474,45,1446038181614345073,robocape_mag,5.85,-23.85,-4.05,10.0,0.0,0.0,0.0,10.0,0.0,0.0,0.0,10.0
1446038181652714475,46,1446038181647474050,robocape_mag,5.85,-23.85,-4.05,10.0,0.0,0.0,0.0,10.0,0.0,0.0,0.0,10.0
1446038181686644516,47,1446038181681092977,robocape_mag,5.85,-23.85,-4.05,10.0,0.0,0.0,0.0,10.0,0.0,0.0,0.0,10.0
1446038181719402225,48,1446038181714176893,robocape_mag,5.85,-23.85,-4.05,10.0,0.0,0.0,0.0,10.0,0.0,0.0,0.0,10.0
1446038181752334975,49,1446038181747370958,robocape_mag,5.85,-23.85,-4.05,10.0,0.0,0.0,0.0,10.0,0.0,0.0,0.0,10.0
1446038181788545933,50,1446038181780868053,robocape_mag,4.95,-22.95,-3.15,10.0,0.0,0.0,0.0,10.0,0.0,0.0,0.0,10.0
1446038181823010308,51,1446038181814260005,robocape_mag,4.95,-22.95,-3.15,10.0,0.0,0.0,0.0,10.0,0.0,0.0,0.0,10.0
1446038181852385850,52,1446038181847532033,robocape_mag,4.95,-22.95,-3.15,10.0,0.0,0.0,0.0,10.0,0.0,0.0,0.0,10.0
1446038181886065808,53,1446038181881028890,robocape_mag,4.95,-22.95,-3.15,10.0,0.0,0.0,0.0,10.0,0.0,0.0,0.0,10.0
1446038181919274516,54,1446038181914246082,robocape_mag,4.95,-22.95,-3.15,10.0,0.0,0.0,0.0,10.0,0.0,0.0,0.0,10.0
1446038181953837308,55,1446038181949033021,robocape_mag,4.95,-22.95,-0.75,10.0,0.0,0.0,0.0,10.0,0.0,0.0,0.0,10.0
1446038181988742558,56,1446038181981239080,robocape_mag,4.95,-22.95,-0.75,10.0,0.0,0.0,0.0,10.0,0.0,0.0,0.0,10.0
1446038182020935975,57,1446038182015813112,robocape_mag,4.95,-22.95,-0.75,10.0,0.0,0.0,0.0,10.0,0.0,0.0,0.0,10.0
1446038182053450516,58,1446038182048650979,robocape_mag,4.95,-22.95,-0.75,10.0,0.0,0.0,0.0,10.0,0.0,0.0,0.0,10.0
1446038182087750975,59,1446038182082638978,robocape_mag,4.95,-22.95,-0.75,10.0,0.0,0.0,0.0,10.0,0.0,0.0,0.0,10.0
1446038182121064975,60,1446038182115932941,robocape_mag,7.05,-21.45,0.75,10.0,0.0,0.0,0.0,10.0,0.0,0.0,0.0,10.0
1446038182153499141,61,1446038182148145914,robocape_mag,7.05,-21.45,0.75,10.0,0.0,0.0,0.0,10.0,0.0,0.0,0.0,10.0
1446038182188071350,62,1446038182181670904,robocape_mag,7.05,-21.45,0.75,10.0,0.0,0.0,0.0,10.0,0.0,0.0,0.0,10.0
1446038182230191891,63,1446038182217344999,robocape_mag,7.05,-21.45,0.75,10.0,0.0,0.0,0.0,10.0,0.0,0.0,0.0,10.0
1446038182255800516,64,1446038182250211954,robocape_mag,7.05,-21.45,-0.45,10.0,0.0,0.0,0.0,10.0,0.0,0.0,0.0,10.0
1446038182290189225,65,1446038182284935951,robocape_mag,3.45,-21.45,-0.45,10.0,0.0,0.0,0.0,10.0,0.0,0.0,0.0,10.0
1446038182324653641,66,1446038182318036079,robocape_mag,3.45,-21.45,-0.45,10.0,0.0,0.0,0.0,10.0,0.0,0.0,0.0,10.0
1446038182357856475,67,1446038182351294994,robocape_mag,3.45,-21.45,-0.45,10.0,0.0,0.0,0.0,10.0,0.0,0.0,0.0,10.0
1446038182389210058,68,1446038182384063959,robocape_mag,3.45,-21.45,-0.45,10.0,0.0,0.0,0.0,10.0,0.0,0.0,0.0,10.0
1446038182423602308,69,1446038182417293071,robocape_mag,3.15,-21.75,-1.35,10.0,0.0,0.0,0.0,10.0,0.0,0.0,0.0,10.0
1446038182461312392,70,1446038182450727939,robocape_mag,3.15,-21.75,-1.35,10.0,0.0,0.0,0.0,10.0,0.0,0.0,0.0,10.0
1446038182491709892,71,1446038182485255956,robocape_mag,3.15,-21.75,-1.35,10.0,0.0,0.0,0.0,10.0,0.0,0.0,0.0,10.0
1446038182527502975,72,1446038182517621994,robocape_mag,3.15,-21.75,-1.35,10.0,0.0,0.0,0.0,10.0,0.0,0.0,0.0,10.0
1446038182567349350,73,1446038182550249099,robocape_mag,3.15,-21.75,-1.35,10.0,0.0,0.0,0.0,10.0,0.0,0.0,0.0,10.0
1446038182591914558,74,1446038182584238052,robocape_mag,4.35,-21.75,-0.15,10.0,0.0,0.0,0.0,10.0,0.0,0.0,0.0,10.0
1446038182623730558,75,1446038182618534088,robocape_mag,4.35,-21.75,-0.15,10.0,0.0,0.0,0.0,10.0,0.0,0.0,0.0,10.0
1446038182656647642,76,1446038182651700019,robocape_mag,4.35,-21.75,-0.15,10.0,0.0,0.0,0.0,10.0,0.0,0.0,0.0,10.0
1446038182690088308,77,1446038182684808969,robocape_mag,4.35,-21.75,-0.15,10.0,0.0,0.0,0.0,10.0,0.0,0.0,0.0,10.0
1446038182722222850,78,1446038182717178106,robocape_mag,4.35,-21.75,-0.15,10.0,0.0,0.0,0.0,10.0,0.0,0.0,0.0,10.0
1446038182754788183,79,1446038182749800920,robocape_mag,3.75,-21.15,-1.35,10.0,0.0,0.0,0.0,10.0,0.0,0.0,0.0,10.0
1446038182791852433,80,1446038182784066915,robocape_mag,3.75,-21.15,-1.35,10.0,0.0,0.0,0.0,10.0,0.0,0.0,0.0,10.0
1446038182822409892,81,1446038182817492008,robocape_mag,3.75,-21.15,-1.35,10.0,0.0,0.0,0.0,10.0,0.0,0.0,0.0,10.0
1446038182855213142,82,1446038182850332021,robocape_mag,3.75,-21.15,-1.35,10.0,0.0,0.0,0.0,10.0,0.0,0.0,0.0,10.0
1446038182891901225,83,1446038182883652925,robocape_mag,3.75,-21.15,-1.35,10.0,0.0,0.0,0.0,10.0,0.0,0.0,0.0,10.0
1446038182922216392,84,1446038182917349100,robocape_mag,3.75,-22.35,-0.75,10.0,0.0,0.0,0.0,10.0,0.0,0.0,0.0,10.0
1446038182955010058,85,1446038182950086116,robocape_mag,3.75,-22.35,-0.75,10.0,0.0,0.0,0.0,10.0,0.0,0.0,0.0,10.0
1446038182988622267,86,1446038182983159065,robocape_mag,3.75,-22.35,-0.75,10.0,0.0,0.0,0.0,10.0,0.0,0.0,0.0,10.0
1446038183021221975,87,1446038183016156911,robocape_mag,3.75,-22.35,-0.75,10.0,0.0,0.0,0.0,10.0,0.0,0.0,0.0,10.0
1446038183053302225,88,1446038183048444986,robocape_mag,3.75,-22.35,-0.75,10.0,0.0,0.0,0.0,10.0,0.0,0.0,0.0,10.0
1446038183087194100,89,1446038183082277059,robocape_mag,3.15,-21.75,-1.95,10.0,0.0,0.0,0.0,10.0,0.0,0.0,0.0,10.0
1446038183119858309,90,1446038183115032911,robocape_mag,3.15,-21.75,-1.95,10.0,0.0,0.0,0.0,10.0,0.0,0.0,0.0,10.0
1446038183153212350,91,1446038183148350954,robocape_mag,3.15,-21.75,-1.95,10.0,0.0,0.0,0.0,10.0,0.0,0.0,0.0,10.0
1446038183186229559,92,1446038183181288957,robocape_mag,3.15,-21.75,-1.95,10.0,0.0,0.0,0.0,10.0,0.0,0.0,0.0,10.0
1446038183225143225,93,1446038183215002059,robocape_mag,4.65,-20.25,-1.05,10.0,0.0,0.0,0.0,10.0,0.0,0.0,0.0,10.0
1446038183253103559,94,1446038183248215913,robocape_mag,4.65,-20.25,-1.05,10.0,0.0,0.0,0.0,10.0,0.0,0.0,0.0,10.0
1446038183285963267,95,1446038183280983924,robocape_mag,4.65,-20.25,-1.05,10.0,0.0,0.0,0.0,10.0,0.0,0.0,0.0,10.0
1446038183319033600,96,1446038183314110040,robocape_mag,4.65,-20.25,-1.05,10.0,0.0,0.0,0.0,10.0,0.0,0.0,0.0,10.0
1446038183352695809,97,1446038183347780942,robocape_mag,4.65,-20.25,-1.05,10.0,0.0,0.0,0.0,10.0,0.0,0.0,0.0,10.0
1446038183386115642,98,1446038183381004095,robocape_mag,5.55,-21.15,-0.75,10.0,0.0,0.0,0.0,10.0,0.0,0.0,0.0,10.0
1446038183419330975,99,1446038183414411067,robocape_mag,5.55,-21.15,-0.75,10.0,0.0,0.0,0.0,10.0,0.0,0.0,0.0,10.0
1446038183452661600,100,1446038183447772026,robocape_mag,5.55,-21.15,-0.75,10.0,0.0,0.0,0.0,10.0,0.0,0.0,0.0,10.0
1446038183486239350,101,1446038183481252908,robocape_mag,5.55,-21.15,-0.75,10.0,0.0,0.0,0.0,10.0,0.0,0.0,0.0,10.0
1446038183519269017,102,1446038183514249086,robocape_mag,5.55,-21.15,-0.75,10.0,0.0,0.0,0.0,10.0,0.0,0.0,0.0,10.0
1446038183560185809,103,1446038183547738075,robocape_mag,7.35,-23.55,-1.95,10.0,0.0,0.0,0.0,10.0,0.0,0.0,0.0,10.0
1446038183587144142,104,1446038183582241058,robocape_mag,7.35,-23.55,-1.95,10.0,0.0,0.0,0.0,10.0,0.0,0.0,0.0,10.0
1446038183619204475,105,1446038183614379882,robocape_mag,7.35,-23.55,-1.95,10.0,0.0,0.0,0.0,10.0,0.0,0.0,0.0,10.0
1446038183653697184,106,1446038183648715019,robocape_mag,7.35,-23.55,-1.95,10.0,0.0,0.0,0.0,10.0,0.0,0.0,0.0,10.0
1446038183686470975,107,1446038183681380987,robocape_mag,7.35,-23.55,-1.95,10.0,0.0,0.0,0.0,10.0,0.0,0.0,0.0,10.0
1446038183719308267,108,1446038183714427947,robocape_mag,6.15,-20.55,-0.15,10.0,0.0,0.0,0.0,10.0,0.0,0.0,0.0,10.0
1446038183752431142,109,1446038183747595071,robocape_mag,6.15,-20.55,-0.15,10.0,0.0,0.0,0.0,10.0,0.0,0.0,0.0,10.0
1446038183786924184,110,1446038183780836105,robocape_mag,6.15,-20.55,-0.15,10.0,0.0,0.0,0.0,10.0,0.0,0.0,0.0,10.0
1446038183819883309,111,1446038183814058065,robocape_mag,6.15,-20.55,-0.15,10.0,0.0,0.0,0.0,10.0,0.0,0.0,0.0,10.0
1446038183854419309,112,1446038183847716093,robocape_mag,6.15,-20.55,-0.15,10.0,0.0,0.0,0.0,10.0,0.0,0.0,0.0,10.0
1446038183887659642,113,1446038183880733013,robocape_mag,4.65,-21.45,-2.25,10.0,0.0,0.0,0.0,10.0,0.0,0.0,0.0,10.0
1446038183919419642,114,1446038183914163112,robocape_mag,4.65,-21.45,-2.25,10.0,0.0,0.0,0.0,10.0,0.0,0.0,0.0,10.0
1446038183952960392,115,1446038183947791099,robocape_mag,4.65,-21.45,-2.25,10.0,0.0,0.0,0.0,10.0,0.0,0.0,0.0,10.0
1446038183988488517,116,1446038183981259107,robocape_mag,4.65,-21.45,-2.25,10.0,0.0,0.0,0.0,10.0,0.0,0.0,0.0,10.0
1446038184019864142,117,1446038184014463901,robocape_mag,4.05,-22.65,-1.65,10.0,0.0,0.0,0.0,10.0,0.0,0.0,0.0,10.0
1446038184052629226,118,1446038184047532081,robocape_mag,4.05,-22.65,-1.65,10.0,0.0,0.0,0.0,10.0,0.0,0.0,0.0,10.0
1446038184087047601,119,1446038184080708980,robocape_mag,4.05,-22.65,-1.65,10.0,0.0,0.0,0.0,10.0,0.0,0.0,0.0,10.0
1446038184119108392,120,1446038184114099025,robocape_mag,4.05,-22.65,-1.65,10.0,0.0,0.0,0.0,10.0,0.0,0.0,0.0,10.0
1446038184152640851,121,1446038184147820949,robocape_mag,4.05,-22.65,-1.65,10.0,0.0,0.0,0.0,10.0,0.0,0.0,0.0,10.0
1446038184186005434,122,1446038184180879116,robocape_mag,4.65,-20.85,-2.25,10.0,0.0,0.0,0.0,10.0,0.0,0.0,0.0,10.0
1446038184219084726,123,1446038184214286088,robocape_mag,4.65,-20.85,-2.25,10.0,0.0,0.0,0.0,10.0,0.0,0.0,0.0,10.0
1446038184252620267,124,1446038184247778892,robocape_mag,4.65,-20.85,-2.25,10.0,0.0,0.0,0.0,10.0,0.0,0.0,0.0,10.0
1446038184286264101,125,1446038184280982971,robocape_mag,4.65,-20.85,-2.25,10.0,0.0,0.0,0.0,10.0,0.0,0.0,0.0,10.0
1446038184320151684,126,1446038184315258026,robocape_mag,4.65,-20.85,-2.25,10.0,0.0,0.0,0.0,10.0,0.0,0.0,0.0,10.0
1446038184352756726,127,1446038184347793102,robocape_mag,3.45,-20.25,0.15,10.0,0.0,0.0,0.0,10.0,0.0,0.0,0.0,10.0
1446038184386411309,128,1446038184380916118,robocape_mag,3.45,-20.25,0.15,10.0,0.0,0.0,0.0,10.0,0.0,0.0,0.0,10.0
1446038184419133767,129,1446038184414232969,robocape_mag,3.45,-20.25,0.15,10.0,0.0,0.0,0.0,10.0,0.0,0.0,0.0,10.0
1446038184452835434,130,1446038184447947978,robocape_mag,3.45,-20.25,0.15,10.0,0.0,0.0,0.0,10.0,0.0,0.0,0.0,10.0
1446038184486518018,131,1446038184481242895,robocape_mag,3.45,-20.25,0.15,10.0,0.0,0.0,0.0,10.0,0.0,0.0,0.0,10.0
1446038184519402684,132,1446038184514497995,robocape_mag,2.55,-21.15,-1.35,10.0,0.0,0.0,0.0,10.0,0.0,0.0,0.0,10.0
1446038184560802601,133,1446038184548079013,robocape_mag,2.55,-21.15,-1.35,10.0,0.0,0.0,0.0,10.0,0.0,0.0,0.0,10.0
1446038184591205684,134,1446038184582093954,robocape_mag,2.55,-21.15,-1.35,10.0,0.0,0.0,0.0,10.0,0.0,0.0,0.0,10.0
1446038184619259726,135,1446038184614347934,robocape_mag,2.55,-21.15,-1.35,10.0,0.0,0.0,0.0,10.0,0.0,0.0,0.0,10.0
1446038184653985018,136,1446038184648937940,robocape_mag,2.55,-21.15,-1.35,10.0,0.0,0.0,0.0,10.0,0.0,0.0,0.0,10.0
1446038184685924184,137,1446038184680994033,robocape_mag,4.65,-20.85,-2.25,10.0,0.0,0.0,0.0,10.0,0.0,0.0,0.0,10.0
1446038184719062101,138,1446038184714261054,robocape_mag,4.65,-20.85,-2.25,10.0,0.0,0.0,0.0,10.0,0.0,0.0,0.0,10.0
1446038184752852643,139,1446038184747754096,robocape_mag,4.65,-20.85,-2.25,10.0,0.0,0.0,0.0,10.0,0.0,0.0,0.0,10.0
1446038184785906976,140,1446038184780873060,robocape_mag,4.65,-20.85,-2.25,10.0,0.0,0.0,0.0,10.0,0.0,0.0,0.0,10.0
1446038184819728393,141,1446038184814872026,robocape_mag,2.85,-20.25,-1.65,10.0,0.0,0.0,0.0,10.0,0.0,0.0,0.0,10.0
1446038184852970018,142,1446038184847892045,robocape_mag,2.85,-20.25,-1.65,10.0,0.0,0.0,0.0,10.0,0.0,0.0,0.0,10.0
1446038184886022518,143,1446038184880901098,robocape_mag,2.85,-20.25,-1.65,10.0,0.0,0.0,0.0,10.0,0.0,0.0,0.0,10.0
1446038184919044601,144,1446038184914160013,robocape_mag,2.85,-20.25,-1.65,10.0,0.0,0.0,0.0,10.0,0.0,0.0,0.0,10.0
1446038184953654518,145,1446038184947452068,robocape_mag,2.85,-20.25,-1.65,10.0,0.0,0.0,0.0,10.0,0.0,0.0,0.0,10.0
1446038184986515018,146,1446038184980880975,robocape_mag,5.85,-23.85,-1.65,10.0,0.0,0.0,0.0,10.0,0.0,0.0,0.0,10.0
1446038185019553143,147,1446038185014337062,robocape_mag,5.85,-23.85,-1.65,10.0,0.0,0.0,0.0,10.0,0.0,0.0,0.0,10.0
1446038185053239393,148,1446038185047595977,robocape_mag,5.85,-23.85,-1.65,10.0,0.0,0.0,0.0,10.0,0.0,0.0,0.0,10.0
1446038185085836768,149,1446038185080689907,robocape_mag,5.85,-23.85,-1.65,10.0,0.0,0.0,0.0,10.0,0.0,0.0,0.0,10.0
1446038185121475101,150,1446038185116554975,robocape_mag,5.85,-23.85,-1.65,10.0,0.0,0.0,0.0,10.0,0.0,0.0,0.0,10.0
1446038185153442310,151,1446038185147872924,robocape_mag,4.05,-20.85,-1.65,10.0,0.0,0.0,0.0,10.0,0.0,0.0,0.0,10.0
1446038185186247560,152,1446038185180984973,robocape_mag,4.05,-20.85,-1.65,10.0,0.0,0.0,0.0,10.0,0.0,0.0,0.0,10.0
1446038185219305976,153,1446038185214179039,robocape_mag,4.05,-20.85,-1.65,10.0,0.0,0.0,0.0,10.0,0.0,0.0,0.0,10.0
1446038185253113685,154,1446038185247450113,robocape_mag,4.05,-20.85,-1.65,10.0,0.0,0.0,0.0,10.0,0.0,0.0,0.0,10.0
1446038185285816268,155,1446038185280849933,robocape_mag,4.05,-20.85,-1.65,10.0,0.0,0.0,0.0,10.0,0.0,0.0,0.0,10.0
1446038185319527601,156,1446038185314327001,robocape_mag,5.85,-20.25,-1.65,10.0,0.0,0.0,0.0,10.0,0.0,0.0,0.0,10.0
1446038185353586810,157,1446038185347790956,robocape_mag,5.85,-20.25,-1.65,10.0,0.0,0.0,0.0,10.0,0.0,0.0,0.0,10.0
1446038185385960185,158,1446038185381030082,robocape_mag,5.85,-20.25,-1.65,10.0,0.0,0.0,0.0,10.0,0.0,0.0,0.0,10.0
1446038185419281601,159,1446038185414222955,robocape_mag,5.85,-20.25,-1.65,10.0,0.0,0.0,0.0,10.0,0.0,0.0,0.0,10.0
1446038185453261268,160,1446038185447570085,robocape_mag,5.85,-20.25,-1.65,10.0,0.0,0.0,0.0,10.0,0.0,0.0,0.0,10.0
1446038185486754018,161,1446038185481347084,robocape_mag,3.75,-21.75,-2.55,10.0,0.0,0.0,0.0,10.0,0.0,0.0,0.0,10.0
1446038185525290685,162,1446038185516200065,robocape_mag,3.75,-21.75,-2.55,10.0,0.0,0.0,0.0,10.0,0.0,0.0,0.0,10.0
1446038185560550726,163,1446038185548958063,robocape_mag,3.75,-21.75,-2.55,10.0,0.0,0.0,0.0,10.0,0.0,0.0,0.0,10.0
1446038185589506685,164,1446038185582756042,robocape_mag,3.75,-21.75,-2.55,10.0,0.0,0.0,0.0,10.0,0.0,0.0,0.0,10.0
1446038185621564476,165,1446038185616389989,robocape_mag,4.65,-22.05,-1.65,10.0,0.0,0.0,0.0,10.0,0.0,0.0,0.0,10.0
1446038185655617518,166,1446038185649616956,robocape_mag,4.65,-22.05,-1.65,10.0,0.0,0.0,0.0,10.0,0.0,0.0,0.0,10.0
1446038185691818518,167,1446038185682846069,robocape_mag,4.65,-22.05,-1.65,10.0,0.0,0.0,0.0,10.0,0.0,0.0,0.0,10.0
1446038185730466018,168,1446038185717339992,robocape_mag,4.65,-22.05,-1.65,10.0,0.0,0.0,0.0,10.0,0.0,0.0,0.0,10.0
1446038185756968560,169,1446038185751713037,robocape_mag,4.65,-22.05,-1.65,10.0,0.0,0.0,0.0,10.0,0.0,0.0,0.0,10.0
1446038185794994810,170,1446038185784842967,robocape_mag,3.15,-20.55,-1.95,10.0,0.0,0.0,0.0,10.0,0.0,0.0,0.0,10.0
1446038185824659810,171,1446038185818737983,robocape_mag,3.15,-20.55,-1.95,10.0,0.0,0.0,0.0,10.0,0.0,0.0,0.0,10.0
1446038185858049018,172,1446038185848350048,robocape_mag,3.15,-20.55,-1.95,10.0,0.0,0.0,0.0,10.0,0.0,0.0,0.0,10.0
1446038185894378352,173,1446038185885003089,robocape_mag,3.15,-20.55,-1.95,10.0,0.0,0.0,0.0,10.0,0.0,0.0,0.0,10.0
1446038185923934477,174,1446038185918704986,robocape_mag,3.15,-20.55,-1.95,10.0,0.0,0.0,0.0,10.0,0.0,0.0,0.0,10.0
1446038185961303018,175,1446038185950680971,robocape_mag,3.75,-21.15,-0.75,10.0,0.0,0.0,0.0,10.0,0.0,0.0,0.0,10.0
1446038185992571018,176,1446038185985521078,robocape_mag,3.75,-21.15,-0.75,10.0,0.0,0.0,0.0,10.0,0.0,0.0,0.0,10.0
1446038186022990185,177,1446038186017719030,robocape_mag,3.75,-21.15,-0.75,10.0,0.0,0.0,0.0,10.0,0.0,0.0,0.0,10.0
1446038186062802560,178,1446038186051879882,robocape_mag,3.75,-21.15,-0.75,10.0,0.0,0.0,0.0,10.0,0.0,0.0,0.0,10.0
1446038186091545018,179,1446038186085098981,robocape_mag,3.75,-21.15,-0.75,10.0,0.0,0.0,0.0,10.0,0.0,0.0,0.0,10.0
1446038186123865477,180,1446038186118704080,robocape_mag,3.75,-21.75,-1.35,10.0,0.0,0.0,0.0,10.0,0.0,0.0,0.0,10.0
1446038186157686602,181,1446038186152158975,robocape_mag,3.75,-21.75,-1.35,10.0,0.0,0.0,0.0,10.0,0.0,0.0,0.0,10.0
1446038186190258018,182,1446038186184839963,robocape_mag,3.75,-21.75,-1.35,10.0,0.0,0.0,0.0,10.0,0.0,0.0,0.0,10.0
1446038186221875435,183,1446038186216769933,robocape_mag,3.75,-21.75,-1.35,10.0,0.0,0.0,0.0,10.0,0.0,0.0,0.0,10.0
1446038186256301768,184,1446038186251302957,robocape_mag,3.75,-21.75,-2.55,10.0,0.0,0.0,0.0,10.0,0.0,0.0,0.0,10.0
1446038186291510352,185,1446038186284198045,robocape_mag,2.55,-21.75,-2.55,10.0,0.0,0.0,0.0,10.0,0.0,0.0,0.0,10.0
1446038186322378018,186,1446038186317527055,robocape_mag,2.55,-21.75,-2.55,10.0,0.0,0.0,0.0,10.0,0.0,0.0,0.0,10.0
1446038186355558768,187,1446038186350511074,robocape_mag,2.55,-21.75,-2.55,10.0,0.0,0.0,0.0,10.0,0.0,0.0,0.0,10.0
1446038186388195560,188,1446038186382975101,robocape_mag,2.55,-21.75,-2.55,10.0,0.0,0.0,0.0,10.0,0.0,0.0,0.0,10.0
1446038186421908060,189,1446038186417107105,robocape_mag,7.95,-22.35,-3.15,10.0,0.0,0.0,0.0,10.0,0.0,0.0,0.0,10.0
1446038186458789935,190,1446038186450309991,robocape_mag,7.95,-22.35,-3.15,10.0,0.0,0.0,0.0,10.0,0.0,0.0,0.0,10.0
1446038186488989852,191,1446038186483834981,robocape_mag,7.95,-22.35,-3.15,10.0,0.0,0.0,0.0,10.0,0.0,0.0,0.0,10.0
1446038186519394268,192,1446038186514296054,robocape_mag,7.95,-22.35,-3.15,10.0,0.0,0.0,0.0,10.0,0.0,0.0,0.0,10.0
1446038186560893102,193,1446038186547772884,robocape_mag,7.95,-22.35,-3.15,10.0,0.0,0.0,0.0,10.0,0.0,0.0,0.0,10.0
1446038186589692685,194,1446038186583317041,robocape_mag,3.45,-21.45,-0.45,10.0,0.0,0.0,0.0,10.0,0.0,0.0,0.0,10.0
1446038186619550727,195,1446038186614547967,robocape_mag,3.45,-21.45,-0.45,10.0,0.0,0.0,0.0,10.0,0.0,0.0,0.0,10.0
1446038186653899519,196,1446038186648933887,robocape_mag,3.45,-21.45,-0.45,10.0,0.0,0.0,0.0,10.0,0.0,0.0,0.0,10.0
1446038186689126227,197,1446038186681077957,robocape_mag,3.45,-21.45,-0.45,10.0,0.0,0.0,0.0,10.0,0.0,0.0,0.0,10.0
1446038186721165602,198,1446038186715626001,robocape_mag,3.45,-21.45,-0.45,10.0,0.0,0.0,0.0,10.0,0.0,0.0,0.0,10.0
1446038186754519560,199,1446038186749157905,robocape_mag,6.45,-22.65,-1.05,10.0,0.0,0.0,0.0,10.0,0.0,0.0,0.0,10.0
1446038186791091269,200,1446038186782705068,robocape_mag,6.45,-22.65,-1.05,10.0,0.0,0.0,0.0,10.0,0.0,0.0,0.0,10.0
1446038186824176477,201,1446038186816215991,robocape_mag,6.45,-22.65,-1.05,10.0,0.0,0.0,0.0,10.0,0.0,0.0,0.0,10.0
1446038186857368602,202,1446038186849280118,robocape_mag,6.45,-22.65,-1.05,10.0,0.0,0.0,0.0,10.0,0.0,0.0,0.0,10.0
1446038186887549727,203,1446038186882316112,robocape_mag,6.45,-22.65,-1.05,10.0,0.0,0.0,0.0,10.0,0.0,0.0,0.0,10.0
1446038186920486019,204,1446038186915261983,robocape_mag,4.35,-21.75,-0.75,10.0,0.0,0.0,0.0,10.0,0.0,0.0,0.0,10.0
1446038186962270435,205,1446038186954282999,robocape_mag,4.35,-21.75,-0.75,10.0,0.0,0.0,0.0,10.0,0.0,0.0,0.0,10.0
1446038186993100435,206,1446038186985068082,robocape_mag,4.35,-21.75,-0.75,10.0,0.0,0.0,0.0,10.0,0.0,0.0,0.0,10.0
1446038187024764894,207,1446038187019484043,robocape_mag,4.35,-21.75,-0.75,10.0,0.0,0.0,0.0,10.0,0.0,0.0,0.0,10.0
1446038187055184977,208,1446038187048614025,robocape_mag,4.35,-21.75,-0.75,10.0,0.0,0.0,0.0,10.0,0.0,0.0,0.0,10.0
1446038187091402185,209,1446038187084685087,robocape_mag,3.45,-22.05,-0.45,10.0,0.0,0.0,0.0,10.0,0.0,0.0,0.0,10.0
1446038187124688269,210,1446038187119329929,robocape_mag,3.45,-22.05,-0.45,10.0,0.0,0.0,0.0,10.0,0.0,0.0,0.0,10.0
1446038187162824685,211,1446038187152395009,robocape_mag,3.45,-22.05,-0.45,10.0,0.0,0.0,0.0,10.0,0.0,0.0,0.0,10.0
1446038187189484685,212,1446038187184079885,robocape_mag,3.45,-22.05,-0.45,10.0,0.0,0.0,0.0,10.0,0.0,0.0,0.0,10.0
1446038187227027602,213,1446038187218159914,robocape_mag,6.75,-22.95,-1.95,10.0,0.0,0.0,0.0,10.0,0.0,0.0,0.0,10.0
1446038187261576769,214,1446038187252410888,robocape_mag,6.75,-22.95,-1.95,10.0,0.0,0.0,0.0,10.0,0.0,0.0,0.0,10.0
1446038187290825019,215,1446038187285701036,robocape_mag,6.75,-22.95,-1.95,10.0,0.0,0.0,0.0,10.0,0.0,0.0,0.0,10.0
1446038187323926727,216,1446038187318818092,robocape_mag,6.75,-22.95,-1.95,10.0,0.0,0.0,0.0,10.0,0.0,0.0,0.0,10.0
1446038187358957436,217,1446038187353353023,robocape_mag,6.75,-22.95,-1.95,10.0,0.0,0.0,0.0,10.0,0.0,0.0,0.0,10.0
1446038187389981144,218,1446038187384927988,robocape_mag,1.95,-22.95,-1.95,10.0,0.0,0.0,0.0,10.0,0.0,0.0,0.0,10.0
1446038187422718936,219,1446038187417908906,robocape_mag,1.95,-22.95,-1.95,10.0,0.0,0.0,0.0,10.0,0.0,0.0,0.0,10.0
1446038187455231852,220,1446038187450234889,robocape_mag,1.95,-22.95,-1.95,10.0,0.0,0.0,0.0,10.0,0.0,0.0,0.0,10.0
1446038187489426311,221,1446038187484246969,robocape_mag,1.95,-22.95,-1.95,10.0,0.0,0.0,0.0,10.0,0.0,0.0,0.0,10.0
1446038187522093894,222,1446038187517288923,robocape_mag,1.95,-22.95,-1.95,10.0,0.0,0.0,0.0,10.0,0.0,0.0,0.0,10.0
1446038187562222144,223,1446038187549958944,robocape_mag,5.55,-22.95,-0.75,10.0,0.0,0.0,0.0,10.0,0.0,0.0,0.0,10.0
1446038187588689436,224,1446038187583868026,robocape_mag,5.55,-22.95,-0.75,10.0,0.0,0.0,0.0,10.0,0.0,0.0,0.0,10.0
1446038187622704727,225,1446038187617638111,robocape_mag,5.55,-22.95,-0.75,10.0,0.0,0.0,0.0,10.0,0.0,0.0,0.0,10.0
1446038187655002394,226,1446038187649986982,robocape_mag,5.55,-22.95,-0.75,10.0,0.0,0.0,0.0,10.0,0.0,0.0,0.0,10.0
1446038187687305186,227,1446038187682457923,robocape_mag,5.55,-22.95,-0.75,10.0,0.0,0.0,0.0,10.0,0.0,0.0,0.0,10.0
1446038187720353061,228,1446038187715389013,robocape_mag,5.85,-20.25,1.35,10.0,0.0,0.0,0.0,10.0,0.0,0.0,0.0,10.0
1446038187758089186,229,1446038187748661994,robocape_mag,5.85,-20.25,1.35,10.0,0.0,0.0,0.0,10.0,0.0,0.0,0.0,10.0
1446038187786954977,230,1446038187782013893,robocape_mag,5.85,-20.25,1.35,10.0,0.0,0.0,0.0,10.0,0.0,0.0,0.0,10.0
1446038187820391019,231,1446038187815515995,robocape_mag,5.85,-20.25,1.35,10.0,0.0,0.0,0.0,10.0,0.0,0.0,0.0,10.0
1446038187853370227,232,1446038187848081111,robocape_mag,5.85,-20.25,1.35,10.0,0.0,0.0,0.0,10.0,0.0,0.0,0.0,10.0
1446038187885848977,233,1446038187880947113,robocape_mag,3.45,-22.65,-1.05,10.0,0.0,0.0,0.0,10.0,0.0,0.0,0.0,10.0
1446038187919758603,234,1446038187914810895,robocape_mag,3.45,-22.65,-1.05,10.0,0.0,0.0,0.0,10.0,0.0,0.0,0.0,10.0
1446038187952611103,235,1446038187947457075,robocape_mag,3.45,-22.65,-1.05,10.0,0.0,0.0,0.0,10.0,0.0,0.0,0.0,10.0
1446038187990732311,236,1446038187981013059,robocape_mag,3.45,-22.65,-1.05,10.0,0.0,0.0,0.0,10.0,0.0,0.0,0.0,10.0
1446038188019584728,237,1446038188014763116,robocape_mag,6.75,-22.35,-3.15,10.0,0.0,0.0,0.0,10.0,0.0,0.0,0.0,10.0
1446038188052992019,238,1446038188047972917,robocape_mag,6.75,-22.35,-3.15,10.0,0.0,0.0,0.0,10.0,0.0,0.0,0.0,10.0
1446038188085954228,239,1446038188080826044,robocape_mag,6.75,-22.35,-3.15,10.0,0.0,0.0,0.0,10.0,0.0,0.0,0.0,10.0
1446038188119214394,240,1446038188114422082,robocape_mag,6.75,-22.35,-3.15,10.0,0.0,0.0,0.0,10.0,0.0,0.0,0.0,10.0
1446038188152934894,241,1446038188148019075,robocape_mag,6.75,-22.35,-3.15,10.0,0.0,0.0,0.0,10.0,0.0,0.0,0.0,10.0
1446038188186135644,242,1446038188181282043,robocape_mag,4.35,-19.35,-0.75,10.0,0.0,0.0,0.0,10.0,0.0,0.0,0.0,10.0
1446038188219532061,243,1446038188214746952,robocape_mag,4.35,-19.35,-0.75,10.0,0.0,0.0,0.0,10.0,0.0,0.0,0.0,10.0
1446038188252734478,244,1446038188247859954,robocape_mag,4.35,-19.35,-0.75,10.0,0.0,0.0,0.0,10.0,0.0,0.0,0.0,10.0
1446038188285674978,245,1446038188280803918,robocape_mag,4.35,-19.35,-0.75,10.0,0.0,0.0,0.0,10.0,0.0,0.0,0.0,10.0
1446038188319187186,246,1446038188314335107,robocape_mag,4.35,-19.35,-0.75,10.0,0.0,0.0,0.0,10.0,0.0,0.0,0.0,10.0
1446038188352975686,247,1446038188347937107,robocape_mag,5.85,-20.25,-0.45,10.0,0.0,0.0,0.0,10.0,0.0,0.0,0.0,10.0
1446038188385715728,248,1446038188380917072,robocape_mag,5.85,-20.25,-0.45,10.0,0.0,0.0,0.0,10.0,0.0,0.0,0.0,10.0
1446038188419442103,249,1446038188414165019,robocape_mag,5.85,-20.25,-0.45,10.0,0.0,0.0,0.0,10.0,0.0,0.0,0.0,10.0
1446038188455172478,250,1446038188447563886,robocape_mag,5.85,-20.25,-0.45,10.0,0.0,0.0,0.0,10.0,0.0,0.0,0.0,10.0
1446038188488088644,251,1446038188481070995,robocape_mag,5.85,-20.25,-0.45,10.0,0.0,0.0,0.0,10.0,0.0,0.0,0.0,10.0
1446038188521114978,252,1446038188514440059,robocape_mag,7.65,-19.65,1.35,10.0,0.0,0.0,0.0,10.0,0.0,0.0,0.0,10.0
1446038188562226186,253,1446038188547749996,robocape_mag,7.65,-19.65,1.35,10.0,0.0,0.0,0.0,10.0,0.0,0.0,0.0,10.0
1446038188588290311,254,1446038188581362009,robocape_mag,7.65,-19.65,1.35,10.0,0.0,0.0,0.0,10.0,0.0,0.0,0.0,10.0
1446038188619520811,255,1446038188614363908,robocape_mag,7.65,-19.65,1.35,10.0,0.0,0.0,0.0,10.0,0.0,0.0,0.0,10.0
1446038188652803353,256,1446038188647665023,robocape_mag,7.65,-19.65,1.35,10.0,0.0,0.0,0.0,10.0,0.0,0.0,0.0,10.0
1446038188688037728,257,1446038188683227062,robocape_mag,4.65,-22.05,-0.45,10.0,0.0,0.0,0.0,10.0,0.0,0.0,0.0,10.0
1446038188720143270,258,1446038188714381933,robocape_mag,4.65,-22.05,-0.45,10.0,0.0,0.0,0.0,10.0,0.0,0.0,0.0,10.0
1446038188752899561,259,1446038188747930049,robocape_mag,4.65,-22.05,-0.45,10.0,0.0,0.0,0.0,10.0,0.0,0.0,0.0,10.0
1446038188789222978,260,1446038188784451007,robocape_mag,4.65,-22.05,-0.45,10.0,0.0,0.0,0.0,10.0,0.0,0.0,0.0,10.0
1446038188819060561,261,1446038188814188003,robocape_mag,5.55,-21.15,-1.35,10.0,0.0,0.0,0.0,10.0,0.0,0.0,0.0,10.0
1446038188852477103,262,1446038188847461938,robocape_mag,5.55,-21.15,-1.35,10.0,0.0,0.0,0.0,10.0,0.0,0.0,0.0,10.0
1446038188890898686,263,1446038188881742954,robocape_mag,5.55,-21.15,-1.35,10.0,0.0,0.0,0.0,10.0,0.0,0.0,0.0,10.0
1446038188920560270,264,1446038188915473937,robocape_mag,5.55,-21.15,-1.35,10.0,0.0,0.0,0.0,10.0,0.0,0.0,0.0,10.0
1446038188953129311,265,1446038188948075056,robocape_mag,5.55,-21.15,-1.35,10.0,0.0,0.0,0.0,10.0,0.0,0.0,0.0,10.0
1446038188990883436,266,1446038188985943078,robocape_mag,3.75,-20.55,-0.15,10.0,0.0,0.0,0.0,10.0,0.0,0.0,0.0,10.0
1446038189019788895,267,1446038189014724969,robocape_mag,3.75,-20.55,-0.15,10.0,0.0,0.0,0.0,10.0,0.0,0.0,0.0,10.0
1446038189052835895,268,1446038189048017978,robocape_mag,3.75,-20.55,-0.15,10.0,0.0,0.0,0.0,10.0,0.0,0.0,0.0,10.0
1446038189086504770,269,1446038189081428050,robocape_mag,3.75,-20.55,-0.15,10.0,0.0,0.0,0.0,10.0,0.0,0.0,0.0,10.0
1446038189119343603,270,1446038189114523887,robocape_mag,3.75,-20.55,-0.15,10.0,0.0,0.0,0.0,10.0,0.0,0.0,0.0,10.0
1446038189152639145,271,1446038189147778034,robocape_mag,6.15,-18.75,-0.15,10.0,0.0,0.0,0.0,10.0,0.0,0.0,0.0,10.0
1446038189185852436,272,1446038189181029081,robocape_mag,6.15,-18.75,-0.15,10.0,0.0,0.0,0.0,10.0,0.0,0.0,0.0,10.0
1446038189219217353,273,1446038189214397907,robocape_mag,6.15,-18.75,-0.15,10.0,0.0,0.0,0.0,10.0,0.0,0.0,0.0,10.0
1446038189252389936,274,1446038189247500896,robocape_mag,6.15,-18.75,-0.15,10.0,0.0,0.0,0.0,10.0,0.0,0.0,0.0,10.0
1446038189285918145,275,1446038189281059026,robocape_mag,6.15,-18.75,-0.15,10.0,0.0,0.0,0.0,10.0,0.0,0.0,0.0,10.0
1446038189319159978,276,1446038189314327955,robocape_mag,10.65,-17.25,1.35,10.0,0.0,0.0,0.0,10.0,0.0,0.0,0.0,10.0
1446038189352679562,277,1446038189347594976,robocape_mag,10.65,-17.25,1.35,10.0,0.0,0.0,0.0,10.0,0.0,0.0,0.0,10.0
1446038189386478645,278,1446038189381329059,robocape_mag,10.65,-17.25,1.35,10.0,0.0,0.0,0.0,10.0,0.0,0.0,0.0,10.0
1446038189419498687,279,1446038189414340019,robocape_mag,10.65,-17.25,1.35,10.0,0.0,0.0,0.0,10.0,0.0,0.0,0.0,10.0
1446038189452686645,280,1446038189447560071,robocape_mag,10.65,-17.25,1.35,10.0,0.0,0.0,0.0,10.0,0.0,0.0,0.0,10.0
1446038189486438312,281,1446038189481523036,robocape_mag,3.75,-19.95,-0.75,10.0,0.0,0.0,0.0,10.0,0.0,0.0,0.0,10.0
1446038189519386645,282,1446038189514525890,robocape_mag,3.75,-19.95,-0.75,10.0,0.0,0.0,0.0,10.0,0.0,0.0,0.0,10.0
1446038189557886520,283,1446038189547477006,robocape_mag,3.75,-19.95,-0.75,10.0,0.0,0.0,0.0,10.0,0.0,0.0,0.0,10.0
1446038189588991853,284,1446038189582114934,robocape_mag,3.75,-19.95,-0.75,10.0,0.0,0.0,0.0,10.0,0.0,0.0,0.0,10.0
1446038189621092603,285,1446038189614321947,robocape_mag,5.25,-20.85,0.75,10.0,0.0,0.0,0.0,10.0,0.0,0.0,0.0,10.0
1446038189654668895,286,1446038189647851943,robocape_mag,5.25,-20.85,0.75,10.0,0.0,0.0,0.0,10.0,0.0,0.0,0.0,10.0
1446038189686223395,287,1446038189681195974,robocape_mag,5.25,-20.85,0.75,10.0,0.0,0.0,0.0,10.0,0.0,0.0,0.0,10.0
1446038189719338853,288,1446038189714247941,robocape_mag,5.25,-20.85,0.75,10.0,0.0,0.0,0.0,10.0,0.0,0.0,0.0,10.0
1446038189752363478,289,1446038189747522115,robocape_mag,5.25,-20.85,0.75,10.0,0.0,0.0,0.0,10.0,0.0,0.0,0.0,10.0
1446038189790269437,290,1446038189784584045,robocape_mag,3.45,-19.65,1.35,10.0,0.0,0.0,0.0,10.0,0.0,0.0,0.0,10.0
1446038189825728562,291,1446038189816730976,robocape_mag,3.45,-19.65,1.35,10.0,0.0,0.0,0.0,10.0,0.0,0.0,0.0,10.0
1446038189857087187,292,1446038189851430892,robocape_mag,3.45,-19.65,1.35,10.0,0.0,0.0,0.0,10.0,0.0,0.0,0.0,10.0
1446038189889023770,293,1446038189884181976,robocape_mag,3.45,-19.65,1.35,10.0,0.0,0.0,0.0,10.0,0.0,0.0,0.0,10.0
1446038189921912187,294,1446038189916822910,robocape_mag,3.45,-19.65,1.35,10.0,0.0,0.0,0.0,10.0,0.0,0.0,0.0,10.0
1446038189954854603,295,1446038189949810981,robocape_mag,5.25,-17.85,0.15,10.0,0.0,0.0,0.0,10.0,0.0,0.0,0.0,10.0
1446038189988651937,296,1446038189983644008,robocape_mag,5.25,-17.85,0.15,10.0,0.0,0.0,0.0,10.0,0.0,0.0,0.0,10.0
1446038190021336145,297,1446038190016489982,robocape_mag,5.25,-17.85,0.15,10.0,0.0,0.0,0.0,10.0,0.0,0.0,0.0,10.0
1446038190053103229,298,1446038190048300981,robocape_mag,5.25,-17.85,0.15,10.0,0.0,0.0,0.0,10.0,0.0,0.0,0.0,10.0
1446038190086980437,299,1446038190081859111,robocape_mag,5.25,-17.85,0.15,10.0,0.0,0.0,0.0,10.0,0.0,0.0,0.0,10.0
1446038190119957645,300,1446038190115097045,robocape_mag,7.95,-18.75,1.65,10.0,0.0,0.0,0.0,10.0,0.0,0.0,0.0,10.0
1446038190152942270,301,1446038190148128986,robocape_mag,7.95,-18.75,1.65,10.0,0.0,0.0,0.0,10.0,0.0,0.0,0.0,10.0
1446038190186140687,302,1446038190181287050,robocape_mag,7.95,-18.75,1.65,10.0,0.0,0.0,0.0,10.0,0.0,0.0,0.0,10.0
1446038190219355312,303,1446038190214536905,robocape_mag,7.95,-18.75,1.65,10.0,0.0,0.0,0.0,10.0,0.0,0.0,0.0,10.0
1446038190252703770,304,1446038190247693061,robocape_mag,7.95,-18.75,1.65,10.0,0.0,0.0,0.0,10.0,0.0,0.0,0.0,10.0
1446038190285715729,305,1446038190280910015,robocape_mag,4.95,-18.75,0.45,10.0,0.0,0.0,0.0,10.0,0.0,0.0,0.0,10.0
1446038190319280770,306,1446038190314393043,robocape_mag,4.95,-18.75,0.45,10.0,0.0,0.0,0.0,10.0,0.0,0.0,0.0,10.0
1446038190352385604,307,1446038190347423076,robocape_mag,4.95,-18.75,0.45,10.0,0.0,0.0,0.0,10.0,0.0,0.0,0.0,10.0
1446038190385591520,308,1446038190380754947,robocape_mag,4.95,-18.75,0.45,10.0,0.0,0.0,0.0,10.0,0.0,0.0,0.0,10.0
1446038190419634270,309,1446038190414479017,robocape_mag,9.75,-18.75,2.25,10.0,0.0,0.0,0.0,10.0,0.0,0.0,0.0,10.0
1446038190452788687,310,1446038190447805881,robocape_mag,9.75,-18.75,2.25,10.0,0.0,0.0,0.0,10.0,0.0,0.0,0.0,10.0
1446038190486588770,311,1446038190481539964,robocape_mag,9.75,-18.75,2.25,10.0,0.0,0.0,0.0,10.0,0.0,0.0,0.0,10.0
1446038190519642770,312,1446038190514779090,robocape_mag,9.75,-18.75,2.25,10.0,0.0,0.0,0.0,10.0,0.0,0.0,0.0,10.0
1446038190560133604,313,1446038190547593116,robocape_mag,9.75,-18.75,2.25,10.0,0.0,0.0,0.0,10.0,0.0,0.0,0.0,10.0
1446038190587078145,314,1446038190582165002,robocape_mag,7.95,-17.55,1.05,10.0,0.0,0.0,0.0,10.0,0.0,0.0,0.0,10.0
1446038190620903770,315,1446038190615631103,robocape_mag,7.95,-17.55,1.05,10.0,0.0,0.0,0.0,10.0,0.0,0.0,0.0,10.0
1446038190652973479,316,1446038190648072004,robocape_mag,7.95,-17.55,1.05,10.0,0.0,0.0,0.0,10.0,0.0,0.0,0.0,10.0
1446038190686457770,317,1446038190681194067,robocape_mag,7.95,-17.55,1.05,10.0,0.0,0.0,0.0,10.0,0.0,0.0,0.0,10.0
1446038190719071229,318,1446038190714248895,robocape_mag,7.95,-17.55,1.05,10.0,0.0,0.0,0.0,10.0,0.0,0.0,0.0,10.0
1446038190752647104,319,1446038190747385025,robocape_mag,3.15,-19.95,1.65,10.0,0.0,0.0,0.0,10.0,0.0,0.0,0.0,10.0
1446038190788026062,320,1446038190780822992,robocape_mag,3.15,-19.95,1.65,10.0,0.0,0.0,0.0,10.0,0.0,0.0,0.0,10.0
1446038190819920604,321,1446038190814364910,robocape_mag,3.15,-19.95,1.65,10.0,0.0,0.0,0.0,10.0,0.0,0.0,0.0,10.0
1446038190852941354,322,1446038190847415924,robocape_mag,3.15,-19.95,1.65,10.0,0.0,0.0,0.0,10.0,0.0,0.0,0.0,10.0
1446038190887200729,323,1446038190881680965,robocape_mag,3.15,-19.95,1.65,10.0,0.0,0.0,0.0,10.0,0.0,0.0,0.0,10.0
1446038190919549104,324,1446038190914366006,robocape_mag,7.35,-17.55,1.65,10.0,0.0,0.0,0.0,10.0,0.0,0.0,0.0,10.0
1446038190954627771,325,1446038190947556972,robocape_mag,7.35,-17.55,1.65,10.0,0.0,0.0,0.0,10.0,0.0,0.0,0.0,10.0
1446038190989645562,326,1446038190981102943,robocape_mag,7.35,-17.55,1.65,10.0,0.0,0.0,0.0,10.0,0.0,0.0,0.0,10.0
1446038191019601979,327,1446038191014400959,robocape_mag,7.35,-17.55,1.65,10.0,0.0,0.0,0.0,10.0,0.0,0.0,0.0,10.0
1446038191054575437,328,1446038191047461032,robocape_mag,7.35,-17.55,1.65,10.0,0.0,0.0,0.0,10.0,0.0,0.0,0.0,10.0
1446038191085772104,329,1446038191080677986,robocape_mag,3.75,-18.15,2.85,10.0,0.0,0.0,0.0,10.0,0.0,0.0,0.0,10.0
1446038191119142021,330,1446038191114168882,robocape_mag,3.75,-18.15,2.85,10.0,0.0,0.0,0.0,10.0,0.0,0.0,0.0,10.0
1446038191152756771,331,1446038191147583007,robocape_mag,3.75,-18.15,2.85,10.0,0.0,0.0,0.0,10.0,0.0,0.0,0.0,10.0
1446038191185969937,332,1446038191180847883,robocape_mag,3.75,-18.15,2.85,10.0,0.0,0.0,0.0,10.0,0.0,0.0,0.0,10.0
1446038191219197437,333,1446038191214323997,robocape_mag,8.25,-19.65,1.35,10.0,0.0,0.0,0.0,10.0,0.0,0.0,0.0,10.0
1446038191253008562,334,1446038191247761011,robocape_mag,8.25,-19.65,1.35,10.0,0.0,0.0,0.0,10.0,0.0,0.0,0.0,10.0
1446038191289471729,335,1446038191281996965,robocape_mag,8.25,-19.65,1.35,10.0,0.0,0.0,0.0,10.0,0.0,0.0,0.0,10.0
1446038191320486271,336,1446038191315635919,robocape_mag,8.25,-19.65,1.35,10.0,0.0,0.0,0.0,10.0,0.0,0.0,0.0,10.0
1446038191353994062,337,1446038191348809003,robocape_mag,8.25,-19.65,1.35,10.0,0.0,0.0,0.0,10.0,0.0,0.0,0.0,10.0
1446038191387843646,338,1446038191381073951,robocape_mag,5.25,-17.85,2.55,10.0,0.0,0.0,0.0,10.0,0.0,0.0,0.0,10.0
1446038191421140188,339,1446038191415712118,robocape_mag,5.25,-17.85,2.55,10.0,0.0,0.0,0.0,10.0,0.0,0.0,0.0,10.0
1446038191457758688,340,1446038191449073076,robocape_mag,5.25,-17.85,2.55,10.0,0.0,0.0,0.0,10.0,0.0,0.0,0.0,10.0
1446038191488021729,341,1446038191482908010,robocape_mag,5.25,-17.85,2.55,10.0,0.0,0.0,0.0,10.0,0.0,0.0,0.0,10.0
1446038191526233104,342,1446038191518968105,robocape_mag,5.25,-17.85,2.55,10.0,0.0,0.0,0.0,10.0,0.0,0.0,0.0,10.0
1446038191569748896,343,1446038191552611112,robocape_mag,4.95,-19.95,1.05,10.0,0.0,0.0,0.0,10.0,0.0,0.0,0.0,10.0
1446038191591932771,344,1446038191584757089,robocape_mag,4.95,-19.95,1.05,10.0,0.0,0.0,0.0,10.0,0.0,0.0,0.0,10.0
1446038191624834688,345,1446038191617804050,robocape_mag,4.95,-19.95,1.05,10.0,0.0,0.0,0.0,10.0,0.0,0.0,0.0,10.0
1446038191657912813,346,1446038191650744915,robocape_mag,4.95,-19.95,1.05,10.0,0.0,0.0,0.0,10.0,0.0,0.0,0.0,10.0
1446038191695535854,347,1446038191685338973,robocape_mag,4.95,-19.95,1.05,10.0,0.0,0.0,0.0,10.0,0.0,0.0,0.0,10.0
1446038191727471813,348,1446038191717600107,robocape_mag,6.15,-18.15,1.05,10.0,0.0,0.0,0.0,10.0,0.0,0.0,0.0,10.0
1446038191756902354,349,1446038191750546932,robocape_mag,6.15,-18.15,1.05,10.0,0.0,0.0,0.0,10.0,0.0,0.0,0.0,10.0
1446038191791018063,350,1446038191783360958,robocape_mag,6.15,-18.15,1.05,10.0,0.0,0.0,0.0,10.0,0.0,0.0,0.0,10.0
1446038191823547146,351,1446038191818268060,robocape_mag,6.15,-18.15,1.05,10.0,0.0,0.0,0.0,10.0,0.0,0.0,0.0,10.0
1446038191861997604,352,1446038191849823951,robocape_mag,6.15,-18.15,1.05,10.0,0.0,0.0,0.0,10.0,0.0,0.0,0.0,10.0
1446038191892090854,353,1446038191884670972,robocape_mag,9.75,-22.35,2.25,10.0,0.0,0.0,0.0,10.0,0.0,0.0,0.0,10.0
1446038191924136646,354,1446038191919150114,robocape_mag,9.75,-22.35,2.25,10.0,0.0,0.0,0.0,10.0,0.0,0.0,0.0,10.0
1446038191955673063,355,1446038191950457096,robocape_mag,9.75,-22.35,2.25,10.0,0.0,0.0,0.0,10.0,0.0,0.0,0.0,10.0
1446038191990259229,356,1446038191985140085,robocape_mag,9.75,-22.35,2.25,10.0,0.0,0.0,0.0,10.0,0.0,0.0,0.0,10.0
1446038192022944188,357,1446038192018021106,robocape_mag,2.85,-20.25,0.75,10.0,0.0,0.0,0.0,10.0,0.0,0.0,0.0,10.0
1446038192055449146,358,1446038192050285100,robocape_mag,2.85,-20.25,0.75,10.0,0.0,0.0,0.0,10.0,0.0,0.0,0.0,10.0
1446038192088045938,359,1446038192083087921,robocape_mag,2.85,-20.25,0.75,10.0,0.0,0.0,0.0,10.0,0.0,0.0,0.0,10.0
1446038192122330146,360,1446038192117378950,robocape_mag,2.85,-20.25,0.75,10.0,0.0,0.0,0.0,10.0,0.0,0.0,0.0,10.0
1446038192154951980,361,1446038192149955987,robocape_mag,2.85,-20.25,0.75,10.0,0.0,0.0,0.0,10.0,0.0,0.0,0.0,10.0
1446038192188910938,362,1446038192183737993,robocape_mag,4.05,-16.65,1.35,10.0,0.0,0.0,0.0,10.0,0.0,0.0,0.0,10.0
1446038192222039771,363,1446038192217216014,robocape_mag,4.05,-16.65,1.35,10.0,0.0,0.0,0.0,10.0,0.0,0.0,0.0,10.0
1446038192255176688,364,1446038192250092983,robocape_mag,4.05,-16.65,1.35,10.0,0.0,0.0,0.0,10.0,0.0,0.0,0.0,10.0
1446038192287437396,365,1446038192282438993,robocape_mag,4.05,-16.65,1.35,10.0,0.0,0.0,0.0,10.0,0.0,0.0,0.0,10.0
1446038192320719021,366,1446038192315696954,robocape_mag,4.05,-16.65,1.35,10.0,0.0,0.0,0.0,10.0,0.0,0.0,0.0,10.0
1446038192353357146,367,1446038192348380088,robocape_mag,1.95,-18.75,0.45,10.0,0.0,0.0,0.0,10.0,0.0,0.0,0.0,10.0
1446038192387237105,368,1446038192382262945,robocape_mag,1.95,-18.75,0.45,10.0,0.0,0.0,0.0,10.0,0.0,0.0,0.0,10.0
1446038192420570396,369,1446038192415452957,robocape_mag,1.95,-18.75,0.45,10.0,0.0,0.0,0.0,10.0,0.0,0.0,0.0,10.0
1446038192452955396,370,1446038192447840929,robocape_mag,1.95,-18.75,0.45,10.0,0.0,0.0,0.0,10.0,0.0,0.0,0.0,10.0
1446038192490573355,371,1446038192481909036,robocape_mag,1.95,-18.75,0.45,10.0,0.0,0.0,0.0,10.0,0.0,0.0,0.0,10.0
1446038192524996480,372,1446038192514763116,robocape_mag,9.75,-17.55,3.45,10.0,0.0,0.0,0.0,10.0,0.0,0.0,0.0,10.0
1446038192561152230,373,1446038192548125028,robocape_mag,9.75,-17.55,3.45,10.0,0.0,0.0,0.0,10.0,0.0,0.0,0.0,10.0
1446038192588833688,374,1446038192583818912,robocape_mag,9.75,-17.55,3.45,10.0,0.0,0.0,0.0,10.0,0.0,0.0,0.0,10.0
1446038192620526188,375,1446038192615338087,robocape_mag,9.75,-17.55,3.45,10.0,0.0,0.0,0.0,10.0,0.0,0.0,0.0,10.0
1446038192652636105,376,1446038192647809982,robocape_mag,9.75,-17.55,3.45,10.0,0.0,0.0,0.0,10.0,0.0,0.0,0.0,10.0
1446038192685803230,377,1446038192680994033,robocape_mag,8.55,-17.55,0.45,10.0,0.0,0.0,0.0,10.0,0.0,0.0,0.0,10.0
1446038192719806396,378,1446038192714751958,robocape_mag,8.55,-17.55,0.45,10.0,0.0,0.0,0.0,10.0,0.0,0.0,0.0,10.0
1446038192752692563,379,1446038192747903108,robocape_mag,8.55,-17.55,0.45,10.0,0.0,0.0,0.0,10.0,0.0,0.0,0.0,10.0
1446038192785890646,380,1446038192781054019,robocape_mag,8.55,-17.55,0.45,10.0,0.0,0.0,0.0,10.0,0.0,0.0,0.0,10.0
1446038192819597230,381,1446038192814580917,robocape_mag,7.95,-18.75,3.45,10.0,0.0,0.0,0.0,10.0,0.0,0.0,0.0,10.0
1446038192852501688,382,1446038192847682952,robocape_mag,7.95,-18.75,3.45,10.0,0.0,0.0,0.0,10.0,0.0,0.0,0.0,10.0
1446038192886207688,383,1446038192881268024,robocape_mag,7.95,-18.75,3.45,10.0,0.0,0.0,0.0,10.0,0.0,0.0,0.0,10.0
1446038192919451980,384,1446038192914499998,robocape_mag,7.95,-18.75,3.45,10.0,0.0,0.0,0.0,10.0,0.0,0.0,0.0,10.0
1446038192952933105,385,1446038192948098897,robocape_mag,7.95,-18.75,3.45,10.0,0.0,0.0,0.0,10.0,0.0,0.0,0.0,10.0
1446038192988794813,386,1446038192981014966,robocape_mag,4.95,-17.55,1.65,10.0,0.0,0.0,0.0,10.0,0.0,0.0,0.0,10.0
1446038193019738147,387,1446038193014549970,robocape_mag,4.95,-17.55,1.65,10.0,0.0,0.0,0.0,10.0,0.0,0.0,0.0,10.0
1446038193052456730,388,1446038193047403097,robocape_mag,4.95,-17.55,1.65,10.0,0.0,0.0,0.0,10.0,0.0,0.0,0.0,10.0
1446038193085680397,389,1446038193080691099,robocape_mag,4.95,-17.55,1.65,10.0,0.0,0.0,0.0,10.0,0.0,0.0,0.0,10.0
1446038193121327730,390,1446038193114219903,robocape_mag,4.95,-17.55,1.65,10.0,0.0,0.0,0.0,10.0,0.0,0.0,0.0,10.0
1446038193154447772,391,1446038193147536039,robocape_mag,3.15,-18.15,0.45,10.0,0.0,0.0,0.0,10.0,0.0,0.0,0.0,10.0
1446038193185995147,392,1446038193180998086,robocape_mag,3.15,-18.15,0.45,10.0,0.0,0.0,0.0,10.0,0.0,0.0,0.0,10.0
1446038193219315022,393,1446038193214180946,robocape_mag,3.15,-18.15,0.45,10.0,0.0,0.0,0.0,10.0,0.0,0.0,0.0,10.0
1446038193252602063,394,1446038193247387886,robocape_mag,3.15,-18.15,0.45,10.0,0.0,0.0,0.0,10.0,0.0,0.0,0.0,10.0
1446038193286001772,395,1446038193280858039,robocape_mag,3.15,-18.15,0.45,10.0,0.0,0.0,0.0,10.0,0.0,0.0,0.0,10.0
1446038193319709688,396,1446038193314275026,robocape_mag,5.85,-17.85,0.15,10.0,0.0,0.0,0.0,10.0,0.0,0.0,0.0,10.0
1446038193352698313,397,1446038193347538948,robocape_mag,5.85,-17.85,0.15,10.0,0.0,0.0,0.0,10.0,0.0,0.0,0.0,10.0
1446038193386000522,398,1446038193380920886,robocape_mag,5.85,-17.85,0.15,10.0,0.0,0.0,0.0,10.0,0.0,0.0,0.0,10.0
1446038193419346230,399,1446038193414139032,robocape_mag,5.85,-17.85,0.15,10.0,0.0,0.0,0.0,10.0,0.0,0.0,0.0,10.0
1446038193452833730,400,1446038193447755098,robocape_mag,5.85,-17.85,0.15,10.0,0.0,0.0,0.0,10.0,0.0,0.0,0.0,10.0
1446038193487818772,401,1446038193481170892,robocape_mag,4.65,-17.85,2.55,10.0,0.0,0.0,0.0,10.0,0.0,0.0,0.0,10.0
1446038193520619897,402,1446038193514300107,robocape_mag,4.65,-17.85,2.55,10.0,0.0,0.0,0.0,10.0,0.0,0.0,0.0,10.0
1446038193559890564,403,1446038193547552108,robocape_mag,4.65,-17.85,2.55,10.0,0.0,0.0,0.0,10.0,0.0,0.0,0.0,10.0
1446038193587797272,404,1446038193582906007,robocape_mag,4.65,-17.85,2.55,10.0,0.0,0.0,0.0,10.0,0.0,0.0,0.0,10.0
1446038193620471230,405,1446038193615499973,robocape_mag,8.25,-16.05,0.75,10.0,0.0,0.0,0.0,10.0,0.0,0.0,0.0,10.0
1446038193655574439,406,1446038193647846937,robocape_mag,8.25,-16.05,0.75,10.0,0.0,0.0,0.0,10.0,0.0,0.0,0.0,10.0
1446038193686956439,407,1446038193682046890,robocape_mag,8.25,-16.05,0.75,10.0,0.0,0.0,0.0,10.0,0.0,0.0,0.0,10.0
1446038193720580480,408,1446038193715576887,robocape_mag,8.25,-16.05,0.75,10.0,0.0,0.0,0.0,10.0,0.0,0.0,0.0,10.0
1446038193755754522,409,1446038193748919010,robocape_mag,8.25,-16.05,0.75,10.0,0.0,0.0,0.0,10.0,0.0,0.0,0.0,10.0
1446038193786023689,410,1446038193781176090,robocape_mag,6.45,-16.05,2.55,10.0,0.0,0.0,0.0,10.0,0.0,0.0,0.0,10.0
1446038193821606772,411,1446038193816147089,robocape_mag,6.45,-16.05,2.55,10.0,0.0,0.0,0.0,10.0,0.0,0.0,0.0,10.0
1446038193857505022,412,1446038193849042892,robocape_mag,6.45,-16.05,2.55,10.0,0.0,0.0,0.0,10.0,0.0,0.0,0.0,10.0
1446038193889909314,413,1446038193883936882,robocape_mag,6.45,-16.05,2.55,10.0,0.0,0.0,0.0,10.0,0.0,0.0,0.0,10.0
1446038193922994522,414,1446038193917133092,robocape_mag,6.45,-16.05,2.55,10.0,0.0,0.0,0.0,10.0,0.0,0.0,0.0,10.0
1446038193963109939,415,1446038193951528072,robocape_mag,5.55,-16.35,1.65,10.0,0.0,0.0,0.0,10.0,0.0,0.0,0.0,10.0
1446038193994834397,416,1446038193985219955,robocape_mag,5.55,-16.35,1.65,10.0,0.0,0.0,0.0,10.0,0.0,0.0,0.0,10.0
1446038194025153564,417,1446038194018985986,robocape_mag,5.55,-16.35,1.65,10.0,0.0,0.0,0.0,10.0,0.0,0.0,0.0,10.0
1446038194057186689,418,1446038194049631118,robocape_mag,5.55,-16.35,1.65,10.0,0.0,0.0,0.0,10.0,0.0,0.0,0.0,10.0
1446038194090205689,419,1446038194084826946,robocape_mag,5.55,-16.35,1.65,10.0,0.0,0.0,0.0,10.0,0.0,0.0,0.0,10.0
1446038194123802355,420,1446038194118601083,robocape_mag,2.85,-17.25,3.15,10.0,0.0,0.0,0.0,10.0,0.0,0.0,0.0,10.0
1446038194156321897,421,1446038194151221036,robocape_mag,2.85,-17.25,3.15,10.0,0.0,0.0,0.0,10.0,0.0,0.0,0.0,10.0
1446038194190332064,422,1446038194184992074,robocape_mag,2.85,-17.25,3.15,10.0,0.0,0.0,0.0,10.0,0.0,0.0,0.0,10.0
1446038194223939314,423,1446038194218592882,robocape_mag,2.85,-17.25,3.15,10.0,0.0,0.0,0.0,10.0,0.0,0.0,0.0,10.0
1446038194256364897,424,1446038194251080036,robocape_mag,2.85,-17.25,3.75,10.0,0.0,0.0,0.0,10.0,0.0,0.0,0.0,10.0
1446038194289891064,425,1446038194284909009,robocape_mag,4.05,-16.65,3.75,10.0,0.0,0.0,0.0,10.0,0.0,0.0,0.0,10.0
1446038194323981106,426,1446038194318264961,robocape_mag,4.05,-16.65,3.75,10.0,0.0,0.0,0.0,10.0,0.0,0.0,0.0,10.0
1446038194355776814,427,1446038194350790977,robocape_mag,4.05,-16.65,3.75,10.0,0.0,0.0,0.0,10.0,0.0,0.0,0.0,10.0
1446038194389385814,428,1446038194384182929,robocape_mag,4.05,-16.65,3.75,10.0,0.0,0.0,0.0,10.0,0.0,0.0,0.0,10.0
1446038194421914064,429,1446038194416785955,robocape_mag,7.05,-16.65,4.95,10.0,0.0,0.0,0.0,10.0,0.0,0.0,0.0,10.0
1446038194455651647,430,1446038194450833082,robocape_mag,7.05,-16.65,4.95,10.0,0.0,0.0,0.0,10.0,0.0,0.0,0.0,10.0
1446038194488289022,431,1446038194482841968,robocape_mag,7.05,-16.65,4.95,10.0,0.0,0.0,0.0,10.0,0.0,0.0,0.0,10.0
1446038194521781606,432,1446038194516855955,robocape_mag,7.05,-16.65,4.95,10.0,0.0,0.0,0.0,10.0,0.0,0.0,0.0,10.0
1446038194560529064,433,1446038194550134897,robocape_mag,7.05,-16.65,4.95,10.0,0.0,0.0,0.0,10.0,0.0,0.0,0.0,10.0
1446038194589478231,434,1446038194584398031,robocape_mag,6.75,-16.95,2.25,10.0,0.0,0.0,0.0,10.0,0.0,0.0,0.0,10.0
1446038194621751814,435,1446038194616931915,robocape_mag,6.75,-16.95,2.25,10.0,0.0,0.0,0.0,10.0,0.0,0.0,0.0,10.0
1446038194654273897,436,1446038194649363040,robocape_mag,6.75,-16.95,2.25,10.0,0.0,0.0,0.0,10.0,0.0,0.0,0.0,10.0
1446038194687540731,437,1446038194682734966,robocape_mag,6.75,-16.95,2.25,10.0,0.0,0.0,0.0,10.0,0.0,0.0,0.0,10.0
1446038194721053606,438,1446038194716203927,robocape_mag,6.75,-16.95,2.25,10.0,0.0,0.0,0.0,10.0,0.0,0.0,0.0,10.0
1446038194753619314,439,1446038194748711109,robocape_mag,9.15,-18.15,4.05,10.0,0.0,0.0,0.0,10.0,0.0,0.0,0.0,10.0
1446038194786768439,440,1446038194781830072,robocape_mag,9.15,-18.15,4.05,10.0,0.0,0.0,0.0,10.0,0.0,0.0,0.0,10.0
1446038194820160647,441,1446038194814804077,robocape_mag,9.15,-18.15,4.05,10.0,0.0,0.0,0.0,10.0,0.0,0.0,0.0,10.0
1446038194852890731,442,1446038194847728967,robocape_mag,9.15,-18.15,4.05,10.0,0.0,0.0,0.0,10.0,0.0,0.0,0.0,10.0
1446038194886082897,443,1446038194881169080,robocape_mag,9.15,-18.15,4.05,10.0,0.0,0.0,0.0,10.0,0.0,0.0,0.0,10.0
1446038194920214106,444,1446038194914700984,robocape_mag,5.55,-15.75,2.85,10.0,0.0,0.0,0.0,10.0,0.0,0.0,0.0,10.0
1446038194952673356,445,1446038194947551965,robocape_mag,5.55,-15.75,2.85,10.0,0.0,0.0,0.0,10.0,0.0,0.0,0.0,10.0
1446038194985962648,446,1446038194981090068,robocape_mag,5.55,-15.75,2.85,10.0,0.0,0.0,0.0,10.0,0.0,0.0,0.0,10.0
1446038195020010939,447,1446038195014792919,robocape_mag,5.55,-15.75,2.85,10.0,0.0,0.0,0.0,10.0,0.0,0.0,0.0,10.0
1446038195053028814,448,1446038195047626018,robocape_mag,5.55,-15.75,2.85,10.0,0.0,0.0,0.0,10.0,0.0,0.0,0.0,10.0
1446038195086073981,449,1446038195081212043,robocape_mag,2.25,-17.25,0.15,10.0,0.0,0.0,0.0,10.0,0.0,0.0,0.0,10.0
1446038195122792273,450,1446038195114454030,robocape_mag,2.25,-17.25,0.15,10.0,0.0,0.0,0.0,10.0,0.0,0.0,0.0,10.0
1446038195153282564,451,1446038195148196935,robocape_mag,2.25,-17.25,0.15,10.0,0.0,0.0,0.0,10.0,0.0,0.0,0.0,10.0
1446038195185940606,452,1446038195181097984,robocape_mag,2.25,-17.25,0.15,10.0,0.0,0.0,0.0,10.0,0.0,0.0,0.0,10.0
1446038195223173523,453,1446038195214894056,robocape_mag,3.15,-18.15,1.65,10.0,0.0,0.0,0.0,10.0,0.0,0.0,0.0,10.0
1446038195252891064,454,1446038195247580051,robocape_mag,3.15,-18.15,1.65,10.0,0.0,0.0,0.0,10.0,0.0,0.0,0.0,10.0
1446038195286352814,455,1446038195281429052,robocape_mag,3.15,-18.15,1.65,10.0,0.0,0.0,0.0,10.0,0.0,0.0,0.0,10.0
1446038195323376439,456,1446038195315957069,robocape_mag,3.15,-18.15,1.65,10.0,0.0,0.0,0.0,10.0,0.0,0.0,0.0,10.0
1446038195352966273,457,1446038195347718000,robocape_mag,3.15,-18.15,1.65,10.0,0.0,0.0,0.0,10.0,0.0,0.0,0.0,10.0
1446038195385677939,458,1446038195380831956,robocape_mag,3.15,-15.15,2.25,10.0,0.0,0.0,0.0,10.0,0.0,0.0,0.0,10.0
1446038195419351439,459,1446038195414195060,robocape_mag,3.15,-15.15,2.25,10.0,0.0,0.0,0.0,10.0,0.0,0.0,0.0,10.0
1446038195452855648,460,1446038195447575092,robocape_mag,3.15,-15.15,2.25,10.0,0.0,0.0,0.0,10.0,0.0,0.0,0.0,10.0
1446038195486528189,461,1446038195480979919,robocape_mag,3.15,-15.15,2.25,10.0,0.0,0.0,0.0,10.0,0.0,0.0,0.0,10.0
1446038195521530439,462,1446038195514234066,robocape_mag,3.15,-15.15,2.25,10.0,0.0,0.0,0.0,10.0,0.0,0.0,0.0,10.0
1446038195558730606,463,1446038195547579050,robocape_mag,3.45,-17.25,0.75,10.0,0.0,0.0,0.0,10.0,0.0,0.0,0.0,10.0
1446038195586723689,464,1446038195581593990,robocape_mag,3.45,-17.25,0.75,10.0,0.0,0.0,0.0,10.0,0.0,0.0,0.0,10.0
1446038195619533565,465,1446038195614463090,robocape_mag,3.45,-17.25,0.75,10.0,0.0,0.0,0.0,10.0,0.0,0.0,0.0,10.0
1446038195652565106,466,1446038195647475004,robocape_mag,3.45,-17.25,0.75,10.0,0.0,0.0,0.0,10.0,0.0,0.0,0.0,10.0
1446038195685913773,467,1446038195680788040,robocape_mag,3.45,-17.25,0.75,10.0,0.0,0.0,0.0,10.0,0.0,0.0,0.0,10.0
1446038195719485856,468,1446038195714293956,robocape_mag,4.65,-18.45,0.75,10.0,0.0,0.0,0.0,10.0,0.0,0.0,0.0,10.0
1446038195752371106,469,1446038195747385025,robocape_mag,4.65,-18.45,0.75,10.0,0.0,0.0,0.0,10.0,0.0,0.0,0.0,10.0
1446038195785786273,470,1446038195780843019,robocape_mag,4.65,-18.45,0.75,10.0,0.0,0.0,0.0,10.0,0.0,0.0,0.0,10.0
1446038195819214273,471,1446038195814117908,robocape_mag,4.65,-18.45,0.75,10.0,0.0,0.0,0.0,10.0,0.0,0.0,0.0,10.0
1446038195852200731,472,1446038195847400903,robocape_mag,4.65,-18.45,0.75,10.0,0.0,0.0,0.0,10.0,0.0,0.0,0.0,10.0
1446038195885674523,473,1446038195880834102,robocape_mag,10.95,-20.55,-0.75,10.0,0.0,0.0,0.0,10.0,0.0,0.0,0.0,10.0
1446038195922421231,474,1446038195914767026,robocape_mag,10.95,-20.55,-0.75,10.0,0.0,0.0,0.0,10.0,0.0,0.0,0.0,10.0
1446038195955573940,475,1446038195948605060,robocape_mag,10.95,-20.55,-0.75,10.0,0.0,0.0,0.0,10.0,0.0,0.0,0.0,10.0
1446038195986959231,476,1446038195982074975,robocape_mag,10.95,-20.55,-0.75,10.0,0.0,0.0,0.0,10.0,0.0,0.0,0.0,10.0
1446038196020290731,477,1446038196015486955,robocape_mag,12.75,-19.95,1.05,10.0,0.0,0.0,0.0,10.0,0.0,0.0,0.0,10.0
1446038196052600481,478,1446038196047765970,robocape_mag,12.75,-19.95,1.05,10.0,0.0,0.0,0.0,10.0,0.0,0.0,0.0,10.0
1446038196087801273,479,1446038196082626104,robocape_mag,12.75,-19.95,1.05,10.0,0.0,0.0,0.0,10.0,0.0,0.0,0.0,10.0
1446038196121118065,480,1446038196116169929,robocape_mag,12.75,-19.95,1.05,10.0,0.0,0.0,0.0,10.0,0.0,0.0,0.0,10.0
1446038196155136565,481,1446038196149796962,robocape_mag,12.75,-19.95,1.05,10.0,0.0,0.0,0.0,10.0,0.0,0.0,0.0,10.0
1446038196188193231,482,1446038196183048009,robocape_mag,7.95,-16.95,1.05,10.0,0.0,0.0,0.0,10.0,0.0,0.0,0.0,10.0
1446038196224597815,483,1446038196218316078,robocape_mag,7.95,-16.95,1.05,10.0,0.0,0.0,0.0,10.0,0.0,0.0,0.0,10.0
1446038196258253690,484,1446038196250219106,robocape_mag,7.95,-16.95,1.05,10.0,0.0,0.0,0.0,10.0,0.0,0.0,0.0,10.0
1446038196291517773,485,1446038196283976078,robocape_mag,7.95,-16.95,1.05,10.0,0.0,0.0,0.0,10.0,0.0,0.0,0.0,10.0
1446038196324915940,486,1446038196318094968,robocape_mag,7.95,-16.95,1.05,10.0,0.0,0.0,0.0,10.0,0.0,0.0,0.0,10.0
1446038196357445357,487,1446038196351407051,robocape_mag,8.85,-17.25,3.15,10.0,0.0,0.0,0.0,10.0,0.0,0.0,0.0,10.0
1446038196388899357,488,1446038196383963108,robocape_mag,8.85,-17.25,3.15,10.0,0.0,0.0,0.0,10.0,0.0,0.0,0.0,10.0
1446038196426999440,489,1446038196417433023,robocape_mag,8.85,-17.25,3.15,10.0,0.0,0.0,0.0,10.0,0.0,0.0,0.0,10.0
1446038196460822398,490,1446038196450524091,robocape_mag,8.85,-17.25,3.15,10.0,0.0,0.0,0.0,10.0,0.0,0.0,0.0,10.0
1446038196489510648,491,1446038196482948064,robocape_mag,8.85,-17.25,3.15,10.0,0.0,0.0,0.0,10.0,0.0,0.0,0.0,10.0
1446038196526878940,492,1446038196517004013,robocape_mag,6.45,-16.05,2.55,10.0,0.0,0.0,0.0,10.0,0.0,0.0,0.0,10.0
1446038196566724940,493,1446038196553833007,robocape_mag,6.45,-16.05,2.55,10.0,0.0,0.0,0.0,10.0,0.0,0.0,0.0,10.0
1446038196594054440,494,1446038196584527969,robocape_mag,6.45,-16.05,2.55,10.0,0.0,0.0,0.0,10.0,0.0,0.0,0.0,10.0
1446038196624342482,495,1446038196618467092,robocape_mag,6.45,-16.05,2.55,10.0,0.0,0.0,0.0,10.0,0.0,0.0,0.0,10.0
1446038196656579857,496,1446038196651247978,robocape_mag,6.45,-16.05,1.65,10.0,0.0,0.0,0.0,10.0,0.0,0.0,0.0,10.0
1446038196689455482,497,1446038196684439897,robocape_mag,5.55,-18.15,1.65,10.0,0.0,0.0,0.0,10.0,0.0,0.0,0.0,10.0
1446038196722431315,498,1446038196716716051,robocape_mag,5.55,-18.15,1.65,10.0,0.0,0.0,0.0,10.0,0.0,0.0,0.0,10.0
1446038196754984565,499,1446038196749984979,robocape_mag,5.55,-18.15,1.65,10.0,0.0,0.0,0.0,10.0,0.0,0.0,0.0,10.0
1446038196788491857,500,1446038196783345937,robocape_mag,5.55,-18.15,1.65,10.0,0.0,0.0,0.0,10.0,0.0,0.0,0.0,10.0
1446038196821752773,501,1446038196816334962,robocape_mag,8.85,-20.85,6.75,10.0,0.0,0.0,0.0,10.0,0.0,0.0,0.0,10.0
1446038196855389398,502,1446038196850228071,robocape_mag,8.85,-20.85,6.75,10.0,0.0,0.0,0.0,10.0,0.0,0.0,0.0,10.0
1446038196888409482,503,1446038196883456945,robocape_mag,8.85,-20.85,6.75,10.0,0.0,0.0,0.0,10.0,0.0,0.0,0.0,10.0
1446038196924568357,504,1446038196916462898,robocape_mag,8.85,-20.85,6.75,10.0,0.0,0.0,0.0,10.0,0.0,0.0,0.0,10.0
1446038196955331565,505,1446038196950376033,robocape_mag,8.85,-20.85,6.75,10.0,0.0,0.0,0.0,10.0,0.0,0.0,0.0,10.0
1446038196987447857,506,1446038196982549905,robocape_mag,8.25,-16.65,1.95,10.0,0.0,0.0,0.0,10.0,0.0,0.0,0.0,10.0
1446038197020484649,507,1446038197015702962,robocape_mag,8.25,-16.65,1.95,10.0,0.0,0.0,0.0,10.0,0.0,0.0,0.0,10.0
1446038197054059774,508,1446038197049154043,robocape_mag,8.25,-16.65,1.95,10.0,0.0,0.0,0.0,10.0,0.0,0.0,0.0,10.0
1446038197086209024,509,1446038197081388950,robocape_mag,8.25,-16.65,1.95,10.0,0.0,0.0,0.0,10.0,0.0,0.0,0.0,10.0
1446038197119702190,510,1446038197114857912,robocape_mag,8.25,-16.65,1.95,10.0,0.0,0.0,0.0,10.0,0.0,0.0,0.0,10.0
1446038197152878357,511,1446038197148015975,robocape_mag,7.05,-16.65,2.55,10.0,0.0,0.0,0.0,10.0,0.0,0.0,0.0,10.0
1446038197186335482,512,1446038197181231975,robocape_mag,7.05,-16.65,2.55,10.0,0.0,0.0,0.0,10.0,0.0,0.0,0.0,10.0
1446038197219360607,513,1446038197214553117,robocape_mag,7.05,-16.65,2.55,10.0,0.0,0.0,0.0,10.0,0.0,0.0,0.0,10.0
1446038197252483315,514,1446038197247632026,robocape_mag,7.05,-16.65,2.55,10.0,0.0,0.0,0.0,10.0,0.0,0.0,0.0,10.0
1446038197286963315,515,1446038197282099962,robocape_mag,7.05,-16.65,2.55,10.0,0.0,0.0,0.0,10.0,0.0,0.0,0.0,10.0
1446038197322585357,516,1446038197314062118,robocape_mag,5.85,-17.25,1.35,10.0,0.0,0.0,0.0,10.0,0.0,0.0,0.0,10.0
1446038197352837732,517,1446038197347965955,robocape_mag,5.85,-17.25,1.35,10.0,0.0,0.0,0.0,10.0,0.0,0.0,0.0,10.0
1446038197386087649,518,1446038197381098031,robocape_mag,5.85,-17.25,1.35,10.0,0.0,0.0,0.0,10.0,0.0,0.0,0.0,10.0
1446038197419621899,519,1446038197414460897,robocape_mag,5.85,-17.25,1.35,10.0,0.0,0.0,0.0,10.0,0.0,0.0,0.0,10.0
1446038197452907232,520,1446038197448076963,robocape_mag,5.85,-17.25,1.35,10.0,0.0,0.0,0.0,10.0,0.0,0.0,0.0,10.0
1446038197486063649,521,1446038197481136083,robocape_mag,5.55,-17.55,2.25,10.0,0.0,0.0,0.0,10.0,0.0,0.0,0.0,10.0
1446038197519553065,522,1446038197514266014,robocape_mag,5.55,-17.55,2.25,10.0,0.0,0.0,0.0,10.0,0.0,0.0,0.0,10.0
1446038197558413315,523,1446038197547900915,robocape_mag,5.55,-17.55,2.25,10.0,0.0,0.0,0.0,10.0,0.0,0.0,0.0,10.0
1446038197586828607,524,1446038197581888914,robocape_mag,5.55,-17.55,2.25,10.0,0.0,0.0,0.0,10.0,0.0,0.0,0.0,10.0
1446038197619349190,525,1446038197614521026,robocape_mag,7.05,-17.25,1.95,10.0,0.0,0.0,0.0,10.0,0.0,0.0,0.0,10.0
