%time,field.header.seq,field.header.stamp,field.header.frame_id,field.magnetic_field.x,field.magnetic_field.y,field.magnetic_field.z,field.magnetic_field_covariance0,field.magnetic_field_covariance1,field.magnetic_field_covariance2,field.magnetic_field_covariance3,field.magnetic_field_covariance4,field.magnetic_field_covariance5,field.magnetic_field_covariance6,field.magnetic_field_covariance7,field.magnetic_field_covariance8
1446036917368354622,1,1446036917039134025,robocape_mag,13.95,8.1,2.4,10.0,0.0,0.0,0.0,10.0,0.0,0.0,0.0,10.0
1446036917369359455,2,1446036917068999052,robocape_mag,13.95,8.1,2.4,10.0,0.0,0.0,0.0,10.0,0.0,0.0,0.0,10.0
1446036917376212413,3,1446036917104402065,robocape_mag,10.65,8.4,2.1,10.0,0.0,0.0,0.0,10.0,0.0,0.0,0.0,10.0
1446036917376447913,4,1446036917134203910,robocape_mag,10.65,8.4,2.1,10.0,0.0,0.0,0.0,10.0,0.0,0.0,0.0,10.0
1446036917388546163,5,1446036917176162958,robocape_mag,10.65,8.4,2.1,10.0,0.0,0.0,0.0,10.0,0.0,0.0,0.0,10.0
1446036917389536330,6,1446036917200618982,robocape_mag,10.65,8.4,2.1,10.0,0.0,0.0,0.0,10.0,0.0,0.0,0.0,10.0
1446036917389633247,7,1446036917235249042,robocape_mag,10.65,8.4,2.1,10.0,0.0,0.0,0.0,10.0,0.0,0.0,0.0,10.0
1446036917389668955,8,1446036917268101930,robocape_mag,6.15,9.3,1.2,10.0,0.0,0.0,0.0,10.0,0.0,0.0,0.0,10.0
1446036917389704497,9,1446036917300807952,robocape_mag,6.15,9.3,1.2,10.0,0.0,0.0,0.0,10.0,0.0,0.0,0.0,10.0
1446036917393055788,10,1446036917352905988,robocape_mag,6.15,9.3,1.2,10.0,0.0,0.0,0.0,10.0,0.0,0.0,0.0,10.0
1446036917403073705,11,1446036917397106885,robocape_mag,6.15,9.3,1.2,10.0,0.0,0.0,0.0,10.0,0.0,0.0,0.0,10.0
1446036917421510705,12,1446036917417965888,robocape_mag,7.95,8.7,1.2,10.0,0.0,0.0,0.0,10.0,0.0,0.0,0.0,10.0
1446036917444302038,13,1446036917437104940,robocape_mag,7.95,8.7,1.2,10.0,0.0,0.0,0.0,10.0,0.0,0.0,0.0,10.0
1446036917474621038,14,1446036917468990087,robocape_mag,7.95,8.7,1.2,10.0,0.0,0.0,0.0,10.0,0.0,0.0,0.0,10.0
1446036917504241163,15,1446036917499489068,robocape_mag,7.95,8.7,1.2,10.0,0.0,0.0,0.0,10.0,0.0,0.0,0.0,10.0
1446036917537235247,16,1446036917532309055,robocape_mag,7.95,8.7,1.2,10.0,0.0,0.0,0.0,10.0,0.0,0.0,0.0,10.0
1446036917571317372,17,1446036917566427946,robocape_mag,7.95,8.7,1.2,10.0,0.0,0.0,0.0,10.0,0.0,0.0,0.0,10.0
1446036917604025955,18,1446036917599159002,robocape_mag,9.15,9.3,0.0,10.0,0.0,0.0,0.0,10.0,0.0,0.0,0.0,10.0
1446036917639123705,19,1446036917632384061,robocape_mag,9.15,9.3,0.0,10.0,0.0,0.0,0.0,10.0,0.0,0.0,0.0,10.0
1446036917670952497,20,1446036917666023015,robocape_mag,9.15,9.3,0.0,10.0,0.0,0.0,0.0,10.0,0.0,0.0,0.0,10.0
1446036917708530372,21,1446036917699145078,robocape_mag,9.15,9.3,0.0,10.0,0.0,0.0,0.0,10.0,0.0,0.0,0.0,10.0
1446036917741106122,22,1446036917732347965,robocape_mag,6.45,10.2,-0.3,10.0,0.0,0.0,0.0,10.0,0.0,0.0,0.0,10.0
1446036917770691872,23,1446036917765657901,robocape_mag,6.45,10.2,-0.3,10.0,0.0,0.0,0.0,10.0,0.0,0.0,0.0,10.0
1446036917804156872,24,1446036917799181938,robocape_mag,6.45,10.2,-0.3,10.0,0.0,0.0,0.0,10.0,0.0,0.0,0.0,10.0
1446036917839520122,25,1446036917832509040,robocape_mag,6.45,10.2,-0.3,10.0,0.0,0.0,0.0,10.0,0.0,0.0,0.0,10.0
1446036917870824747,26,1446036917865910053,robocape_mag,6.45,10.2,-0.3,10.0,0.0,0.0,0.0,10.0,0.0,0.0,0.0,10.0
1446036917903775997,27,1446036917898875951,robocape_mag,10.05,9.6,-0.3,10.0,0.0,0.0,0.0,10.0,0.0,0.0,0.0,10.0
1446036917937462622,28,1446036917932163000,robocape_mag,10.05,9.6,-0.3,10.0,0.0,0.0,0.0,10.0,0.0,0.0,0.0,10.0
1446036917971389372,29,1446036917965838909,robocape_mag,10.05,9.6,-0.3,10.0,0.0,0.0,0.0,10.0,0.0,0.0,0.0,10.0
1446036918005684622,30,1446036917998934984,robocape_mag,10.05,9.6,-0.3,10.0,0.0,0.0,0.0,10.0,0.0,0.0,0.0,10.0
1446036918037691664,31,1446036918032290935,robocape_mag,10.05,9.6,-0.3,10.0,0.0,0.0,0.0,10.0,0.0,0.0,0.0,10.0
1446036918070632497,32,1446036918065603971,robocape_mag,9.15,10.5,0.0,10.0,0.0,0.0,0.0,10.0,0.0,0.0,0.0,10.0
1446036918104152247,33,1446036918099117994,robocape_mag,9.15,10.5,0.0,10.0,0.0,0.0,0.0,10.0,0.0,0.0,0.0,10.0
1446036918137706164,34,1446036918132173061,robocape_mag,9.15,10.5,0.0,10.0,0.0,0.0,0.0,10.0,0.0,0.0,0.0,10.0
1446036918172407997,35,1446036918165570020,robocape_mag,9.15,10.5,0.0,10.0,0.0,0.0,0.0,10.0,0.0,0.0,0.0,10.0
1446036918204020372,36,1446036918199011087,robocape_mag,9.15,10.5,0.0,10.0,0.0,0.0,0.0,10.0,0.0,0.0,0.0,10.0
1446036918237319580,37,1446036918232311964,robocape_mag,7.35,9.9,1.2,10.0,0.0,0.0,0.0,10.0,0.0,0.0,0.0,10.0
1446036918272522497,38,1446036918265499114,robocape_mag,7.35,9.9,1.2,10.0,0.0,0.0,0.0,10.0,0.0,0.0,0.0,10.0
1446036918303994205,39,1446036918299099922,robocape_mag,7.35,9.9,1.2,10.0,0.0,0.0,0.0,10.0,0.0,0.0,0.0,10.0
1446036918337223455,40,1446036918332324028,robocape_mag,7.35,9.9,1.2,10.0,0.0,0.0,0.0,10.0,0.0,0.0,0.0,10.0
1446036918376608914,41,1446036918365578889,robocape_mag,7.35,9.9,1.2,10.0,0.0,0.0,0.0,10.0,0.0,0.0,0.0,10.0
1446036918404522955,42,1446036918399708032,robocape_mag,10.05,8.4,-0.3,10.0,0.0,0.0,0.0,10.0,0.0,0.0,0.0,10.0
1446036918437503872,43,1446036918432492017,robocape_mag,10.05,8.4,-0.3,10.0,0.0,0.0,0.0,10.0,0.0,0.0,0.0,10.0
1446036918473870622,44,1446036918466754913,robocape_mag,10.05,8.4,-0.3,10.0,0.0,0.0,0.0,10.0,0.0,0.0,0.0,10.0
1446036918504947164,45,1446036918500138044,robocape_mag,10.05,8.4,-0.3,10.0,0.0,0.0,0.0,10.0,0.0,0.0,0.0,10.0
1446036918542956289,46,1446036918533586025,robocape_mag,9.45,7.2,0.3,10.0,0.0,0.0,0.0,10.0,0.0,0.0,0.0,10.0
1446036918573812622,47,1446036918567153930,robocape_mag,9.45,7.2,0.3,10.0,0.0,0.0,0.0,10.0,0.0,0.0,0.0,10.0
1446036918604516997,48,1446036918599644899,robocape_mag,9.45,7.2,0.3,10.0,0.0,0.0,0.0,10.0,0.0,0.0,0.0,10.0
1446036918642447831,49,1446036918634012937,robocape_mag,9.45,7.2,0.3,10.0,0.0,0.0,0.0,10.0,0.0,0.0,0.0,10.0
1446036918673206914,50,1446036918666465997,robocape_mag,9.45,7.2,0.3,10.0,0.0,0.0,0.0,10.0,0.0,0.0,0.0,10.0
1446036918705750331,51,1446036918700690984,robocape_mag,10.95,6.3,0.0,10.0,0.0,0.0,0.0,10.0,0.0,0.0,0.0,10.0
1446036918738417956,52,1446036918733345985,robocape_mag,10.95,6.3,0.0,10.0,0.0,0.0,0.0,10.0,0.0,0.0,0.0,10.0
1446036918781568706,53,1446036918770768880,robocape_mag,10.95,6.3,0.0,10.0,0.0,0.0,0.0,10.0,0.0,0.0,0.0,10.0
1446036918807368706,54,1446036918802577972,robocape_mag,10.95,6.3,0.0,10.0,0.0,0.0,0.0,10.0,0.0,0.0,0.0,10.0
1446036918841198164,55,1446036918833448886,robocape_mag,10.95,6.3,0.0,10.0,0.0,0.0,0.0,10.0,0.0,0.0,0.0,10.0
1446036918876097122,56,1446036918868797063,robocape_mag,11.25,7.8,1.5,10.0,0.0,0.0,0.0,10.0,0.0,0.0,0.0,10.0
1446036918912317414,57,1446036918902487993,robocape_mag,11.25,7.8,1.5,10.0,0.0,0.0,0.0,10.0,0.0,0.0,0.0,10.0
1446036918941530914,58,1446036918935389995,robocape_mag,11.25,7.8,1.5,10.0,0.0,0.0,0.0,10.0,0.0,0.0,0.0,10.0
1446036918980672706,59,1446036918969631910,robocape_mag,11.25,7.8,1.5,10.0,0.0,0.0,0.0,10.0,0.0,0.0,0.0,10.0
1446036919008693081,60,1446036919003418922,robocape_mag,11.25,7.8,1.5,10.0,0.0,0.0,0.0,10.0,0.0,0.0,0.0,10.0
1446036919042067581,61,1446036919036608934,robocape_mag,13.35,8.7,1.2,10.0,0.0,0.0,0.0,10.0,0.0,0.0,0.0,10.0
1446036919075539539,62,1446036919070050001,robocape_mag,13.35,8.7,1.2,10.0,0.0,0.0,0.0,10.0,0.0,0.0,0.0,10.0
1446036919107675331,63,1446036919102529048,robocape_mag,13.35,8.7,1.2,10.0,0.0,0.0,0.0,10.0,0.0,0.0,0.0,10.0
1446036919142388872,64,1446036919135340929,robocape_mag,13.35,8.7,1.2,10.0,0.0,0.0,0.0,10.0,0.0,0.0,0.0,10.0
1446036919173530456,65,1446036919168311119,robocape_mag,13.35,8.7,1.2,10.0,0.0,0.0,0.0,10.0,0.0,0.0,0.0,10.0
1446036919207377039,66,1446036919202286958,robocape_mag,11.55,8.1,-1.2,10.0,0.0,0.0,0.0,10.0,0.0,0.0,0.0,10.0
1446036919240707331,67,1446036919235925912,robocape_mag,11.55,8.1,-1.2,10.0,0.0,0.0,0.0,10.0,0.0,0.0,0.0,10.0
1446036919273256414,68,1446036919268291950,robocape_mag,11.55,8.1,-1.2,10.0,0.0,0.0,0.0,10.0,0.0,0.0,0.0,10.0
1446036919309230539,69,1446036919301182985,robocape_mag,11.55,8.1,-1.2,10.0,0.0,0.0,0.0,10.0,0.0,0.0,0.0,10.0
1446036919340177664,70,1446036919335387945,robocape_mag,8.85,9.0,0.9,10.0,0.0,0.0,0.0,10.0,0.0,0.0,0.0,10.0
1446036919378669914,71,1446036919367861986,robocape_mag,8.85,9.0,0.9,10.0,0.0,0.0,0.0,10.0,0.0,0.0,0.0,10.0
1446036919407489998,72,1446036919402369976,robocape_mag,8.85,9.0,0.9,10.0,0.0,0.0,0.0,10.0,0.0,0.0,0.0,10.0
1446036919443038414,73,1446036919434302091,robocape_mag,8.85,9.0,0.9,10.0,0.0,0.0,0.0,10.0,0.0,0.0,0.0,10.0
1446036919472400539,74,1446036919467541933,robocape_mag,8.85,9.0,0.9,10.0,0.0,0.0,0.0,10.0,0.0,0.0,0.0,10.0
1446036919506132456,75,1446036919500878095,robocape_mag,8.55,9.9,-1.8,10.0,0.0,0.0,0.0,10.0,0.0,0.0,0.0,10.0
1446036919538289581,76,1446036919533261060,robocape_mag,8.55,9.9,-1.8,10.0,0.0,0.0,0.0,10.0,0.0,0.0,0.0,10.0
1446036919571211414,77,1446036919566384077,robocape_mag,8.55,9.9,-1.8,10.0,0.0,0.0,0.0,10.0,0.0,0.0,0.0,10.0
1446036919605738539,78,1446036919600476980,robocape_mag,8.55,9.9,-1.8,10.0,0.0,0.0,0.0,10.0,0.0,0.0,0.0,10.0
1446036919637770998,79,1446036919632778882,robocape_mag,8.55,9.9,-1.8,10.0,0.0,0.0,0.0,10.0,0.0,0.0,0.0,10.0
1446036919671103998,80,1446036919666249036,robocape_mag,10.65,9.0,1.5,10.0,0.0,0.0,0.0,10.0,0.0,0.0,0.0,10.0
1446036919708815789,81,1446036919699179887,robocape_mag,10.65,9.0,1.5,10.0,0.0,0.0,0.0,10.0,0.0,0.0,0.0,10.0
1446036919737544789,82,1446036919732544898,robocape_mag,10.65,9.0,1.5,10.0,0.0,0.0,0.0,10.0,0.0,0.0,0.0,10.0
1446036919770652373,83,1446036919765809059,robocape_mag,10.65,9.0,1.5,10.0,0.0,0.0,0.0,10.0,0.0,0.0,0.0,10.0
1446036919804035998,84,1446036919798938035,robocape_mag,10.65,9.0,1.5,10.0,0.0,0.0,0.0,10.0,0.0,0.0,0.0,10.0
1446036919837260748,85,1446036919832290887,robocape_mag,10.65,9.0,1.5,10.0,0.0,0.0,0.0,10.0,0.0,0.0,0.0,10.0
1446036919870539414,86,1446036919865705013,robocape_mag,10.65,9.0,1.5,10.0,0.0,0.0,0.0,10.0,0.0,0.0,0.0,10.0
1446036919904109498,87,1446036919899024009,robocape_mag,10.65,9.0,1.5,10.0,0.0,0.0,0.0,10.0,0.0,0.0,0.0,10.0
1446036919937621873,88,1446036919932676076,robocape_mag,10.65,9.0,1.5,10.0,0.0,0.0,0.0,10.0,0.0,0.0,0.0,10.0
1446036919970576540,89,1446036919965765953,robocape_mag,10.65,9.0,1.5,10.0,0.0,0.0,0.0,10.0,0.0,0.0,0.0,10.0
1446036920004337040,90,1446036919999314069,robocape_mag,12.75,9.9,-3.6,10.0,0.0,0.0,0.0,10.0,0.0,0.0,0.0,10.0
1446036920038338123,91,1446036920033325910,robocape_mag,12.75,9.9,-3.6,10.0,0.0,0.0,0.0,10.0,0.0,0.0,0.0,10.0
1446036920070378998,92,1446036920065635919,robocape_mag,12.75,9.9,-3.6,10.0,0.0,0.0,0.0,10.0,0.0,0.0,0.0,10.0
1446036920104033373,93,1446036920099244117,robocape_mag,12.75,9.9,-3.6,10.0,0.0,0.0,0.0,10.0,0.0,0.0,0.0,10.0
1446036920137346706,94,1446036920132458925,robocape_mag,12.45,7.2,-1.5,10.0,0.0,0.0,0.0,10.0,0.0,0.0,0.0,10.0
1446036920172910331,95,1446036920167351007,robocape_mag,12.45,7.2,-1.5,10.0,0.0,0.0,0.0,10.0,0.0,0.0,0.0,10.0
1446036920203718748,96,1446036920198949098,robocape_mag,12.45,7.2,-1.5,10.0,0.0,0.0,0.0,10.0,0.0,0.0,0.0,10.0
1446036920244377748,97,1446036920235831022,robocape_mag,12.45,7.2,-1.5,10.0,0.0,0.0,0.0,10.0,0.0,0.0,0.0,10.0
1446036920275713373,98,1446036920269606113,robocape_mag,12.45,7.2,-1.5,10.0,0.0,0.0,0.0,10.0,0.0,0.0,0.0,10.0
1446036920309089415,99,1446036920303935050,robocape_mag,12.75,7.5,-0.6,10.0,0.0,0.0,0.0,10.0,0.0,0.0,0.0,10.0
1446036920345819873,100,1446036920336834907,robocape_mag,12.75,7.5,-0.6,10.0,0.0,0.0,0.0,10.0,0.0,0.0,0.0,10.0
1446036920380620248,101,1446036920370641946,robocape_mag,12.75,7.5,-0.6,10.0,0.0,0.0,0.0,10.0,0.0,0.0,0.0,10.0
1446036920408239581,102,1446036920403198003,robocape_mag,12.75,7.5,-0.6,10.0,0.0,0.0,0.0,10.0,0.0,0.0,0.0,10.0
1446036920440055498,103,1446036920434978961,robocape_mag,12.75,7.5,-0.6,10.0,0.0,0.0,0.0,10.0,0.0,0.0,0.0,10.0
1446036920473272831,104,1446036920468519926,robocape_mag,9.75,9.9,-2.4,10.0,0.0,0.0,0.0,10.0,0.0,0.0,0.0,10.0
1446036920506905998,105,1446036920501749038,robocape_mag,9.75,9.9,-2.4,10.0,0.0,0.0,0.0,10.0,0.0,0.0,0.0,10.0
1446036920540333040,106,1446036920535305976,robocape_mag,9.75,9.9,-2.4,10.0,0.0,0.0,0.0,10.0,0.0,0.0,0.0,10.0
1446036920573209081,107,1446036920568362951,robocape_mag,9.75,9.9,-2.4,10.0,0.0,0.0,0.0,10.0,0.0,0.0,0.0,10.0
1446036920606380290,108,1446036920601246118,robocape_mag,9.75,9.9,-2.4,10.0,0.0,0.0,0.0,10.0,0.0,0.0,0.0,10.0
1446036920638895748,109,1446036920633989095,robocape_mag,10.35,9.9,-1.2,10.0,0.0,0.0,0.0,10.0,0.0,0.0,0.0,10.0
1446036920673006248,110,1446036920667989969,robocape_mag,10.35,9.9,-1.2,10.0,0.0,0.0,0.0,10.0,0.0,0.0,0.0,10.0
1446036920705101332,111,1446036920700345039,robocape_mag,10.35,9.9,-1.2,10.0,0.0,0.0,0.0,10.0,0.0,0.0,0.0,10.0
1446036920738448832,112,1446036920733434915,robocape_mag,10.35,9.9,-1.2,10.0,0.0,0.0,0.0,10.0,0.0,0.0,0.0,10.0
1446036920771934540,113,1446036920766887903,robocape_mag,10.35,9.9,-1.2,10.0,0.0,0.0,0.0,10.0,0.0,0.0,0.0,10.0
1446036920804819082,114,1446036920799717903,robocape_mag,9.15,10.5,-1.2,10.0,0.0,0.0,0.0,10.0,0.0,0.0,0.0,10.0
1446036920837629290,115,1446036920832421064,robocape_mag,9.15,10.5,-1.2,10.0,0.0,0.0,0.0,10.0,0.0,0.0,0.0,10.0
1446036920871185207,116,1446036920866203069,robocape_mag,9.15,10.5,-1.2,10.0,0.0,0.0,0.0,10.0,0.0,0.0,0.0,10.0
1446036920903926790,117,1446036920899096965,robocape_mag,9.15,10.5,-1.2,10.0,0.0,0.0,0.0,10.0,0.0,0.0,0.0,10.0
1446036920937445332,118,1446036920932249069,robocape_mag,9.15,11.1,-1.2,10.0,0.0,0.0,0.0,10.0,0.0,0.0,0.0,10.0
1446036920970610123,119,1446036920965812921,robocape_mag,6.75,11.1,-1.2,10.0,0.0,0.0,0.0,10.0,0.0,0.0,0.0,10.0
1446036921003893373,120,1446036920999114990,robocape_mag,6.75,11.1,-1.2,10.0,0.0,0.0,0.0,10.0,0.0,0.0,0.0,10.0
1446036921037311165,121,1446036921032272100,robocape_mag,6.75,11.1,-1.2,10.0,0.0,0.0,0.0,10.0,0.0,0.0,0.0,10.0
1446036921070754207,122,1446036921065901041,robocape_mag,6.75,11.1,-1.2,10.0,0.0,0.0,0.0,10.0,0.0,0.0,0.0,10.0
1446036921104805373,123,1446036921099972009,robocape_mag,8.55,8.7,-0.6,10.0,0.0,0.0,0.0,10.0,0.0,0.0,0.0,10.0
1446036921137317040,124,1446036921132203102,robocape_mag,8.55,8.7,-0.6,10.0,0.0,0.0,0.0,10.0,0.0,0.0,0.0,10.0
1446036921171041457,125,1446036921166193962,robocape_mag,8.55,8.7,-0.6,10.0,0.0,0.0,0.0,10.0,0.0,0.0,0.0,10.0
1446036921203848957,126,1446036921199090957,robocape_mag,8.55,8.7,-0.6,10.0,0.0,0.0,0.0,10.0,0.0,0.0,0.0,10.0
1446036921240980082,127,1446036921232307910,robocape_mag,8.55,8.7,-0.6,10.0,0.0,0.0,0.0,10.0,0.0,0.0,0.0,10.0
1446036921270648915,128,1446036921265743017,robocape_mag,10.05,9.6,-0.3,10.0,0.0,0.0,0.0,10.0,0.0,0.0,0.0,10.0
1446036921303926873,129,1446036921299101114,robocape_mag,10.05,9.6,-0.3,10.0,0.0,0.0,0.0,10.0,0.0,0.0,0.0,10.0
1446036921339198374,130,1446036921332293033,robocape_mag,10.05,9.6,-0.3,10.0,0.0,0.0,0.0,10.0,0.0,0.0,0.0,10.0
1446036921377223040,131,1446036921365639925,robocape_mag,10.05,9.6,-0.3,10.0,0.0,0.0,0.0,10.0,0.0,0.0,0.0,10.0
1446036921404634624,132,1446036921399661064,robocape_mag,10.05,9.6,-0.3,10.0,0.0,0.0,0.0,10.0,0.0,0.0,0.0,10.0
1446036921439516665,133,1446036921432496070,robocape_mag,13.65,6.6,-0.3,10.0,0.0,0.0,0.0,10.0,0.0,0.0,0.0,10.0
1446036921472580957,134,1446036921465759038,robocape_mag,13.65,6.6,-0.3,10.0,0.0,0.0,0.0,10.0,0.0,0.0,0.0,10.0
1446036921504207999,135,1446036921499195098,robocape_mag,13.65,6.6,-0.3,10.0,0.0,0.0,0.0,10.0,0.0,0.0,0.0,10.0
1446036921537652707,136,1446036921532377958,robocape_mag,13.65,6.6,-0.3,10.0,0.0,0.0,0.0,10.0,0.0,0.0,0.0,10.0
1446036921570603207,137,1446036921565658092,robocape_mag,13.65,6.6,-0.3,10.0,0.0,0.0,0.0,10.0,0.0,0.0,0.0,10.0
1446036921604254374,138,1446036921599198102,robocape_mag,11.25,9.6,-2.7,10.0,0.0,0.0,0.0,10.0,0.0,0.0,0.0,10.0
1446036921637747457,139,1446036921632205009,robocape_mag,11.25,9.6,-2.7,10.0,0.0,0.0,0.0,10.0,0.0,0.0,0.0,10.0
1446036921670859665,140,1446036921665668010,robocape_mag,11.25,9.6,-2.7,10.0,0.0,0.0,0.0,10.0,0.0,0.0,0.0,10.0
1446036921704183457,141,1446036921699182987,robocape_mag,11.25,9.6,-2.7,10.0,0.0,0.0,0.0,10.0,0.0,0.0,0.0,10.0
1446036921737479582,142,1446036921732310056,robocape_mag,11.25,9.3,-0.6,10.0,0.0,0.0,0.0,10.0,0.0,0.0,0.0,10.0
1446036921770927707,143,1446036921765839099,robocape_mag,8.55,9.3,-0.6,10.0,0.0,0.0,0.0,10.0,0.0,0.0,0.0,10.0
1446036921803810207,144,1446036921798906087,robocape_mag,8.55,9.3,-0.6,10.0,0.0,0.0,0.0,10.0,0.0,0.0,0.0,10.0
1446036921837236915,145,1446036921832158088,robocape_mag,8.55,9.3,-0.6,10.0,0.0,0.0,0.0,10.0,0.0,0.0,0.0,10.0
1446036921870934249,146,1446036921866156101,robocape_mag,8.55,9.3,-0.6,10.0,0.0,0.0,0.0,10.0,0.0,0.0,0.0,10.0
1446036921904264874,147,1446036921899153947,robocape_mag,13.65,9.0,-2.1,10.0,0.0,0.0,0.0,10.0,0.0,0.0,0.0,10.0
1446036921937366957,148,1446036921932231903,robocape_mag,13.65,9.0,-2.1,10.0,0.0,0.0,0.0,10.0,0.0,0.0,0.0,10.0
1446036921971629124,149,1446036921966814994,robocape_mag,13.65,9.0,-2.1,10.0,0.0,0.0,0.0,10.0,0.0,0.0,0.0,10.0
1446036922007840207,150,1446036922000360965,robocape_mag,13.65,9.0,-2.1,10.0,0.0,0.0,0.0,10.0,0.0,0.0,0.0,10.0
1446036922042169624,151,1446036922033807992,robocape_mag,13.65,9.0,-2.1,10.0,0.0,0.0,0.0,10.0,0.0,0.0,0.0,10.0
1446036922072511499,152,1446036922067178010,robocape_mag,13.95,9.3,-1.8,10.0,0.0,0.0,0.0,10.0,0.0,0.0,0.0,10.0
1446036922104775666,153,1446036922099596977,robocape_mag,13.95,9.3,-1.8,10.0,0.0,0.0,0.0,10.0,0.0,0.0,0.0,10.0
1446036922140393999,154,1446036922133857011,robocape_mag,13.95,9.3,-1.8,10.0,0.0,0.0,0.0,10.0,0.0,0.0,0.0,10.0
1446036922173159957,155,1446036922168292999,robocape_mag,13.95,9.3,-1.8,10.0,0.0,0.0,0.0,10.0,0.0,0.0,0.0,10.0
1446036922204860666,156,1446036922199697017,robocape_mag,13.95,9.3,-1.8,10.0,0.0,0.0,0.0,10.0,0.0,0.0,0.0,10.0
1446036922247528749,157,1446036922236258029,robocape_mag,14.25,8.4,-0.3,10.0,0.0,0.0,0.0,10.0,0.0,0.0,0.0,10.0
1446036922274835207,158,1446036922269993066,robocape_mag,14.25,8.4,-0.3,10.0,0.0,0.0,0.0,10.0,0.0,0.0,0.0,10.0
1446036922305345207,159,1446036922300522089,robocape_mag,14.25,8.4,-0.3,10.0,0.0,0.0,0.0,10.0,0.0,0.0,0.0,10.0
1446036922340764332,160,1446036922333247900,robocape_mag,14.25,8.4,-0.3,10.0,0.0,0.0,0.0,10.0,0.0,0.0,0.0,10.0
1446036922384920291,161,1446036922371289968,robocape_mag,14.25,8.4,-3.6,10.0,0.0,0.0,0.0,10.0,0.0,0.0,0.0,10.0
1446036922412635124,162,1446036922402331113,robocape_mag,12.15,11.1,-3.6,10.0,0.0,0.0,0.0,10.0,0.0,0.0,0.0,10.0
1446036922441375332,163,1446036922434221982,robocape_mag,12.15,11.1,-3.6,10.0,0.0,0.0,0.0,10.0,0.0,0.0,0.0,10.0
1446036922474619082,164,1446036922468605995,robocape_mag,12.15,11.1,-3.6,10.0,0.0,0.0,0.0,10.0,0.0,0.0,0.0,10.0
1446036922507794582,165,1446036922502273082,robocape_mag,12.15,11.1,-3.6,10.0,0.0,0.0,0.0,10.0,0.0,0.0,0.0,10.0
1446036922541719666,166,1446036922536256074,robocape_mag,9.15,9.3,-1.8,10.0,0.0,0.0,0.0,10.0,0.0,0.0,0.0,10.0
1446036922579618291,167,1446036922570677042,robocape_mag,9.15,9.3,-1.8,10.0,0.0,0.0,0.0,10.0,0.0,0.0,0.0,10.0
1446036922608513541,168,1446036922603511095,robocape_mag,9.15,9.3,-1.8,10.0,0.0,0.0,0.0,10.0,0.0,0.0,0.0,10.0
1446036922645943999,169,1446036922635359048,robocape_mag,9.15,9.3,-1.8,10.0,0.0,0.0,0.0,10.0,0.0,0.0,0.0,10.0
1446036922675218582,170,1446036922670078039,robocape_mag,9.15,9.3,-1.8,10.0,0.0,0.0,0.0,10.0,0.0,0.0,0.0,10.0
1446036922707706707,171,1446036922702863931,robocape_mag,10.95,5.7,1.8,10.0,0.0,0.0,0.0,10.0,0.0,0.0,0.0,10.0
1446036922740146958,172,1446036922735016107,robocape_mag,10.95,5.7,1.8,10.0,0.0,0.0,0.0,10.0,0.0,0.0,0.0,10.0
1446036922773407583,173,1446036922768142938,robocape_mag,10.95,5.7,1.8,10.0,0.0,0.0,0.0,10.0,0.0,0.0,0.0,10.0
1446036922807745374,174,1446036922802879095,robocape_mag,10.95,5.7,1.8,10.0,0.0,0.0,0.0,10.0,0.0,0.0,0.0,10.0
1446036922842119458,175,1446036922835349082,robocape_mag,10.95,5.7,1.8,10.0,0.0,0.0,0.0,10.0,0.0,0.0,0.0,10.0
1446036922873604916,176,1446036922868120908,robocape_mag,9.15,9.3,-1.2,10.0,0.0,0.0,0.0,10.0,0.0,0.0,0.0,10.0
1446036922906663416,177,1446036922901825904,robocape_mag,9.15,9.3,-1.2,10.0,0.0,0.0,0.0,10.0,0.0,0.0,0.0,10.0
1446036922938860458,178,1446036922933890104,robocape_mag,9.15,9.3,-1.2,10.0,0.0,0.0,0.0,10.0,0.0,0.0,0.0,10.0
1446036922973556458,179,1446036922968436002,robocape_mag,9.15,9.3,-1.2,10.0,0.0,0.0,0.0,10.0,0.0,0.0,0.0,10.0
1446036923006013041,180,1446036923001137018,robocape_mag,9.15,9.3,-1.2,10.0,0.0,0.0,0.0,10.0,0.0,0.0,0.0,10.0
1446036923038360291,181,1446036923033343076,robocape_mag,9.15,9.9,-3.0,10.0,0.0,0.0,0.0,10.0,0.0,0.0,0.0,10.0
1446036923073272208,182,1446036923067137956,robocape_mag,9.15,9.9,-3.0,10.0,0.0,0.0,0.0,10.0,0.0,0.0,0.0,10.0
1446036923104800666,183,1446036923099942922,robocape_mag,9.15,9.9,-3.0,10.0,0.0,0.0,0.0,10.0,0.0,0.0,0.0,10.0
1446036923137867458,184,1446036923132926940,robocape_mag,9.15,9.9,-3.0,10.0,0.0,0.0,0.0,10.0,0.0,0.0,0.0,10.0
1446036923170946124,185,1446036923166049957,robocape_mag,9.15,9.9,-3.0,10.0,0.0,0.0,0.0,10.0,0.0,0.0,0.0,10.0
1446036923204482666,186,1446036923199616909,robocape_mag,11.55,7.5,-4.2,10.0,0.0,0.0,0.0,10.0,0.0,0.0,0.0,10.0
1446036923241605499,187,1446036923232750892,robocape_mag,11.55,7.5,-4.2,10.0,0.0,0.0,0.0,10.0,0.0,0.0,0.0,10.0
1446036923271157208,188,1446036923266213893,robocape_mag,11.55,7.5,-4.2,10.0,0.0,0.0,0.0,10.0,0.0,0.0,0.0,10.0
1446036923308281541,189,1446036923299031019,robocape_mag,11.55,7.5,-4.2,10.0,0.0,0.0,0.0,10.0,0.0,0.0,0.0,10.0
1446036923337189458,190,1446036923332098007,robocape_mag,11.55,6.9,-3.0,10.0,0.0,0.0,0.0,10.0,0.0,0.0,0.0,10.0
1446036923374901874,191,1446036923365639925,robocape_mag,13.35,6.9,-3.0,10.0,0.0,0.0,0.0,10.0,0.0,0.0,0.0,10.0
1446036923405796083,192,1446036923400346040,robocape_mag,13.35,6.9,-3.0,10.0,0.0,0.0,0.0,10.0,0.0,0.0,0.0,10.0
1446036923437512708,193,1446036923432467937,robocape_mag,13.35,6.9,-3.0,10.0,0.0,0.0,0.0,10.0,0.0,0.0,0.0,10.0
1446036923470765375,194,1446036923465972900,robocape_mag,13.35,6.9,-3.0,10.0,0.0,0.0,0.0,10.0,0.0,0.0,0.0,10.0
1446036923504633416,195,1446036923499339103,robocape_mag,10.65,9.0,-1.5,10.0,0.0,0.0,0.0,10.0,0.0,0.0,0.0,10.0
1446036923537103250,196,1446036923532310009,robocape_mag,10.65,9.0,-1.5,10.0,0.0,0.0,0.0,10.0,0.0,0.0,0.0,10.0
1446036923570784375,197,1446036923565978050,robocape_mag,10.65,9.0,-1.5,10.0,0.0,0.0,0.0,10.0,0.0,0.0,0.0,10.0
1446036923606618375,198,1446036923599245071,robocape_mag,10.65,9.0,-1.5,10.0,0.0,0.0,0.0,10.0,0.0,0.0,0.0,10.0
1446036923637031416,199,1446036923632225036,robocape_mag,10.65,9.0,-1.5,10.0,0.0,0.0,0.0,10.0,0.0,0.0,0.0,10.0
1446036923670872000,200,1446036923665978908,robocape_mag,8.25,10.2,-4.5,10.0,0.0,0.0,0.0,10.0,0.0,0.0,0.0,10.0
1446036923704593875,201,1446036923699194908,robocape_mag,8.25,10.2,-4.5,10.0,0.0,0.0,0.0,10.0,0.0,0.0,0.0,10.0
1446036923737359541,202,1446036923732351064,robocape_mag,8.25,10.2,-4.5,10.0,0.0,0.0,0.0,10.0,0.0,0.0,0.0,10.0
1446036923771505291,203,1446036923765820980,robocape_mag,8.25,10.2,-4.5,10.0,0.0,0.0,0.0,10.0,0.0,0.0,0.0,10.0
1446036923804343291,204,1446036923798777103,robocape_mag,8.25,10.2,-4.5,10.0,0.0,0.0,0.0,10.0,0.0,0.0,0.0,10.0
1446036923837585041,205,1446036923832078933,robocape_mag,7.65,11.4,-5.7,10.0,0.0,0.0,0.0,10.0,0.0,0.0,0.0,10.0
1446036923872886250,206,1446036923865751981,robocape_mag,7.65,11.4,-5.7,10.0,0.0,0.0,0.0,10.0,0.0,0.0,0.0,10.0
1446036923903890166,207,1446036923898858070,robocape_mag,7.65,11.4,-5.7,10.0,0.0,0.0,0.0,10.0,0.0,0.0,0.0,10.0
1446036923937332750,208,1446036923932105064,robocape_mag,7.65,11.4,-5.7,10.0,0.0,0.0,0.0,10.0,0.0,0.0,0.0,10.0
1446036923971114291,209,1446036923965708971,robocape_mag,7.65,11.4,-5.7,10.0,0.0,0.0,0.0,10.0,0.0,0.0,0.0,10.0
1446036924004526666,210,1446036923999413967,robocape_mag,10.65,7.2,-4.5,10.0,0.0,0.0,0.0,10.0,0.0,0.0,0.0,10.0
1446036924037257375,211,1446036924032244920,robocape_mag,10.65,7.2,-4.5,10.0,0.0,0.0,0.0,10.0,0.0,0.0,0.0,10.0
1446036924070613083,212,1446036924065530061,robocape_mag,10.65,7.2,-4.5,10.0,0.0,0.0,0.0,10.0,0.0,0.0,0.0,10.0
1446036924104074375,213,1446036924099119901,robocape_mag,10.65,7.2,-4.5,10.0,0.0,0.0,0.0,10.0,0.0,0.0,0.0,10.0
1446036924137076667,214,1446036924132292032,robocape_mag,10.65,11.4,-4.5,10.0,0.0,0.0,0.0,10.0,0.0,0.0,0.0,10.0
1446036924171586625,215,1446036924165549993,robocape_mag,8.25,11.4,-4.5,10.0,0.0,0.0,0.0,10.0,0.0,0.0,0.0,10.0
1446036924203779750,216,1446036924199019908,robocape_mag,8.25,11.4,-4.5,10.0,0.0,0.0,0.0,10.0,0.0,0.0,0.0,10.0
1446036924241539792,217,1446036924232830047,robocape_mag,8.25,11.4,-4.5,10.0,0.0,0.0,0.0,10.0,0.0,0.0,0.0,10.0
1446036924271084292,218,1446036924265661954,robocape_mag,8.25,11.4,-4.5,10.0,0.0,0.0,0.0,10.0,0.0,0.0,0.0,10.0
1446036924304679125,219,1446036924299071073,robocape_mag,9.45,9.6,-5.7,10.0,0.0,0.0,0.0,10.0,0.0,0.0,0.0,10.0
1446036924343987792,220,1446036924336111068,robocape_mag,9.45,9.6,-5.7,10.0,0.0,0.0,0.0,10.0,0.0,0.0,0.0,10.0
1446036924386253625,221,1446036924367010116,robocape_mag,9.45,9.6,-5.7,10.0,0.0,0.0,0.0,10.0,0.0,0.0,0.0,10.0
1446036924406964458,222,1446036924401946067,robocape_mag,9.45,9.6,-5.7,10.0,0.0,0.0,0.0,10.0,0.0,0.0,0.0,10.0
1446036924448590042,223,1446036924443347930,robocape_mag,9.45,9.6,-5.7,10.0,0.0,0.0,0.0,10.0,0.0,0.0,0.0,10.0
1446036924472257000,224,1446036924467063903,robocape_mag,11.55,9.9,-3.6,10.0,0.0,0.0,0.0,10.0,0.0,0.0,0.0,10.0
1446036924505951250,225,1446036924500926971,robocape_mag,11.55,9.9,-3.6,10.0,0.0,0.0,0.0,10.0,0.0,0.0,0.0,10.0
1446036924538740625,226,1446036924533893108,robocape_mag,11.55,9.9,-3.6,10.0,0.0,0.0,0.0,10.0,0.0,0.0,0.0,10.0
1446036924574299625,227,1446036924568624973,robocape_mag,11.55,9.9,-3.6,10.0,0.0,0.0,0.0,10.0,0.0,0.0,0.0,10.0
1446036924614943750,228,1446036924603179931,robocape_mag,11.55,9.9,-3.6,10.0,0.0,0.0,0.0,10.0,0.0,0.0,0.0,10.0
1446036924642508417,229,1446036924635308027,robocape_mag,15.75,8.1,-4.2,10.0,0.0,0.0,0.0,10.0,0.0,0.0,0.0,10.0
1446036924675994208,230,1446036924669420957,robocape_mag,15.75,8.1,-4.2,10.0,0.0,0.0,0.0,10.0,0.0,0.0,0.0,10.0
1446036924709756042,231,1446036924701711893,robocape_mag,15.75,8.1,-4.2,10.0,0.0,0.0,0.0,10.0,0.0,0.0,0.0,10.0
1446036924742142167,232,1446036924736892938,robocape_mag,15.75,8.1,-4.2,10.0,0.0,0.0,0.0,10.0,0.0,0.0,0.0,10.0
1446036924779734208,233,1446036924769315004,robocape_mag,15.75,8.1,-4.2,10.0,0.0,0.0,0.0,10.0,0.0,0.0,0.0,10.0
1446036924808290000,234,1446036924803155899,robocape_mag,12.15,8.1,-3.0,10.0,0.0,0.0,0.0,10.0,0.0,0.0,0.0,10.0
1446036924844118167,235,1446036924834605932,robocape_mag,12.15,8.1,-3.0,10.0,0.0,0.0,0.0,10.0,0.0,0.0,0.0,10.0
1446036924877976292,236,1446036924867840051,robocape_mag,12.15,8.1,-3.0,10.0,0.0,0.0,0.0,10.0,0.0,0.0,0.0,10.0
1446036924907573750,237,1446036924902362108,robocape_mag,12.15,8.1,-3.0,10.0,0.0,0.0,0.0,10.0,0.0,0.0,0.0,10.0
1446036924943664834,238,1446036924935312986,robocape_mag,11.25,11.4,-5.1,10.0,0.0,0.0,0.0,10.0,0.0,0.0,0.0,10.0
1446036924974368792,239,1446036924968930006,robocape_mag,11.25,11.4,-5.1,10.0,0.0,0.0,0.0,10.0,0.0,0.0,0.0,10.0
1446036925008072542,240,1446036925003221988,robocape_mag,11.25,11.4,-5.1,10.0,0.0,0.0,0.0,10.0,0.0,0.0,0.0,10.0
1446036925044851250,241,1446036925035871028,robocape_mag,11.25,11.4,-5.1,10.0,0.0,0.0,0.0,10.0,0.0,0.0,0.0,10.0
1446036925074620625,242,1446036925069519996,robocape_mag,11.25,11.4,-5.1,10.0,0.0,0.0,0.0,10.0,0.0,0.0,0.0,10.0
1446036925107630917,243,1446036925102839946,robocape_mag,15.15,8.1,-3.0,10.0,0.0,0.0,0.0,10.0,0.0,0.0,0.0,10.0
1446036925140644334,244,1446036925135483026,robocape_mag,15.15,8.1,-3.0,10.0,0.0,0.0,0.0,10.0,0.0,0.0,0.0,10.0
1446036925177391500,245,1446036925168992042,robocape_mag,15.15,8.1,-3.0,10.0,0.0,0.0,0.0,10.0,0.0,0.0,0.0,10.0
1446036925206833834,246,1446036925201899051,robocape_mag,15.15,8.1,-3.0,10.0,0.0,0.0,0.0,10.0,0.0,0.0,0.0,10.0
1446036925239901250,247,1446036925234769105,robocape_mag,15.15,8.1,-3.0,10.0,0.0,0.0,0.0,10.0,0.0,0.0,0.0,10.0
1446036925273238875,248,1446036925268054962,robocape_mag,11.25,8.4,-4.5,10.0,0.0,0.0,0.0,10.0,0.0,0.0,0.0,10.0
1446036925306594209,249,1446036925301799058,robocape_mag,11.25,8.4,-4.5,10.0,0.0,0.0,0.0,10.0,0.0,0.0,0.0,10.0
1446036925338937542,250,1446036925333683013,robocape_mag,11.25,8.4,-4.5,10.0,0.0,0.0,0.0,10.0,0.0,0.0,0.0,10.0
1446036925381529417,251,1446036925366662025,robocape_mag,11.25,8.4,-4.5,10.0,0.0,0.0,0.0,10.0,0.0,0.0,0.0,10.0
1446036925406203584,252,1446036925401272058,robocape_mag,11.25,8.4,-4.5,10.0,0.0,0.0,0.0,10.0,0.0,0.0,0.0,10.0
1446036925438455709,253,1446036925433358907,robocape_mag,8.85,8.4,-2.1,10.0,0.0,0.0,0.0,10.0,0.0,0.0,0.0,10.0
1446036925471238750,254,1446036925466288089,robocape_mag,8.85,8.4,-2.1,10.0,0.0,0.0,0.0,10.0,0.0,0.0,0.0,10.0
1446036925504676334,255,1446036925499706029,robocape_mag,8.85,8.4,-2.1,10.0,0.0,0.0,0.0,10.0,0.0,0.0,0.0,10.0
1446036925537785792,256,1446036925532840013,robocape_mag,8.85,8.4,-2.1,10.0,0.0,0.0,0.0,10.0,0.0,0.0,0.0,10.0
1446036925570740209,257,1446036925565805912,robocape_mag,8.85,8.4,-2.1,10.0,0.0,0.0,0.0,10.0,0.0,0.0,0.0,10.0
1446036925608934584,258,1446036925599338054,robocape_mag,11.55,7.5,-5.4,10.0,0.0,0.0,0.0,10.0,0.0,0.0,0.0,10.0
1446036925637044792,259,1446036925632245063,robocape_mag,11.55,7.5,-5.4,10.0,0.0,0.0,0.0,10.0,0.0,0.0,0.0,10.0
1446036925673762376,260,1446036925665661096,robocape_mag,11.55,7.5,-5.4,10.0,0.0,0.0,0.0,10.0,0.0,0.0,0.0,10.0
1446036925704381334,261,1446036925699189901,robocape_mag,11.55,7.5,-5.4,10.0,0.0,0.0,0.0,10.0,0.0,0.0,0.0,10.0
1446036925737205459,262,1446036925732312917,robocape_mag,11.55,8.4,-4.5,10.0,0.0,0.0,0.0,10.0,0.0,0.0,0.0,10.0
1446036925770677667,263,1446036925765743017,robocape_mag,10.05,8.4,-4.5,10.0,0.0,0.0,0.0,10.0,0.0,0.0,0.0,10.0
1446036925804207209,264,1446036925799159049,robocape_mag,10.05,8.4,-4.5,10.0,0.0,0.0,0.0,10.0,0.0,0.0,0.0,10.0
1446036925837447834,265,1446036925832609891,robocape_mag,10.05,8.4,-4.5,10.0,0.0,0.0,0.0,10.0,0.0,0.0,0.0,10.0
1446036925872676626,266,1446036925865675926,robocape_mag,10.05,8.4,-4.5,10.0,0.0,0.0,0.0,10.0,0.0,0.0,0.0,10.0
1446036925904189542,267,1446036925899363994,robocape_mag,12.75,5.7,-4.8,10.0,0.0,0.0,0.0,10.0,0.0,0.0,0.0,10.0
1446036925937261209,268,1446036925932495117,robocape_mag,12.75,5.7,-4.8,10.0,0.0,0.0,0.0,10.0,0.0,0.0,0.0,10.0
1446036925970570501,269,1446036925965759038,robocape_mag,12.75,5.7,-4.8,10.0,0.0,0.0,0.0,10.0,0.0,0.0,0.0,10.0
1446036926005936209,270,1446036925999175071,robocape_mag,12.75,5.7,-4.8,10.0,0.0,0.0,0.0,10.0,0.0,0.0,0.0,10.0
1446036926037193626,271,1446036926032367944,robocape_mag,12.75,5.7,-4.8,10.0,0.0,0.0,0.0,10.0,0.0,0.0,0.0,10.0
1446036926072351251,272,1446036926065582990,robocape_mag,10.65,9.0,-6.9,10.0,0.0,0.0,0.0,10.0,0.0,0.0,0.0,10.0
1446036926105018792,273,1446036926098942041,robocape_mag,10.65,9.0,-6.9,10.0,0.0,0.0,0.0,10.0,0.0,0.0,0.0,10.0
1446036926137980542,274,1446036926132385015,robocape_mag,10.65,9.0,-6.9,10.0,0.0,0.0,0.0,10.0,0.0,0.0,0.0,10.0
1446036926171063209,275,1446036926165709018,robocape_mag,10.65,9.0,-6.9,10.0,0.0,0.0,0.0,10.0,0.0,0.0,0.0,10.0
1446036926205807876,276,1446036926198745012,robocape_mag,10.65,9.0,-6.9,10.0,0.0,0.0,0.0,10.0,0.0,0.0,0.0,10.0
1446036926237443709,277,1446036926232376098,robocape_mag,14.25,7.2,-3.3,10.0,0.0,0.0,0.0,10.0,0.0,0.0,0.0,10.0
1446036926270780084,278,1446036926265674114,robocape_mag,14.25,7.2,-3.3,10.0,0.0,0.0,0.0,10.0,0.0,0.0,0.0,10.0
1446036926307223293,279,1446036926298845052,robocape_mag,14.25,7.2,-3.3,10.0,0.0,0.0,0.0,10.0,0.0,0.0,0.0,10.0
1446036926337339043,280,1446036926332199096,robocape_mag,14.25,7.2,-3.3,10.0,0.0,0.0,0.0,10.0,0.0,0.0,0.0,10.0
1446036926378516001,281,1446036926365613937,robocape_mag,14.25,7.2,-3.3,10.0,0.0,0.0,0.0,10.0,0.0,0.0,0.0,10.0
1446036926404891793,282,1446036926399964094,robocape_mag,12.45,9.0,-6.3,10.0,0.0,0.0,0.0,10.0,0.0,0.0,0.0,10.0
1446036926437348876,283,1446036926432379961,robocape_mag,12.45,9.0,-6.3,10.0,0.0,0.0,0.0,10.0,0.0,0.0,0.0,10.0
1446036926470398459,284,1446036926465502977,robocape_mag,12.45,9.0,-6.3,10.0,0.0,0.0,0.0,10.0,0.0,0.0,0.0,10.0
1446036926503789876,285,1446036926499058008,robocape_mag,12.45,9.0,-6.3,10.0,0.0,0.0,0.0,10.0,0.0,0.0,0.0,10.0
1446036926537056834,286,1446036926532294034,robocape_mag,12.45,9.3,-6.6,10.0,0.0,0.0,0.0,10.0,0.0,0.0,0.0,10.0
1446036926570681251,287,1446036926565874099,robocape_mag,14.55,9.3,-6.6,10.0,0.0,0.0,0.0,10.0,0.0,0.0,0.0,10.0
1446036926604134209,288,1446036926598886966,robocape_mag,14.55,9.3,-6.6,10.0,0.0,0.0,0.0,10.0,0.0,0.0,0.0,10.0
1446036926639866626,289,1446036926634994029,robocape_mag,14.55,9.3,-6.6,10.0,0.0,0.0,0.0,10.0,0.0,0.0,0.0,10.0
1446036926671349418,290,1446036926665992021,robocape_mag,14.55,9.3,-6.6,10.0,0.0,0.0,0.0,10.0,0.0,0.0,0.0,10.0
1446036926705678334,291,1446036926700181007,robocape_mag,14.25,9.0,-6.3,10.0,0.0,0.0,0.0,10.0,0.0,0.0,0.0,10.0
1446036926739362918,292,1446036926734116077,robocape_mag,14.25,9.0,-6.3,10.0,0.0,0.0,0.0,10.0,0.0,0.0,0.0,10.0
1446036926772131126,293,1446036926767323970,robocape_mag,14.25,9.0,-6.3,10.0,0.0,0.0,0.0,10.0,0.0,0.0,0.0,10.0
1446036926806052376,294,1446036926800760030,robocape_mag,14.25,9.0,-6.3,10.0,0.0,0.0,0.0,10.0,0.0,0.0,0.0,10.0
1446036926838193293,295,1446036926832940101,robocape_mag,14.25,9.0,-6.3,10.0,0.0,0.0,0.0,10.0,0.0,0.0,0.0,10.0
1446036926878004418,296,1446036926869612932,robocape_mag,12.45,10.8,-7.5,10.0,0.0,0.0,0.0,10.0,0.0,0.0,0.0,10.0
1446036926904726376,297,1446036926899678945,robocape_mag,12.45,10.8,-7.5,10.0,0.0,0.0,0.0,10.0,0.0,0.0,0.0,10.0
1446036926937934251,298,1446036926933129072,robocape_mag,12.45,10.8,-7.5,10.0,0.0,0.0,0.0,10.0,0.0,0.0,0.0,10.0
1446036926976403918,299,1446036926970524072,robocape_mag,12.45,10.8,-7.5,10.0,0.0,0.0,0.0,10.0,0.0,0.0,0.0,10.0
1446036927007011585,300,1446036927002021074,robocape_mag,12.45,10.8,-7.5,10.0,0.0,0.0,0.0,10.0,0.0,0.0,0.0,10.0
1446036927046783835,301,1446036927035381078,robocape_mag,15.15,7.5,-7.2,10.0,0.0,0.0,0.0,10.0,0.0,0.0,0.0,10.0
1446036927074862501,302,1446036927067078113,robocape_mag,15.15,7.5,-7.2,10.0,0.0,0.0,0.0,10.0,0.0,0.0,0.0,10.0
1446036927110406626,303,1446036927102432966,robocape_mag,15.15,7.5,-7.2,10.0,0.0,0.0,0.0,10.0,0.0,0.0,0.0,10.0
1446036927141263043,304,1446036927136262893,robocape_mag,15.15,7.5,-7.2,10.0,0.0,0.0,0.0,10.0,0.0,0.0,0.0,10.0
1446036927177852126,305,1446036927170233011,robocape_mag,15.15,7.5,-7.2,10.0,0.0,0.0,0.0,10.0,0.0,0.0,0.0,10.0
1446036927210679126,306,1446036927202586889,robocape_mag,13.35,8.1,-7.8,10.0,0.0,0.0,0.0,10.0,0.0,0.0,0.0,10.0
1446036927242122460,307,1446036927236936092,robocape_mag,13.35,8.1,-7.8,10.0,0.0,0.0,0.0,10.0,0.0,0.0,0.0,10.0
1446036927276300126,308,1446036927269185066,robocape_mag,13.35,8.1,-7.8,10.0,0.0,0.0,0.0,10.0,0.0,0.0,0.0,10.0
1446036927308100585,309,1446036927302840948,robocape_mag,13.35,8.1,-7.8,10.0,0.0,0.0,0.0,10.0,0.0,0.0,0.0,10.0
1446036927340198085,310,1446036927335244894,robocape_mag,11.25,10.2,-9.3,10.0,0.0,0.0,0.0,10.0,0.0,0.0,0.0,10.0
1446036927378571251,311,1446036927370120048,robocape_mag,11.25,10.2,-9.3,10.0,0.0,0.0,0.0,10.0,0.0,0.0,0.0,10.0
1446036927408039126,312,1446036927402705907,robocape_mag,11.25,10.2,-9.3,10.0,0.0,0.0,0.0,10.0,0.0,0.0,0.0,10.0
1446036927440194751,313,1446036927435380935,robocape_mag,11.25,10.2,-9.3,10.0,0.0,0.0,0.0,10.0,0.0,0.0,0.0,10.0
1446036927473803501,314,1446036927468703031,robocape_mag,11.25,10.2,-9.3,10.0,0.0,0.0,0.0,10.0,0.0,0.0,0.0,10.0
1446036927506802418,315,1446036927501652002,robocape_mag,14.25,7.8,-6.9,10.0,0.0,0.0,0.0,10.0,0.0,0.0,0.0,10.0
1446036927540331501,316,1446036927535201072,robocape_mag,14.25,7.8,-6.9,10.0,0.0,0.0,0.0,10.0,0.0,0.0,0.0,10.0
1446036927573344918,317,1446036927568321943,robocape_mag,14.25,7.8,-6.9,10.0,0.0,0.0,0.0,10.0,0.0,0.0,0.0,10.0
1446036927606617668,318,1446036927601222038,robocape_mag,14.25,7.8,-6.9,10.0,0.0,0.0,0.0,10.0,0.0,0.0,0.0,10.0
1446036927639352960,319,1446036927634524106,robocape_mag,14.25,7.8,-6.9,10.0,0.0,0.0,0.0,10.0,0.0,0.0,0.0,10.0
1446036927672110752,320,1446036927666932106,robocape_mag,11.25,10.2,-8.1,10.0,0.0,0.0,0.0,10.0,0.0,0.0,0.0,10.0
1446036927705183377,321,1446036927700196027,robocape_mag,11.25,10.2,-8.1,10.0,0.0,0.0,0.0,10.0,0.0,0.0,0.0,10.0
1446036927738912543,322,1446036927733849048,robocape_mag,11.25,10.2,-8.1,10.0,0.0,0.0,0.0,10.0,0.0,0.0,0.0,10.0
1446036927774842877,323,1446036927766576051,robocape_mag,11.25,10.2,-8.1,10.0,0.0,0.0,0.0,10.0,0.0,0.0,0.0,10.0
1446036927804616127,324,1446036927799832105,robocape_mag,11.25,10.2,-8.1,10.0,0.0,0.0,0.0,10.0,0.0,0.0,0.0,10.0
1446036927837763043,325,1446036927832964897,robocape_mag,9.15,12.3,-24.6,10.0,0.0,0.0,0.0,10.0,0.0,0.0,0.0,10.0
1446036927872068502,326,1446036927866101980,robocape_mag,9.15,12.3,-24.6,10.0,0.0,0.0,0.0,10.0,0.0,0.0,0.0,10.0
1446036927904194793,327,1446036927899297952,robocape_mag,9.15,12.3,-24.6,10.0,0.0,0.0,0.0,10.0,0.0,0.0,0.0,10.0
1446036927937340293,328,1446036927932537078,robocape_mag,9.15,12.3,-24.6,10.0,0.0,0.0,0.0,10.0,0.0,0.0,0.0,10.0
1446036927970679960,329,1446036927965763092,robocape_mag,9.15,12.3,-24.6,10.0,0.0,0.0,0.0,10.0,0.0,0.0,0.0,10.0
1446036928004292293,330,1446036927999326944,robocape_mag,12.15,31.5,-18.0,10.0,0.0,0.0,0.0,10.0,0.0,0.0,0.0,10.0
1446036928037309377,331,1446036928032517910,robocape_mag,12.15,31.5,-18.0,10.0,0.0,0.0,0.0,10.0,0.0,0.0,0.0,10.0
1446036928070640335,332,1446036928065857887,robocape_mag,12.15,31.5,-18.0,10.0,0.0,0.0,0.0,10.0,0.0,0.0,0.0,10.0
1446036928103849168,333,1446036928098942041,robocape_mag,12.15,31.5,-18.0,10.0,0.0,0.0,0.0,10.0,0.0,0.0,0.0,10.0
1446036928137704960,334,1446036928132838010,robocape_mag,12.15,34.8,-12.3,10.0,0.0,0.0,0.0,10.0,0.0,0.0,0.0,10.0
1446036928170528210,335,1446036928165741920,robocape_mag,20.25,34.8,-12.3,10.0,0.0,0.0,0.0,10.0,0.0,0.0,0.0,10.0
1446036928204104043,336,1446036928199100971,robocape_mag,20.25,34.8,-12.3,10.0,0.0,0.0,0.0,10.0,0.0,0.0,0.0,10.0
1446036928238226585,337,1446036928233177900,robocape_mag,20.25,34.8,-12.3,10.0,0.0,0.0,0.0,10.0,0.0,0.0,0.0,10.0
1446036928270681252,338,1446036928265836954,robocape_mag,20.25,34.8,-12.3,10.0,0.0,0.0,0.0,10.0,0.0,0.0,0.0,10.0
1446036928304244168,339,1446036928299434900,robocape_mag,30.15,34.5,-22.8,10.0,0.0,0.0,0.0,10.0,0.0,0.0,0.0,10.0
1446036928337382335,340,1446036928332519054,robocape_mag,30.15,34.5,-22.8,10.0,0.0,0.0,0.0,10.0,0.0,0.0,0.0,10.0
1446036928376742294,341,1446036928365691900,robocape_mag,30.15,34.5,-22.8,10.0,0.0,0.0,0.0,10.0,0.0,0.0,0.0,10.0
1446036928405849877,342,1446036928400408983,robocape_mag,30.15,34.5,-22.8,10.0,0.0,0.0,0.0,10.0,0.0,0.0,0.0,10.0
1446036928437746502,343,1446036928432573080,robocape_mag,30.15,34.5,-22.8,10.0,0.0,0.0,0.0,10.0,0.0,0.0,0.0,10.0
1446036928470488919,344,1446036928465528011,robocape_mag,34.05,32.4,-24.9,10.0,0.0,0.0,0.0,10.0,0.0,0.0,0.0,10.0
1446036928505922877,345,1446036928499149084,robocape_mag,34.05,32.4,-24.9,10.0,0.0,0.0,0.0,10.0,0.0,0.0,0.0,10.0
1446036928537584835,346,1446036928532602071,robocape_mag,34.05,32.4,-24.9,10.0,0.0,0.0,0.0,10.0,0.0,0.0,0.0,10.0
1446036928570663585,347,1446036928565521955,robocape_mag,34.05,32.4,-24.9,10.0,0.0,0.0,0.0,10.0,0.0,0.0,0.0,10.0
1446036928604834335,348,1446036928599701881,robocape_mag,34.05,32.4,-24.9,10.0,0.0,0.0,0.0,10.0,0.0,0.0,0.0,10.0
1446036928637617710,349,1446036928632317066,robocape_mag,35.25,34.8,-24.9,10.0,0.0,0.0,0.0,10.0,0.0,0.0,0.0,10.0
1446036928670934044,350,1446036928665744066,robocape_mag,35.25,34.8,-24.9,10.0,0.0,0.0,0.0,10.0,0.0,0.0,0.0,10.0
1446036928704338335,351,1446036928699098110,robocape_mag,35.25,34.8,-24.9,10.0,0.0,0.0,0.0,10.0,0.0,0.0,0.0,10.0
1446036928740928377,352,1446036928735977888,robocape_mag,35.25,34.8,-24.9,10.0,0.0,0.0,0.0,10.0,0.0,0.0,0.0,10.0
1446036928773248002,353,1446036928768017053,robocape_mag,35.25,34.8,-24.9,10.0,0.0,0.0,0.0,10.0,0.0,0.0,0.0,10.0
1446036928830045169,354,1446036928800508022,robocape_mag,23.85,9.0,-26.1,10.0,0.0,0.0,0.0,10.0,0.0,0.0,0.0,10.0
1446036928853231710,355,1446036928848268985,robocape_mag,23.85,9.0,-26.1,10.0,0.0,0.0,0.0,10.0,0.0,0.0,0.0,10.0
1446036928876326502,356,1446036928870448112,robocape_mag,23.85,9.0,-26.1,10.0,0.0,0.0,0.0,10.0,0.0,0.0,0.0,10.0
1446036928904193085,357,1446036928899431943,robocape_mag,23.85,9.0,-26.1,10.0,0.0,0.0,0.0,10.0,0.0,0.0,0.0,10.0
1446036928937526877,358,1446036928932401895,robocape_mag,23.85,20.4,-26.1,10.0,0.0,0.0,0.0,10.0,0.0,0.0,0.0,10.0
1446036928971890752,359,1446036928967060089,robocape_mag,23.85,20.4,-26.1,10.0,0.0,0.0,0.0,10.0,0.0,0.0,0.0,10.0
1446036929005225627,360,1446036929000411033,robocape_mag,23.85,20.4,-26.1,10.0,0.0,0.0,0.0,10.0,0.0,0.0,0.0,10.0
1446036929038251461,361,1446036929033051967,robocape_mag,23.85,20.4,-26.1,10.0,0.0,0.0,0.0,10.0,0.0,0.0,0.0,10.0
1446036929070810044,362,1446036929065972089,robocape_mag,23.85,20.4,-26.1,10.0,0.0,0.0,0.0,10.0,0.0,0.0,0.0,10.0
1446036929105677961,363,1446036929100590944,robocape_mag,1.95,17.7,-12.6,10.0,0.0,0.0,0.0,10.0,0.0,0.0,0.0,10.0
1446036929139871877,364,1446036929134406089,robocape_mag,1.95,17.7,-12.6,10.0,0.0,0.0,0.0,10.0,0.0,0.0,0.0,10.0
1446036929171281794,365,1446036929166388034,robocape_mag,1.95,17.7,-12.6,10.0,0.0,0.0,0.0,10.0,0.0,0.0,0.0,10.0
1446036929204938086,366,1446036929199831008,robocape_mag,1.95,17.7,-12.6,10.0,0.0,0.0,0.0,10.0,0.0,0.0,0.0,10.0
1446036929244206752,367,1446036929238487958,robocape_mag,1.95,17.7,-12.6,10.0,0.0,0.0,0.0,10.0,0.0,0.0,0.0,10.0
1446036929270511711,368,1446036929265507936,robocape_mag,-16.35,37.8,-15.9,10.0,0.0,0.0,0.0,10.0,0.0,0.0,0.0,10.0
1446036929303929377,369,1446036929299077033,robocape_mag,-16.35,37.8,-15.9,10.0,0.0,0.0,0.0,10.0,0.0,0.0,0.0,10.0
1446036929341668252,370,1446036929332441091,robocape_mag,-16.35,37.8,-15.9,10.0,0.0,0.0,0.0,10.0,0.0,0.0,0.0,10.0
1446036929378372836,371,1446036929365741014,robocape_mag,-16.35,37.8,-15.9,10.0,0.0,0.0,0.0,10.0,0.0,0.0,0.0,10.0
1446036929405011086,372,1446036929400036096,robocape_mag,-16.35,37.8,-15.9,10.0,0.0,0.0,0.0,10.0,0.0,0.0,0.0,10.0
1446036929440296877,373,1446036929432472944,robocape_mag,-2.55,9.0,-9.3,10.0,0.0,0.0,0.0,10.0,0.0,0.0,0.0,10.0
1446036929470704544,374,1446036929465740919,robocape_mag,-2.55,9.0,-9.3,10.0,0.0,0.0,0.0,10.0,0.0,0.0,0.0,10.0
1446036929504003294,375,1446036929499119997,robocape_mag,-2.55,9.0,-9.3,10.0,0.0,0.0,0.0,10.0,0.0,0.0,0.0,10.0
1446036929538045419,376,1446036929532398939,robocape_mag,-2.55,9.0,-9.3,10.0,0.0,0.0,0.0,10.0,0.0,0.0,0.0,10.0
1446036929570228252,377,1446036929565471887,robocape_mag,-2.55,9.0,-9.3,10.0,0.0,0.0,0.0,10.0,0.0,0.0,0.0,10.0
1446036929604008752,378,1446036929598978996,robocape_mag,1.05,18.6,-11.7,10.0,0.0,0.0,0.0,10.0,0.0,0.0,0.0,10.0
1446036929638798586,379,1446036929632090091,robocape_mag,1.05,18.6,-11.7,10.0,0.0,0.0,0.0,10.0,0.0,0.0,0.0,10.0
1446036929673018002,380,1446036929666193008,robocape_mag,1.05,18.6,-11.7,10.0,0.0,0.0,0.0,10.0,0.0,0.0,0.0,10.0
1446036929704254627,381,1446036929698865890,robocape_mag,1.05,18.6,-11.7,10.0,0.0,0.0,0.0,10.0,0.0,0.0,0.0,10.0
1446036929741414211,382,1446036929732878923,robocape_mag,1.05,37.5,-7.2,10.0,0.0,0.0,0.0,10.0,0.0,0.0,0.0,10.0
1446036929770726628,383,1446036929765645980,robocape_mag,-15.45,37.5,-7.2,10.0,0.0,0.0,0.0,10.0,0.0,0.0,0.0,10.0
1446036929806642961,384,1446036929799087047,robocape_mag,-15.45,37.5,-7.2,10.0,0.0,0.0,0.0,10.0,0.0,0.0,0.0,10.0
1446036929837836961,385,1446036929832159996,robocape_mag,-15.45,37.5,-7.2,10.0,0.0,0.0,0.0,10.0,0.0,0.0,0.0,10.0
1446036929870772044,386,1446036929865519046,robocape_mag,-15.45,37.5,-7.2,10.0,0.0,0.0,0.0,10.0,0.0,0.0,0.0,10.0
1446036929905940003,387,1446036929898845911,robocape_mag,-14.55,27.6,-9.3,10.0,0.0,0.0,0.0,10.0,0.0,0.0,0.0,10.0
1446036929939514878,388,1446036929932214021,robocape_mag,-14.55,27.6,-9.3,10.0,0.0,0.0,0.0,10.0,0.0,0.0,0.0,10.0
1446036929970586544,389,1446036929965436935,robocape_mag,-14.55,27.6,-9.3,10.0,0.0,0.0,0.0,10.0,0.0,0.0,0.0,10.0
1446036930005803003,390,1446036930001002073,robocape_mag,-14.55,27.6,-9.3,10.0,0.0,0.0,0.0,10.0,0.0,0.0,0.0,10.0
1446036930044356544,391,1446036930033898115,robocape_mag,-14.55,27.6,-9.3,10.0,0.0,0.0,0.0,10.0,0.0,0.0,0.0,10.0
1446036930072092544,392,1446036930066920042,robocape_mag,18.75,21.9,1.8,10.0,0.0,0.0,0.0,10.0,0.0,0.0,0.0,10.0
1446036930105385378,393,1446036930100356101,robocape_mag,18.75,21.9,1.8,10.0,0.0,0.0,0.0,10.0,0.0,0.0,0.0,10.0
1446036930138695419,394,1446036930133322000,robocape_mag,18.75,21.9,1.8,10.0,0.0,0.0,0.0,10.0,0.0,0.0,0.0,10.0
1446036930171193211,395,1446036930166078090,robocape_mag,18.75,21.9,1.8,10.0,0.0,0.0,0.0,10.0,0.0,0.0,0.0,10.0
1446036930204357336,396,1446036930199381113,robocape_mag,18.75,21.9,1.8,10.0,0.0,0.0,0.0,10.0,0.0,0.0,0.0,10.0
1446036930238083711,397,1446036930232958078,robocape_mag,16.95,22.5,0.6,10.0,0.0,0.0,0.0,10.0,0.0,0.0,0.0,10.0
1446036930273161794,398,1446036930265772104,robocape_mag,16.95,22.5,0.6,10.0,0.0,0.0,0.0,10.0,0.0,0.0,0.0,10.0
1446036930304198461,399,1446036930299204111,robocape_mag,16.95,22.5,0.6,10.0,0.0,0.0,0.0,10.0,0.0,0.0,0.0,10.0
1446036930337400961,400,1446036930332410097,robocape_mag,16.95,22.5,0.6,10.0,0.0,0.0,0.0,10.0,0.0,0.0,0.0,10.0
1446036930377513586,401,1446036930365780115,robocape_mag,16.95,22.5,0.6,10.0,0.0,0.0,0.0,10.0,0.0,0.0,0.0,10.0
1446036930404686794,402,1446036930399827003,robocape_mag,1.35,17.7,-5.4,10.0,0.0,0.0,0.0,10.0,0.0,0.0,0.0,10.0
1446036930438034295,403,1446036930433095932,robocape_mag,1.35,17.7,-5.4,10.0,0.0,0.0,0.0,10.0,0.0,0.0,0.0,10.0
1446036930476254878,404,1446036930468631982,robocape_mag,1.35,17.7,-5.4,10.0,0.0,0.0,0.0,10.0,0.0,0.0,0.0,10.0
1446036930513253670,405,1446036930501261949,robocape_mag,1.35,17.7,-5.4,10.0,0.0,0.0,0.0,10.0,0.0,0.0,0.0,10.0
1446036930542409336,406,1446036930535222053,robocape_mag,16.05,9.0,-1.5,10.0,0.0,0.0,0.0,10.0,0.0,0.0,0.0,10.0
1446036930578384753,407,1446036930569669961,robocape_mag,16.05,9.0,-1.5,10.0,0.0,0.0,0.0,10.0,0.0,0.0,0.0,10.0
1446036930609091086,408,1446036930603828907,robocape_mag,16.05,9.0,-1.5,10.0,0.0,0.0,0.0,10.0,0.0,0.0,0.0,10.0
1446036930641293836,409,1446036930635526895,robocape_mag,16.05,9.0,-1.5,10.0,0.0,0.0,0.0,10.0,0.0,0.0,0.0,10.0
1446036930674599336,410,1446036930668967962,robocape_mag,16.05,9.0,-1.5,10.0,0.0,0.0,0.0,10.0,0.0,0.0,0.0,10.0
1446036930707096961,411,1446036930702145099,robocape_mag,1.65,9.0,-2.7,10.0,0.0,0.0,0.0,10.0,0.0,0.0,0.0,10.0
1446036930743199253,412,1446036930736541986,robocape_mag,1.65,9.0,-2.7,10.0,0.0,0.0,0.0,10.0,0.0,0.0,0.0,10.0
1446036930775695836,413,1446036930769638061,robocape_mag,1.65,9.0,-2.7,10.0,0.0,0.0,0.0,10.0,0.0,0.0,0.0,10.0
1446036930804658586,414,1446036930798949956,robocape_mag,1.65,9.0,-2.7,10.0,0.0,0.0,0.0,10.0,0.0,0.0,0.0,10.0
1446036930837100461,415,1446036930832123994,robocape_mag,1.65,9.0,-2.7,10.0,0.0,0.0,0.0,10.0,0.0,0.0,0.0,10.0
1446036930874217003,416,1446036930868870973,robocape_mag,10.35,8.1,-0.6,10.0,0.0,0.0,0.0,10.0,0.0,0.0,0.0,10.0
1446036930907312128,417,1446036930902158021,robocape_mag,10.35,8.1,-0.6,10.0,0.0,0.0,0.0,10.0,0.0,0.0,0.0,10.0
1446036930936869378,418,1446036930931971073,robocape_mag,10.35,8.1,-0.6,10.0,0.0,0.0,0.0,10.0,0.0,0.0,0.0,10.0
1446036930972861920,419,1446036930965413093,robocape_mag,10.35,8.1,-0.6,10.0,0.0,0.0,0.0,10.0,0.0,0.0,0.0,10.0
1446036931004847920,420,1446036930999443054,robocape_mag,10.35,8.1,-0.6,10.0,0.0,0.0,0.0,10.0,0.0,0.0,0.0,10.0
1446036931037355961,421,1446036931032210111,robocape_mag,5.85,7.2,-8.1,10.0,0.0,0.0,0.0,10.0,0.0,0.0,0.0,10.0
1446036931073450461,422,1446036931068398952,robocape_mag,5.85,7.2,-8.1,10.0,0.0,0.0,0.0,10.0,0.0,0.0,0.0,10.0
1446036931107047295,423,1446036931102128982,robocape_mag,5.85,7.2,-8.1,10.0,0.0,0.0,0.0,10.0,0.0,0.0,0.0,10.0
1446036931142395420,424,1446036931134191036,robocape_mag,5.85,7.2,-8.1,10.0,0.0,0.0,0.0,10.0,0.0,0.0,0.0,10.0
1446036931172070128,425,1446036931167167901,robocape_mag,5.85,7.2,-8.1,10.0,0.0,0.0,0.0,10.0,0.0,0.0,0.0,10.0
1446036931205196128,426,1446036931200193881,robocape_mag,23.25,13.8,-6.9,10.0,0.0,0.0,0.0,10.0,0.0,0.0,0.0,10.0
1446036931238191087,427,1446036931232816934,robocape_mag,23.25,13.8,-6.9,10.0,0.0,0.0,0.0,10.0,0.0,0.0,0.0,10.0
1446036931271347962,428,1446036931266493082,robocape_mag,23.25,13.8,-6.9,10.0,0.0,0.0,0.0,10.0,0.0,0.0,0.0,10.0
1446036931306011628,429,1446036931299901008,robocape_mag,23.25,13.8,-6.9,10.0,0.0,0.0,0.0,10.0,0.0,0.0,0.0,10.0
1446036931337247128,430,1446036931332421064,robocape_mag,23.25,15.6,-0.3,10.0,0.0,0.0,0.0,10.0,0.0,0.0,0.0,10.0
1446036931374713795,431,1446036931365731000,robocape_mag,5.25,15.6,-0.3,10.0,0.0,0.0,0.0,10.0,0.0,0.0,0.0,10.0
1446036931406370128,432,1446036931400274991,robocape_mag,5.25,15.6,-0.3,10.0,0.0,0.0,0.0,10.0,0.0,0.0,0.0,10.0
1446036931437262087,433,1446036931432492017,robocape_mag,5.25,15.6,-0.3,10.0,0.0,0.0,0.0,10.0,0.0,0.0,0.0,10.0
1446036931470426837,434,1446036931465540885,robocape_mag,5.25,15.6,-0.3,10.0,0.0,0.0,0.0,10.0,0.0,0.0,0.0,10.0
1446036931503733545,435,1446036931498958110,robocape_mag,4.95,11.1,-4.8,10.0,0.0,0.0,0.0,10.0,0.0,0.0,0.0,10.0
1446036931537077920,436,1446036931532322883,robocape_mag,4.95,11.1,-4.8,10.0,0.0,0.0,0.0,10.0,0.0,0.0,0.0,10.0
1446036931570621962,437,1446036931565558910,robocape_mag,4.95,11.1,-4.8,10.0,0.0,0.0,0.0,10.0,0.0,0.0,0.0,10.0
1446036931603904087,438,1446036931599008083,robocape_mag,4.95,11.1,-4.8,10.0,0.0,0.0,0.0,10.0,0.0,0.0,0.0,10.0
1446036931637025545,439,1446036931632249116,robocape_mag,4.95,11.1,-4.8,10.0,0.0,0.0,0.0,10.0,0.0,0.0,0.0,10.0
1446036931671127212,440,1446036931665913105,robocape_mag,6.15,12.9,-2.4,10.0,0.0,0.0,0.0,10.0,0.0,0.0,0.0,10.0
1446036931704129462,441,1446036931699228048,robocape_mag,6.15,12.9,-2.4,10.0,0.0,0.0,0.0,10.0,0.0,0.0,0.0,10.0
1446036931737537503,442,1446036931732299089,robocape_mag,6.15,12.9,-2.4,10.0,0.0,0.0,0.0,10.0,0.0,0.0,0.0,10.0
1446036931770502170,443,1446036931765667915,robocape_mag,6.15,12.9,-2.4,10.0,0.0,0.0,0.0,10.0,0.0,0.0,0.0,10.0
1446036931804671170,444,1446036931799097061,robocape_mag,6.15,12.9,-2.4,10.0,0.0,0.0,0.0,10.0,0.0,0.0,0.0,10.0
1446036931837557212,445,1446036931832685947,robocape_mag,-1.35,9.0,-0.3,10.0,0.0,0.0,0.0,10.0,0.0,0.0,0.0,10.0
1446036931871231087,446,1446036931865569114,robocape_mag,-1.35,9.0,-0.3,10.0,0.0,0.0,0.0,10.0,0.0,0.0,0.0,10.0
1446036931903670212,447,1446036931898859024,robocape_mag,-1.35,9.0,-0.3,10.0,0.0,0.0,0.0,10.0,0.0,0.0,0.0,10.0
1446036931939963545,448,1446036931933485984,robocape_mag,-1.35,9.0,-0.3,10.0,0.0,0.0,0.0,10.0,0.0,0.0,0.0,10.0
1446036931970430587,449,1446036931965492963,robocape_mag,-1.35,9.0,-0.3,10.0,0.0,0.0,0.0,10.0,0.0,0.0,0.0,10.0
1446036932005803962,450,1446036931999105930,robocape_mag,12.75,9.3,-8.4,10.0,0.0,0.0,0.0,10.0,0.0,0.0,0.0,10.0
1446036932038871712,451,1446036932032186985,robocape_mag,12.75,9.3,-8.4,10.0,0.0,0.0,0.0,10.0,0.0,0.0,0.0,10.0
1446036932072642712,452,1446036932067552089,robocape_mag,12.75,9.3,-8.4,10.0,0.0,0.0,0.0,10.0,0.0,0.0,0.0,10.0
1446036932103739379,453,1446036932098808050,robocape_mag,12.75,9.3,-8.4,10.0,0.0,0.0,0.0,10.0,0.0,0.0,0.0,10.0
1446036932137172962,454,1446036932132122039,robocape_mag,12.75,9.3,-5.7,10.0,0.0,0.0,0.0,10.0,0.0,0.0,0.0,10.0
1446036932171079129,455,1446036932165925025,robocape_mag,8.85,3.0,-5.7,10.0,0.0,0.0,0.0,10.0,0.0,0.0,0.0,10.0
1446036932204209212,456,1446036932199055910,robocape_mag,8.85,3.0,-5.7,10.0,0.0,0.0,0.0,10.0,0.0,0.0,0.0,10.0
1446036932237226045,457,1446036932232207059,robocape_mag,8.85,3.0,-5.7,10.0,0.0,0.0,0.0,10.0,0.0,0.0,0.0,10.0
1446036932270525962,458,1446036932265500068,robocape_mag,8.85,3.0,-5.7,10.0,0.0,0.0,0.0,10.0,0.0,0.0,0.0,10.0
1446036932303719587,459,1446036932298770904,robocape_mag,27.15,6.3,-4.8,10.0,0.0,0.0,0.0,10.0,0.0,0.0,0.0,10.0
1446036932337159545,460,1446036932332324028,robocape_mag,27.15,6.3,-4.8,10.0,0.0,0.0,0.0,10.0,0.0,0.0,0.0,10.0
1446036932377352712,461,1446036932365678071,robocape_mag,27.15,6.3,-4.8,10.0,0.0,0.0,0.0,10.0,0.0,0.0,0.0,10.0
1446036932405817212,462,1446036932400957107,robocape_mag,27.15,6.3,-4.8,10.0,0.0,0.0,0.0,10.0,0.0,0.0,0.0,10.0
1446036932438974545,463,1446036932433770895,robocape_mag,27.15,6.3,-4.8,10.0,0.0,0.0,0.0,10.0,0.0,0.0,0.0,10.0
1446036932471450837,464,1446036932466717958,robocape_mag,14.85,7.2,-9.9,10.0,0.0,0.0,0.0,10.0,0.0,0.0,0.0,10.0
1446036932504511212,465,1446036932499263048,robocape_mag,14.85,7.2,-9.9,10.0,0.0,0.0,0.0,10.0,0.0,0.0,0.0,10.0
1446036932538666504,466,1446036932533798933,robocape_mag,14.85,7.2,-9.9,10.0,0.0,0.0,0.0,10.0,0.0,0.0,0.0,10.0
1446036932572362046,467,1446036932565941095,robocape_mag,14.85,7.2,-9.9,10.0,0.0,0.0,0.0,10.0,0.0,0.0,0.0,10.0
1446036932603614962,468,1446036932598836898,robocape_mag,14.85,7.2,-9.9,10.0,0.0,0.0,0.0,10.0,0.0,0.0,0.0,10.0
1446036932637422879,469,1446036932632669925,robocape_mag,26.25,5.4,-5.1,10.0,0.0,0.0,0.0,10.0,0.0,0.0,0.0,10.0
1446036932670476171,470,1446036932665494918,robocape_mag,26.25,5.4,-5.1,10.0,0.0,0.0,0.0,10.0,0.0,0.0,0.0,10.0
1446036932704349629,471,1446036932699096918,robocape_mag,26.25,5.4,-5.1,10.0,0.0,0.0,0.0,10.0,0.0,0.0,0.0,10.0
1446036932738194837,472,1446036932733381986,robocape_mag,26.25,5.4,-5.1,10.0,0.0,0.0,0.0,10.0,0.0,0.0,0.0,10.0
1446036932780157129,473,1446036932775070905,robocape_mag,17.25,8.4,-17.1,10.0,0.0,0.0,0.0,10.0,0.0,0.0,0.0,10.0
1446036932804941087,474,1446036932800149917,robocape_mag,17.25,8.4,-17.1,10.0,0.0,0.0,0.0,10.0,0.0,0.0,0.0,10.0
1446036932843203629,475,1446036932838100910,robocape_mag,17.25,8.4,-17.1,10.0,0.0,0.0,0.0,10.0,0.0,0.0,0.0,10.0
1446036932875503421,476,1446036932868467092,robocape_mag,17.25,8.4,-17.1,10.0,0.0,0.0,0.0,10.0,0.0,0.0,0.0,10.0
1446036932907629046,477,1446036932902846097,robocape_mag,17.25,8.4,-17.1,10.0,0.0,0.0,0.0,10.0,0.0,0.0,0.0,10.0
1446036932937112421,478,1446036932932096958,robocape_mag,17.25,8.4,-2.4,10.0,0.0,0.0,0.0,10.0,0.0,0.0,0.0,10.0
1446036932970958504,479,1446036932965677022,robocape_mag,9.75,9.3,-2.4,10.0,0.0,0.0,0.0,10.0,0.0,0.0,0.0,10.0
1446036933004046421,480,1446036932999284982,robocape_mag,9.75,9.3,-2.4,10.0,0.0,0.0,0.0,10.0,0.0,0.0,0.0,10.0
1446036933036873921,481,1446036933032128095,robocape_mag,9.75,9.3,-2.4,10.0,0.0,0.0,0.0,10.0,0.0,0.0,0.0,10.0
1446036933070264254,482,1446036933065402984,robocape_mag,9.75,9.3,-2.4,10.0,0.0,0.0,0.0,10.0,0.0,0.0,0.0,10.0
1446036933103598671,483,1446036933098865985,robocape_mag,29.85,11.4,-13.5,10.0,0.0,0.0,0.0,10.0,0.0,0.0,0.0,10.0
1446036933140193754,484,1446036933135349988,robocape_mag,29.85,11.4,-13.5,10.0,0.0,0.0,0.0,10.0,0.0,0.0,0.0,10.0
1446036933170184754,485,1446036933165416955,robocape_mag,29.85,11.4,-13.5,10.0,0.0,0.0,0.0,10.0,0.0,0.0,0.0,10.0
1446036933203884671,486,1446036933199071884,robocape_mag,29.85,11.4,-13.5,10.0,0.0,0.0,0.0,10.0,0.0,0.0,0.0,10.0
1446036933237381338,487,1446036933232434988,robocape_mag,29.85,11.4,-13.5,10.0,0.0,0.0,0.0,10.0,0.0,0.0,0.0,10.0
1446036933270544088,488,1446036933265506029,robocape_mag,28.65,12.0,-23.1,10.0,0.0,0.0,0.0,10.0,0.0,0.0,0.0,10.0
1446036933303951796,489,1446036933298882007,robocape_mag,28.65,12.0,-23.1,10.0,0.0,0.0,0.0,10.0,0.0,0.0,0.0,10.0
1446036933336991213,490,1446036933332143068,robocape_mag,28.65,12.0,-23.1,10.0,0.0,0.0,0.0,10.0,0.0,0.0,0.0,10.0
1446036933374857546,491,1446036933365575075,robocape_mag,28.65,12.0,-23.1,10.0,0.0,0.0,0.0,10.0,0.0,0.0,0.0,10.0
1446036933403889754,492,1446036933398864984,robocape_mag,28.65,12.0,-23.1,10.0,0.0,0.0,0.0,10.0,0.0,0.0,0.0,10.0
1446036933438942671,493,1446036933434073925,robocape_mag,18.15,15.9,-3.0,10.0,0.0,0.0,0.0,10.0,0.0,0.0,0.0,10.0
1446036933470712713,494,1446036933465946912,robocape_mag,18.15,15.9,-3.0,10.0,0.0,0.0,0.0,10.0,0.0,0.0,0.0,10.0
1446036933503749713,495,1446036933499001979,robocape_mag,18.15,15.9,-3.0,10.0,0.0,0.0,0.0,10.0,0.0,0.0,0.0,10.0
1446036933538233046,496,1446036933533375978,robocape_mag,18.15,15.9,-3.0,10.0,0.0,0.0,0.0,10.0,0.0,0.0,0.0,10.0
1446036933571612754,497,1446036933566771984,robocape_mag,18.15,15.9,-3.0,10.0,0.0,0.0,0.0,10.0,0.0,0.0,0.0,10.0
1446036933603820588,498,1446036933599050045,robocape_mag,16.65,8.4,-6.3,10.0,0.0,0.0,0.0,10.0,0.0,0.0,0.0,10.0
1446036933637007629,499,1446036933632178068,robocape_mag,16.65,8.4,-6.3,10.0,0.0,0.0,0.0,10.0,0.0,0.0,0.0,10.0
1446036933671574088,500,1446036933666316032,robocape_mag,16.65,8.4,-6.3,10.0,0.0,0.0,0.0,10.0,0.0,0.0,0.0,10.0
1446036933704899963,501,1446036933699357032,robocape_mag,16.65,8.4,-6.3,10.0,0.0,0.0,0.0,10.0,0.0,0.0,0.0,10.0
1446036933736987421,502,1446036933732271909,robocape_mag,16.65,8.4,-17.4,10.0,0.0,0.0,0.0,10.0,0.0,0.0,0.0,10.0
1446036933772418004,503,1446036933765858888,robocape_mag,35.55,14.1,-17.4,10.0,0.0,0.0,0.0,10.0,0.0,0.0,0.0,10.0
1446036933803898421,504,1446036933799046039,robocape_mag,35.55,14.1,-17.4,10.0,0.0,0.0,0.0,10.0,0.0,0.0,0.0,10.0
1446036933836938421,505,1446036933832055091,robocape_mag,35.55,14.1,-17.4,10.0,0.0,0.0,0.0,10.0,0.0,0.0,0.0,10.0
1446036933873456046,506,1446036933865576982,robocape_mag,35.55,14.1,-17.4,10.0,0.0,0.0,0.0,10.0,0.0,0.0,0.0,10.0
1446036933903872921,507,1446036933898987054,robocape_mag,20.25,17.4,-6.3,10.0,0.0,0.0,0.0,10.0,0.0,0.0,0.0,10.0
1446036933937288505,508,1446036933932482957,robocape_mag,20.25,17.4,-6.3,10.0,0.0,0.0,0.0,10.0,0.0,0.0,0.0,10.0
1446036933971029255,509,1446036933966233968,robocape_mag,20.25,17.4,-6.3,10.0,0.0,0.0,0.0,10.0,0.0,0.0,0.0,10.0
1446036934004185921,510,1446036933999315023,robocape_mag,20.25,17.4,-6.3,10.0,0.0,0.0,0.0,10.0,0.0,0.0,0.0,10.0
1446036934041743421,511,1446036934035934925,robocape_mag,20.25,17.4,-6.3,10.0,0.0,0.0,0.0,10.0,0.0,0.0,0.0,10.0
1446036934078174296,512,1446036934069660902,robocape_mag,10.05,16.8,-6.3,10.0,0.0,0.0,0.0,10.0,0.0,0.0,0.0,10.0
1446036934107909255,513,1446036934102891921,robocape_mag,10.05,16.8,-6.3,10.0,0.0,0.0,0.0,10.0,0.0,0.0,0.0,10.0
1446036934136785088,514,1446036934132044076,robocape_mag,10.05,16.8,-6.3,10.0,0.0,0.0,0.0,10.0,0.0,0.0,0.0,10.0
1446036934170860130,515,1446036934165783882,robocape_mag,10.05,16.8,-6.3,10.0,0.0,0.0,0.0,10.0,0.0,0.0,0.0,10.0
1446036934203837255,516,1446036934198915958,robocape_mag,10.05,16.8,-6.3,10.0,0.0,0.0,0.0,10.0,0.0,0.0,0.0,10.0
1446036934240457880,517,1446036934235585927,robocape_mag,-7.95,16.2,-2.7,10.0,0.0,0.0,0.0,10.0,0.0,0.0,0.0,10.0
1446036934270425755,518,1446036934265539884,robocape_mag,-7.95,16.2,-2.7,10.0,0.0,0.0,0.0,10.0,0.0,0.0,0.0,10.0
1446036934303966921,519,1446036934298867940,robocape_mag,-7.95,16.2,-2.7,10.0,0.0,0.0,0.0,10.0,0.0,0.0,0.0,10.0
1446036934337027755,520,1446036934332093000,robocape_mag,-7.95,16.2,-2.7,10.0,0.0,0.0,0.0,10.0,0.0,0.0,0.0,10.0
1446036934378302921,521,1446036934365883111,robocape_mag,-7.95,16.2,-2.7,10.0,0.0,0.0,0.0,10.0,0.0,0.0,0.0,10.0
1446036934404630213,522,1446036934399437904,robocape_mag,-9.45,14.7,-3.0,10.0,0.0,0.0,0.0,10.0,0.0,0.0,0.0,10.0
1446036934439301421,523,1446036934434282064,robocape_mag,-9.45,14.7,-3.0,10.0,0.0,0.0,0.0,10.0,0.0,0.0,0.0,10.0
1446036934473037963,524,1446036934468099117,robocape_mag,-9.45,14.7,-3.0,10.0,0.0,0.0,0.0,10.0,0.0,0.0,0.0,10.0
1446036934506749463,525,1446036934501889944,robocape_mag,-9.45,14.7,-3.0,10.0,0.0,0.0,0.0,10.0,0.0,0.0,0.0,10.0
1446036934537207880,526,1446036934532108068,robocape_mag,-9.45,14.7,-0.3,10.0,0.0,0.0,0.0,10.0,0.0,0.0,0.0,10.0
1446036934570678505,527,1446036934565567016,robocape_mag,-9.75,15.6,-0.3,10.0,0.0,0.0,0.0,10.0,0.0,0.0,0.0,10.0
1446036934604010463,528,1446036934598993062,robocape_mag,-9.75,15.6,-0.3,10.0,0.0,0.0,0.0,10.0,0.0,0.0,0.0,10.0
1446036934638592130,529,1446036934633744001,robocape_mag,-9.75,15.6,-0.3,10.0,0.0,0.0,0.0,10.0,0.0,0.0,0.0,10.0
1446036934671689505,530,1446036934666760921,robocape_mag,-9.75,15.6,-0.3,10.0,0.0,0.0,0.0,10.0,0.0,0.0,0.0,10.0
1446036934705652755,531,1446036934700573921,robocape_mag,-14.85,12.9,-10.2,10.0,0.0,0.0,0.0,10.0,0.0,0.0,0.0,10.0
1446036934738161880,532,1446036934733309984,robocape_mag,-14.85,12.9,-10.2,10.0,0.0,0.0,0.0,10.0,0.0,0.0,0.0,10.0
1446036934770646755,533,1446036934765775918,robocape_mag,-14.85,12.9,-10.2,10.0,0.0,0.0,0.0,10.0,0.0,0.0,0.0,10.0
1446036934808098797,534,1446036934798927068,robocape_mag,-14.85,12.9,-10.2,10.0,0.0,0.0,0.0,10.0,0.0,0.0,0.0,10.0
1446036934836973713,535,1446036934832153081,robocape_mag,-14.85,12.9,-10.2,10.0,0.0,0.0,0.0,10.0,0.0,0.0,0.0,10.0
1446036934870793047,536,1446036934865911006,robocape_mag,-8.25,12.9,-4.8,10.0,0.0,0.0,0.0,10.0,0.0,0.0,0.0,10.0
1446036934907587547,537,1446036934899019956,robocape_mag,-8.25,12.9,-4.8,10.0,0.0,0.0,0.0,10.0,0.0,0.0,0.0,10.0
