%time,field.header.seq,field.header.stamp,field.header.frame_id,field.orientation.x,field.orientation.y,field.orientation.z,field.orientation.w,field.orientation_covariance0,field.orientation_covariance1,field.orientation_covariance2,field.orientation_covariance3,field.orientation_covariance4,field.orientation_covariance5,field.orientation_covariance6,field.orientation_covariance7,field.orientation_covariance8,field.angular_velocity.x,field.angular_velocity.y,field.angular_velocity.z,field.angular_velocity_covariance0,field.angular_velocity_covariance1,field.angular_velocity_covariance2,field.angular_velocity_covariance3,field.angular_velocity_covariance4,field.angular_velocity_covariance5,field.angular_velocity_covariance6,field.angular_velocity_covariance7,field.angular_velocity_covariance8,field.linear_acceleration.x,field.linear_acceleration.y,field.linear_acceleration.z,field.linear_acceleration_covariance0,field.linear_acceleration_covariance1,field.linear_acceleration_covariance2,field.linear_acceleration_covariance3,field.linear_acceleration_covariance4,field.linear_acceleration_covariance5,field.linear_acceleration_covariance6,field.linear_acceleration_covariance7,field.linear_acceleration_covariance8
1446036124632859407,1,1446036124620064020,robocape,3.85042513924,7.15155778905,-17.9838545258,0.0,10.0,0.0,0.0,0.0,10.0,0.0,0.0,0.0,10.0,0.15020228548,0.0237021337017,0.00545948023466,1.0,0.0,0.0,0.0,1.0,0.0,0.0,0.0,1.0,-0.130528564453,-0.228724365234,10.0938098145,0.1,0.0,0.0,0.0,0.1,0.0,0.0,0.0,0.1
1446036124651219907,2,1446036124647303104,robocape,4.06036350728,7.17643601952,-17.9412302836,0.0,10.0,0.0,0.0,0.0,10.0,0.0,0.0,0.0,10.0,0.112385398001,0.0211721306661,0.00266316109008,1.0,0.0,0.0,0.0,1.0,0.0,0.0,0.0,1.0,-0.176033935547,-0.0359252929688,10.1441052246,0.1,0.0,0.0,0.0,0.1,0.0,0.0,0.0,0.1
1446036124684469573,3,1446036124680325031,robocape,4.18385937886,7.19327514713,-17.8942655344,0.0,10.0,0.0,0.0,0.0,10.0,0.0,0.0,0.0,10.0,0.066845343361,0.0170442309765,0.00559263828917,1.0,0.0,0.0,0.0,1.0,0.0,0.0,0.0,1.0,-0.113763427734,0.0802331542969,10.1405126953,0.1,0.0,0.0,0.0,0.1,0.0,0.0,0.0,0.1
1446036124722277532,4,1446036124714015960,robocape,4.12531346106,7.20850480713,-17.8508030985,0.0,10.0,0.0,0.0,0.0,10.0,0.0,0.0,0.0,10.0,-0.0284958236638,0.015845808486,0.00452737385313,1.0,0.0,0.0,0.0,1.0,0.0,0.0,0.0,1.0,-0.156873779297,0.0419128417969,10.1309326172,0.1,0.0,0.0,0.0,0.1,0.0,0.0,0.0,0.1
1446036124758324698,5,1446036124754895925,robocape,3.97836435323,7.22000612962,-17.833193411,0.0,10.0,0.0,0.0,0.0,10.0,0.0,0.0,0.0,10.0,-0.0732369299772,0.0129163312869,-0.00865527354276,1.0,0.0,0.0,0.0,1.0,0.0,0.0,0.0,1.0,-0.165256347656,-0.110170898438,10.1069824219,0.1,0.0,0.0,0.0,0.1,0.0,0.0,0.0,0.1
1446036124784171448,6,1446036124780993938,robocape,3.77417652089,7.22524409043,-17.7793083398,0.0,10.0,0.0,0.0,0.0,10.0,0.0,0.0,0.0,10.0,-0.105993811385,0.0106526443603,0.0111852765783,1.0,0.0,0.0,0.0,1.0,0.0,0.0,0.0,1.0,-0.104183349609,-0.47900390625,10.1129699707,0.1,0.0,0.0,0.0,0.1,0.0,0.0,0.0,0.1
1446036124817031115,7,1446036124814012050,robocape,3.6127978105,7.23218491443,-17.7379399302,0.0,10.0,0.0,0.0,0.0,10.0,0.0,0.0,0.0,10.0,-0.0828243099015,0.0111852765783,0.00439421579863,1.0,0.0,0.0,0.0,1.0,0.0,0.0,0.0,1.0,-0.108973388672,-0.797541503906,10.1165625,0.1,0.0,0.0,0.0,0.1,0.0,0.0,0.0,0.1
1446036124852914740,8,1446036124849613904,robocape,3.55363844572,7.24719530752,-17.6999723514,0.0,10.0,0.0,0.0,0.0,10.0,0.0,0.0,0.0,10.0,-0.0290284558819,0.0154463343225,0.00199737081756,1.0,0.0,0.0,0.0,1.0,0.0,0.0,0.0,1.0,-0.09580078125,-0.960402832031,10.1033898926,0.1,0.0,0.0,0.0,0.1,0.0,0.0,0.0,0.1
1446036124886129365,9,1446036124882370948,robocape,3.56784741927,7.26661884941,-17.6580842964,0.0,10.0,0.0,0.0,0.0,10.0,0.0,0.0,0.0,10.0,0.00918790576077,0.017976337358,0.00372842552611,1.0,0.0,0.0,0.0,1.0,0.0,0.0,0.0,1.0,-0.0850231933594,-0.912502441406,10.1261425781,0.1,0.0,0.0,0.0,0.1,0.0,0.0,0.0,0.1
1446036124919170407,10,1446036124914638996,robocape,3.718578006,7.28909403902,-17.6146685475,0.0,10.0,0.0,0.0,0.0,10.0,0.0,0.0,0.0,10.0,0.0808269390839,0.0198405501211,0.00399474163512,1.0,0.0,0.0,0.0,1.0,0.0,0.0,0.0,1.0,-0.101788330078,-0.644260253906,10.1069824219,0.1,0.0,0.0,0.0,0.1,0.0,0.0,0.0,0.1
1446036124953307199,11,1446036124949541091,robocape,3.86715506831,7.31098656631,-17.5720182509,0.0,10.0,0.0,0.0,0.0,10.0,0.0,0.0,0.0,10.0,0.0798948327024,0.0195742340121,0.00359526747161,1.0,0.0,0.0,0.0,1.0,0.0,0.0,0.0,1.0,-0.122145996094,-0.300574951172,10.1117724609,0.1,0.0,0.0,0.0,0.1,0.0,0.0,0.0,0.1
1446036124984917365,12,1446036124981662034,robocape,3.95316240609,7.33039717416,-17.5292026235,0.0,10.0,0.0,0.0,0.0,10.0,0.0,0.0,0.0,10.0,0.0471379512944,0.018242653467,0.00399474163512,1.0,0.0,0.0,0.0,1.0,0.0,0.0,0.0,1.0,-0.136516113281,-0.132923583984,10.1153649902,0.1,0.0,0.0,0.0,0.1,0.0,0.0,0.0,0.1
1446036125020671449,13,1446036125015837907,robocape,3.95247633458,7.34556213532,-17.4800996728,0.0,10.0,0.0,0.0,0.0,10.0,0.0,0.0,0.0,10.0,0.00119842249054,0.016112124595,0.00785632521573,1.0,0.0,0.0,0.0,1.0,0.0,0.0,0.0,1.0,-0.136516113281,-0.126936035156,10.136920166,0.1,0.0,0.0,0.0,0.1,0.0,0.0,0.0,0.1
1446036125050857324,14,1446036125047738075,robocape,3.87417331121,7.35556803816,-17.4300572819,0.0,10.0,0.0,0.0,0.0,10.0,0.0,0.0,0.0,10.0,-0.0396811002422,0.0133158054504,0.00892158965177,1.0,0.0,0.0,0.0,1.0,0.0,0.0,0.0,1.0,-0.129331054688,-0.253872070313,10.1165625,0.1,0.0,0.0,0.0,0.1,0.0,0.0,0.0,0.1
1446036125085706615,15,1446036125082288980,robocape,3.76540925911,7.36554560875,-17.3816357121,0.0,10.0,0.0,0.0,0.0,10.0,0.0,0.0,0.0,10.0,-0.0556600667827,0.0131826473959,0.00825579937925,1.0,0.0,0.0,0.0,1.0,0.0,0.0,0.0,1.0,-0.113763427734,-0.499361572266,10.0985998535,0.1,0.0,0.0,0.0,0.1,0.0,0.0,0.0,0.1
1446036125121094407,16,1446036125117341995,robocape,3.69228132432,7.37787844951,-17.3354693456,0.0,10.0,0.0,0.0,0.0,10.0,0.0,0.0,0.0,10.0,-0.0368847810976,0.0143810698864,0.00692421883421,1.0,0.0,0.0,0.0,1.0,0.0,0.0,0.0,1.0,-0.104183349609,-0.694555664063,10.1057849121,0.1,0.0,0.0,0.0,0.1,0.0,0.0,0.0,0.1
1446036125153292740,17,1446036125149873971,robocape,3.6891324037,7.39398158014,-17.2919702147,0.0,10.0,0.0,0.0,0.0,10.0,0.0,0.0,0.0,10.0,0.0,0.016378440704,0.00519316412565,1.0,0.0,0.0,0.0,1.0,0.0,0.0,0.0,1.0,-0.105380859375,-0.780776367188,10.1105749512,0.1,0.0,0.0,0.0,0.1,0.0,0.0,0.0,0.1
1446036125186142365,18,1446036125182205915,robocape,3.75337300648,7.41216518506,-17.2487316422,0.0,10.0,0.0,0.0,0.0,10.0,0.0,0.0,0.0,10.0,0.0354200424981,0.0175768631945,0.00479368996214,1.0,0.0,0.0,0.0,1.0,0.0,0.0,0.0,1.0,-0.102985839844,-0.669407958984,10.1453027344,0.1,0.0,0.0,0.0,0.1,0.0,0.0,0.0,0.1
1446036125219492074,19,1446036125216232061,robocape,3.85238750798,7.43325893186,-17.2060951252,0.0,10.0,0.0,0.0,0.0,10.0,0.0,0.0,0.0,10.0,0.0537958540196,0.0191747598486,0.00426105774413,1.0,0.0,0.0,0.0,1.0,0.0,0.0,0.0,1.0,-0.106578369141,-0.496966552734,10.1201550293,0.1,0.0,0.0,0.0,0.1,0.0,0.0,0.0,0.1
1446036125253156490,20,1446036125249804019,robocape,3.93023823727,7.45304546393,-17.1632145096,0.0,10.0,0.0,0.0,0.0,10.0,0.0,0.0,0.0,10.0,0.0427437354958,0.0185089695761,0.00452737385313,1.0,0.0,0.0,0.0,1.0,0.0,0.0,0.0,1.0,-0.122145996094,-0.336500244141,10.1057849121,0.1,0.0,0.0,0.0,0.1,0.0,0.0,0.0,0.1
1446036125286068824,21,1446036125282710075,robocape,3.95614869444,7.4695702358,-17.1194780322,0.0,10.0,0.0,0.0,0.0,10.0,0.0,0.0,0.0,10.0,0.0154463343225,0.0167779148675,0.00532632218016,1.0,0.0,0.0,0.0,1.0,0.0,0.0,0.0,1.0,-0.124541015625,-0.239501953125,10.1285375977,0.1,0.0,0.0,0.0,0.1,0.0,0.0,0.0,0.1
1446036125319955657,22,1446036125316809892,robocape,3.92455304098,7.4830720187,-17.0737004013,0.0,10.0,0.0,0.0,0.0,10.0,0.0,0.0,0.0,10.0,-0.0149137021044,0.0151800182135,0.0067910607797,1.0,0.0,0.0,0.0,1.0,0.0,0.0,0.0,1.0,-0.108973388672,-0.293389892578,10.1045874023,0.1,0.0,0.0,0.0,0.1,0.0,0.0,0.0,0.1
1446036125352357949,23,1446036125349047899,robocape,3.79177433892,7.48966138276,-16.9550371091,0.0,10.0,0.0,0.0,0.0,10.0,0.0,0.0,0.0,10.0,-0.0733700880317,0.0135821215594,0.0462058449129,1.0,0.0,0.0,0.0,1.0,0.0,0.0,0.0,1.0,-0.137713623047,-0.1916015625,10.1488952637,0.1,0.0,0.0,0.0,0.1,0.0,0.0,0.0,0.1
1446036125384691907,24,1446036125381139993,robocape,3.65390977215,7.49356176725,-16.7734550224,0.0,10.0,0.0,0.0,0.0,10.0,0.0,0.0,0.0,10.0,-0.0806937810294,0.0138484376684,0.0798948327024,1.0,0.0,0.0,0.0,1.0,0.0,0.0,0.0,1.0,-0.067060546875,-1.00231567383,10.0878222656,0.1,0.0,0.0,0.0,0.1,0.0,0.0,0.0,0.1
1446036125419017032,25,1446036125415425062,robocape,3.71151414882,7.50649476491,-16.5971948318,0.0,10.0,0.0,0.0,0.0,10.0,0.0,0.0,0.0,10.0,0.0222373951022,0.0186421276306,0.0762995652308,1.0,0.0,0.0,0.0,1.0,0.0,0.0,0.0,1.0,-0.0658630371094,-1.09212890625,10.0950073242,0.1,0.0,0.0,0.0,0.1,0.0,0.0,0.0,0.1
1446036125450711199,26,1446036125447495937,robocape,3.91902755749,7.52450483873,-16.4123948376,0.0,10.0,0.0,0.0,0.0,10.0,0.0,0.0,0.0,10.0,0.100401173096,0.0219710789932,0.0802943068659,1.0,0.0,0.0,0.0,1.0,0.0,0.0,0.0,1.0,-0.067060546875,-1.1148815918,10.0770446777,0.1,0.0,0.0,0.0,0.1,0.0,0.0,0.0,0.1
1446036125483963990,27,1446036125480866909,robocape,4.28841416826,7.54932564652,-16.2937529301,0.0,10.0,0.0,0.0,0.0,10.0,0.0,0.0,0.0,10.0,0.190416017941,0.0241016078652,0.0444747902043,1.0,0.0,0.0,0.0,1.0,0.0,0.0,0.0,1.0,-0.105380859375,-0.853824462891,10.0866247559,0.1,0.0,0.0,0.0,0.1,0.0,0.0,0.0,0.1
1446036125518311866,28,1446036125515126943,robocape,4.68944802769,7.56742252068,-16.2343388724,0.0,10.0,0.0,0.0,0.0,10.0,0.0,0.0,0.0,10.0,0.211721306661,0.0189084437396,0.0131826473959,1.0,0.0,0.0,0.0,1.0,0.0,0.0,0.0,1.0,-0.195194091797,-0.00598754882813,10.1991906738,0.1,0.0,0.0,0.0,0.1,0.0,0.0,0.0,0.1
1446036125554389532,29,1446036125551219940,robocape,5.01592558687,7.58956138927,-16.2751194711,0.0,10.0,0.0,0.0,0.0,10.0,0.0,0.0,0.0,10.0,0.180296005798,0.017177389031,-0.0399474163512,1.0,0.0,0.0,0.0,1.0,0.0,0.0,0.0,1.0,-0.112565917969,-0.0155676269531,10.1021923828,0.1,0.0,0.0,0.0,0.1,0.0,0.0,0.0,0.1
1446036125584800741,30,1446036125581787109,robocape,5.31124716303,7.62355110537,-16.4473120423,0.0,10.0,0.0,0.0,0.0,10.0,0.0,0.0,0.0,10.0,0.174037577237,0.017710021249,-0.110254869129,1.0,0.0,0.0,0.0,1.0,0.0,0.0,0.0,1.0,-0.135318603516,0.135318603516,10.0818347168,0.1,0.0,0.0,0.0,0.1,0.0,0.0,0.0,0.1
1446036125617379699,31,1446036125614095926,robocape,5.47661508351,7.65508793179,-16.578442195,0.0,10.0,0.0,0.0,0.0,10.0,0.0,0.0,0.0,10.0,0.103064334186,0.017710021249,-0.0882837901361,1.0,0.0,0.0,0.0,1.0,0.0,0.0,0.0,1.0,-0.178428955078,0.4215234375,10.1153649902,0.1,0.0,0.0,0.0,0.1,0.0,0.0,0.0,0.1
1446036125651405116,32,1446036125648401021,robocape,5.36651092571,7.67310934153,-16.590037896,0.0,10.0,0.0,0.0,0.0,10.0,0.0,0.0,0.0,10.0,-0.0506000607115,0.0154463343225,-0.0233026595382,1.0,0.0,0.0,0.0,1.0,0.0,0.0,0.0,1.0,-0.148491210938,0.263452148438,10.1273400879,0.1,0.0,0.0,0.0,0.1,0.0,0.0,0.0,0.1
1446036125682687574,33,1446036125679661035,robocape,5.13700361346,7.68634551876,-16.5920924291,0.0,10.0,0.0,0.0,0.0,10.0,0.0,0.0,0.0,10.0,-0.114249610764,0.0131826473959,-0.01744370514,1.0,0.0,0.0,0.0,1.0,0.0,0.0,0.0,1.0,-0.0682580566406,0.168848876953,10.1273400879,0.1,0.0,0.0,0.0,0.1,0.0,0.0,0.0,0.1
1446036125717112657,34,1446036125713877916,robocape,4.74209622641,7.69202594463,-16.5457399456,0.0,10.0,0.0,0.0,0.0,10.0,0.0,0.0,0.0,10.0,-0.205063403936,0.0109189604693,0.00932106381528,1.0,0.0,0.0,0.0,1.0,0.0,0.0,0.0,1.0,-0.0814306640625,0.343685302734,10.1045874023,0.1,0.0,0.0,0.0,0.1,0.0,0.0,0.0,0.1
1446036125749464407,35,1446036125746187925,robocape,4.19115615326,7.69029310397,-16.4877610044,0.0,10.0,0.0,0.0,0.0,10.0,0.0,0.0,0.0,10.0,-0.288287188001,0.00705737688871,0.0165115987585,1.0,0.0,0.0,0.0,1.0,0.0,0.0,0.0,1.0,-0.196391601563,-0.404758300781,10.177635498,0.1,0.0,0.0,0.0,0.1,0.0,0.0,0.0,0.1
1446036125782815616,36,1446036125779710054,robocape,3.71562256614,7.6887833925,-16.5050974523,0.0,10.0,0.0,0.0,0.0,10.0,0.0,0.0,0.0,10.0,-0.243546081688,0.00479368996214,-0.0237021337017,1.0,0.0,0.0,0.0,1.0,0.0,0.0,0.0,1.0,-0.0874182128906,-1.0346484375,10.1081799316,0.1,0.0,0.0,0.0,0.1,0.0,0.0,0.0,0.1
1446036125815573199,37,1446036125812531948,robocape,3.37764136179,7.68881022162,-16.4919052609,0.0,10.0,0.0,0.0,0.0,10.0,0.0,0.0,0.0,10.0,-0.173904419182,0.0067910607797,-0.00812264132474,1.0,0.0,0.0,0.0,1.0,0.0,0.0,0.0,1.0,-0.178428955078,-1.41066650391,10.132130127,0.1,0.0,0.0,0.0,0.1,0.0,0.0,0.0,0.1
1446036125848842532,38,1446036125845695972,robocape,3.27003324542,7.69712105785,-16.4429338788,0.0,10.0,0.0,0.0,0.0,10.0,0.0,0.0,0.0,10.0,-0.0557932248372,0.0123836990689,0.00985369603329,1.0,0.0,0.0,0.0,1.0,0.0,0.0,0.0,1.0,-0.0347277832031,-1.48491210938,10.0722546387,0.1,0.0,0.0,0.0,0.1,0.0,0.0,0.0,0.1
1446036125882298616,39,1446036125879211902,robocape,3.41510831935,7.72233695809,-16.40636078,0.0,10.0,0.0,0.0,0.0,10.0,0.0,0.0,0.0,10.0,0.0777643038303,0.0213052887206,0.00199737081756,1.0,0.0,0.0,0.0,1.0,0.0,0.0,0.0,1.0,0.100590820313,-1.25738525391,10.0447119141,0.1,0.0,0.0,0.0,0.1,0.0,0.0,0.0,0.1
1446036125915615532,40,1446036125912539958,robocape,3.70046259718,7.75672208171,-16.3757681744,0.0,10.0,0.0,0.0,0.0,10.0,0.0,0.0,0.0,10.0,0.152066498244,0.0262321367373,-0.00199737081756,1.0,0.0,0.0,0.0,1.0,0.0,0.0,0.0,1.0,-0.0993933105469,-1.07177124023,10.1033898926,0.1,0.0,0.0,0.0,0.1,0.0,0.0,0.0,0.1
1446036125948840657,41,1446036125945723056,robocape,4.04295301479,7.78858171226,-16.3384041779,0.0,10.0,0.0,0.0,0.0,10.0,0.0,0.0,0.0,10.0,0.181893902452,0.0253000303558,0.00133158054504,1.0,0.0,0.0,0.0,1.0,0.0,0.0,0.0,1.0,-0.220341796875,-0.40236328125,10.1057849121,0.1,0.0,0.0,0.0,0.1,0.0,0.0,0.0,0.1
1446036125982185699,42,1446036125979110956,robocape,4.31832335218,7.81678198456,-16.2961270279,0.0,10.0,0.0,0.0,0.0,10.0,0.0,0.0,0.0,10.0,0.146607018009,0.0235689756472,0.00412789968962,1.0,0.0,0.0,0.0,1.0,0.0,0.0,0.0,1.0,-0.076640625,-0.05748046875,10.1716479492,0.1,0.0,0.0,0.0,0.1,0.0,0.0,0.0,0.1
1446036126015455616,43,1446036126012386083,robocape,4.46287823099,7.83440255867,-16.2441255981,0.0,10.0,0.0,0.0,0.0,10.0,0.0,0.0,0.0,10.0,0.0773648296668,0.018242653467,0.0101200121423,1.0,0.0,0.0,0.0,1.0,0.0,0.0,0.0,1.0,-0.207169189453,0.276624755859,10.1213525391,0.1,0.0,0.0,0.0,0.1,0.0,0.0,0.0,0.1
1446036126049676449,44,1446036126046561956,robocape,4.42217785521,7.84794817312,-16.1842398241,0.0,10.0,0.0,0.0,0.0,10.0,0.0,0.0,0.0,10.0,-0.0205063403936,0.016112124595,0.0151800182135,1.0,0.0,0.0,0.0,1.0,0.0,0.0,0.0,1.0,-0.126936035156,0.204774169922,10.1045874023,0.1,0.0,0.0,0.0,0.1,0.0,0.0,0.0,0.1
1446036126082217907,45,1446036126079171895,robocape,4.22658826269,7.8536525081,-16.1119369949,0.0,10.0,0.0,0.0,0.0,10.0,0.0,0.0,0.0,10.0,-0.102931176132,0.0121173829599,0.0227700273202,1.0,0.0,0.0,0.0,1.0,0.0,0.0,0.0,1.0,-0.154478759766,-0.0263452148438,10.1237475586,0.1,0.0,0.0,0.0,0.1,0.0,0.0,0.0,0.1
1446036126120047699,46,1446036126115787982,robocape,3.9637357578,7.8547446108,-15.998647595,0.0,10.0,0.0,0.0,0.0,10.0,0.0,0.0,0.0,10.0,-0.141547011938,0.0107858024148,0.0450074224223,1.0,0.0,0.0,0.0,1.0,0.0,0.0,0.0,1.0,-0.100590820313,-0.537681884766,10.1093774414,0.1,0.0,0.0,0.0,0.1,0.0,0.0,0.0,0.1
1446036126148670907,47,1446036126145461082,robocape,3.83074118196,7.86229413685,-15.9142703696,0.0,10.0,0.0,0.0,0.0,10.0,0.0,0.0,0.0,10.0,-0.0713727172141,0.0133158054504,0.0291616139364,1.0,0.0,0.0,0.0,1.0,0.0,0.0,0.0,1.0,-0.0993933105469,-1.27654541016,10.1261425781,0.1,0.0,0.0,0.0,0.1,0.0,0.0,0.0,0.1
1446036126182265949,48,1446036126179264068,robocape,3.89934591163,7.88080949961,-15.8713409905,0.0,10.0,0.0,0.0,0.0,10.0,0.0,0.0,0.0,10.0,0.0375505713701,0.0181094954125,0.00625842856169,1.0,0.0,0.0,0.0,1.0,0.0,0.0,0.0,1.0,-0.0790356445313,-1.12925170898,10.1033898926,0.1,0.0,0.0,0.0,0.1,0.0,0.0,0.0,0.1
1446036126218239866,49,1446036126215102910,robocape,4.11448256528,7.90744146736,-15.8586047255,0.0,10.0,0.0,0.0,0.0,10.0,0.0,0.0,0.0,10.0,0.116912771854,0.0217047628841,-0.0105194863058,1.0,0.0,0.0,0.0,1.0,0.0,0.0,0.0,1.0,-0.100590820313,-0.710123291016,10.0914147949,0.1,0.0,0.0,0.0,0.1,0.0,0.0,0.0,0.1
1446036126252751658,50,1446036126249177932,robocape,4.30879052622,7.92976507351,-15.8222236276,0.0,10.0,0.0,0.0,0.0,10.0,0.0,0.0,0.0,10.0,0.104395914731,0.0202400242846,0.00213052887206,1.0,0.0,0.0,0.0,1.0,0.0,0.0,0.0,1.0,-0.110170898438,-0.277822265625,10.1261425781,0.1,0.0,0.0,0.0,0.1,0.0,0.0,0.0,0.1
1446036126285298991,51,1446036126282080888,robocape,4.42129840857,7.94898675611,-15.7868020536,0.0,10.0,0.0,0.0,0.0,10.0,0.0,0.0,0.0,10.0,0.0616521792353,0.0185089695761,0.00199737081756,1.0,0.0,0.0,0.0,1.0,0.0,0.0,0.0,1.0,-0.141306152344,-0.0910107421875,10.1357226563,0.1,0.0,0.0,0.0,0.1,0.0,0.0,0.0,0.1
1446036126318647616,52,1446036126315325021,robocape,4.43247138432,7.96536799661,-15.7467679389,0.0,10.0,0.0,0.0,0.0,10.0,0.0,0.0,0.0,10.0,0.00812264132474,0.0170442309765,0.00492684801665,1.0,0.0,0.0,0.0,1.0,0.0,0.0,0.0,1.0,-0.124541015625,-0.0622705078125,10.1213525391,0.1,0.0,0.0,0.0,0.1,0.0,0.0,0.0,0.1
1446036126353707741,53,1446036126350431919,robocape,4.35134916747,7.97657952895,-15.6970636658,0.0,10.0,0.0,0.0,0.0,10.0,0.0,0.0,0.0,10.0,-0.0411458388417,0.0145142279409,0.0106526443603,1.0,0.0,0.0,0.0,1.0,0.0,0.0,0.0,1.0,-0.138911132813,-0.15328125,10.1129699707,0.1,0.0,0.0,0.0,0.1,0.0,0.0,0.0,0.1
1446036126386648366,54,1446036126383320093,robocape,4.21435862733,7.98659657552,-15.6721869742,0.0,10.0,0.0,0.0,0.0,10.0,0.0,0.0,0.0,10.0,-0.068709556124,0.0129163312869,-0.00213052887206,1.0,0.0,0.0,0.0,1.0,0.0,0.0,0.0,1.0,-0.113763427734,-0.471818847656,10.1141674805,0.1,0.0,0.0,0.0,0.1,0.0,0.0,0.0,0.1
1446036126419763283,55,1446036126416378021,robocape,4.10543246774,7.99902082384,-15.6545959861,0.0,10.0,0.0,0.0,0.0,10.0,0.0,0.0,0.0,10.0,-0.0535295379106,0.0139815957229,-0.00612527050718,1.0,0.0,0.0,0.0,1.0,0.0,0.0,0.0,1.0,-0.1149609375,-0.455053710938,10.0926123047,0.1,0.0,0.0,0.0,0.1,0.0,0.0,0.0,0.1
1446036126452775449,56,1446036126449342012,robocape,4.00141952618,8.01158538918,-15.6272193441,0.0,10.0,0.0,0.0,0.0,10.0,0.0,0.0,0.0,10.0,-0.051798483202,0.0143810698864,-0.000932106381528,1.0,0.0,0.0,0.0,1.0,0.0,0.0,0.0,1.0,-0.086220703125,-0.870589599609,10.1201550293,0.1,0.0,0.0,0.0,0.1,0.0,0.0,0.0,0.1
1446036126484820991,57,1446036126481520891,robocape,4.00847158758,8.02764810846,-15.6004838086,0.0,10.0,0.0,0.0,0.0,10.0,0.0,0.0,0.0,10.0,0.00652474467069,0.016378440704,-0.00173105470855,1.0,0.0,0.0,0.0,1.0,0.0,0.0,0.0,1.0,-0.110170898438,-0.662222900391,10.1333276367,0.1,0.0,0.0,0.0,0.1,0.0,0.0,0.0,0.1
1446036126518757324,58,1446036126515645980,robocape,4.07955574028,8.04622823619,-15.568908074,0.0,10.0,0.0,0.0,0.0,10.0,0.0,0.0,0.0,10.0,0.0398142582967,0.017976337358,0.000532632218016,1.0,0.0,0.0,0.0,1.0,0.0,0.0,0.0,1.0,-0.0981958007813,-0.6514453125,10.1165625,0.1,0.0,0.0,0.0,0.1,0.0,0.0,0.0,0.1
1446036126555611033,59,1446036126552124023,robocape,4.17997559285,8.06527584619,-15.5351002069,0.0,10.0,0.0,0.0,0.0,10.0,0.0,0.0,0.0,10.0,0.0551274345646,0.0183758115215,0.00159789665405,1.0,0.0,0.0,0.0,1.0,0.0,0.0,0.0,1.0,-0.110170898438,-0.519719238281,10.100994873,0.1,0.0,0.0,0.0,0.1,0.0,0.0,0.0,0.1
1446036126585425241,60,1446036126582266092,robocape,4.26468734021,8.0834965829,-15.4966618247,0.0,10.0,0.0,0.0,0.0,10.0,0.0,0.0,0.0,10.0,0.0466053190764,0.0181094954125,0.00412789968962,1.0,0.0,0.0,0.0,1.0,0.0,0.0,0.0,1.0,-0.108973388672,-0.336500244141,10.1177600098,0.1,0.0,0.0,0.0,0.1,0.0,0.0,0.0,0.1
1446036126618583491,61,1446036126615487098,robocape,4.28716545801,8.09900621722,-15.4533314549,0.0,10.0,0.0,0.0,0.0,10.0,0.0,0.0,0.0,10.0,0.0135821215594,0.0167779148675,0.00705737688871,1.0,0.0,0.0,0.0,1.0,0.0,0.0,0.0,1.0,-0.125738525391,-0.244291992188,10.1297351074,0.1,0.0,0.0,0.0,0.1,0.0,0.0,0.0,0.1
1446036126651829783,62,1446036126648571014,robocape,4.25192452264,8.1118741267,-15.4096770277,0.0,10.0,0.0,0.0,0.0,10.0,0.0,0.0,0.0,10.0,-0.0167779148675,0.015313176268,0.00759000910673,1.0,0.0,0.0,0.0,1.0,0.0,0.0,0.0,1.0,-0.118553466797,-0.269439697266,10.1285375977,0.1,0.0,0.0,0.0,0.1,0.0,0.0,0.0,0.1
1446036126684685241,63,1446036126681653022,robocape,4.18526429849,8.12413589837,-15.3666477072,0.0,10.0,0.0,0.0,0.0,10.0,0.0,0.0,0.0,10.0,-0.033289513626,0.0149137021044,0.00745685105222,1.0,0.0,0.0,0.0,1.0,0.0,0.0,0.0,1.0,-0.110170898438,-0.4215234375,10.0974023437,0.1,0.0,0.0,0.0,0.1,0.0,0.0,0.0,0.1
1446036126718528658,64,1446036126715445995,robocape,4.1240739874,8.13599847075,-15.3252596268,0.0,10.0,0.0,0.0,0.0,10.0,0.0,0.0,0.0,10.0,-0.0303600364269,0.0146473859954,0.0066579027252,1.0,0.0,0.0,0.0,1.0,0.0,0.0,0.0,1.0,-0.116158447266,-0.592767333984,10.1045874023,0.1,0.0,0.0,0.0,0.1,0.0,0.0,0.0,0.1
1446036126750836741,65,1446036126747737884,robocape,4.1000349819,8.15001652982,-15.2835832182,0.0,10.0,0.0,0.0,0.0,10.0,0.0,0.0,0.0,10.0,-0.0109189604693,0.015845808486,0.0066579027252,1.0,0.0,0.0,0.0,1.0,0.0,0.0,0.0,1.0,-0.107775878906,-0.704135742188,10.1129699707,0.1,0.0,0.0,0.0,0.1,0.0,0.0,0.0,0.1
1446036126783511491,66,1446036126780265092,robocape,4.1269475403,8.16513730546,-15.2421056245,0.0,10.0,0.0,0.0,0.0,10.0,0.0,0.0,0.0,10.0,0.015845808486,0.0165115987585,0.00639158661619,1.0,0.0,0.0,0.0,1.0,0.0,0.0,0.0,1.0,-0.111368408203,-0.664617919922,10.1453027344,0.1,0.0,0.0,0.0,0.1,0.0,0.0,0.0,0.1
1446036126816247949,67,1446036126813163995,robocape,4.19171628528,8.18252491925,-15.2030499201,0.0,10.0,0.0,0.0,0.0,10.0,0.0,0.0,0.0,10.0,0.0359526747161,0.017710021249,0.00492684801665,1.0,0.0,0.0,0.0,1.0,0.0,0.0,0.0,1.0,-0.105380859375,-0.554447021484,10.1141674805,0.1,0.0,0.0,0.0,0.1,0.0,0.0,0.0,0.1
1446036126850120866,68,1446036126847089052,robocape,4.25897529199,8.19967228683,-15.1652951062,0.0,10.0,0.0,0.0,0.0,10.0,0.0,0.0,0.0,10.0,0.0374174133156,0.0175768631945,0.00426105774413,1.0,0.0,0.0,0.0,1.0,0.0,0.0,0.0,1.0,-0.119750976563,-0.417930908203,10.1189575195,0.1,0.0,0.0,0.0,0.1,0.0,0.0,0.0,0.1
1446036126883019324,69,1446036126879964113,robocape,4.29431203484,8.21555862639,-15.1268734245,0.0,10.0,0.0,0.0,0.0,10.0,0.0,0.0,0.0,10.0,0.0206394984481,0.016911072922,0.00479368996214,1.0,0.0,0.0,0.0,1.0,0.0,0.0,0.0,1.0,-0.122145996094,-0.317340087891,10.1129699707,0.1,0.0,0.0,0.0,0.1,0.0,0.0,0.0,0.1
1446036126916491533,70,1446036126913480043,robocape,4.28341147307,8.22961169182,-15.0856823644,0.0,10.0,0.0,0.0,0.0,10.0,0.0,0.0,0.0,10.0,-0.00386158358061,0.0159789665405,0.00652474467069,1.0,0.0,0.0,0.0,1.0,0.0,0.0,0.0,1.0,-0.1149609375,-0.24908203125,10.1429077148,0.1,0.0,0.0,0.0,0.1,0.0,0.0,0.0,0.1
1446036126949457741,71,1446036126946386098,robocape,4.09509071502,8.22710110357,-14.8806426448,0.0,10.0,0.0,0.0,0.0,10.0,0.0,0.0,0.0,10.0,-0.10998855302,0.0123836990689,0.0942759025888,1.0,0.0,0.0,0.0,1.0,0.0,0.0,0.0,1.0,-0.106578369141,-0.36404296875,10.1488952637,0.1,0.0,0.0,0.0,0.1,0.0,0.0,0.0,0.1
1446036126982403408,72,1446036126979320049,robocape,3.99556820232,8.22650856257,-14.6617010925,0.0,10.0,0.0,0.0,0.0,10.0,0.0,0.0,0.0,10.0,-0.0645816564344,0.0137152796139,0.101466437532,1.0,0.0,0.0,0.0,1.0,0.0,0.0,0.0,1.0,-0.05748046875,-1.49329467773,10.1165625,0.1,0.0,0.0,0.0,0.1,0.0,0.0,0.0,0.1
1446036127015676908,73,1446036127012633085,robocape,4.18217656616,8.24652588297,-14.5594538379,0.0,10.0,0.0,0.0,0.0,10.0,0.0,0.0,0.0,10.0,0.0948085348068,0.0213052887206,0.0384826777516,1.0,0.0,0.0,0.0,1.0,0.0,0.0,0.0,1.0,-0.0347277832031,-1.149609375,10.1129699707,0.1,0.0,0.0,0.0,0.1,0.0,0.0,0.0,0.1
1446036127049256491,74,1446036127046242952,robocape,4.50803619813,8.27353501121,-14.5114201527,0.0,10.0,0.0,0.0,0.0,10.0,0.0,0.0,0.0,10.0,0.172439680583,0.0235689756472,0.00918790576077,1.0,0.0,0.0,0.0,1.0,0.0,0.0,0.0,1.0,-0.164058837891,-0.602347412109,10.1153649902,0.1,0.0,0.0,0.0,0.1,0.0,0.0,0.0,0.1
1446036127082232033,75,1446036127079176902,robocape,4.88949122495,8.29421801939,-14.491888609,0.0,10.0,0.0,0.0,0.0,10.0,0.0,0.0,0.0,10.0,0.204264455609,0.0194410759576,-0.00585895439817,1.0,0.0,0.0,0.0,1.0,0.0,0.0,0.0,1.0,-0.104183349609,-0.0395178222656,10.1680554199,0.1,0.0,0.0,0.0,0.1,0.0,0.0,0.0,0.1
1446036127115721616,76,1446036127112694978,robocape,5.13285295662,8.31725042225,-14.5934114114,0.0,10.0,0.0,0.0,0.0,10.0,0.0,0.0,0.0,10.0,0.141680169992,0.015579492377,-0.0693753463966,1.0,0.0,0.0,0.0,1.0,0.0,0.0,0.0,1.0,-0.117355957031,0.0239501953125,10.1249450684,0.1,0.0,0.0,0.0,0.1,0.0,0.0,0.0,0.1
1446036127148594283,77,1446036127145569086,robocape,5.20590404167,8.34489203244,-14.7106340064,0.0,10.0,0.0,0.0,0.0,10.0,0.0,0.0,0.0,10.0,0.0536626959651,0.016911072922,-0.0774979877213,1.0,0.0,0.0,0.0,1.0,0.0,0.0,0.0,1.0,-0.143701171875,0.507744140625,10.1476977539,0.1,0.0,0.0,0.0,0.1,0.0,0.0,0.0,0.1
1446036127182571783,78,1446036127179516077,robocape,5.0368944931,8.3635276184,-14.7405801054,0.0,10.0,0.0,0.0,0.0,10.0,0.0,0.0,0.0,10.0,-0.0805606229749,0.0154463343225,-0.0303600364269,1.0,0.0,0.0,0.0,1.0,0.0,0.0,0.0,1.0,-0.186811523438,0.396375732422,10.1560803223,0.1,0.0,0.0,0.0,0.1,0.0,0.0,0.0,0.1
1446036127215836200,79,1446036127212810993,robocape,4.64248233398,8.36976105126,-14.6913413781,0.0,10.0,0.0,0.0,0.0,10.0,0.0,0.0,0.0,10.0,-0.205596036154,0.0117179087963,0.0127831732324,1.0,0.0,0.0,0.0,1.0,0.0,0.0,0.0,1.0,-0.0993933105469,-0.0383203125,10.1309326172,0.1,0.0,0.0,0.0,0.1,0.0,0.0,0.0,0.1
1446036127248910408,80,1446036127245888948,robocape,4.19976817225,8.3663493836,-14.6775395018,0.0,10.0,0.0,0.0,0.0,10.0,0.0,0.0,0.0,10.0,-0.228499221529,0.00519316412565,-0.00519316412565,1.0,0.0,0.0,0.0,1.0,0.0,0.0,0.0,1.0,-0.171243896484,-0.426313476563,10.0938098145,0.1,0.0,0.0,0.0,0.1,0.0,0.0,0.0,0.1
1446036127282089616,81,1446036127279073953,robocape,3.81104098182,8.36768236767,-14.6662571476,0.0,10.0,0.0,0.0,0.0,10.0,0.0,0.0,0.0,10.0,-0.200269713974,0.00772316716123,-0.00692421883421,1.0,0.0,0.0,0.0,1.0,0.0,0.0,0.0,1.0,-0.0993933105469,-1.28732299805,10.1405126953,0.1,0.0,0.0,0.0,0.1,0.0,0.0,0.0,0.1
1446036127315818658,82,1446036127312685966,robocape,3.68093436292,8.37111725992,-14.6212597342,0.0,10.0,0.0,0.0,0.0,10.0,0.0,0.0,0.0,10.0,-0.067377975579,0.0102531701968,0.0099868540878,1.0,0.0,0.0,0.0,1.0,0.0,0.0,0.0,1.0,-0.0694555664063,-1.36516113281,10.1165625,0.1,0.0,0.0,0.0,0.1,0.0,0.0,0.0,0.1
1446036127348829158,83,1446036127345798969,robocape,3.75575836385,8.38953229529,-14.5832613033,0.0,10.0,0.0,0.0,0.0,10.0,0.0,0.0,0.0,10.0,0.0407463646782,0.018242653467,0.00519316412565,1.0,0.0,0.0,0.0,1.0,0.0,0.0,0.0,1.0,0.0634680175781,-1.2298425293,10.0902172852,0.1,0.0,0.0,0.0,0.1,0.0,0.0,0.0,0.1
1446036127381972533,84,1446036127378942966,robocape,4.01330397082,8.42266550815,-14.5924127149,0.0,10.0,0.0,0.0,0.0,10.0,0.0,0.0,0.0,10.0,0.140614905556,0.0249005561922,-0.0207726565026,1.0,0.0,0.0,0.0,1.0,0.0,0.0,0.0,1.0,-0.0718505859375,-0.925675048828,10.080637207,0.1,0.0,0.0,0.0,0.1,0.0,0.0,0.0,0.1
1446036127415740825,85,1446036127412467002,robocape,4.30404009422,8.45408203201,-14.5680240168,0.0,10.0,0.0,0.0,0.0,10.0,0.0,0.0,0.0,10.0,0.155661765715,0.0251668723012,-0.0033289513626,1.0,0.0,0.0,0.0,1.0,0.0,0.0,0.0,1.0,-0.17244140625,-0.499361572266,10.1560803223,0.1,0.0,0.0,0.0,0.1,0.0,0.0,0.0,0.1
1446036127448818491,86,1446036127445696115,robocape,4.55418187142,8.48247705258,-14.5370051099,0.0,10.0,0.0,0.0,0.0,10.0,0.0,0.0,0.0,10.0,0.134090160885,0.0238352917562,0.000266316109008,1.0,0.0,0.0,0.0,1.0,0.0,0.0,0.0,1.0,-0.166453857422,-0.09580078125,10.132130127,0.1,0.0,0.0,0.0,0.1,0.0,0.0,0.0,0.1
1446036127483424866,87,1446036127480421066,robocape,4.66203845268,8.50009920711,-14.5028660778,0.0,10.0,0.0,0.0,0.0,10.0,0.0,0.0,0.0,10.0,0.0592553342543,0.0181094954125,0.00279631914458,1.0,0.0,0.0,0.0,1.0,0.0,0.0,0.0,1.0,-0.13412109375,0.0550854492188,10.1381176758,0.1,0.0,0.0,0.0,0.1,0.0,0.0,0.0,0.1
1446036127515509116,88,1446036127512244939,robocape,4.63609507118,8.51521843164,-14.4632490333,0.0,10.0,0.0,0.0,0.0,10.0,0.0,0.0,0.0,10.0,-0.0114515926873,0.0167779148675,0.00625842856169,1.0,0.0,0.0,0.0,1.0,0.0,0.0,0.0,1.0,-0.166453857422,0.0610729980469,10.1045874023,0.1,0.0,0.0,0.0,0.1,0.0,0.0,0.0,0.1
1446036127552201116,89,1446036127548731088,robocape,4.49253766969,8.5231118919,-14.4117380216,0.0,10.0,0.0,0.0,0.0,10.0,0.0,0.0,0.0,10.0,-0.0743021944132,0.0131826473959,0.0133158054504,1.0,0.0,0.0,0.0,1.0,0.0,0.0,0.0,1.0,-0.124541015625,-0.104183349609,10.0985998535,0.1,0.0,0.0,0.0,0.1,0.0,0.0,0.0,0.1
1446036127581997491,90,1446036127578931093,robocape,4.29235027793,8.5280258952,-14.3678463878,0.0,10.0,0.0,0.0,0.0,10.0,0.0,0.0,0.0,10.0,-0.103596966404,0.0111852765783,0.00972053797879,1.0,0.0,0.0,0.0,1.0,0.0,0.0,0.0,1.0,-0.0981958007813,-0.439486083984,10.1512902832,0.1,0.0,0.0,0.0,0.1,0.0,0.0,0.0,0.1
1446036127615334283,91,1446036127612272977,robocape,4.24945048155,8.46558900821,-14.488046021,0.0,10.0,0.0,0.0,0.0,10.0,0.0,0.0,0.0,10.0,-0.00798948327024,-0.0295610880999,-0.0740358783042,1.0,0.0,0.0,0.0,1.0,0.0,0.0,0.0,1.0,-5.84983520508,-1.07416625977,10.1812280273,0.1,0.0,0.0,0.0,0.1,0.0,0.0,0.0,0.1
1446036127648923908,92,1446036127645565986,robocape,4.20254898597,8.43302851537,-14.6082057533,0.0,10.0,0.0,0.0,0.0,10.0,0.0,0.0,0.0,10.0,-0.0101200121423,-0.0138484376684,-0.0755006169037,1.0,0.0,0.0,0.0,1.0,0.0,0.0,0.0,1.0,-9.31782348633,-2.09564208984,11.0266699219,0.1,0.0,0.0,0.0,0.1,0.0,0.0,0.0,0.1
1446036127682282450,93,1446036127679208993,robocape,4.09010837359,8.25251432452,-14.790365871,0.0,10.0,0.0,0.0,0.0,10.0,0.0,0.0,0.0,10.0,-0.0400805744057,-0.0937432703708,-0.101732753641,1.0,0.0,0.0,0.0,1.0,0.0,0.0,0.0,1.0,-9.21843017578,-1.25020019531,10.6290966797,0.1,0.0,0.0,0.0,0.1,0.0,0.0,0.0,0.1
1446036127715567825,94,1446036127712440967,robocape,3.90468506772,8.44215638408,-15.058004571,0.0,10.0,0.0,0.0,0.0,10.0,0.0,0.0,0.0,10.0,-0.0711064011051,0.0982706442239,-0.162585984549,1.0,0.0,0.0,0.0,1.0,0.0,0.0,0.0,1.0,-8.73583374023,-0.467028808594,11.4996862793,0.1,0.0,0.0,0.0,0.1,0.0,0.0,0.0,0.1
1446036127752076117,95,1446036127748716115,robocape,3.78041818676,8.06019254229,-15.3964387961,0.0,10.0,0.0,0.0,0.0,10.0,0.0,0.0,0.0,10.0,-0.0347542522255,-0.203864981446,-0.17710021249,1.0,0.0,0.0,0.0,1.0,0.0,0.0,0.0,1.0,-10.7488476563,0.107775878906,9.17771484375,0.1,0.0,0.0,0.0,0.1,0.0,0.0,0.0,0.1
1446036127785063075,96,1446036127781970977,robocape,3.6937239311,8.27550472975,-15.6453846483,0.0,10.0,0.0,0.0,0.0,10.0,0.0,0.0,0.0,10.0,-0.0213052887206,0.113051188274,-0.154596501279,1.0,0.0,0.0,0.0,1.0,0.0,0.0,0.0,1.0,-10.8111181641,0.366437988281,13.0959667969,0.1,0.0,0.0,0.0,0.1,0.0,0.0,0.0,0.1
1446036127817935158,97,1446036127814642906,robocape,3.26226075233,8.47448940829,-16.2562024445,0.0,10.0,0.0,0.0,0.0,10.0,0.0,0.0,0.0,10.0,-0.173371786964,0.0953411670248,-0.344213570893,1.0,0.0,0.0,0.0,1.0,0.0,0.0,0.0,1.0,-9.70342163086,0.398770751953,12.0816760254,0.1,0.0,0.0,0.0,0.1,0.0,0.0,0.0,0.1
1446036127851735283,98,1446036127848180055,robocape,2.76102797939,8.58032593584,-17.0365745249,0.0,10.0,0.0,0.0,0.0,10.0,0.0,0.0,0.0,10.0,-0.19600865623,0.0456732126949,-0.431298938538,1.0,0.0,0.0,0.0,1.0,0.0,0.0,0.0,1.0,-10.9069189453,-1.19870727539,11.4984887695,0.1,0.0,0.0,0.0,0.1,0.0,0.0,0.0,0.1
1446036127884606033,99,1446036127881515026,robocape,2.90099918304,8.67090433373,-17.685689085,0.0,10.0,0.0,0.0,0.0,10.0,0.0,0.0,0.0,10.0,0.130628051468,0.0430100516048,-0.364719911286,1.0,0.0,0.0,0.0,1.0,0.0,0.0,0.0,1.0,-6.9012487793,-1.68489624023,10.2913989258,0.1,0.0,0.0,0.0,0.1,0.0,0.0,0.0,0.1
1446036127917800033,100,1446036127914525032,robocape,3.54579691801,8.76022247464,-18.1674211931,0.0,10.0,0.0,0.0,0.0,10.0,0.0,0.0,0.0,10.0,0.383228880862,0.0450074224223,-0.27909928224,1.0,0.0,0.0,0.0,1.0,0.0,0.0,0.0,1.0,-10.0147741699,-0.120948486328,11.5811169434,0.1,0.0,0.0,0.0,0.1,0.0,0.0,0.0,0.1
1446036127951419825,101,1446036127948107004,robocape,4.2255163954,8.70304204509,-18.646065724,0.0,10.0,0.0,0.0,0.0,10.0,0.0,0.0,0.0,10.0,0.402403640711,-0.034621094171,-0.273373485897,1.0,0.0,0.0,0.0,1.0,0.0,0.0,0.0,1.0,-7.71435791016,-0.752036132813,10.2207458496,0.1,0.0,0.0,0.0,0.1,0.0,0.0,0.0,0.1
1446036127984078200,102,1446036127980959892,robocape,5.14927328048,8.83780195053,-19.0445672734,0.0,10.0,0.0,0.0,0.0,10.0,0.0,0.0,0.0,10.0,0.526107473345,0.0664458691975,-0.242480817252,1.0,0.0,0.0,0.0,1.0,0.0,0.0,0.0,1.0,-7.76225830078,0.0514929199219,10.8254882813,0.1,0.0,0.0,0.0,0.1,0.0,0.0,0.0,0.1
1446036128016485992,103,1446036128013432025,robocape,6.21772370608,8.67222787655,-19.6346278978,0.0,10.0,0.0,0.0,0.0,10.0,0.0,0.0,0.0,10.0,0.61998390177,-0.103064334186,-0.33023197517,1.0,0.0,0.0,0.0,1.0,0.0,0.0,0.0,1.0,-7.42935058594,-0.710123291016,10.8003405762,0.1,0.0,0.0,0.0,0.1,0.0,0.0,0.0,0.1
1446036128050965242,104,1446036128047924041,robocape,7.79204645719,8.30916250946,-20.1463909632,0.0,10.0,0.0,0.0,0.0,10.0,0.0,0.0,0.0,10.0,0.881106846653,-0.207859723081,-0.27790085975,1.0,0.0,0.0,0.0,1.0,0.0,0.0,0.0,1.0,-11.1643835449,-0.665815429688,9.54774536133,0.1,0.0,0.0,0.0,0.1,0.0,0.0,0.0,0.1
1446036128082522450,105,1446036128079483032,robocape,9.66307470989,8.20906221763,-20.6449811493,0.0,10.0,0.0,0.0,0.0,10.0,0.0,0.0,0.0,10.0,1.04169546038,-0.0762995652308,-0.294012984345,1.0,0.0,0.0,0.0,1.0,0.0,0.0,0.0,1.0,-8.2041394043,-0.603544921875,12.2122045898,0.1,0.0,0.0,0.0,0.1,0.0,0.0,0.0,0.1
1446036128116049533,106,1446036128112998008,robocape,12.1150499589,8.19074073173,-21.2075768477,0.0,10.0,0.0,0.0,0.0,10.0,0.0,0.0,0.0,10.0,1.36340532007,-0.0472711093489,-0.344746203111,1.0,0.0,0.0,0.0,1.0,0.0,0.0,0.0,1.0,-6.06059692383,-0.778381347656,8.87115234375,0.1,0.0,0.0,0.0,0.1,0.0,0.0,0.0,0.1
1446036128149077117,107,1446036128146060943,robocape,15.1330865823,8.65986261008,-21.5223096437,0.0,10.0,0.0,0.0,0.0,10.0,0.0,0.0,0.0,10.0,1.66101357188,0.221575002695,-0.2926814038,1.0,0.0,0.0,0.0,1.0,0.0,0.0,0.0,1.0,-1.54598510742,0.138911132813,12.201427002,0.1,0.0,0.0,0.0,0.1,0.0,0.0,0.0,0.1
1446036128182288575,108,1446036128179270029,robocape,18.4343362139,9.01900817014,-21.6823964975,0.0,10.0,0.0,0.0,0.0,10.0,0.0,0.0,0.0,10.0,1.81973797285,0.179630215526,-0.223039741294,1.0,0.0,0.0,0.0,1.0,0.0,0.0,0.0,1.0,0.343685302734,-0.118553466797,9.84113525391,0.1,0.0,0.0,0.0,0.1,0.0,0.0,0.0,0.1
1446036128215762908,109,1446036128212610960,robocape,22.0961900489,9.27483693958,-21.5727341613,0.0,10.0,0.0,0.0,0.0,10.0,0.0,0.0,0.0,10.0,2.01494768075,0.170841783929,-0.0968059056244,1.0,0.0,0.0,0.0,1.0,0.0,0.0,0.0,1.0,-5.57081542969,0.437091064453,10.3512744141,0.1,0.0,0.0,0.0,0.1,0.0,0.0,0.0,0.1
1446036128248741825,110,1446036128245721101,robocape,25.9542468763,9.1609306071,-21.0969146123,0.0,10.0,0.0,0.0,0.0,10.0,0.0,0.0,0.0,10.0,2.1137509572,0.0700411366691,0.138750692793,1.0,0.0,0.0,0.0,1.0,0.0,0.0,0.0,1.0,-2.35669921875,1.31845825195,10.1441052246,0.1,0.0,0.0,0.0,0.1,0.0,0.0,0.0,0.1
1446036128282193408,111,1446036128279182910,robocape,29.6132726455,9.26585744569,-20.0457901003,0.0,10.0,0.0,0.0,0.0,10.0,0.0,0.0,0.0,10.0,1.9823239574,0.325571443262,0.345145677274,1.0,0.0,0.0,0.0,1.0,0.0,0.0,0.0,1.0,-0.724493408203,1.88607788086,10.3117565918,0.1,0.0,0.0,0.0,0.1,0.0,0.0,0.0,0.1
1446036128315478659,112,1446036128312453985,robocape,32.764947266,9.55901220681,-18.3121802757,0.0,10.0,0.0,0.0,0.0,10.0,0.0,0.0,0.0,10.0,1.65621988192,0.617720214844,0.592020710325,1.0,0.0,0.0,0.0,1.0,0.0,0.0,0.0,1.0,-1.06578369141,2.45848754883,13.4695898438,0.1,0.0,0.0,0.0,0.1,0.0,0.0,0.0,0.1
1446036128348787117,113,1446036128345747947,robocape,35.2383563503,8.98555020429,-16.6436084305,0.0,10.0,0.0,0.0,0.0,10.0,0.0,0.0,0.0,10.0,1.28963575787,0.249937668304,0.81213097442,1.0,0.0,0.0,0.0,1.0,0.0,0.0,0.0,1.0,-5.92408081055,3.30632446289,11.4793286133,0.1,0.0,0.0,0.0,0.1,0.0,0.0,0.0,0.1
1446036128382034617,114,1446036128378952980,robocape,37.0391113645,8.70273948862,-14.3880115422,0.0,10.0,0.0,0.0,0.0,10.0,0.0,0.0,0.0,10.0,0.868190515366,0.581767540128,0.981774335858,1.0,0.0,0.0,0.0,1.0,0.0,0.0,0.0,1.0,2.32676147461,3.33626220703,11.2086914063,0.1,0.0,0.0,0.0,0.1,0.0,0.0,0.0,0.1
1446036128415892284,115,1446036128412626028,robocape,38.2893046619,8.44512899286,-12.2125565263,0.0,10.0,0.0,0.0,0.0,10.0,0.0,0.0,0.0,10.0,0.577240166275,0.592952816706,0.938631126198,1.0,0.0,0.0,0.0,1.0,0.0,0.0,0.0,1.0,0.565224609375,2.26808349609,10.6710095215,0.1,0.0,0.0,0.0,0.1,0.0,0.0,0.0,0.1
1446036128448942200,116,1446036128445835113,robocape,39.1666158906,8.41992817133,-9.86914920857,0.0,10.0,0.0,0.0,0.0,10.0,0.0,0.0,0.0,10.0,0.360192537433,0.760199333163,0.929043746274,1.0,0.0,0.0,0.0,1.0,0.0,0.0,0.0,1.0,-4.26552978516,2.07169189453,11.5619567871,0.1,0.0,0.0,0.0,0.1,0.0,0.0,0.0,0.1
1446036128482392450,117,1446036128479091882,robocape,39.7095179846,7.80484200986,-7.86183866744,0.0,10.0,0.0,0.0,0.0,10.0,0.0,0.0,0.0,10.0,0.200802346192,0.421178926396,0.991228557727,1.0,0.0,0.0,0.0,1.0,0.0,0.0,0.0,1.0,-6.20669311523,2.7171496582,12.0697009277,0.1,0.0,0.0,0.0,0.1,0.0,0.0,0.0,0.1
1446036128515746200,118,1446036128512523889,robocape,39.6016045662,8.16869580738,-5.02068666666,0.0,10.0,0.0,0.0,0.0,10.0,0.0,0.0,0.0,10.0,-0.234624492036,1.09189604693,1.0068080501,1.0,0.0,0.0,0.0,1.0,0.0,0.0,0.0,1.0,12.972623291,4.04039794922,13.8048925781,0.1,0.0,0.0,0.0,0.1,0.0,0.0,0.0,0.1
1446036128551533367,119,1446036128548492908,robocape,38.4964515541,8.21394812061,-1.79514050346,0.0,10.0,0.0,0.0,0.0,10.0,0.0,0.0,0.0,10.0,-0.857271554897,1.06393285549,1.2889699676,1.0,0.0,0.0,0.0,1.0,0.0,0.0,0.0,1.0,5.45705200195,3.73623046875,13.1702124023,0.1,0.0,0.0,0.0,0.1,0.0,0.0,0.0,0.1
1446036128582035992,120,1446036128578969955,robocape,36.1720259308,7.76965677405,1.47413468674,0.0,10.0,0.0,0.0,0.0,10.0,0.0,0.0,0.0,10.0,-1.55448712828,0.819188351308,1.49456600375,1.0,0.0,0.0,0.0,1.0,0.0,0.0,0.0,1.0,0.384400634766,3.82364868164,12.052935791,0.1,0.0,0.0,0.0,0.1,0.0,0.0,0.0,0.1
1446036128615515117,121,1446036128612462997,robocape,32.6295555612,7.42076632318,4.77722279841,0.0,10.0,0.0,0.0,0.0,10.0,0.0,0.0,0.0,10.0,-2.2114889692,0.78110514772,1.51200970889,1.0,0.0,0.0,0.0,1.0,0.0,0.0,0.0,1.0,-1.14481933594,2.35310668945,13.0396838379,0.1,0.0,0.0,0.0,0.1,0.0,0.0,0.0,0.1
1446036128649089242,122,1446036128646063089,robocape,28.0978721643,6.87869378729,7.35253103909,0.0,10.0,0.0,0.0,0.0,10.0,0.0,0.0,0.0,10.0,-2.66489214479,0.390153099697,1.2772520588,1.0,0.0,0.0,0.0,1.0,0.0,0.0,0.0,1.0,-2.64170654297,0.859812011719,7.22098388672,0.1,0.0,0.0,0.0,0.1,0.0,0.0,0.0,0.1
1446036128681860450,123,1446036128678811073,robocape,23.4483352756,6.12354391212,8.98372475242,0.0,10.0,0.0,0.0,0.0,10.0,0.0,0.0,0.0,10.0,-2.61855314182,-0.0191747598486,0.909735828371,1.0,0.0,0.0,0.0,1.0,0.0,0.0,0.0,1.0,-6.63540161133,-0.221539306641,8.27479248047,0.1,0.0,0.0,0.0,0.1,0.0,0.0,0.0,0.1
1446036128715570617,124,1446036128712562084,robocape,19.2422091372,6.14341829233,10.1620337656,0.0,10.0,0.0,0.0,0.0,10.0,0.0,0.0,0.0,10.0,-2.31415382922,0.213186045261,0.547146445957,1.0,0.0,0.0,0.0,1.0,0.0,0.0,0.0,1.0,-1.80225219727,-1.20229980469,9.43517944336,0.1,0.0,0.0,0.0,0.1,0.0,0.0,0.0,0.1
1446036128749118117,125,1446036128746083021,robocape,15.9213637013,6.35322379691,10.6085623462,0.0,10.0,0.0,0.0,0.0,10.0,0.0,0.0,0.0,10.0,-1.78391845619,0.164849671476,0.176700738327,1.0,0.0,0.0,0.0,1.0,0.0,0.0,0.0,1.0,0.234711914063,-2.24533081055,7.15871337891,0.1,0.0,0.0,0.0,0.1,0.0,0.0,0.0,0.1
1446036128781934825,126,1446036128778918981,robocape,13.6533407656,6.39288431272,10.4829422359,0.0,10.0,0.0,0.0,0.0,10.0,0.0,0.0,0.0,10.0,-1.18630510758,-0.000133158054504,-0.0728374558137,1.0,0.0,0.0,0.0,1.0,0.0,0.0,0.0,1.0,-0.940045166016,-2.28724365234,9.35973632813,0.1,0.0,0.0,0.0,0.1,0.0,0.0,0.0,0.1
1446036128815462075,127,1446036128812427043,robocape,12.5859854105,6.82836833936,9.96747116989,0.0,10.0,0.0,0.0,0.0,10.0,0.0,0.0,0.0,10.0,-0.524509576691,0.163384932876,-0.310391425049,1.0,0.0,0.0,0.0,1.0,0.0,0.0,0.0,1.0,-4.8702722168,-2.52195556641,10.1620678711,0.1,0.0,0.0,0.0,0.1,0.0,0.0,0.0,0.1
1446036128848989909,128,1446036128845819950,robocape,12.7399931021,7.10425576868,9.04381869246,0.0,10.0,0.0,0.0,0.0,10.0,0.0,0.0,0.0,10.0,0.148071756608,0.0414121549507,-0.494149540264,1.0,0.0,0.0,0.0,1.0,0.0,0.0,0.0,1.0,0.147293701172,-2.39022949219,8.56937988281,0.1,0.0,0.0,0.0,0.1,0.0,0.0,0.0,0.1
1446036128882018075,129,1446036128878918886,robocape,14.0052636977,7.80146403285,8.23890752578,0.0,10.0,0.0,0.0,0.0,10.0,0.0,0.0,0.0,10.0,0.736630357516,0.270843482861,-0.480567418705,1.0,0.0,0.0,0.0,1.0,0.0,0.0,0.0,1.0,1.85135009766,-1.3759387207,11.1931237793,0.1,0.0,0.0,0.0,0.1,0.0,0.0,0.0,0.1
1446036128915826742,130,1446036128912448883,robocape,15.9939629124,8.1637442357,7.68857957596,0.0,10.0,0.0,0.0,0.0,10.0,0.0,0.0,0.0,10.0,1.111603439,0.126899625942,-0.311856163648,1.0,0.0,0.0,0.0,1.0,0.0,0.0,0.0,1.0,2.9853918457,-0.326920166016,9.78844482422,0.1,0.0,0.0,0.0,0.1,0.0,0.0,0.0,0.1
1446036128951725492,131,1446036128948478937,robocape,18.0876132774,7.29376166988,7.27263123856,0.0,10.0,0.0,0.0,0.0,10.0,0.0,0.0,0.0,10.0,1.15954033862,-0.482964263686,-0.0605869147993,1.0,0.0,0.0,0.0,1.0,0.0,0.0,0.0,1.0,-1.7244140625,0.372425537109,6.11807739258,0.1,0.0,0.0,0.0,0.1,0.0,0.0,0.0,0.1
1446036128984100825,132,1446036128980751991,robocape,19.6805394936,7.63610901366,7.72262909628,0.0,10.0,0.0,0.0,0.0,10.0,0.0,0.0,0.0,10.0,0.848483123299,0.266049792899,0.178032318872,1.0,0.0,0.0,0.0,1.0,0.0,0.0,0.0,1.0,-10.8721911621,2.94228149414,13.6540063477,0.1,0.0,0.0,0.0,0.1,0.0,0.0,0.0,0.1
1446036129018391867,133,1446036129015064001,robocape,20.7783845461,8.29902935305,8.82094859983,0.0,10.0,0.0,0.0,0.0,10.0,0.0,0.0,0.0,10.0,0.542752230158,0.546081181521,0.431298938538,1.0,0.0,0.0,0.0,1.0,0.0,0.0,0.0,1.0,7.68681518555,0.991538085938,4.37809570313,0.1,0.0,0.0,0.0,0.1,0.0,0.0,0.0,0.1
1446036129052318492,134,1446036129049227952,robocape,20.9447113118,8.66135952268,10.0052966785,0.0,10.0,0.0,0.0,0.0,10.0,0.0,0.0,0.0,10.0,0.0296942461544,0.413588917289,0.51944957062,1.0,0.0,0.0,0.0,1.0,0.0,0.0,0.0,1.0,7.63172973633,2.13635742188,13.7126843262,0.1,0.0,0.0,0.0,0.1,0.0,0.0,0.0,0.1
1446036129084982034,135,1446036129081931114,robocape,20.4906400657,8.33886989223,11.0913672065,0.0,10.0,0.0,0.0,0.0,10.0,0.0,0.0,0.0,10.0,-0.301469835397,0.0519316412565,0.595615977796,1.0,0.0,0.0,0.0,1.0,0.0,0.0,0.0,1.0,6.72880737305,0.872984619141,9.39685913086,0.1,0.0,0.0,0.0,0.1,0.0,0.0,0.0,0.1
1446036129117083951,136,1446036129113807916,robocape,19.5308791029,7.85411486425,12.0675154162,0.0,10.0,0.0,0.0,0.0,10.0,0.0,0.0,0.0,10.0,-0.563125412497,-0.0591221761998,0.568851208841,1.0,0.0,0.0,0.0,1.0,0.0,0.0,0.0,1.0,1.54598510742,0.845441894531,9.32500854492,0.1,0.0,0.0,0.0,0.1,0.0,0.0,0.0,0.1
1446036129150014659,137,1446036129146893978,robocape,18.0722475786,7.88701778945,13.1816740655,0.0,10.0,0.0,0.0,0.0,10.0,0.0,0.0,0.0,10.0,-0.835300475903,0.207593406972,0.547279604011,1.0,0.0,0.0,0.0,1.0,0.0,0.0,0.0,1.0,2.34711914063,1.26337280273,12.0457507324,0.1,0.0,0.0,0.0,0.1,0.0,0.0,0.0,0.1
1446036129183575326,138,1446036129180402040,robocape,16.1946955901,7.24924958743,14.104902671,0.0,10.0,0.0,0.0,0.0,10.0,0.0,0.0,0.0,10.0,-1.04569020202,-0.177233370545,0.557399616154,1.0,0.0,0.0,0.0,1.0,0.0,0.0,0.0,1.0,5.96359863281,0.956810302734,6.61025390625,0.1,0.0,0.0,0.0,0.1,0.0,0.0,0.0,0.1
1446036129216823201,139,1446036129213664054,robocape,13.8119038171,7.18614699095,15.1095211836,0.0,10.0,0.0,0.0,0.0,10.0,0.0,0.0,0.0,10.0,-1.3126721013,0.104129598622,0.51412324844,1.0,0.0,0.0,0.0,1.0,0.0,0.0,0.0,1.0,-0.549656982422,0.888552246094,12.2672900391,0.1,0.0,0.0,0.0,0.1,0.0,0.0,0.0,0.1
1446036129249091326,140,1446036129246052026,robocape,11.0333047066,6.92101653509,15.9534785109,0.0,10.0,0.0,0.0,0.0,10.0,0.0,0.0,0.0,10.0,-1.5093465478,-0.0411458388417,0.458463181657,1.0,0.0,0.0,0.0,1.0,0.0,0.0,0.0,1.0,-3.27039916992,0.543669433594,6.49529296875,0.1,0.0,0.0,0.0,0.1,0.0,0.0,0.0,0.1
1446036129282296034,141,1446036129279269933,robocape,7.94956773476,6.62704157614,16.5592146694,0.0,10.0,0.0,0.0,0.0,10.0,0.0,0.0,0.0,10.0,-1.65209198223,-0.0994690667145,0.33702303595,1.0,0.0,0.0,0.0,1.0,0.0,0.0,0.0,1.0,-3.41529785156,-0.21076171875,12.1187988281,0.1,0.0,0.0,0.0,0.1,0.0,0.0,0.0,0.1
1446036129315943034,142,1446036129312836885,robocape,4.96621656368,6.29306209115,16.7129082316,0.0,10.0,0.0,0.0,0.0,10.0,0.0,0.0,0.0,10.0,-1.57086556898,-0.163651248985,0.101732753641,1.0,0.0,0.0,0.0,1.0,0.0,0.0,0.0,1.0,-3.67036743164,-0.869392089844,7.76585083008,0.1,0.0,0.0,0.0,0.1,0.0,0.0,0.0,0.1
1446036129349378159,143,1446036129346272945,robocape,2.39872113832,6.11583065472,16.4545288361,0.0,10.0,0.0,0.0,0.0,10.0,0.0,0.0,0.0,10.0,-1.32945001617,-0.0990695925509,-0.123038042362,1.0,0.0,0.0,0.0,1.0,0.0,0.0,0.0,1.0,-5.60554321289,-1.43581420898,10.0614770508,0.1,0.0,0.0,0.0,0.1,0.0,0.0,0.0,0.1
1446036129383845367,144,1446036129380680084,robocape,0.328494781726,6.48925947795,15.8128281322,0.0,10.0,0.0,0.0,0.0,10.0,0.0,0.0,0.0,10.0,-1.04742125673,0.190815492104,-0.331030923497,1.0,0.0,0.0,0.0,1.0,0.0,0.0,0.0,1.0,-6.44260253906,-1.74716674805,9.92735595703,0.1,0.0,0.0,0.0,0.1,0.0,0.0,0.0,0.1
1446036129415282867,145,1446036129412280082,robocape,-1.32090489772,6.80014118066,15.073769514,0.0,10.0,0.0,0.0,0.0,10.0,0.0,0.0,0.0,10.0,-0.82012045769,0.170042835602,-0.374307291211,1.0,0.0,0.0,0.0,1.0,0.0,0.0,0.0,1.0,-1.95553344727,-1.58430541992,11.0590026855,0.1,0.0,0.0,0.0,0.1,0.0,0.0,0.0,0.1
1446036129448972242,146,1446036129445880889,robocape,-2.62265557304,7.00403019836,14.3469922338,0.0,10.0,0.0,0.0,0.0,10.0,0.0,0.0,0.0,10.0,-0.638093397183,0.124103306798,-0.364586753232,1.0,0.0,0.0,0.0,1.0,0.0,0.0,0.0,1.0,1.21786743164,-0.621507568359,10.310559082,0.1,0.0,0.0,0.0,0.1,0.0,0.0,0.0,0.1
1446036129482168284,147,1446036129479069948,robocape,-3.82555974677,7.83462520743,13.5253585814,0.0,10.0,0.0,0.0,0.0,10.0,0.0,0.0,0.0,10.0,-0.578172272656,0.464588452164,-0.389886783588,1.0,0.0,0.0,0.0,1.0,0.0,0.0,0.0,1.0,5.16246459961,-1.26696533203,11.8553466797,0.1,0.0,0.0,0.0,0.1,0.0,0.0,0.0,0.1
1446036129515754909,148,1446036129512690067,robocape,-4.87164487785,8.25211027856,12.8255229252,0.0,10.0,0.0,0.0,0.0,10.0,0.0,0.0,0.0,10.0,-0.501340075207,0.252201355231,-0.333960400696,1.0,0.0,0.0,0.0,1.0,0.0,0.0,0.0,1.0,4.88703735352,-0.508941650391,8.59812011719,0.1,0.0,0.0,0.0,0.1,0.0,0.0,0.0,0.1
1446036129552372909,149,1446036129549228906,robocape,-6.1237363655,8.79898902368,12.1964019875,0.0,10.0,0.0,0.0,0.0,10.0,0.0,0.0,0.0,10.0,-0.614124947372,0.325038811044,-0.283493498039,1.0,0.0,0.0,0.0,1.0,0.0,0.0,0.0,1.0,5.98036376953,-0.283809814453,11.5679443359,0.1,0.0,0.0,0.0,0.1,0.0,0.0,0.0,0.1
1446036129584665992,150,1446036129581651926,robocape,-7.63434536321,8.75198898825,11.7528173092,0.0,10.0,0.0,0.0,0.0,10.0,0.0,0.0,0.0,10.0,-0.764859865071,0.0119842249054,-0.217447103005,1.0,0.0,0.0,0.0,1.0,0.0,0.0,0.0,1.0,-1.23702758789,-0.455053710938,8.88073242188,0.1,0.0,0.0,0.0,0.1,0.0,0.0,0.0,0.1
1446036129615725159,151,1446036129612719058,robocape,-9.60766695116,8.79708648629,11.3151826121,0.0,10.0,0.0,0.0,0.0,10.0,0.0,0.0,0.0,10.0,-1.01293332061,0.0685763980695,-0.203731823391,1.0,0.0,0.0,0.0,1.0,0.0,0.0,0.0,1.0,-1.20948486328,-0.28740234375,10.8530310059,0.1,0.0,0.0,0.0,0.1,0.0,0.0,0.0,0.1
1446036129649028201,152,1446036129646001100,robocape,-12.0761645407,9.66979422896,10.6856195365,0.0,10.0,0.0,0.0,0.0,10.0,0.0,0.0,0.0,10.0,-1.26580046611,0.527971686108,-0.210123410007,1.0,0.0,0.0,0.0,1.0,0.0,0.0,0.0,1.0,1.51125732422,-0.203576660156,13.7498071289,0.1,0.0,0.0,0.0,0.1,0.0,0.0,0.0,0.1
1446036129682462867,153,1446036129679425001,robocape,-14.8884980893,10.4240048163,10.0832274073,0.0,10.0,0.0,0.0,0.0,10.0,0.0,0.0,0.0,10.0,-1.45714859044,0.480167944541,-0.181627586343,1.0,0.0,0.0,0.0,1.0,0.0,0.0,0.0,1.0,3.92064697266,0.414338378906,7.03656738281,0.1,0.0,0.0,0.0,0.1,0.0,0.0,0.0,0.1
1446036129716225243,154,1446036129712887048,robocape,-18.05807969,10.6965142947,9.43805485747,0.0,10.0,0.0,0.0,0.0,10.0,0.0,0.0,0.0,10.0,-1.65302408861,0.258859257956,-0.246342400832,1.0,0.0,0.0,0.0,1.0,0.0,0.0,0.0,1.0,6.61983398438,-1.18194213867,11.2350366211,0.1,0.0,0.0,0.0,0.1,0.0,0.0,0.0,0.1
1446036129749109451,155,1446036129746043920,robocape,-21.5294856151,10.470921496,8.64934636699,0.0,10.0,0.0,0.0,0.0,10.0,0.0,0.0,0.0,10.0,-1.8166753376,0.0571248053822,-0.387756254716,1.0,0.0,0.0,0.0,1.0,0.0,0.0,0.0,1.0,3.19136352539,-1.01548828125,9.2387878418,0.1,0.0,0.0,0.0,0.1,0.0,0.0,0.0,0.1
1446036129782338493,156,1446036129779155015,robocape,-24.7967285135,11.0472867205,6.88479328342,0.0,10.0,0.0,0.0,0.0,10.0,0.0,0.0,0.0,10.0,-1.63318353849,0.672048701081,-0.681636081006,1.0,0.0,0.0,0.0,1.0,0.0,0.0,0.0,1.0,0.166453857422,-11.2086914063,14.6479394531,0.1,0.0,0.0,0.0,0.1,0.0,0.0,0.0,0.1
1446036129815810951,157,1446036129812649011,robocape,-24.887458724,11.5308271948,3.69383317841,0.0,10.0,0.0,0.0,0.0,10.0,0.0,0.0,0.0,10.0,0.268979270098,0.923051633821,-1.37805270606,1.0,0.0,0.0,0.0,1.0,0.0,0.0,0.0,1.0,3.76736572266,-2.69798950195,10.6566394043,0.1,0.0,0.0,0.0,0.1,0.0,0.0,0.0,0.1
1446036129848730743,158,1446036129845669984,robocape,-23.7785841568,11.6642667985,0.756659485953,0.0,10.0,0.0,0.0,0.0,10.0,0.0,0.0,0.0,10.0,0.9032110837,0.67790765548,-1.34636108909,1.0,0.0,0.0,0.0,1.0,0.0,0.0,0.0,1.0,5.86181030273,-3.67635498047,10.8733886719,0.1,0.0,0.0,0.0,0.1,0.0,0.0,0.0,0.1
1446036129881902618,159,1446036129878845930,robocape,-21.7732989745,11.7732964848,-1.76502546757,0.0,10.0,0.0,0.0,0.0,10.0,0.0,0.0,0.0,10.0,1.34050213469,0.540488543232,-1.17139140547,1.0,0.0,0.0,0.0,1.0,0.0,0.0,0.0,1.0,0.366437988281,-1.7280065918,9.56930053711,0.1,0.0,0.0,0.0,0.1,0.0,0.0,0.0,0.1
1446036129915447993,160,1446036129912214994,robocape,-19.389444289,11.9561071524,-3.99081684667,0.0,10.0,0.0,0.0,0.0,10.0,0.0,0.0,0.0,10.0,1.50561812228,0.478703205942,-1.0331733449,1.0,0.0,0.0,0.0,1.0,0.0,0.0,0.0,1.0,-0.829874267578,-1.55077514648,9.75611206055,0.1,0.0,0.0,0.0,0.1,0.0,0.0,0.0,0.1
1446036129948864326,161,1446036129945770978,robocape,-16.8985253801,12.2373672478,-5.97462641094,0.0,10.0,0.0,0.0,0.0,10.0,0.0,0.0,0.0,10.0,1.53145078485,0.448742643678,-0.917592153587,1.0,0.0,0.0,0.0,1.0,0.0,0.0,0.0,1.0,-1.66214355469,-1.17595458984,12.0158129883,0.1,0.0,0.0,0.0,0.1,0.0,0.0,0.0,0.1
1446036129981945534,162,1446036129978851079,robocape,-14.2053571829,12.2320596298,-7.64369143067,0.0,10.0,0.0,0.0,0.0,10.0,0.0,0.0,0.0,10.0,1.60202455374,0.219977106041,-0.821185722126,1.0,0.0,0.0,0.0,1.0,0.0,0.0,0.0,1.0,-2.72792724609,-0.625100097656,9.43398193359,0.1,0.0,0.0,0.0,0.1,0.0,0.0,0.0,0.1
1446036130015635826,163,1446036130012361049,robocape,-11.544765873,12.4757166481,-9.13745589386,0.0,10.0,0.0,0.0,0.0,10.0,0.0,0.0,0.0,10.0,1.56061239879,0.294945090726,-0.716789807395,1.0,0.0,0.0,0.0,1.0,0.0,0.0,0.0,1.0,0.623902587891,-0.911304931641,11.0661877441,0.1,0.0,0.0,0.0,0.1,0.0,0.0,0.0,0.1
1446036130049201201,164,1446036130045927047,robocape,-8.7040375665,12.1144359158,-10.308770433,0.0,10.0,0.0,0.0,0.0,10.0,0.0,0.0,0.0,10.0,1.6188024686,-0.0816258874109,-0.62291337897,1.0,0.0,0.0,0.0,1.0,0.0,0.0,0.0,1.0,3.1841784668,-0.427510986328,8.33347045898,0.1,0.0,0.0,0.0,0.1,0.0,0.0,0.0,0.1
1446036130082495618,165,1446036130078995943,robocape,-5.72982741534,11.9466983541,-11.306909112,0.0,10.0,0.0,0.0,0.0,10.0,0.0,0.0,0.0,10.0,1.66527462963,-0.0189084437396,-0.521580099492,1.0,0.0,0.0,0.0,1.0,0.0,0.0,0.0,1.0,0.740061035156,-0.597557373047,9.18729492188,0.1,0.0,0.0,0.0,0.1,0.0,0.0,0.0,0.1
1446036130115766951,166,1446036130112400054,robocape,-2.8498824817,11.4697939482,-12.1133483357,0.0,10.0,0.0,0.0,0.0,10.0,0.0,0.0,0.0,10.0,1.59323612214,-0.21198762277,-0.437024734882,1.0,0.0,0.0,0.0,1.0,0.0,0.0,0.0,1.0,-5.29778320313,-0.0431103515625,9.58486816406,0.1,0.0,0.0,0.0,0.1,0.0,0.0,0.0,0.1
1446036130149089201,167,1446036130145648002,robocape,0.0734499629134,10.971574914,-12.7871239267,0.0,10.0,0.0,0.0,0.0,10.0,0.0,0.0,0.0,10.0,1.60082613125,-0.243412923633,-0.36245622436,1.0,0.0,0.0,0.0,1.0,0.0,0.0,0.0,1.0,-7.68442016602,-0.256267089844,8.28676757813,0.1,0.0,0.0,0.0,0.1,0.0,0.0,0.0,0.1
1446036130182202951,168,1446036130179043054,robocape,2.93712014728,10.9649800361,-13.2935650978,0.0,10.0,0.0,0.0,0.0,10.0,0.0,0.0,0.0,10.0,1.55581870882,0.00412789968962,-0.277767701695,1.0,0.0,0.0,0.0,1.0,0.0,0.0,0.0,1.0,2.82851806641,0.185614013672,11.9032470703,0.1,0.0,0.0,0.0,0.1,0.0,0.0,0.0,0.1
1446036130215722326,169,1446036130212558984,robocape,5.77242858919,10.5235386281,-13.6849796879,0.0,10.0,0.0,0.0,0.0,10.0,0.0,0.0,0.0,10.0,1.53318183956,-0.231428698728,-0.203066033119,1.0,0.0,0.0,0.0,1.0,0.0,0.0,0.0,1.0,-3.0620324707,0.166453857422,5.83786010742,0.1,0.0,0.0,0.0,0.1,0.0,0.0,0.0,0.1
1446036130248921201,170,1446036130245799064,robocape,8.48673861853,10.6081152359,-13.8546898075,0.0,10.0,0.0,0.0,0.0,10.0,0.0,0.0,0.0,10.0,1.45595016795,0.051532167093,-0.119043300727,1.0,0.0,0.0,0.0,1.0,0.0,0.0,0.0,1.0,-1.54718261719,0.743653564453,13.2372729492,0.1,0.0,0.0,0.0,0.1,0.0,0.0,0.0,0.1
1446036130281988368,171,1446036130278949975,robocape,11.1799999986,10.9869891118,-13.8185973487,0.0,10.0,0.0,0.0,0.0,10.0,0.0,0.0,0.0,10.0,1.43451172117,0.220776054368,-0.0482032157304,1.0,0.0,0.0,0.0,1.0,0.0,0.0,0.0,1.0,0.314945068359,0.506546630859,7.53832397461,0.1,0.0,0.0,0.0,0.1,0.0,0.0,0.0,0.1
1446036130315633909,172,1446036130312604904,robocape,13.6831685598,11.7657636964,-13.5181541572,0.0,10.0,0.0,0.0,0.0,10.0,0.0,0.0,0.0,10.0,1.31759894932,0.457930549439,0.0254331884103,1.0,0.0,0.0,0.0,1.0,0.0,0.0,0.0,1.0,0.484991455078,1.2226574707,13.3258886719,0.1,0.0,0.0,0.0,0.1,0.0,0.0,0.0,0.1
1446036130349025201,173,1446036130345887899,robocape,16.093168623,12.1317996429,-13.0648233349,0.0,10.0,0.0,0.0,0.0,10.0,0.0,0.0,0.0,10.0,1.2564794023,0.271509273134,0.138617534739,1.0,0.0,0.0,0.0,1.0,0.0,0.0,0.0,1.0,6.41745483398,0.649050292969,8.64242797852,0.1,0.0,0.0,0.0,0.1,0.0,0.0,0.0,0.1
1446036130382028201,174,1446036130378998041,robocape,18.2188662784,12.4233952872,-12.4652557515,0.0,10.0,0.0,0.0,0.0,10.0,0.0,0.0,0.0,10.0,1.09469236608,0.262987157645,0.212653413043,1.0,0.0,0.0,0.0,1.0,0.0,0.0,0.0,1.0,-2.60099121094,0.456251220703,11.4841186523,0.1,0.0,0.0,0.0,0.1,0.0,0.0,0.0,0.1
1446036130415636910,175,1446036130412333965,robocape,20.1470386691,12.1086489501,-11.8192409442,0.0,10.0,0.0,0.0,0.0,10.0,0.0,0.0,0.0,10.0,0.984570655002,-0.0245010820287,0.336357245677,1.0,0.0,0.0,0.0,1.0,0.0,0.0,0.0,1.0,0.102985839844,1.34360595703,10.7404650879,0.1,0.0,0.0,0.0,0.1,0.0,0.0,0.0,0.1
1446036130450373826,176,1446036130446855068,robocape,21.7580821627,11.9412379993,-11.1472904594,0.0,10.0,0.0,0.0,0.0,10.0,0.0,0.0,0.0,10.0,0.820253615744,0.0631169178349,0.323840388554,1.0,0.0,0.0,0.0,1.0,0.0,0.0,0.0,1.0,4.49305664063,0.753233642578,10.0351318359,0.1,0.0,0.0,0.0,0.1,0.0,0.0,0.0,0.1
1446036130482852201,177,1446036130479476928,robocape,23.1935586259,11.2502015742,-10.3240598791,0.0,10.0,0.0,0.0,0.0,10.0,0.0,0.0,0.0,10.0,0.708400849961,-0.156061239879,0.506400081279,1.0,0.0,0.0,0.0,1.0,0.0,0.0,0.0,1.0,-4.07871826172,1.86093017578,6.44260253906,0.1,0.0,0.0,0.0,0.1,0.0,0.0,0.0,0.1
1446036130516090951,178,1446036130512846946,robocape,24.0810842936,11.4543672325,-9.14008182409,0.0,10.0,0.0,0.0,0.0,10.0,0.0,0.0,0.0,10.0,0.384826777516,0.358062008561,0.494415856373,1.0,0.0,0.0,0.0,1.0,0.0,0.0,0.0,1.0,-2.91713378906,1.9124230957,15.2047814941,0.1,0.0,0.0,0.0,0.1,0.0,0.0,0.0,0.1
1446036130552703410,179,1446036130549561023,robocape,24.7845079267,11.9578711556,-7.53132677526,0.0,10.0,0.0,0.0,0.0,10.0,0.0,0.0,0.0,10.0,0.237021337017,0.597613348614,0.625976014223,1.0,0.0,0.0,0.0,1.0,0.0,0.0,0.0,1.0,-2.55548583984,3.07520507813,10.7692053223,0.1,0.0,0.0,0.0,0.1,0.0,0.0,0.0,0.1
1446036130611361826,180,1446036130579566955,robocape,24.1408767624,12.0003250098,-5.88874305857,0.0,10.0,0.0,0.0,0.0,10.0,0.0,0.0,0.0,10.0,-0.515721145094,0.368581494867,0.756737223746,1.0,0.0,0.0,0.0,1.0,0.0,0.0,0.0,1.0,-5.98036376953,4.47150146484,13.6025134277,0.1,0.0,0.0,0.0,0.1,0.0,0.0,0.0,0.1
1446036130633561160,181,1446036130630525112,robocape,21.9425475393,11.3387316559,-4.35297697358,0.0,10.0,0.0,0.0,0.0,10.0,0.0,0.0,0.0,10.0,-1.35475004652,-0.0299605622634,0.872851047273,1.0,0.0,0.0,0.0,1.0,0.0,0.0,0.0,1.0,-5.42352172852,0.954415283203,8.36580322266,0.1,0.0,0.0,0.0,0.1,0.0,0.0,0.0,0.1
1446036130655762243,182,1446036130652398109,robocape,19.5478015708,11.00881562,-2.96129299864,0.0,10.0,0.0,0.0,0.0,10.0,0.0,0.0,0.0,10.0,-1.42585644763,0.0753674588492,0.737828780006,1.0,0.0,0.0,0.0,1.0,0.0,0.0,0.0,1.0,-3.66437988281,0.756826171875,10.0566870117,0.1,0.0,0.0,0.0,0.1,0.0,0.0,0.0,0.1
1446036130683349701,183,1446036130680218935,robocape,16.9972026766,10.4406235708,-2.08797500773,0.0,10.0,0.0,0.0,0.0,10.0,0.0,0.0,0.0,10.0,-1.44489804942,-0.155928081824,0.525441683073,1.0,0.0,0.0,0.0,1.0,0.0,0.0,0.0,1.0,-4.77207641602,0.0490979003906,11.613449707,0.1,0.0,0.0,0.0,0.1,0.0,0.0,0.0,0.1
1446036130715526201,184,1446036130712392091,robocape,14.9456168383,10.9363653112,-1.37499653077,0.0,10.0,0.0,0.0,0.0,10.0,0.0,0.0,0.0,10.0,-1.14835506204,0.347143048092,0.282295075548,1.0,0.0,0.0,0.0,1.0,0.0,0.0,0.0,1.0,2.29442871094,-0.425115966797,7.88560180664,0.1,0.0,0.0,0.0,0.1,0.0,0.0,0.0,0.1
1446036130748846451,185,1446036130745805978,robocape,13.4507096355,10.8157222787,-1.14365867128,0.0,10.0,0.0,0.0,0.0,10.0,0.0,0.0,0.0,10.0,-0.806005703912,-0.0323574072445,0.130894367577,1.0,0.0,0.0,0.0,1.0,0.0,0.0,0.0,1.0,-1.56275024414,-1.31486572266,9.59444824219,0.1,0.0,0.0,0.0,0.1,0.0,0.0,0.0,0.1
1446036130782223160,186,1446036130779175996,robocape,12.6991638519,10.7332790683,-1.15816652146,0.0,10.0,0.0,0.0,0.0,10.0,0.0,0.0,0.0,10.0,-0.385892041952,-0.0386158358061,0.00133158054504,1.0,0.0,0.0,0.0,1.0,0.0,0.0,0.0,1.0,-1.96511352539,-1.21666992188,8.71427856445,0.1,0.0,0.0,0.0,0.1,0.0,0.0,0.0,0.1
1446036130815832785,187,1446036130812549114,robocape,12.6241127626,10.8570042164,-1.28837171332,0.0,10.0,0.0,0.0,0.0,10.0,0.0,0.0,0.0,10.0,-0.0145142279409,0.0585895439817,-0.0818922035199,1.0,0.0,0.0,0.0,1.0,0.0,0.0,0.0,1.0,-2.84648071289,-0.995130615234,13.4097143555,0.1,0.0,0.0,0.0,0.1,0.0,0.0,0.0,0.1
1446036130849198118,188,1446036130846111059,robocape,13.2272270383,10.9567226281,-1.49248651951,0.0,10.0,0.0,0.0,0.0,10.0,0.0,0.0,0.0,10.0,0.353268318599,0.0412789968962,-0.117445404072,1.0,0.0,0.0,0.0,1.0,0.0,0.0,0.0,1.0,3.73623046875,-0.262254638672,7.88919433594,0.1,0.0,0.0,0.0,0.1,0.0,0.0,0.0,0.1
1446036130882331326,189,1446036130879246950,robocape,14.4041841867,10.9318720708,-1.72431710593,0.0,10.0,0.0,0.0,0.0,10.0,0.0,0.0,0.0,10.0,0.662328163103,-0.0242347659197,-0.117312246018,1.0,0.0,0.0,0.0,1.0,0.0,0.0,0.0,1.0,-4.29307250977,-0.486188964844,12.9594506836,0.1,0.0,0.0,0.0,0.1,0.0,0.0,0.0,0.1
1446036130915508576,190,1446036130912211894,robocape,16.1763155067,11.1449451115,-1.77925020892,0.0,10.0,0.0,0.0,0.0,10.0,0.0,0.0,0.0,10.0,0.967792740135,0.123038042362,-0.0633832339439,1.0,0.0,0.0,0.0,1.0,0.0,0.0,0.0,1.0,2.86085083008,-0.267044677734,9.06874145508,0.1,0.0,0.0,0.0,0.1,0.0,0.0,0.0,0.1
1446036130950705201,191,1446036130947612047,robocape,18.3240885667,11.3284167777,-1.88532687735,0.0,10.0,0.0,0.0,0.0,10.0,0.0,0.0,0.0,10.0,1.18217720789,0.103330650295,-0.0893490545722,1.0,0.0,0.0,0.0,1.0,0.0,0.0,0.0,1.0,-1.9507434082,-0.144898681641,9.06514892578,0.1,0.0,0.0,0.0,0.1,0.0,0.0,0.0,0.1
1446036130981975826,192,1446036130978892087,robocape,20.7411106284,11.6106653168,-1.73611296093,0.0,10.0,0.0,0.0,0.0,10.0,0.0,0.0,0.0,10.0,1.3126721013,0.19867181732,0.0118510668509,1.0,0.0,0.0,0.0,1.0,0.0,0.0,0.0,1.0,0.761616210938,-0.0874182128906,9.32381103516,0.1,0.0,0.0,0.0,0.1,0.0,0.0,0.0,0.1
1446036131015727910,193,1446036131012501955,robocape,23.2613806672,11.6764258765,-1.50209621882,0.0,10.0,0.0,0.0,0.0,10.0,0.0,0.0,0.0,10.0,1.37192743555,0.114249610764,0.0864195773731,1.0,0.0,0.0,0.0,1.0,0.0,0.0,0.0,1.0,-1.41545654297,0.886157226563,9.45553710938,0.1,0.0,0.0,0.0,0.1,0.0,0.0,0.0,0.1
1446036131049824535,194,1446036131046807050,robocape,25.7916579802,11.6249102967,-1.00393663264,0.0,10.0,0.0,0.0,0.0,10.0,0.0,0.0,0.0,10.0,1.36420426839,0.12210593598,0.231561856782,1.0,0.0,0.0,0.0,1.0,0.0,0.0,0.0,1.0,2.73511230469,0.675395507813,9.09149414063,0.1,0.0,0.0,0.0,0.1,0.0,0.0,0.0,0.1
