%time,field.header.seq,field.header.stamp,field.header.frame_id,field.orientation.x,field.orientation.y,field.orientation.z,field.orientation.w,field.orientation_covariance0,field.orientation_covariance1,field.orientation_covariance2,field.orientation_covariance3,field.orientation_covariance4,field.orientation_covariance5,field.orientation_covariance6,field.orientation_covariance7,field.orientation_covariance8,field.angular_velocity.x,field.angular_velocity.y,field.angular_velocity.z,field.angular_velocity_covariance0,field.angular_velocity_covariance1,field.angular_velocity_covariance2,field.angular_velocity_covariance3,field.angular_velocity_covariance4,field.angular_velocity_covariance5,field.angular_velocity_covariance6,field.angular_velocity_covariance7,field.angular_velocity_covariance8,field.linear_acceleration.x,field.linear_acceleration.y,field.linear_acceleration.z,field.linear_acceleration_covariance0,field.linear_acceleration_covariance1,field.linear_acceleration_covariance2,field.linear_acceleration_covariance3,field.linear_acceleration_covariance4,field.linear_acceleration_covariance5,field.linear_acceleration_covariance6,field.linear_acceleration_covariance7,field.linear_acceleration_covariance8
1452009323105413933,1,1452009323087198019,robocape,14.5945798271,-4.04698539574,-26.091088745,0.0,10.0,0.0,0.0,0.0,10.0,0.0,0.0,0.0,10.0,0.00452737385313,0.0126500151779,0.00412789968962,1.0,0.0,0.0,0.0,1.0,0.0,0.0,0.0,1.0,-0.0718505859375,0.261057128906,10.039921875,0.1,0.0,0.0,0.0,0.1,0.0,0.0,0.0,0.1
1452009323126816224,2,1452009323122879981,robocape,14.5642756023,-4.02464261726,-26.0145432997,0.0,10.0,0.0,0.0,0.0,10.0,0.0,0.0,0.0,10.0,0.00386158358061,0.0122505410144,0.00372842552611,1.0,0.0,0.0,0.0,1.0,0.0,0.0,0.0,1.0,-0.0946032714844,0.267044677734,10.0530944824,0.1,0.0,0.0,0.0,0.1,0.0,0.0,0.0,0.1
1452009323154495891,3,1452009323151248931,robocape,14.5328900323,-4.00261744555,-25.9382048106,0.0,10.0,0.0,0.0,0.0,10.0,0.0,0.0,0.0,10.0,0.0031957933081,0.0121173829599,0.00386158358061,1.0,0.0,0.0,0.0,1.0,0.0,0.0,0.0,1.0,-0.076640625,0.263452148438,10.0590820312,0.1,0.0,0.0,0.0,0.1,0.0,0.0,0.0,0.1
1452009323188199558,4,1452009323184484004,robocape,14.5016644988,-3.98097217653,-25.8618046418,0.0,10.0,0.0,0.0,0.0,10.0,0.0,0.0,0.0,10.0,0.0031957933081,0.0119842249054,0.00412789968962,1.0,0.0,0.0,0.0,1.0,0.0,0.0,0.0,1.0,-0.0910107421875,0.258662109375,10.0483044434,0.1,0.0,0.0,0.0,0.1,0.0,0.0,0.0,0.1
1452009323222290683,5,1452009323219101905,robocape,14.470375378,-3.95926879031,-25.7859887658,0.0,10.0,0.0,0.0,0.0,10.0,0.0,0.0,0.0,10.0,0.00306263525359,0.0119842249054,0.00399474163512,1.0,0.0,0.0,0.0,1.0,0.0,0.0,0.0,1.0,-0.086220703125,0.256267089844,10.0590820312,0.1,0.0,0.0,0.0,0.1,0.0,0.0,0.0,0.1
1452009323255338808,6,1452009323252173900,robocape,14.4395072293,-3.93708029556,-25.7103869104,0.0,10.0,0.0,0.0,0.0,10.0,0.0,0.0,0.0,10.0,0.0031957933081,0.0122505410144,0.00399474163512,1.0,0.0,0.0,0.0,1.0,0.0,0.0,0.0,1.0,-0.067060546875,0.256267089844,10.0818347168,0.1,0.0,0.0,0.0,0.1,0.0,0.0,0.0,0.1
1452009323289002266,7,1452009323285440921,robocape,14.4095529182,-3.91496291511,-25.6348697446,0.0,10.0,0.0,0.0,0.0,10.0,0.0,0.0,0.0,10.0,0.00359526747161,0.0122505410144,0.00412789968962,1.0,0.0,0.0,0.0,1.0,0.0,0.0,0.0,1.0,-0.0634680175781,0.251477050781,10.0794396973,0.1,0.0,0.0,0.0,0.1,0.0,0.0,0.0,0.1
1452009323322660808,8,1452009323319557905,robocape,14.3802593594,-3.89291697827,-25.5594411799,0.0,10.0,0.0,0.0,0.0,10.0,0.0,0.0,0.0,10.0,0.00386158358061,0.0122505410144,0.00426105774413,1.0,0.0,0.0,0.0,1.0,0.0,0.0,0.0,1.0,-0.0874182128906,0.263452148438,10.0530944824,0.1,0.0,0.0,0.0,0.1,0.0,0.0,0.0,0.1
1452009323354140849,9,1452009323351073980,robocape,14.3496319663,-3.87063357246,-25.4843256309,0.0,10.0,0.0,0.0,0.0,10.0,0.0,0.0,0.0,10.0,0.00306263525359,0.0123836990689,0.00426105774413,1.0,0.0,0.0,0.0,1.0,0.0,0.0,0.0,1.0,-0.0898132324219,0.270637207031,10.0578845215,0.1,0.0,0.0,0.0,0.1,0.0,0.0,0.0,0.1
1452009323387182391,10,1452009323383615016,robocape,14.3179374144,-3.84854073831,-25.4098691228,0.0,10.0,0.0,0.0,0.0,10.0,0.0,0.0,0.0,10.0,0.00239684498107,0.0122505410144,0.00412789968962,1.0,0.0,0.0,0.0,1.0,0.0,0.0,0.0,1.0,-0.086220703125,0.281414794922,10.0411193848,0.1,0.0,0.0,0.0,0.1,0.0,0.0,0.0,0.1
1452009323421181391,11,1452009323418020963,robocape,14.2866769814,-3.82663791857,-25.3360299867,0.0,10.0,0.0,0.0,0.0,10.0,0.0,0.0,0.0,10.0,0.00253000303558,0.0121173829599,0.00399474163512,1.0,0.0,0.0,0.0,1.0,0.0,0.0,0.0,1.0,-0.0790356445313,0.257464599609,10.0626745605,0.1,0.0,0.0,0.0,0.1,0.0,0.0,0.0,0.1
1452009323454649224,12,1452009323451518058,robocape,14.2548479843,-3.80492550289,-25.2628299887,0.0,10.0,0.0,0.0,0.0,10.0,0.0,0.0,0.0,10.0,0.00213052887206,0.0119842249054,0.00386158358061,1.0,0.0,0.0,0.0,1.0,0.0,0.0,0.0,1.0,-0.0934057617188,0.257464599609,10.080637207,0.1,0.0,0.0,0.0,0.1,0.0,0.0,0.0,0.1
1452009323486674766,13,1452009323483659982,robocape,14.222964032,-3.78383230653,-25.190606123,0.0,10.0,0.0,0.0,0.0,10.0,0.0,0.0,0.0,10.0,0.00199737081756,0.0115847507418,0.00359526747161,1.0,0.0,0.0,0.0,1.0,0.0,0.0,0.0,1.0,-0.0790356445313,0.263452148438,10.0566870117,0.1,0.0,0.0,0.0,0.1,0.0,0.0,0.0,0.1
1452009323521548599,14,1452009323518146038,robocape,14.1924755508,-3.76237869434,-25.1180806291,0.0,10.0,0.0,0.0,0.0,10.0,0.0,0.0,0.0,10.0,0.00266316109008,0.0118510668509,0.00386158358061,1.0,0.0,0.0,0.0,1.0,0.0,0.0,0.0,1.0,-0.0754431152344,0.250279541016,10.0483044434,0.1,0.0,0.0,0.0,0.1,0.0,0.0,0.0,0.1
1452009323554029641,15,1452009323550929069,robocape,14.1641438074,-3.73994920218,-25.0455847678,0.0,10.0,0.0,0.0,0.0,10.0,0.0,0.0,0.0,10.0,0.00372842552611,0.0123836990689,0.00386158358061,1.0,0.0,0.0,0.0,1.0,0.0,0.0,0.0,1.0,-0.0802331542969,0.237106933594,10.0435144043,0.1,0.0,0.0,0.0,0.1,0.0,0.0,0.0,0.1
1452009323587142724,16,1452009323584042072,robocape,14.137446676,-3.71691791183,-24.9727182752,0.0,10.0,0.0,0.0,0.0,10.0,0.0,0.0,0.0,10.0,0.00452737385313,0.0127831732324,0.00412789968962,1.0,0.0,0.0,0.0,1.0,0.0,0.0,0.0,1.0,-0.0682580566406,0.256267089844,10.0447119141,0.1,0.0,0.0,0.0,0.1,0.0,0.0,0.0,0.1
1452009323619897599,17,1452009323616647958,robocape,14.1111483269,-3.69316222865,-24.8999816408,0.0,10.0,0.0,0.0,0.0,10.0,0.0,0.0,0.0,10.0,0.00466053190764,0.0131826473959,0.00412789968962,1.0,0.0,0.0,0.0,1.0,0.0,0.0,0.0,1.0,-0.086220703125,0.267044677734,10.0471069336,0.1,0.0,0.0,0.0,0.1,0.0,0.0,0.0,0.1
1452009323652026516,18,1452009323648932933,robocape,14.084511149,-3.67040606874,-24.8278036856,0.0,10.0,0.0,0.0,0.0,10.0,0.0,0.0,0.0,10.0,0.00439421579863,0.0126500151779,0.00412789968962,1.0,0.0,0.0,0.0,1.0,0.0,0.0,0.0,1.0,-0.0838256835938,0.270637207031,10.0483044434,0.1,0.0,0.0,0.0,0.1,0.0,0.0,0.0,0.1
1452009323685943016,19,1452009323682934045,robocape,14.0567708154,-3.64821705089,-24.7558469113,0.0,10.0,0.0,0.0,0.0,10.0,0.0,0.0,0.0,10.0,0.00372842552611,0.0123836990689,0.00426105774413,1.0,0.0,0.0,0.0,1.0,0.0,0.0,0.0,1.0,-0.0886157226563,0.263452148438,10.0459094238,0.1,0.0,0.0,0.0,0.1,0.0,0.0,0.0,0.1
1452009323720091808,20,1452009323716986894,robocape,14.0274487955,-3.62671548034,-24.684651133,0.0,10.0,0.0,0.0,0.0,10.0,0.0,0.0,0.0,10.0,0.00279631914458,0.0119842249054,0.00412789968962,1.0,0.0,0.0,0.0,1.0,0.0,0.0,0.0,1.0,-0.0826281738281,0.259859619141,10.0279467773,0.1,0.0,0.0,0.0,0.1,0.0,0.0,0.0,0.1
1452009323751587100,21,1452009323748291969,robocape,13.9973117763,-3.60528383899,-24.6145483661,0.0,10.0,0.0,0.0,0.0,10.0,0.0,0.0,0.0,10.0,0.00226368692657,0.0118510668509,0.00372842552611,1.0,0.0,0.0,0.0,1.0,0.0,0.0,0.0,1.0,-0.0850231933594,0.269439697266,10.080637207,0.1,0.0,0.0,0.0,0.1,0.0,0.0,0.0,0.1
1452009323784751683,22,1452009323781547069,robocape,13.9658367965,-3.5845994557,-24.5449574929,0.0,10.0,0.0,0.0,0.0,10.0,0.0,0.0,0.0,10.0,0.00146473859954,0.0114515926873,0.00372842552611,1.0,0.0,0.0,0.0,1.0,0.0,0.0,0.0,1.0,-0.09580078125,0.276624755859,10.075847168,0.1,0.0,0.0,0.0,0.1,0.0,0.0,0.0,0.1
1452009323818109433,23,1452009323815026044,robocape,13.9320514983,-3.56447582822,-24.4766068801,0.0,10.0,0.0,0.0,0.0,10.0,0.0,0.0,0.0,10.0,0.000133158054504,0.0110521185238,0.0033289513626,1.0,0.0,0.0,0.0,1.0,0.0,0.0,0.0,1.0,-0.0850231933594,0.265847167969,10.0662670898,0.1,0.0,0.0,0.0,0.1,0.0,0.0,0.0,0.1
1452009323850849475,24,1452009323847701072,robocape,13.895682867,-3.54509531709,-24.4087920717,0.0,10.0,0.0,0.0,0.0,10.0,0.0,0.0,0.0,10.0,-0.00133158054504,0.0106526443603,0.0033289513626,1.0,0.0,0.0,0.0,1.0,0.0,0.0,0.0,1.0,-0.0946032714844,0.269439697266,10.0722546387,0.1,0.0,0.0,0.0,0.1,0.0,0.0,0.0,0.1
1452009323884149891,25,1452009323881017923,robocape,13.86072808,-3.52497769286,-24.3410661451,0.0,10.0,0.0,0.0,0.0,10.0,0.0,0.0,0.0,10.0,-0.00066579027252,0.0110521185238,0.0033289513626,1.0,0.0,0.0,0.0,1.0,0.0,0.0,0.0,1.0,-0.0790356445313,0.235909423828,10.0674645996,0.1,0.0,0.0,0.0,0.1,0.0,0.0,0.0,0.1
1452009323917818683,26,1452009323914557933,robocape,13.8296472988,-3.50387681867,-24.2723082806,0.0,10.0,0.0,0.0,0.0,10.0,0.0,0.0,0.0,10.0,0.00133158054504,0.0117179087963,0.00386158358061,1.0,0.0,0.0,0.0,1.0,0.0,0.0,0.0,1.0,-0.0694555664063,0.222736816406,10.0782421875,0.1,0.0,0.0,0.0,0.1,0.0,0.0,0.0,0.1
1452009323950861600,27,1452009323947767019,robocape,13.8029566916,-3.48136723477,-24.2031561675,0.0,10.0,0.0,0.0,0.0,10.0,0.0,0.0,0.0,10.0,0.00359526747161,0.0125168571234,0.00399474163512,1.0,0.0,0.0,0.0,1.0,0.0,0.0,0.0,1.0,-0.0790356445313,0.234711914063,10.0686621094,0.1,0.0,0.0,0.0,0.1,0.0,0.0,0.0,0.1
1452009323983864100,28,1452009323980734109,robocape,13.7801319884,-3.45806861863,-24.1332630214,0.0,10.0,0.0,0.0,0.0,10.0,0.0,0.0,0.0,10.0,0.00559263828917,0.0130494893414,0.00439421579863,1.0,0.0,0.0,0.0,1.0,0.0,0.0,0.0,1.0,-0.0802331542969,0.219144287109,10.055489502,0.1,0.0,0.0,0.0,0.1,0.0,0.0,0.0,0.1
1452009324017546558,29,1452009324014247894,robocape,13.7616630871,-3.43373821554,-24.0625575895,0.0,10.0,0.0,0.0,0.0,10.0,0.0,0.0,0.0,10.0,0.00785632521573,0.0137152796139,0.00479368996214,1.0,0.0,0.0,0.0,1.0,0.0,0.0,0.0,1.0,-0.0969982910156,0.237106933594,10.0471069336,0.1,0.0,0.0,0.0,0.1,0.0,0.0,0.0,0.1
1452009324056669433,30,1452009324047606945,robocape,13.7435645313,-3.4086911847,-23.9919566806,0.0,10.0,0.0,0.0,0.0,10.0,0.0,0.0,0.0,10.0,0.00798948327024,0.0141147537774,0.00479368996214,1.0,0.0,0.0,0.0,1.0,0.0,0.0,0.0,1.0,-0.107775878906,0.255069580078,10.0578845215,0.1,0.0,0.0,0.0,0.1,0.0,0.0,0.0,0.1
1452009324085782475,31,1452009324082582950,robocape,13.7248715467,-3.38447284876,-23.9225937534,0.0,10.0,0.0,0.0,0.0,10.0,0.0,0.0,0.0,10.0,0.00759000910673,0.0135821215594,0.00439421579863,1.0,0.0,0.0,0.0,1.0,0.0,0.0,0.0,1.0,-0.101788330078,0.279019775391,10.0566870117,0.1,0.0,0.0,0.0,0.1,0.0,0.0,0.0,0.1
1452009324117692933,32,1452009324114522933,robocape,13.7063865122,-3.35992016844,-23.8559272777,0.0,10.0,0.0,0.0,0.0,10.0,0.0,0.0,0.0,10.0,0.00759000910673,0.0134489635049,0.00306263525359,1.0,0.0,0.0,0.0,1.0,0.0,0.0,0.0,1.0,-0.0898132324219,0.196391601563,10.0734521484,0.1,0.0,0.0,0.0,0.1,0.0,0.0,0.0,0.1
1452009324150712683,33,1452009324147722005,robocape,13.7910668729,-3.32013169881,-23.8509127108,0.0,10.0,0.0,0.0,0.0,10.0,0.0,0.0,0.0,10.0,0.0612527050718,0.0129163312869,-0.032756881408,1.0,0.0,0.0,0.0,1.0,0.0,0.0,0.0,1.0,-0.293389892578,0.384400634766,10.0016015625,0.1,0.0,0.0,0.0,0.1,0.0,0.0,0.0,0.1
1452009324184041808,34,1452009324180902957,robocape,13.8247408422,-3.29537385332,-23.848764674,0.0,10.0,0.0,0.0,0.0,10.0,0.0,0.0,0.0,10.0,0.0342216200075,0.00506000607115,-0.0318247750264,1.0,0.0,0.0,0.0,1.0,0.0,0.0,0.0,1.0,-0.105380859375,0.752036132813,9.90220825195,0.1,0.0,0.0,0.0,0.1,0.0,0.0,0.0,0.1
1452009324217725308,35,1452009324214718103,robocape,13.7807687655,-3.2896124105,-23.8418620451,0.0,10.0,0.0,0.0,0.0,10.0,0.0,0.0,0.0,10.0,-0.00692421883421,-0.00372842552611,-0.0259658206283,1.0,0.0,0.0,0.0,1.0,0.0,0.0,0.0,1.0,-0.179626464844,0.652642822266,9.87227050781,0.1,0.0,0.0,0.0,0.1,0.0,0.0,0.0,0.1
1452009324250841475,36,1452009324247786998,robocape,13.6596241426,-3.30776471211,-23.8456765335,0.0,10.0,0.0,0.0,0.0,10.0,0.0,0.0,0.0,10.0,-0.0482032157304,-0.0170442309765,-0.0276968753368,1.0,0.0,0.0,0.0,1.0,0.0,0.0,0.0,1.0,-0.136516113281,0.603544921875,9.86867797852,0.1,0.0,0.0,0.0,0.1,0.0,0.0,0.0,0.1
1452009324284086933,37,1452009324280944108,robocape,13.4338551615,-3.34945641258,-23.814775313,0.0,10.0,0.0,0.0,0.0,10.0,0.0,0.0,0.0,10.0,-0.103330650295,-0.0242347659197,-0.00506000607115,1.0,0.0,0.0,0.0,1.0,0.0,0.0,0.0,1.0,-0.152083740234,0.724493408203,9.95010864258,0.1,0.0,0.0,0.0,0.1,0.0,0.0,0.0,0.1
1452009324318629516,38,1452009324315618991,robocape,13.1032883852,-3.40975663022,-23.707393541,0.0,10.0,0.0,0.0,0.0,10.0,0.0,0.0,0.0,10.0,-0.157792294587,-0.0238352917562,0.0391484680242,1.0,0.0,0.0,0.0,1.0,0.0,0.0,0.0,1.0,0.354462890625,-0.0514929199219,10.2051782227,0.1,0.0,0.0,0.0,0.1,0.0,0.0,0.0,0.1
1452009324350649558,39,1452009324347594022,robocape,12.7527651181,-3.46196762428,-23.5470735656,0.0,10.0,0.0,0.0,0.0,10.0,0.0,0.0,0.0,10.0,-0.16764599062,-0.0134489635049,0.0667121853065,1.0,0.0,0.0,0.0,1.0,0.0,0.0,0.0,1.0,0.492176513672,-0.560434570312,10.4039648437,0.1,0.0,0.0,0.0,0.1,0.0,0.0,0.0,0.1
1452009324383721683,40,1452009324380671977,robocape,12.6106792585,-3.46849567645,-23.4669337327,0.0,10.0,0.0,0.0,0.0,10.0,0.0,0.0,0.0,10.0,-0.0591221761998,-0.00066579027252,0.016644756813,1.0,0.0,0.0,0.0,1.0,0.0,0.0,0.0,1.0,0.399968261719,-0.634680175781,10.4830004883,0.1,0.0,0.0,0.0,0.1,0.0,0.0,0.0,0.1
1452009324417674267,41,1452009324414293050,robocape,12.5715795112,-3.4448342886,-23.4032933936,0.0,10.0,0.0,0.0,0.0,10.0,0.0,0.0,0.0,10.0,-0.00506000607115,0.0125168571234,0.0034621094171,1.0,0.0,0.0,0.0,1.0,0.0,0.0,0.0,1.0,0.152083740234,-0.44068359375,10.3416943359,0.1,0.0,0.0,0.0,0.1,0.0,0.0,0.0,0.1
1452009324450552725,42,1452009324447455883,robocape,12.5953762546,-3.40013847879,-23.3318645963,0.0,10.0,0.0,0.0,0.0,10.0,0.0,0.0,0.0,10.0,0.0283626656093,0.0241016078652,0.00466053190764,1.0,0.0,0.0,0.0,1.0,0.0,0.0,0.0,1.0,0.0119750976563,-0.340092773437,10.2746337891,0.1,0.0,0.0,0.0,0.1,0.0,0.0,0.0,0.1
1452009324483751767,43,1452009324480679035,robocape,12.6745683538,-3.34098414795,-23.2506137342,0.0,10.0,0.0,0.0,0.0,10.0,0.0,0.0,0.0,10.0,0.0579237537092,0.0326237233535,0.00772316716123,1.0,0.0,0.0,0.0,1.0,0.0,0.0,0.0,1.0,-0.102985839844,-0.283809814453,10.2866088867,0.1,0.0,0.0,0.0,0.1,0.0,0.0,0.0,0.1
1452009324517910308,44,1452009324514389991,robocape,12.8020851636,-3.27046148589,-23.1689711475,0.0,10.0,0.0,0.0,0.0,10.0,0.0,0.0,0.0,10.0,0.0836232582285,0.0384826777516,0.00612527050718,1.0,0.0,0.0,0.0,1.0,0.0,0.0,0.0,1.0,-0.0886157226563,-0.234711914063,10.2782263184,0.1,0.0,0.0,0.0,0.1,0.0,0.0,0.0,0.1
1452009324550655517,45,1452009324547497987,robocape,12.9535368548,-3.18624931853,-23.0602492393,0.0,10.0,0.0,0.0,0.0,10.0,0.0,0.0,0.0,10.0,0.0969390636789,0.048869006003,0.0186421276306,1.0,0.0,0.0,0.0,1.0,0.0,0.0,0.0,1.0,0.102985839844,-0.390388183594,10.3117565918,0.1,0.0,0.0,0.0,0.1,0.0,0.0,0.0,0.1
1452009324583898808,46,1452009324580696105,robocape,13.1770080285,-3.08803809037,-22.960021531,0.0,10.0,0.0,0.0,0.0,10.0,0.0,0.0,0.0,10.0,0.135155425322,0.0549942765101,0.0115847507418,1.0,0.0,0.0,0.0,1.0,0.0,0.0,0.0,1.0,-0.464633789063,-0.0658630371094,10.1441052246,0.1,0.0,0.0,0.0,0.1,0.0,0.0,0.0,0.1
1452009324618135683,47,1452009324614470958,robocape,13.4874905774,-2.98097607513,-22.9441971935,0.0,10.0,0.0,0.0,0.0,10.0,0.0,0.0,0.0,10.0,0.180296005798,0.048869006003,-0.0355532005526,1.0,0.0,0.0,0.0,1.0,0.0,0.0,0.0,1.0,-0.473016357422,0.717308349609,9.8135925293,0.1,0.0,0.0,0.0,0.1,0.0,0.0,0.0,0.1
1452009324650856225,48,1452009324647464990,robocape,13.736858543,-2.90381685722,-22.9124340023,0.0,10.0,0.0,0.0,0.0,10.0,0.0,0.0,0.0,10.0,0.148604388826,0.0358195166616,-0.0231695014837,1.0,0.0,0.0,0.0,1.0,0.0,0.0,0.0,1.0,0.00718505859375,1.36995117188,9.72617431641,0.1,0.0,0.0,0.0,0.1,0.0,0.0,0.0,0.1
1452009324684146975,49,1452009324680809974,robocape,13.7537238721,-2.88253089681,-22.8944333425,0.0,10.0,0.0,0.0,0.0,10.0,0.0,0.0,0.0,10.0,0.0251668723012,0.00625842856169,-0.0209058145571,1.0,0.0,0.0,0.0,1.0,0.0,0.0,0.0,1.0,-0.610729980469,1.51005981445,9.47230224609,0.1,0.0,0.0,0.0,0.1,0.0,0.0,0.0,0.1
1452009324718040517,50,1452009324714133024,robocape,13.5619857691,-2.91671730422,-22.8788971617,0.0,10.0,0.0,0.0,0.0,10.0,0.0,0.0,0.0,10.0,-0.0857537871006,-0.0217047628841,-0.0127831732324,1.0,0.0,0.0,0.0,1.0,0.0,0.0,0.0,1.0,-0.205971679688,1.22145996094,9.68066894531,0.1,0.0,0.0,0.0,0.1,0.0,0.0,0.0,0.1
1452009324751633850,51,1452009324748318910,robocape,13.2257570939,-2.98013487444,-22.8348633739,0.0,10.0,0.0,0.0,0.0,10.0,0.0,0.0,0.0,10.0,-0.16231966844,-0.0326237233535,0.00759000910673,1.0,0.0,0.0,0.0,1.0,0.0,0.0,0.0,1.0,-0.0730480957031,0.508941650391,9.91059082031,0.1,0.0,0.0,0.0,0.1,0.0,0.0,0.0,0.1
1452009324783850225,52,1452009324780766963,robocape,12.8737142493,-3.05513510042,-22.7775657172,0.0,10.0,0.0,0.0,0.0,10.0,0.0,0.0,0.0,10.0,-0.170841783929,-0.0370179391521,0.016112124595,1.0,0.0,0.0,0.0,1.0,0.0,0.0,0.0,1.0,0.0658630371094,-0.202379150391,10.1860180664,0.1,0.0,0.0,0.0,0.1,0.0,0.0,0.0,0.1
1452009324818053642,53,1452009324814461946,robocape,12.6150360231,-3.10895635217,-22.7456629106,0.0,10.0,0.0,0.0,0.0,10.0,0.0,0.0,0.0,10.0,-0.12210593598,-0.0296942461544,-0.000932106381528,1.0,0.0,0.0,0.0,1.0,0.0,0.0,0.0,1.0,0.372425537109,-0.0598754882813,10.2686462402,0.1,0.0,0.0,0.0,0.1,0.0,0.0,0.0,0.1
1452009324850679725,54,1452009324847642898,robocape,12.4065339653,-3.14401087837,-22.7032102456,0.0,10.0,0.0,0.0,0.0,10.0,0.0,0.0,0.0,10.0,-0.0956074831338,-0.0190416017941,0.00199737081756,1.0,0.0,0.0,0.0,1.0,0.0,0.0,0.0,1.0,0.349672851562,0.0215551757813,10.208770752,0.1,0.0,0.0,0.0,0.1,0.0,0.0,0.0,0.1
1452009324884010058,55,1452009324880892038,robocape,12.237936377,-3.18584165417,-22.6467312355,0.0,10.0,0.0,0.0,0.0,10.0,0.0,0.0,0.0,10.0,-0.0744353524677,-0.0210389726116,0.00985369603329,1.0,0.0,0.0,0.0,1.0,0.0,0.0,0.0,1.0,-0.250279541016,-0.274229736328,10.4398901367,0.1,0.0,0.0,0.0,0.1,0.0,0.0,0.0,0.1
1452009324917859475,56,1452009324914185047,robocape,12.1330505169,-3.18966000799,-22.5968208882,0.0,10.0,0.0,0.0,0.0,10.0,0.0,0.0,0.0,10.0,-0.0410126807872,-0.00253000303558,0.00159789665405,1.0,0.0,0.0,0.0,1.0,0.0,0.0,0.0,1.0,-0.865799560547,-0.603544921875,10.1153649902,0.1,0.0,0.0,0.0,0.1,0.0,0.0,0.0,0.1
1452009324952374433,57,1452009324949240922,robocape,12.0462090703,-3.17376596488,-22.5232372258,0.0,10.0,0.0,0.0,0.0,10.0,0.0,0.0,0.0,10.0,-0.0311589847539,0.0102531701968,0.0119842249054,1.0,0.0,0.0,0.0,1.0,0.0,0.0,0.0,1.0,0.279019775391,-0.283809814453,10.2949914551,0.1,0.0,0.0,0.0,0.1,0.0,0.0,0.0,0.1
1452009324984907642,58,1452009324981873989,robocape,12.0152200174,-3.14902516728,-22.4510854439,0.0,10.0,0.0,0.0,0.0,10.0,0.0,0.0,0.0,10.0,-0.00173105470855,0.0145142279409,0.00985369603329,1.0,0.0,0.0,0.0,1.0,0.0,0.0,0.0,1.0,0.637075195313,-0.138911132813,10.2746337891,0.1,0.0,0.0,0.0,0.1,0.0,0.0,0.0,0.1
1452009325019239392,59,1452009325015526056,robocape,12.0032422026,-3.11851441988,-22.3651559199,0.0,10.0,0.0,0.0,0.0,10.0,0.0,0.0,0.0,10.0,0.00852211548825,0.0190416017941,0.0165115987585,1.0,0.0,0.0,0.0,1.0,0.0,0.0,0.0,1.0,0.148491210938,-0.276624755859,10.366842041,0.1,0.0,0.0,0.0,0.1,0.0,0.0,0.0,0.1
1452009325052094267,60,1452009325048938035,robocape,12.0626859254,-3.0697933489,-22.2844149204,0.0,10.0,0.0,0.0,0.0,10.0,0.0,0.0,0.0,10.0,0.0462058449129,0.0276968753368,0.0111852765783,1.0,0.0,0.0,0.0,1.0,0.0,0.0,0.0,1.0,-0.324525146484,-0.405955810547,10.2255358887,0.1,0.0,0.0,0.0,0.1,0.0,0.0,0.0,0.1
1452009325085517183,61,1452009325082369089,robocape,12.146841158,-3.00446748922,-22.1924132454,0.0,10.0,0.0,0.0,0.0,10.0,0.0,0.0,0.0,10.0,0.0595216503633,0.0375505713701,0.0151800182135,1.0,0.0,0.0,0.0,1.0,0.0,0.0,0.0,1.0,-0.0718505859375,-0.429906005859,10.326126709,0.1,0.0,0.0,0.0,0.1,0.0,0.0,0.0,0.1
1452009325119401350,62,1452009325115663051,robocape,12.2827511749,-2.92890861745,-22.1033652601,0.0,10.0,0.0,0.0,0.0,10.0,0.0,0.0,0.0,10.0,0.0869522095911,0.0424774193868,0.0119842249054,1.0,0.0,0.0,0.0,1.0,0.0,0.0,0.0,1.0,0.322130126953,-0.108973388672,10.2734362793,0.1,0.0,0.0,0.0,0.1,0.0,0.0,0.0,0.1
1452009325152957225,63,1452009325149925947,robocape,12.4571211209,-2.84785590863,-22.0150790939,0.0,10.0,0.0,0.0,0.0,10.0,0.0,0.0,0.0,10.0,0.107458549985,0.0452737385313,0.0105194863058,1.0,0.0,0.0,0.0,1.0,0.0,0.0,0.0,1.0,-0.0562829589844,-0.125738525391,10.1620678711,0.1,0.0,0.0,0.0,0.1,0.0,0.0,0.0,0.1
1452009325186401100,64,1452009325182935953,robocape,12.6642335595,-2.75593976509,-21.9251095252,0.0,10.0,0.0,0.0,0.0,10.0,0.0,0.0,0.0,10.0,0.125035413179,0.0511326929295,0.00972053797879,1.0,0.0,0.0,0.0,1.0,0.0,0.0,0.0,1.0,-0.0251477050781,0.00359252929688,10.1716479492,0.1,0.0,0.0,0.0,0.1,0.0,0.0,0.0,0.1
1452009325222162517,65,1452009325218830108,robocape,12.8189828383,-2.67649994336,-21.8265763031,0.0,10.0,0.0,0.0,0.0,10.0,0.0,0.0,0.0,10.0,0.0976048539514,0.0460726868584,0.016112124595,1.0,0.0,0.0,0.0,1.0,0.0,0.0,0.0,1.0,-0.341290283203,0.700543212891,9.90699829102,0.1,0.0,0.0,0.0,0.1,0.0,0.0,0.0,0.1
1452009325254514142,66,1452009325251355886,robocape,12.9005509342,-2.6361512145,-21.7624550122,0.0,10.0,0.0,0.0,0.0,10.0,0.0,0.0,0.0,10.0,0.0584563859272,0.0222373951022,0.0031957933081,1.0,0.0,0.0,0.0,1.0,0.0,0.0,0.0,1.0,-0.265847167969,1.10170898438,9.73455688477,0.1,0.0,0.0,0.0,0.1,0.0,0.0,0.0,0.1
1452009325287992059,67,1452009325284718990,robocape,12.8156158543,-2.63287029584,-21.7170576505,0.0,10.0,0.0,0.0,0.0,10.0,0.0,0.0,0.0,10.0,-0.0300937203179,0.00146473859954,-0.000532632218016,1.0,0.0,0.0,0.0,1.0,0.0,0.0,0.0,1.0,-0.275427246094,1.06458618164,9.79443237305,0.1,0.0,0.0,0.0,0.1,0.0,0.0,0.0,0.1
1452009325323330475,68,1452009325319622039,robocape,12.6341304121,-2.65951324125,-21.6946647771,0.0,10.0,0.0,0.0,0.0,10.0,0.0,0.0,0.0,10.0,-0.0817590454654,-0.016378440704,-0.00812264132474,1.0,0.0,0.0,0.0,1.0,0.0,0.0,0.0,1.0,-0.239501953125,0.611927490234,9.92256591797,0.1,0.0,0.0,0.0,0.1,0.0,0.0,0.0,0.1
1452009325355141642,69,1452009325351444005,robocape,12.4582621826,-2.69164590513,-21.6887269983,0.0,10.0,0.0,0.0,0.0,10.0,0.0,0.0,0.0,10.0,-0.0792290424299,-0.0211721306661,-0.0162452826495,1.0,0.0,0.0,0.0,1.0,0.0,0.0,0.0,1.0,0.00718505859375,-0.00359252929688,10.1309326172,0.1,0.0,0.0,0.0,0.1,0.0,0.0,0.0,0.1
1452009325386990350,70,1452009325383857965,robocape,12.2871308761,-2.71544825861,-21.6575879964,0.0,10.0,0.0,0.0,0.0,10.0,0.0,0.0,0.0,10.0,-0.0765658813398,-0.0139815957229,-0.00386158358061,1.0,0.0,0.0,0.0,1.0,0.0,0.0,0.0,1.0,0.0910107421875,-0.274229736328,10.2423010254,0.1,0.0,0.0,0.0,0.1,0.0,0.0,0.0,0.1
1452009325420330684,71,1452009325416471958,robocape,12.1817889544,-2.72824393931,-21.6207502576,0.0,10.0,0.0,0.0,0.0,10.0,0.0,0.0,0.0,10.0,-0.0418116291142,-0.00785632521573,-0.00266316109008,1.0,0.0,0.0,0.0,1.0,0.0,0.0,0.0,1.0,0.0431103515625,-0.028740234375,10.1800305176,0.1,0.0,0.0,0.0,0.1,0.0,0.0,0.0,0.1
1452009325455929809,72,1452009325452547073,robocape,12.1035971216,-2.72573114263,-21.5751176217,0.0,10.0,0.0,0.0,0.0,10.0,0.0,0.0,0.0,10.0,-0.0274305592278,0.000932106381528,0.000133158054504,1.0,0.0,0.0,0.0,1.0,0.0,0.0,0.0,1.0,0.047900390625,-0.186811523438,10.2746337891,0.1,0.0,0.0,0.0,0.1,0.0,0.0,0.0,0.1
1452009325488929017,73,1452009325485306978,robocape,12.0517102719,-2.71397100148,-21.5192571195,0.0,10.0,0.0,0.0,0.0,10.0,0.0,0.0,0.0,10.0,-0.0134489635049,0.0067910607797,0.00439421579863,1.0,0.0,0.0,0.0,1.0,0.0,0.0,0.0,1.0,0.0275427246094,-0.13412109375,10.2243383789,0.1,0.0,0.0,0.0,0.1,0.0,0.0,0.0,0.1
1452009325521727309,74,1452009325517401933,robocape,12.0052132614,-2.69594459378,-21.4436744168,0.0,10.0,0.0,0.0,0.0,10.0,0.0,0.0,0.0,10.0,-0.0103863282513,0.0122505410144,0.0142479118319,1.0,0.0,0.0,0.0,1.0,0.0,0.0,0.0,1.0,0.0203576660156,-0.0682580566406,10.2099682617,0.1,0.0,0.0,0.0,0.1,0.0,0.0,0.0,0.1
1452009325554272934,75,1452009325550832986,robocape,11.975337827,-2.6687730526,-21.3541528638,0.0,10.0,0.0,0.0,0.0,10.0,0.0,0.0,0.0,10.0,-0.00146473859954,0.0185089695761,0.0206394984481,1.0,0.0,0.0,0.0,1.0,0.0,0.0,0.0,1.0,0.0634680175781,-0.258662109375,10.2746337891,0.1,0.0,0.0,0.0,0.1,0.0,0.0,0.0,0.1
1452009325588754600,76,1452009325585347890,robocape,12.0139359237,-2.62338195426,-21.2817513979,0.0,10.0,0.0,0.0,0.0,10.0,0.0,0.0,0.0,10.0,0.0344879361165,0.0258326625738,0.00905474770627,1.0,0.0,0.0,0.0,1.0,0.0,0.0,0.0,1.0,0.0514929199219,-0.201181640625,10.2375109863,0.1,0.0,0.0,0.0,0.1,0.0,0.0,0.0,0.1
1452009325622577225,77,1452009325618556022,robocape,12.1017180278,-2.56743295047,-21.2076519053,0.0,10.0,0.0,0.0,0.0,10.0,0.0,0.0,0.0,10.0,0.0605869147993,0.0314253008629,0.00838895743375,1.0,0.0,0.0,0.0,1.0,0.0,0.0,0.0,1.0,0.0263452148438,-0.131726074219,10.1884130859,0.1,0.0,0.0,0.0,0.1,0.0,0.0,0.0,0.1
1452009325654228725,78,1452009325650964021,robocape,12.318951392,-2.48641622186,-21.1838886498,0.0,10.0,0.0,0.0,0.0,10.0,0.0,0.0,0.0,10.0,0.128630680651,0.0383495196971,-0.0223705531567,1.0,0.0,0.0,0.0,1.0,0.0,0.0,0.0,1.0,0.0850231933594,-0.387993164063,10.290201416,0.1,0.0,0.0,0.0,0.1,0.0,0.0,0.0,0.1
1452009325687530434,79,1452009325684350013,robocape,12.5506329322,-2.40579961699,-21.1607037645,0.0,10.0,0.0,0.0,0.0,10.0,0.0,0.0,0.0,10.0,0.136620163921,0.0380832035881,-0.0230363434292,1.0,0.0,0.0,0.0,1.0,0.0,0.0,0.0,1.0,-0.324525146484,0.874182128906,9.74413696289,0.1,0.0,0.0,0.0,0.1,0.0,0.0,0.0,0.1
1452009325721413975,80,1452009325718024969,robocape,12.5905807437,-2.37593572099,-21.1321801081,0.0,10.0,0.0,0.0,0.0,10.0,0.0,0.0,0.0,10.0,0.0352868844435,0.0131826473959,-0.0126500151779,1.0,0.0,0.0,0.0,1.0,0.0,0.0,0.0,1.0,-0.239501953125,1.31606323242,9.64354614258,0.1,0.0,0.0,0.0,0.1,0.0,0.0,0.0,0.1
1452009325754066225,81,1452009325750967979,robocape,12.4667993013,-2.38749653066,-21.1145614106,0.0,10.0,0.0,0.0,0.0,10.0,0.0,0.0,0.0,10.0,-0.0516653251475,-0.00892158965177,-0.0119842249054,1.0,0.0,0.0,0.0,1.0,0.0,0.0,0.0,1.0,-0.361647949219,0.973575439453,9.74174194336,0.1,0.0,0.0,0.0,0.1,0.0,0.0,0.0,0.1
1452009325786673975,82,1452009325783533096,robocape,12.2903757746,-2.42343034757,-21.1210603995,0.0,10.0,0.0,0.0,0.0,10.0,0.0,0.0,0.0,10.0,-0.0800279907569,-0.0241016078652,-0.0214384467751,1.0,0.0,0.0,0.0,1.0,0.0,0.0,0.0,1.0,-0.086220703125,0.184416503906,10.0423168945,0.1,0.0,0.0,0.0,0.1,0.0,0.0,0.0,0.1
1452009325820478309,83,1452009325817270040,robocape,12.1002465886,-2.45861778281,-21.1044761749,0.0,10.0,0.0,0.0,0.0,10.0,0.0,0.0,0.0,10.0,-0.0872185257001,-0.0210389726116,-0.00918790576077,1.0,0.0,0.0,0.0,1.0,0.0,0.0,0.0,1.0,-0.0598754882813,0.05748046875,10.1381176758,0.1,0.0,0.0,0.0,0.1,0.0,0.0,0.0,0.1
1452009325853506101,84,1452009325850419998,robocape,11.909162598,-2.49185198579,-21.0729548153,0.0,10.0,0.0,0.0,0.0,10.0,0.0,0.0,0.0,10.0,-0.0877511579181,-0.0183758115215,-0.00146473859954,1.0,0.0,0.0,0.0,1.0,0.0,0.0,0.0,1.0,0.0371228027344,0.00838256835938,10.177635498,0.1,0.0,0.0,0.0,0.1,0.0,0.0,0.0,0.1
1452009325886901726,85,1452009325883801937,robocape,11.7242577327,-2.5222936372,-21.0310381792,0.0,10.0,0.0,0.0,0.0,10.0,0.0,0.0,0.0,10.0,-0.08455536461,-0.015845808486,0.00372842552611,1.0,0.0,0.0,0.0,1.0,0.0,0.0,0.0,1.0,0.0431103515625,-0.0311352539063,10.1848205566,0.1,0.0,0.0,0.0,0.1,0.0,0.0,0.0,0.1
1452009325920191934,86,1452009325916934967,robocape,11.5400799818,-2.55269373149,-20.9826908801,0.0,10.0,0.0,0.0,0.0,10.0,0.0,0.0,0.0,10.0,-0.084289048501,-0.0151800182135,0.00719053494321,1.0,0.0,0.0,0.0,1.0,0.0,0.0,0.0,1.0,0.0467028808594,-0.119750976563,10.2267333984,0.1,0.0,0.0,0.0,0.1,0.0,0.0,0.0,0.1
1452009325953263309,87,1452009325950195074,robocape,11.3727266116,-2.57977402697,-20.9282703706,0.0,10.0,0.0,0.0,0.0,10.0,0.0,0.0,0.0,10.0,-0.0755006169037,-0.0129163312869,0.0099868540878,1.0,0.0,0.0,0.0,1.0,0.0,0.0,0.0,1.0,0.0826281738281,-0.1916015625,10.2458935547,0.1,0.0,0.0,0.0,0.1,0.0,0.0,0.0,0.1
1452009325985764434,88,1452009325982407093,robocape,11.2345491542,-2.59554331317,-20.8786075866,0.0,10.0,0.0,0.0,0.0,10.0,0.0,0.0,0.0,10.0,-0.0603205986903,-0.00772316716123,0.00612527050718,1.0,0.0,0.0,0.0,1.0,0.0,0.0,0.0,1.0,0.0634680175781,-0.350870361328,10.3177441406,0.1,0.0,0.0,0.0,0.1,0.0,0.0,0.0,0.1
1452009326020287601,89,1452009326017069101,robocape,11.1409558232,-2.5959731147,-20.8282079742,0.0,10.0,0.0,0.0,0.0,10.0,0.0,0.0,0.0,10.0,-0.0368847810976,0.000133158054504,0.00466053190764,1.0,0.0,0.0,0.0,1.0,0.0,0.0,0.0,1.0,0.0383203125,-0.300574951172,10.2997814941,0.1,0.0,0.0,0.0,0.1,0.0,0.0,0.0,0.1
1452009326053598392,90,1452009326050532102,robocape,11.0360942836,-2.5958508345,-20.7628152804,0.0,10.0,0.0,0.0,0.0,10.0,0.0,0.0,0.0,10.0,-0.0427437354958,0.00199737081756,0.0127831732324,1.0,0.0,0.0,0.0,1.0,0.0,0.0,0.0,1.0,0.0467028808594,-0.0886157226563,10.2423010254,0.1,0.0,0.0,0.0,0.1,0.0,0.0,0.0,0.1
1452009326086186309,91,1452009326083082914,robocape,10.9015203177,-2.59678459116,-20.6705612654,0.0,10.0,0.0,0.0,0.0,10.0,0.0,0.0,0.0,10.0,-0.0581900698182,0.00426105774413,0.0275637172823,1.0,0.0,0.0,0.0,1.0,0.0,0.0,0.0,1.0,0.0706530761719,-0.393980712891,10.3081640625,0.1,0.0,0.0,0.0,0.1,0.0,0.0,0.0,0.1
1452009326118012392,92,1452009326114965915,robocape,10.8432076212,-2.58799001068,-20.6189383776,0.0,10.0,0.0,0.0,0.0,10.0,0.0,0.0,0.0,10.0,-0.0186421276306,0.00492684801665,0.00452737385313,1.0,0.0,0.0,0.0,1.0,0.0,0.0,0.0,1.0,0.0706530761719,-0.188009033203,10.2890039063,0.1,0.0,0.0,0.0,0.1,0.0,0.0,0.0,0.1
1452009326151367392,93,1452009326148123979,robocape,10.7886249421,-2.57784152627,-20.5689568046,0.0,10.0,0.0,0.0,0.0,10.0,0.0,0.0,0.0,10.0,-0.0167779148675,0.00545948023466,0.00359526747161,1.0,0.0,0.0,0.0,1.0,0.0,0.0,0.0,1.0,0.0658630371094,-0.232316894531,10.3093615723,0.1,0.0,0.0,0.0,0.1,0.0,0.0,0.0,0.1
1452009326184286559,94,1452009326181212902,robocape,10.7438578859,-2.56571627064,-20.522402456,0.0,10.0,0.0,0.0,0.0,10.0,0.0,0.0,0.0,10.0,-0.0117179087963,0.00612527050718,0.00159789665405,1.0,0.0,0.0,0.0,1.0,0.0,0.0,0.0,1.0,0.0802331542969,-0.279019775391,10.3273242188,0.1,0.0,0.0,0.0,0.1,0.0,0.0,0.0,0.1
1452009326218165101,95,1452009326214834928,robocape,10.702598467,-2.55074925781,-20.470689571,0.0,10.0,0.0,0.0,0.0,10.0,0.0,0.0,0.0,10.0,-0.00985369603329,0.00812264132474,0.00412789968962,1.0,0.0,0.0,0.0,1.0,0.0,0.0,0.0,1.0,0.0922082519531,-0.358055419922,10.3584594727,0.1,0.0,0.0,0.0,0.1,0.0,0.0,0.0,0.1
1452009326250777601,96,1452009326247550964,robocape,10.6670358934,-2.52857957541,-20.4110020642,0.0,10.0,0.0,0.0,0.0,10.0,0.0,0.0,0.0,10.0,-0.0067910607797,0.0126500151779,0.00772316716123,1.0,0.0,0.0,0.0,1.0,0.0,0.0,0.0,1.0,0.137713623047,-0.439486083984,10.3740270996,0.1,0.0,0.0,0.0,0.1,0.0,0.0,0.0,0.1
1452009326284074642,97,1452009326281044960,robocape,10.6708705222,-2.49766070719,-20.3508104463,0.0,10.0,0.0,0.0,0.0,10.0,0.0,0.0,0.0,10.0,0.0139815957229,0.017177389031,0.00692421883421,1.0,0.0,0.0,0.0,1.0,0.0,0.0,0.0,1.0,0.107775878906,-0.337697753906,10.3117565918,0.1,0.0,0.0,0.0,0.1,0.0,0.0,0.0,0.1
1452009326317199976,98,1452009326314148902,robocape,10.6786951306,-2.46507082586,-20.2876660512,0.0,10.0,0.0,0.0,0.0,10.0,0.0,0.0,0.0,10.0,0.016112124595,0.0183758115215,0.00838895743375,1.0,0.0,0.0,0.0,1.0,0.0,0.0,0.0,1.0,0.0886157226563,-0.310155029297,10.3129541016,0.1,0.0,0.0,0.0,0.1,0.0,0.0,0.0,0.1
1452009326350501767,99,1452009326347388029,robocape,10.6921779322,-2.43117869711,-20.2276243191,0.0,10.0,0.0,0.0,0.0,10.0,0.0,0.0,0.0,10.0,0.0190416017941,0.0187752856851,0.0066579027252,1.0,0.0,0.0,0.0,1.0,0.0,0.0,0.0,1.0,0.0598754882813,-0.205971679688,10.2578686523,0.1,0.0,0.0,0.0,0.1,0.0,0.0,0.0,0.1
1452009326384036101,100,1452009326380924940,robocape,10.7088083636,-2.39709469171,-20.1716631675,0.0,10.0,0.0,0.0,0.0,10.0,0.0,0.0,0.0,10.0,0.0206394984481,0.0185089695761,0.00452737385313,1.0,0.0,0.0,0.0,1.0,0.0,0.0,0.0,1.0,0.0562829589844,-0.17244140625,10.2614611816,0.1,0.0,0.0,0.0,0.1,0.0,0.0,0.0,0.1
1452009326417331642,101,1452009326414237976,robocape,10.7229296012,-2.36516773874,-20.1157752643,0.0,10.0,0.0,0.0,0.0,10.0,0.0,0.0,0.0,10.0,0.0193079179031,0.01744370514,0.00479368996214,1.0,0.0,0.0,0.0,1.0,0.0,0.0,0.0,1.0,0.0514929199219,-0.201181640625,10.2626586914,0.1,0.0,0.0,0.0,0.1,0.0,0.0,0.0,0.1
1452009326451292101,102,1452009326448136091,robocape,10.7327870231,-2.33434682981,-20.0600507381,0.0,10.0,0.0,0.0,0.0,10.0,0.0,0.0,0.0,10.0,0.0170442309765,0.016911072922,0.00492684801665,1.0,0.0,0.0,0.0,1.0,0.0,0.0,0.0,1.0,0.047900390625,-0.203576660156,10.2734362793,0.1,0.0,0.0,0.0,0.1,0.0,0.0,0.0,0.1
1452009326484266559,103,1452009326481116056,robocape,10.7391360295,-2.3039265002,-20.004102261,0.0,10.0,0.0,0.0,0.0,10.0,0.0,0.0,0.0,10.0,0.0151800182135,0.0167779148675,0.00519316412565,1.0,0.0,0.0,0.0,1.0,0.0,0.0,0.0,1.0,0.0514929199219,-0.1916015625,10.4099523926,0.1,0.0,0.0,0.0,0.1,0.0,0.0,0.0,0.1
1452009326517283684,104,1452009326514189958,robocape,10.7435015576,-2.27410578797,-19.948197287,0.0,10.0,0.0,0.0,0.0,10.0,0.0,0.0,0.0,10.0,0.0141147537774,0.0165115987585,0.00532632218016,1.0,0.0,0.0,0.0,1.0,0.0,0.0,0.0,1.0,0.0526904296875,-0.17244140625,10.2470910645,0.1,0.0,0.0,0.0,0.1,0.0,0.0,0.0,0.1
1452009326550644768,105,1452009326547580003,robocape,10.7471790678,-2.24589184547,-19.8937562991,0.0,10.0,0.0,0.0,0.0,10.0,0.0,0.0,0.0,10.0,0.0137152796139,0.015579492377,0.00479368996214,1.0,0.0,0.0,0.0,1.0,0.0,0.0,0.0,1.0,0.0383203125,-0.161663818359,10.254276123,0.1,0.0,0.0,0.0,0.1,0.0,0.0,0.0,0.1
1452009326584251643,106,1452009326581083059,robocape,10.7496473933,-2.21787994262,-19.8400246319,0.0,10.0,0.0,0.0,0.0,10.0,0.0,0.0,0.0,10.0,0.0130494893414,0.0154463343225,0.00452737385313,1.0,0.0,0.0,0.0,1.0,0.0,0.0,0.0,1.0,0.0467028808594,-0.144898681641,10.26984375,0.1,0.0,0.0,0.0,0.1,0.0,0.0,0.0,0.1
1452009326617993518,107,1452009326614778995,robocape,10.751142473,-2.18996202858,-19.7862250093,0.0,10.0,0.0,0.0,0.0,10.0,0.0,0.0,0.0,10.0,0.0125168571234,0.0154463343225,0.00466053190764,1.0,0.0,0.0,0.0,1.0,0.0,0.0,0.0,1.0,0.0383203125,-0.165256347656,10.2578686523,0.1,0.0,0.0,0.0,0.1,0.0,0.0,0.0,0.1
1452009326651837101,108,1452009326648669958,robocape,10.752678574,-2.16208999805,-19.7325843336,0.0,10.0,0.0,0.0,0.0,10.0,0.0,0.0,0.0,10.0,0.0125168571234,0.0154463343225,0.00466053190764,1.0,0.0,0.0,0.0,1.0,0.0,0.0,0.0,1.0,0.0335302734375,-0.159268798828,10.2446960449,0.1,0.0,0.0,0.0,0.1,0.0,0.0,0.0,0.1
1452009326684010101,109,1452009326680865049,robocape,10.7305804367,-2.13821859739,-19.6671503047,0.0,10.0,0.0,0.0,0.0,10.0,0.0,0.0,0.0,10.0,0.000133158054504,0.0146473859954,0.0115847507418,1.0,0.0,0.0,0.0,1.0,0.0,0.0,0.0,1.0,0.00718505859375,-0.0395178222656,10.208770752,0.1,0.0,0.0,0.0,0.1,0.0,0.0,0.0,0.1
1452009326717302434,110,1452009326714303970,robocape,10.7423864416,-2.10905323673,-19.6167363607,0.0,10.0,0.0,0.0,0.0,10.0,0.0,0.0,0.0,10.0,0.0178431793035,0.015845808486,0.00292947719909,1.0,0.0,0.0,0.0,1.0,0.0,0.0,0.0,1.0,0.0610729980469,-0.124541015625,10.2566711426,0.1,0.0,0.0,0.0,0.1,0.0,0.0,0.0,0.1
1452009326750428143,111,1452009326747442960,robocape,10.7576390591,-2.09902185424,-19.5626388008,0.0,10.0,0.0,0.0,0.0,10.0,0.0,0.0,0.0,10.0,0.0197073920666,0.00639158661619,0.0067910607797,1.0,0.0,0.0,0.0,1.0,0.0,0.0,0.0,1.0,-0.940045166016,-0.420325927734,10.995534668,0.1,0.0,0.0,0.0,0.1,0.0,0.0,0.0,0.1
1452009326783937893,112,1452009326780936002,robocape,10.7783710179,-2.13344105271,-19.4954535528,0.0,10.0,0.0,0.0,0.0,10.0,0.0,0.0,0.0,10.0,0.0227700273202,-0.0151800182135,0.0181094954125,1.0,0.0,0.0,0.0,1.0,0.0,0.0,0.0,1.0,-4.58526489258,-1.02866088867,11.0194848633,0.1,0.0,0.0,0.0,0.1,0.0,0.0,0.0,0.1
1452009326817430768,113,1452009326814273118,robocape,10.8306891128,-2.16384486021,-19.4126695096,0.0,10.0,0.0,0.0,0.0,10.0,0.0,0.0,0.0,10.0,0.0396811002422,-0.0115847507418,0.0258326625738,1.0,0.0,0.0,0.0,1.0,0.0,0.0,0.0,1.0,-6.09891723633,-3.17579589844,8.08798095703,0.1,0.0,0.0,0.0,0.1,0.0,0.0,0.0,0.1
1452009326850345018,114,1452009326847338914,robocape,10.8078677301,-2.05811504316,-19.2637861895,0.0,10.0,0.0,0.0,0.0,10.0,0.0,0.0,0.0,10.0,0.00066579027252,0.0653806047614,0.0482032157304,1.0,0.0,0.0,0.0,1.0,0.0,0.0,0.0,1.0,-6.17795288086,-1.74237670898,10.7201074219,0.1,0.0,0.0,0.0,0.1,0.0,0.0,0.0,0.1
1452009326883742309,115,1452009326880726099,robocape,10.8038994225,-1.86928562995,-19.0888119846,0.0,10.0,0.0,0.0,0.0,10.0,0.0,0.0,0.0,10.0,0.0106526443603,0.110920659402,0.0539290120741,1.0,0.0,0.0,0.0,1.0,0.0,0.0,0.0,1.0,-3.01652709961,-0.756826171875,10.9332641602,0.1,0.0,0.0,0.0,0.1,0.0,0.0,0.0,0.1
1452009326917360684,116,1452009326914158105,robocape,10.8794058162,-1.76301322165,-18.8356847531,0.0,10.0,0.0,0.0,0.0,10.0,0.0,0.0,0.0,10.0,0.0531300637471,0.0764327232853,0.102931176132,1.0,0.0,0.0,0.0,1.0,0.0,0.0,0.0,1.0,-5.71092407227,-1.92918823242,9.39805664063,0.1,0.0,0.0,0.0,0.1,0.0,0.0,0.0,0.1
1452009326950723143,117,1452009326947438001,robocape,10.8440374287,-1.74963265462,-18.6312416259,0.0,10.0,0.0,0.0,0.0,10.0,0.0,0.0,0.0,10.0,-0.00599211245268,0.0239684498107,0.0874848418091,1.0,0.0,0.0,0.0,1.0,0.0,0.0,0.0,1.0,-8.98611328125,-3.17819091797,8.98132324219,0.1,0.0,0.0,0.0,0.1,0.0,0.0,0.0,0.1
1452009326984352934,118,1452009326980945110,robocape,10.6101349278,-1.65289750254,-18.5149251727,0.0,10.0,0.0,0.0,0.0,10.0,0.0,0.0,0.0,10.0,-0.111852765783,0.0581900698182,0.034621094171,1.0,0.0,0.0,0.0,1.0,0.0,0.0,0.0,1.0,-8.30233520508,-2.66326171875,11.3380224609,0.1,0.0,0.0,0.0,0.1,0.0,0.0,0.0,0.1
1452009327017542226,119,1452009327014095067,robocape,10.3722380486,-1.60946422801,-18.4327228132,0.0,10.0,0.0,0.0,0.0,10.0,0.0,0.0,0.0,10.0,-0.114515926873,0.0272974011733,0.0221042370477,1.0,0.0,0.0,0.0,1.0,0.0,0.0,0.0,1.0,-6.67252441406,-2.31598388672,9.60283081055,0.1,0.0,0.0,0.0,0.1,0.0,0.0,0.0,0.1
1452009327054677601,120,1452009327051326990,robocape,10.2889396797,-1.58300066591,-18.1786509369,0.0,10.0,0.0,0.0,0.0,10.0,0.0,0.0,0.0,10.0,-0.0318247750264,0.03488741028,0.113716978546,1.0,0.0,0.0,0.0,1.0,0.0,0.0,0.0,1.0,-7.65567993164,-2.92192382813,9.91059082031,0.1,0.0,0.0,0.0,0.1,0.0,0.0,0.0,0.1
1452009327083985184,121,1452009327080754041,robocape,10.0656208374,-1.70969078705,-17.9661364537,0.0,10.0,0.0,0.0,0.0,10.0,0.0,0.0,0.0,10.0,-0.10612696944,-0.0482032157304,0.10732539193,1.0,0.0,0.0,0.0,1.0,0.0,0.0,0.0,1.0,-8.91665771484,-2.37825439453,10.6362817383,0.1,0.0,0.0,0.0,0.1,0.0,0.0,0.0,0.1
1452009327117388184,122,1452009327114223957,robocape,9.60534950305,-1.72051601929,-17.8523239067,0.0,10.0,0.0,0.0,0.0,10.0,0.0,0.0,0.0,10.0,-0.232227647055,0.00213052887206,0.0463390029674,1.0,0.0,0.0,0.0,1.0,0.0,0.0,0.0,1.0,-6.65216674805,-3.66557739258,9.55612792969,0.1,0.0,0.0,0.0,0.1,0.0,0.0,0.0,0.1
1452009327150488476,123,1452009327147373914,robocape,9.05932383141,-1.71335442701,-17.8882059619,0.0,10.0,0.0,0.0,0.0,10.0,0.0,0.0,0.0,10.0,-0.279232440295,-0.00199737081756,-0.033822145844,1.0,0.0,0.0,0.0,1.0,0.0,0.0,0.0,1.0,-7.5526940918,-2.77223510742,9.62558349609,0.1,0.0,0.0,0.0,0.1,0.0,0.0,0.0,0.1
1452009327184075018,124,1452009327181036949,robocape,8.42940979889,-1.75933337397,-17.7887773135,0.0,10.0,0.0,0.0,0.0,10.0,0.0,0.0,0.0,10.0,-0.322508808009,-0.0181094954125,0.0426105774413,1.0,0.0,0.0,0.0,1.0,0.0,0.0,0.0,1.0,-7.01022216797,-2.45130249023,9.10825927734,0.1,0.0,0.0,0.0,0.1,0.0,0.0,0.0,0.1
1452009327217429768,125,1452009327214329957,robocape,7.55848813851,-1.76732840005,-17.7970020871,0.0,10.0,0.0,0.0,0.0,10.0,0.0,0.0,0.0,10.0,-0.451006330605,-0.00692421883421,-0.0162452826495,1.0,0.0,0.0,0.0,1.0,0.0,0.0,0.0,1.0,-8.3885559082,-2.46447509766,11.1164831543,0.1,0.0,0.0,0.0,0.1,0.0,0.0,0.0,0.1
1452009327252694060,126,1452009327249653100,robocape,6.8577916959,-2.10736725404,-17.8716635664,0.0,10.0,0.0,0.0,0.0,10.0,0.0,0.0,0.0,10.0,-0.362722540469,-0.184290747433,-0.0312921428084,1.0,0.0,0.0,0.0,1.0,0.0,0.0,0.0,1.0,-5.30616577148,-3.01053955078,10.1920056152,0.1,0.0,0.0,0.0,0.1,0.0,0.0,0.0,0.1
1452009327283870935,127,1452009327280832052,robocape,6.22035197764,-2.05176381969,-18.2572379343,0.0,10.0,0.0,0.0,0.0,10.0,0.0,0.0,0.0,10.0,-0.334759349023,0.00253000303558,-0.223439215458,1.0,0.0,0.0,0.0,1.0,0.0,0.0,0.0,1.0,-0.188009033203,-0.100590820313,12.0026403809,0.1,0.0,0.0,0.0,0.1,0.0,0.0,0.0,0.1
1452009327318638893,128,1452009327315361022,robocape,5.88704683117,-2.36951875589,-18.4497474065,0.0,10.0,0.0,0.0,0.0,10.0,0.0,0.0,0.0,10.0,-0.172572838637,-0.179630215526,-0.10199906975,1.0,0.0,0.0,0.0,1.0,0.0,0.0,0.0,1.0,-4.84751953125,-2.24533081055,10.1860180664,0.1,0.0,0.0,0.0,0.1,0.0,0.0,0.0,0.1
1452009327351817768,129,1452009327348721027,robocape,5.56832856628,-2.62304058807,-18.741245523,0.0,10.0,0.0,0.0,0.0,10.0,0.0,0.0,0.0,10.0,-0.16764599062,-0.151400707971,-0.159789665405,1.0,0.0,0.0,0.0,1.0,0.0,0.0,0.0,1.0,-3.03209472656,-2.08965454102,8.29754516602,0.1,0.0,0.0,0.0,0.1,0.0,0.0,0.0,0.1
1452009327385716685,130,1452009327382131099,robocape,4.94523260825,-2.78731503427,-18.9919565614,0.0,10.0,0.0,0.0,0.0,10.0,0.0,0.0,0.0,10.0,-0.327701972134,-0.101599595587,-0.142745434428,1.0,0.0,0.0,0.0,1.0,0.0,0.0,0.0,1.0,-4.64394287109,-1.62142822266,10.6350842285,0.1,0.0,0.0,0.0,0.1,0.0,0.0,0.0,0.1
1452009327419123143,131,1452009327415626049,robocape,3.96947811536,-2.92528894464,-19.1322653905,0.0,10.0,0.0,0.0,0.0,10.0,0.0,0.0,0.0,10.0,-0.511326929295,-0.0812264132474,-0.085354312937,1.0,0.0,0.0,0.0,1.0,0.0,0.0,0.0,1.0,-2.91114624023,-0.620310058594,10.5656286621,0.1,0.0,0.0,0.0,0.1,0.0,0.0,0.0,0.1
1452009327452598851,132,1452009327449428081,robocape,2.67153963591,-3.47735488887,-19.1280808797,0.0,10.0,0.0,0.0,0.0,10.0,0.0,0.0,0.0,10.0,-0.677641339371,-0.292015613527,0.00253000303558,1.0,0.0,0.0,0.0,1.0,0.0,0.0,0.0,1.0,-1.54239257813,0.290994873047,10.1105749512,0.1,0.0,0.0,0.0,0.1,0.0,0.0,0.0,0.1
1452009327485684685,133,1452009327482567071,robocape,0.793621568229,-4.30335674338,-19.1187715389,0.0,10.0,0.0,0.0,0.0,10.0,0.0,0.0,0.0,10.0,-0.982839600294,-0.436625260718,0.000133158054504,1.0,0.0,0.0,0.0,1.0,0.0,0.0,0.0,1.0,-0.481398925781,-0.173638916016,9.07113647461,0.1,0.0,0.0,0.0,0.1,0.0,0.0,0.0,0.1
1452009327522671935,134,1452009327518970966,robocape,-1.32860474988,-5.09294879252,-19.178066724,0.0,10.0,0.0,0.0,0.0,10.0,0.0,0.0,0.0,10.0,-1.11626397091,-0.419447871687,-0.0553937506736,1.0,0.0,0.0,0.0,1.0,0.0,0.0,0.0,1.0,-1.40827148438,-0.416733398438,9.28189819336,0.1,0.0,0.0,0.0,0.1,0.0,0.0,0.0,0.1
1452009327551504393,135,1452009327548434019,robocape,-3.95169777073,-5.9877313881,-19.3716446763,0.0,10.0,0.0,0.0,0.0,10.0,0.0,0.0,0.0,10.0,-1.3911021954,-0.472577935435,-0.153398078789,1.0,0.0,0.0,0.0,1.0,0.0,0.0,0.0,1.0,0.452658691406,-0.744851074219,8.44843139648,0.1,0.0,0.0,0.0,0.1,0.0,0.0,0.0,0.1
1452009327584622560,136,1452009327581594944,robocape,-6.6455978286,-6.83234671025,-20.4781059867,0.0,10.0,0.0,0.0,0.0,10.0,0.0,0.0,0.0,10.0,-1.49629705846,-0.403468905147,-0.670184488318,1.0,0.0,0.0,0.0,1.0,0.0,0.0,0.0,1.0,6.57792114258,-1.21307739258,11.7691259766,0.1,0.0,0.0,0.0,0.1,0.0,0.0,0.0,0.1
1452009327622949310,137,1452009327618674993,robocape,-7.80604784914,-7.6057366356,-22.0286986374,0.0,10.0,0.0,0.0,0.0,10.0,0.0,0.0,0.0,10.0,-0.737562463897,-0.319179856646,-0.918657418023,1.0,0.0,0.0,0.0,1.0,0.0,0.0,0.0,1.0,11.9475549316,-13.4552197266,19.6194012451,0.1,0.0,0.0,0.0,0.1,0.0,0.0,0.0,0.1
1452009327653815685,138,1452009327649327993,robocape,-5.09885713433,-6.45260476783,-24.8599118953,0.0,10.0,0.0,0.0,0.0,10.0,0.0,0.0,0.0,10.0,1.21986093731,0.754606694874,-1.45475174546,1.0,0.0,0.0,0.0,1.0,0.0,0.0,0.0,1.0,6.57672363281,-5.33610351563,16.7579516602,0.1,0.0,0.0,0.0,0.1,0.0,0.0,0.0,0.1
1452009327688711268,139,1452009327685136079,robocape,-3.51990950191,-5.99261740107,-25.728716413,0.0,10.0,0.0,0.0,0.0,10.0,0.0,0.0,0.0,10.0,0.769653555033,0.266715583171,-0.473776357925,1.0,0.0,0.0,0.0,1.0,0.0,0.0,0.0,1.0,1.04063598633,-2.43333984375,5.62829589844,0.1,0.0,0.0,0.0,0.1,0.0,0.0,0.0,0.1
1452009327722636851,140,1452009327719222068,robocape,-1.94019133924,-5.44098473204,-26.7205488155,0.0,10.0,0.0,0.0,0.0,10.0,0.0,0.0,0.0,10.0,0.769254080869,0.30479878676,-0.552073293973,1.0,0.0,0.0,0.0,1.0,0.0,0.0,0.0,1.0,-5.12773681641,-2.61176879883,11.6362023926,0.1,0.0,0.0,0.0,0.1,0.0,0.0,0.0,0.1
1452009327755311185,141,1452009327750762939,robocape,-0.483287449976,-4.79795521658,-27.870173711,0.0,10.0,0.0,0.0,0.0,10.0,0.0,0.0,0.0,10.0,0.705071898598,0.339952513149,-0.654072363723,1.0,0.0,0.0,0.0,1.0,0.0,0.0,0.0,1.0,-2.72553222656,-2.01181640625,9.16693725586,0.1,0.0,0.0,0.0,0.1,0.0,0.0,0.0,0.1
1452009327789442226,142,1452009327785846948,robocape,0.309682748573,-4.86907622652,-28.0495541288,0.0,10.0,0.0,0.0,0.0,10.0,0.0,0.0,0.0,10.0,0.405998908183,-0.0439421579863,-0.134889109213,1.0,0.0,0.0,0.0,1.0,0.0,0.0,0.0,1.0,1.74716674805,-0.554447021484,8.813671875,0.1,0.0,0.0,0.0,0.1,0.0,0.0,0.0,0.1
1452009327822794393,143,1452009327819299936,robocape,1.07786068713,-4.78774413569,-28.2787380496,0.0,10.0,0.0,0.0,0.0,10.0,0.0,0.0,0.0,10.0,0.391884154405,0.033822145844,-0.163384932876,1.0,0.0,0.0,0.0,1.0,0.0,0.0,0.0,1.0,1.23942260742,-1.07177124023,8.0125378418,0.1,0.0,0.0,0.0,0.1,0.0,0.0,0.0,0.1
1452009327854214018,144,1452009327850492000,robocape,0.974421858715,-4.9523502021,-28.3914539656,0.0,10.0,0.0,0.0,0.0,10.0,0.0,0.0,0.0,10.0,-0.0595216503633,-0.0948085348068,-0.0992027506055,1.0,0.0,0.0,0.0,1.0,0.0,0.0,0.0,1.0,-2.00702636719,-2.44291992188,7.71435791016,0.1,0.0,0.0,0.0,0.1,0.0,0.0,0.0,0.1
1452009327887347643,145,1452009327884058952,robocape,0.678281761526,-4.91973636576,-28.6381272771,0.0,10.0,0.0,0.0,0.0,10.0,0.0,0.0,0.0,10.0,-0.167113358402,0.00705737688871,-0.174969683618,1.0,0.0,0.0,0.0,1.0,0.0,0.0,0.0,1.0,2.51477050781,1.43940673828,10.4925805664,0.1,0.0,0.0,0.0,0.1,0.0,0.0,0.0,0.1
1452009327921742518,146,1452009327918240070,robocape,0.082888599211,-5.154411334,-28.9206493608,0.0,10.0,0.0,0.0,0.0,10.0,0.0,0.0,0.0,10.0,-0.326769865753,-0.132891738395,-0.196541288448,1.0,0.0,0.0,0.0,1.0,0.0,0.0,0.0,1.0,-3.60929443359,-0.649050292969,9.39685913086,0.1,0.0,0.0,0.0,0.1,0.0,0.0,0.0,0.1
1452009327955019685,147,1452009327951698064,robocape,-0.740218482172,-5.32502759128,-29.2814336124,0.0,10.0,0.0,0.0,0.0,10.0,0.0,0.0,0.0,10.0,-0.452071595041,-0.0980043281149,-0.243146607524,1.0,0.0,0.0,0.0,1.0,0.0,0.0,0.0,1.0,-0.15328125,1.07895629883,10.5021606445,0.1,0.0,0.0,0.0,0.1,0.0,0.0,0.0,0.1
1452009327987105643,148,1452009327983916997,robocape,-1.95518666486,-5.86809671334,-29.5439802713,0.0,10.0,0.0,0.0,0.0,10.0,0.0,0.0,0.0,10.0,-0.655936576487,-0.291749297418,-0.200402872028,1.0,0.0,0.0,0.0,1.0,0.0,0.0,0.0,1.0,-0.829874267578,-0.162861328125,9.02323608398,0.1,0.0,0.0,0.0,0.1,0.0,0.0,0.0,0.1
1452009328021231352,149,1452009328017889022,robocape,-3.47249304282,-6.83620526445,-29.7702810466,0.0,10.0,0.0,0.0,0.0,10.0,0.0,0.0,0.0,10.0,-0.818256244927,-0.51412324844,-0.206128668372,1.0,0.0,0.0,0.0,1.0,0.0,0.0,0.0,1.0,-2.55069580078,-2.11719726563,7.52155883789,0.1,0.0,0.0,0.0,0.1,0.0,0.0,0.0,0.1
1452009328053564977,150,1452009328050328016,robocape,-4.59295881577,-7.04065481577,-30.6619740992,0.0,10.0,0.0,0.0,0.0,10.0,0.0,0.0,0.0,10.0,-0.661262898667,-0.0910801092807,-0.557799090317,1.0,0.0,0.0,0.0,1.0,0.0,0.0,0.0,1.0,-1.48251708984,7.21499633789,12.5918151855,0.1,0.0,0.0,0.0,0.1,0.0,0.0,0.0,0.1
1452009328087269477,151,1452009328084050893,robocape,-6.49486589606,-7.04454044643,-32.4305914229,0.0,10.0,0.0,0.0,0.0,10.0,0.0,0.0,0.0,10.0,-1.14569190095,0.0632500758894,-1.05514442389,1.0,0.0,0.0,0.0,1.0,0.0,0.0,0.0,1.0,12.891192627,-8.98731079102,11.8098413086,0.1,0.0,0.0,0.0,0.1,0.0,0.0,0.0,0.1
1452009328119969560,152,1452009328116852998,robocape,-3.81264046367,-5.78659465089,-35.0646755184,0.0,10.0,0.0,0.0,0.0,10.0,0.0,0.0,0.0,10.0,1.22705147225,0.765392497289,-1.44383278499,1.0,0.0,0.0,0.0,1.0,0.0,0.0,0.0,1.0,3.73742797852,-4.40563842773,17.9758190918,0.1,0.0,0.0,0.0,0.1,0.0,0.0,0.0,0.1
1452009328153234060,153,1452009328150198936,robocape,-2.29541584206,-5.36274558483,-35.9268863767,0.0,10.0,0.0,0.0,0.0,10.0,0.0,0.0,0.0,10.0,0.740358783042,0.235556598418,-0.52743905389,1.0,0.0,0.0,0.0,1.0,0.0,0.0,0.0,1.0,0.9196875,-0.956810302734,5.60674072266,0.1,0.0,0.0,0.0,0.1,0.0,0.0,0.0,0.1
1452009328187093810,154,1452009328183959960,robocape,-1.11950906379,-4.74465940059,-36.6781565948,0.0,10.0,0.0,0.0,0.0,10.0,0.0,0.0,0.0,10.0,0.573911214912,0.325438285208,-0.474974780416,1.0,0.0,0.0,0.0,1.0,0.0,0.0,0.0,1.0,-2.12198730469,-1.60466308594,10.1632653809,0.1,0.0,0.0,0.0,0.1,0.0,0.0,0.0,0.1
1452009328220814768,155,1452009328217562913,robocape,-0.263758775528,-4.51825475245,-37.1537031502,0.0,10.0,0.0,0.0,0.0,10.0,0.0,0.0,0.0,10.0,0.423708929432,0.112119081892,-0.334226716805,1.0,0.0,0.0,0.0,1.0,0.0,0.0,0.0,1.0,-1.34240844727,-1.31366821289,7.23056396484,0.1,0.0,0.0,0.0,0.1,0.0,0.0,0.0,0.1
1452009328253462643,156,1452009328250358104,robocape,-0.342284414554,-4.55518977165,-37.3850458238,0.0,10.0,0.0,0.0,0.0,10.0,0.0,0.0,0.0,10.0,-0.0545948023466,-0.0279631914458,-0.201201820355,1.0,0.0,0.0,0.0,1.0,0.0,0.0,0.0,1.0,-4.78405151367,0.802331542969,8.83163452148,0.1,0.0,0.0,0.0,0.1,0.0,0.0,0.0,0.1
1452009328285892893,157,1452009328282768011,robocape,-1.40128878081,-4.97366235711,-37.0896278299,0.0,10.0,0.0,0.0,0.0,10.0,0.0,0.0,0.0,10.0,-0.545814865412,-0.228366063474,0.0960069572974,1.0,0.0,0.0,0.0,1.0,0.0,0.0,0.0,1.0,-0.495769042969,3.65839233398,8.17420166016,0.1,0.0,0.0,0.0,0.1,0.0,0.0,0.0,0.1
1452009328319998560,158,1452009328316894054,robocape,-3.66338895391,-5.88028857895,-36.8029726132,0.0,10.0,0.0,0.0,0.0,10.0,0.0,0.0,0.0,10.0,-1.17978036291,-0.490554272793,0.0605869147993,1.0,0.0,0.0,0.0,1.0,0.0,0.0,0.0,1.0,-0.810714111328,1.46575195313,7.57664428711,0.1,0.0,0.0,0.0,0.1,0.0,0.0,0.0,0.1
1452009328352065352,159,1452009328348932027,robocape,-6.806271971,-6.65000404266,-36.7061817831,0.0,10.0,0.0,0.0,0.0,10.0,0.0,0.0,0.0,10.0,-1.66261146854,-0.419847345851,-0.0833569421195,1.0,0.0,0.0,0.0,1.0,0.0,0.0,0.0,1.0,8.09277099609,-10.7488476563,15.711328125,0.1,0.0,0.0,0.0,0.1,0.0,0.0,0.0,0.1
1452009328384393185,160,1452009328381295919,robocape,-5.56728693254,-5.88830450801,-38.7427983081,0.0,10.0,0.0,0.0,0.0,10.0,0.0,0.0,0.0,10.0,0.498676914117,0.496413227191,-1.18031299512,1.0,0.0,0.0,0.0,1.0,0.0,0.0,0.0,1.0,11.2290490723,-14.7640979004,17.0034411621,0.1,0.0,0.0,0.0,0.1,0.0,0.0,0.0,0.1
1452009328418454852,161,1452009328415105104,robocape,-4.33692997376,-5.3165346505,-38.707951696,0.0,10.0,0.0,0.0,0.0,10.0,0.0,0.0,0.0,10.0,0.638093397183,0.292548245745,-0.00612527050718,1.0,0.0,0.0,0.0,1.0,0.0,0.0,0.0,1.0,-0.991538085938,-3.24165893555,7.49401611328,0.1,0.0,0.0,0.0,0.1,0.0,0.0,0.0,0.1
1452009328451433310,162,1452009328448153018,robocape,-4.0089709301,-4.77503957115,-39.5596230289,0.0,10.0,0.0,0.0,0.0,10.0,0.0,0.0,0.0,10.0,0.114782242982,0.305597735087,-0.545149075139,1.0,0.0,0.0,0.0,1.0,0.0,0.0,0.0,1.0,1.90643554688,0.143701171875,7.92990966797,0.1,0.0,0.0,0.0,0.1,0.0,0.0,0.0,0.1
1452009328484147268,163,1452009328481086969,robocape,-4.68411106807,-4.83818704759,-40.0959495427,0.0,10.0,0.0,0.0,0.0,10.0,0.0,0.0,0.0,10.0,-0.39587889604,-0.0215716048296,-0.404001537365,1.0,0.0,0.0,0.0,1.0,0.0,0.0,0.0,1.0,3.41290283203,-0.334105224609,10.4171374512,0.1,0.0,0.0,0.0,0.1,0.0,0.0,0.0,0.1
1452009328518848185,164,1452009328515561103,robocape,-5.64503023583,-4.96643404769,-40.4618559715,0.0,10.0,0.0,0.0,0.0,10.0,0.0,0.0,0.0,10.0,-0.540355385177,-0.0587227020362,-0.314785640847,1.0,0.0,0.0,0.0,1.0,0.0,0.0,0.0,1.0,4.77207641602,-6.62342651367,11.5475866699,0.1,0.0,0.0,0.0,0.1,0.0,0.0,0.0,0.1
1452009328551414893,165,1452009328548379898,robocape,-5.22328647731,-4.68052876202,-41.4161532935,0.0,10.0,0.0,0.0,0.0,10.0,0.0,0.0,0.0,10.0,0.154862817388,0.187752856851,-0.627041278659,1.0,0.0,0.0,0.0,1.0,0.0,0.0,0.0,1.0,4.53496948242,-5.56123535156,15.5484667969,0.1,0.0,0.0,0.0,0.1,0.0,0.0,0.0,0.1
1452009328585346435,166,1452009328582190036,robocape,-4.21661411181,-4.440549784,-42.6979355712,0.0,10.0,0.0,0.0,0.0,10.0,0.0,0.0,0.0,10.0,0.450074224223,0.171108100038,-0.830373627887,1.0,0.0,0.0,0.0,1.0,0.0,0.0,0.0,1.0,5.0163684082,0.197589111328,8.93342285156,0.1,0.0,0.0,0.0,0.1,0.0,0.0,0.0,0.1
1452009328619566060,167,1452009328615964889,robocape,-4.37669538348,-4.21806451096,-42.6434779144,0.0,10.0,0.0,0.0,0.0,10.0,0.0,0.0,0.0,10.0,-0.0934769542618,0.109056446639,-0.04966795433,1.0,0.0,0.0,0.0,1.0,0.0,0.0,0.0,1.0,-3.88232666016,-1.15679443359,9.79323486328,0.1,0.0,0.0,0.0,0.1,0.0,0.0,0.0,0.1
1452009328652598144,168,1452009328649504899,robocape,-4.22482898027,-4.72416619155,-43.5276025755,0.0,10.0,0.0,0.0,0.0,10.0,0.0,0.0,0.0,10.0,0.0213052887206,-0.240616604489,-0.650610254306,1.0,0.0,0.0,0.0,1.0,0.0,0.0,0.0,1.0,7.75986328125,0.452658691406,9.78724731445,0.1,0.0,0.0,0.0,0.1,0.0,0.0,0.0,0.1
1452009328685508769,169,1452009328682419061,robocape,-2.11824138249,-2.94052016246,-44.84365236,0.0,10.0,0.0,0.0,0.0,10.0,0.0,0.0,0.0,10.0,1.0422280926,0.96646115959,-0.805606229749,1.0,0.0,0.0,0.0,1.0,0.0,0.0,0.0,1.0,1.99145874023,-14.9125891113,15.8382641602,0.1,0.0,0.0,0.0,0.1,0.0,0.0,0.0,0.1
1452009328718675394,170,1452009328715358018,robocape,-0.744810169271,-2.05903916684,-45.7624961733,0.0,10.0,0.0,0.0,0.0,10.0,0.0,0.0,0.0,10.0,0.690957144821,0.469248984072,-0.643153403254,1.0,0.0,0.0,0.0,1.0,0.0,0.0,0.0,1.0,-1.14841186523,-2.11480224609,8.0891784668,0.1,0.0,0.0,0.0,0.1,0.0,0.0,0.0,0.1
1452009328754651810,171,1452009328751568078,robocape,0.495536767624,-1.42562945249,-46.4745020107,0.0,10.0,0.0,0.0,0.0,10.0,0.0,0.0,0.0,10.0,0.636761816638,0.328634078516,-0.54221959794,1.0,0.0,0.0,0.0,1.0,0.0,0.0,0.0,1.0,-3.58294921875,-1.48850463867,12.3618933105,0.1,0.0,0.0,0.0,0.1,0.0,0.0,0.0,0.1
1452009328786934185,172,1452009328783801078,robocape,2.02367918064,-0.724185478781,-47.3168068285,0.0,10.0,0.0,0.0,0.0,10.0,0.0,0.0,0.0,10.0,0.79735043037,0.353800950817,-0.64421866769,1.0,0.0,0.0,0.0,1.0,0.0,0.0,0.0,1.0,-1.37713623047,-1.5675402832,12.6037902832,0.1,0.0,0.0,0.0,0.1,0.0,0.0,0.0,0.1
1452009328821300935,173,1452009328816276073,robocape,3.76771883259,-0.0174427841968,-48.2097359888,0.0,10.0,0.0,0.0,0.0,10.0,0.0,0.0,0.0,10.0,0.924915846585,0.341949883966,-0.703740318053,1.0,0.0,0.0,0.0,1.0,0.0,0.0,0.0,1.0,0.580792236328,-1.62981079102,9.93573852539,0.1,0.0,0.0,0.0,0.1,0.0,0.0,0.0,0.1
1452009328854744102,174,1452009328851593017,robocape,5.88461519302,0.848397224471,-49.0733808231,0.0,10.0,0.0,0.0,0.0,10.0,0.0,0.0,0.0,10.0,1.13876768212,0.409594175654,-0.727975083973,1.0,0.0,0.0,0.0,1.0,0.0,0.0,0.0,1.0,-0.807121582031,-3.00095947266,10.3452868652,0.1,0.0,0.0,0.0,0.1,0.0,0.0,0.0,0.1
1452009328886204477,175,1452009328883043050,robocape,8.7781250703,1.66348904474,-49.6015331441,0.0,10.0,0.0,0.0,0.0,10.0,0.0,0.0,0.0,10.0,1.56247661155,0.383228880862,-0.565655415533,1.0,0.0,0.0,0.0,1.0,0.0,0.0,0.0,1.0,-2.2956262207,-3.82005615234,8.57177490234,0.1,0.0,0.0,0.0,0.1,0.0,0.0,0.0,0.1
1452009328919644394,176,1452009328916460990,robocape,12.2448864872,2.43855113904,-49.8687254492,0.0,10.0,0.0,0.0,0.0,10.0,0.0,0.0,0.0,10.0,1.88178962625,0.365785175722,-0.461925291074,1.0,0.0,0.0,0.0,1.0,0.0,0.0,0.0,1.0,-4.26792480469,-4.07512573242,7.80536865234,0.1,0.0,0.0,0.0,0.1,0.0,0.0,0.0,0.1
1452009328954166144,177,1452009328950607061,robocape,15.7311544744,3.29462572183,-49.3615583985,0.0,10.0,0.0,0.0,0.0,10.0,0.0,0.0,0.0,10.0,1.87619698796,0.490554272793,-0.051265850984,1.0,0.0,0.0,0.0,1.0,0.0,0.0,0.0,1.0,-1.19990478516,-3.99010253906,7.10602294922,0.1,0.0,0.0,0.0,0.1,0.0,0.0,0.0,0.1
1452009328988144894,178,1452009328984752893,robocape,20.3641305822,4.30214118814,-48.9997470037,0.0,10.0,0.0,0.0,0.0,10.0,0.0,0.0,0.0,10.0,2.53919094134,0.544083810703,-0.285091394693,1.0,0.0,0.0,0.0,1.0,0.0,0.0,0.0,1.0,-0.36404296875,-4.46910644531,4.0583605957,0.1,0.0,0.0,0.0,0.1,0.0,0.0,0.0,0.1
1452009329021577269,179,1452009329017999887,robocape,25.7376556496,5.76490012951,-48.1318401151,0.0,10.0,0.0,0.0,0.0,10.0,0.0,0.0,0.0,10.0,2.96582934797,0.859801557932,-0.243812397797,1.0,0.0,0.0,0.0,1.0,0.0,0.0,0.0,1.0,2.04654418945,-3.13508056641,5.60554321289,0.1,0.0,0.0,0.0,0.1,0.0,0.0,0.0,0.1
1452009329053334435,180,1452009329050126075,robocape,31.1894113363,6.53981275717,-46.6237464649,0.0,10.0,0.0,0.0,0.0,10.0,0.0,0.0,0.0,10.0,3.00364623545,0.700810840854,0.146207543845,1.0,0.0,0.0,0.0,1.0,0.0,0.0,0.0,1.0,-1.00351318359,-4.82237182617,1.12326416016,0.1,0.0,0.0,0.0,0.1,0.0,0.0,0.0,0.1
1452009329088350185,181,1452009329085026979,robocape,33.9465949952,9.20081269272,-44.6677469288,0.0,10.0,0.0,0.0,0.0,10.0,0.0,0.0,0.0,10.0,1.50042495815,1.70016203991,-0.164183881203,1.0,0.0,0.0,0.0,1.0,0.0,0.0,0.0,1.0,1.81063476563,19.6194012451,2.08486450195,0.1,0.0,0.0,0.0,0.1,0.0,0.0,0.0,0.1
1452009329121031269,182,1452009329117744922,robocape,30.9113591448,10.4333937054,-43.2402136333,0.0,10.0,0.0,0.0,0.0,10.0,0.0,0.0,0.0,10.0,-1.8359832555,0.951414299431,0.440886318463,1.0,0.0,0.0,0.0,1.0,0.0,0.0,0.0,1.0,-1.5328125,19.6194012451,7.75507324219,0.1,0.0,0.0,0.0,0.1,0.0,0.0,0.0,0.1
1452009329154623019,183,1452009329151413917,robocape,25.9430699498,9.91384659607,-41.9594994322,0.0,10.0,0.0,0.0,0.0,10.0,0.0,0.0,0.0,10.0,-2.93986352734,0.0889495804086,1.04462493758,1.0,0.0,0.0,0.0,1.0,0.0,0.0,0.0,1.0,-7.21499633789,-4.99122070313,1.93397827148,0.1,0.0,0.0,0.0,0.1,0.0,0.0,0.0,0.1
1452009329187139144,184,1452009329183842897,robocape,23.2039069327,9.77956442845,-41.3778631062,0.0,10.0,0.0,0.0,0.0,10.0,0.0,0.0,0.0,10.0,-1.53784237147,0.0609863889628,0.387623096661,1.0,0.0,0.0,0.0,1.0,0.0,0.0,0.0,1.0,-0.480201416016,-0.832269287109,8.23407714844,0.1,0.0,0.0,0.0,0.1,0.0,0.0,0.0,0.1
1452009329220406269,185,1452009329217199087,robocape,20.4421099472,9.58584497139,-41.148879673,0.0,10.0,0.0,0.0,0.0,10.0,0.0,0.0,0.0,10.0,-1.4929681071,-0.0511326929295,0.196141814284,1.0,0.0,0.0,0.0,1.0,0.0,0.0,0.0,1.0,0.258662109375,0.544866943359,9.50583251953,0.1,0.0,0.0,0.0,0.1,0.0,0.0,0.0,0.1
1452009329253901227,186,1452009329250751018,robocape,17.5358903965,8.91563127985,-40.8263191248,0.0,10.0,0.0,0.0,0.0,10.0,0.0,0.0,0.0,10.0,-1.58058610696,-0.279631914458,0.33702303595,1.0,0.0,0.0,0.0,1.0,0.0,0.0,0.0,1.0,-1.73758666992,-0.610729980469,7.10362792969,0.1,0.0,0.0,0.0,0.1,0.0,0.0,0.0,0.1
1452009329286117310,187,1452009329282968044,robocape,14.8333522346,8.36615511325,-40.7570385554,0.0,10.0,0.0,0.0,0.0,10.0,0.0,0.0,0.0,10.0,-1.42931855705,-0.267248215389,0.135155425322,1.0,0.0,0.0,0.0,1.0,0.0,0.0,0.0,1.0,0.166453857422,0.765208740234,10.1105749512,0.1,0.0,0.0,0.0,0.1,0.0,0.0,0.0,0.1
1452009329319383936,188,1452009329316214084,robocape,12.1732569004,7.76637519796,-40.7398819884,0.0,10.0,0.0,0.0,0.0,10.0,0.0,0.0,0.0,10.0,-1.39589588537,-0.303600364269,0.0864195773731,1.0,0.0,0.0,0.0,1.0,0.0,0.0,0.0,1.0,1.31366821289,0.572409667969,8.90348510742,0.1,0.0,0.0,0.0,0.1,0.0,0.0,0.0,0.1
1452009329350755436,189,1452009329347322940,robocape,9.41844315257,7.22248736161,-40.9858546876,0.0,10.0,0.0,0.0,0.0,10.0,0.0,0.0,0.0,10.0,-1.41839959658,-0.302135625669,-0.0984038022784,1.0,0.0,0.0,0.0,1.0,0.0,0.0,0.0,1.0,0.314945068359,0.323327636719,8.74182128906,0.1,0.0,0.0,0.0,0.1,0.0,0.0,0.0,0.1
1452009329384023352,190,1452009329380781888,robocape,6.42352647951,6.2533698622,-41.0109702713,0.0,10.0,0.0,0.0,0.0,10.0,0.0,0.0,0.0,10.0,-1.56460714042,-0.503870078243,0.0459395288039,1.0,0.0,0.0,0.0,1.0,0.0,0.0,0.0,1.0,1.81302978516,0.301772460938,8.71547607422,0.1,0.0,0.0,0.0,0.1,0.0,0.0,0.0,0.1
1452009329417783102,191,1452009329414489030,robocape,3.30242789959,5.18039399241,-41.2416281916,0.0,10.0,0.0,0.0,0.0,10.0,0.0,0.0,0.0,10.0,-1.6170714139,-0.567519628296,-0.11411645271,1.0,0.0,0.0,0.0,1.0,0.0,0.0,0.0,1.0,1.47054199219,0.922082519531,9.46391967773,0.1,0.0,0.0,0.0,0.1,0.0,0.0,0.0,0.1
1452009329450728936,192,1452009329447554111,robocape,-0.0509446310128,3.97627290275,-41.6311867123,0.0,10.0,0.0,0.0,0.0,10.0,0.0,0.0,0.0,10.0,-1.7367805049,-0.631701810567,-0.258726099901,1.0,0.0,0.0,0.0,1.0,0.0,0.0,0.0,1.0,4.59125244141,-0.97716796875,6.75515258789,0.1,0.0,0.0,0.0,0.1,0.0,0.0,0.0,0.1
1452009329483935186,193,1452009329480864048,robocape,-3.85899421727,2.85929267323,-42.1822209269,0.0,10.0,0.0,0.0,0.0,10.0,0.0,0.0,0.0,10.0,-1.98338922184,-0.567519628296,-0.422111032778,1.0,0.0,0.0,0.0,1.0,0.0,0.0,0.0,1.0,1.58071289063,-0.432301025391,8.27958251953,0.1,0.0,0.0,0.0,0.1,0.0,0.0,0.0,0.1
