%time,field.header.seq,field.header.stamp,field.header.frame_id,field.orientation.x,field.orientation.y,field.orientation.z,field.orientation.w,field.orientation_covariance0,field.orientation_covariance1,field.orientation_covariance2,field.orientation_covariance3,field.orientation_covariance4,field.orientation_covariance5,field.orientation_covariance6,field.orientation_covariance7,field.orientation_covariance8,field.angular_velocity.x,field.angular_velocity.y,field.angular_velocity.z,field.angular_velocity_covariance0,field.angular_velocity_covariance1,field.angular_velocity_covariance2,field.angular_velocity_covariance3,field.angular_velocity_covariance4,field.angular_velocity_covariance5,field.angular_velocity_covariance6,field.angular_velocity_covariance7,field.angular_velocity_covariance8,field.linear_acceleration.x,field.linear_acceleration.y,field.linear_acceleration.z,field.linear_acceleration_covariance0,field.linear_acceleration_covariance1,field.linear_acceleration_covariance2,field.linear_acceleration_covariance3,field.linear_acceleration_covariance4,field.linear_acceleration_covariance5,field.linear_acceleration_covariance6,field.linear_acceleration_covariance7,field.linear_acceleration_covariance8
1446038005069531470,1,1446038005053689956,robocape,7.40323538647,4.53428098197,-23.5474204042,0.0,10.0,0.0,0.0,0.0,10.0,0.0,0.0,0.0,10.0,-0.311456689485,0.00545948023466,0.251535564958,1.0,0.0,0.0,0.0,1.0,0.0,0.0,0.0,1.0,-0.102985839844,-1.94715087891,10.2446960449,0.1,0.0,0.0,0.0,0.1,0.0,0.0,0.0,0.1
1446038005091701095,2,1446038005088677883,robocape,7.56124547729,4.55194088426,-23.425825334,0.0,10.0,0.0,0.0,0.0,10.0,0.0,0.0,0.0,10.0,0.0870853676456,0.0207726565026,0.035153726389,1.0,0.0,0.0,0.0,1.0,0.0,0.0,0.0,1.0,-0.0490979003906,-1.73878417969,10.1201550293,0.1,0.0,0.0,0.0,0.1,0.0,0.0,0.0,0.1
1446038005121377262,3,1446038005118401050,robocape,8.04520350215,4.58743721989,-23.432843045,0.0,10.0,0.0,0.0,0.0,10.0,0.0,0.0,0.0,10.0,0.26578347679,0.0219710789932,-0.0384826777516,1.0,0.0,0.0,0.0,1.0,0.0,0.0,0.0,1.0,-0.00838256835938,-0.565224609375,10.0435144043,0.1,0.0,0.0,0.0,0.1,0.0,0.0,0.0,0.1
1446038005154834220,4,1446038005151740074,robocape,8.5563583625,4.59572460218,-23.2900655155,0.0,10.0,0.0,0.0,0.0,10.0,0.0,0.0,0.0,10.0,0.273240327842,0.0186421276306,0.0439421579863,1.0,0.0,0.0,0.0,1.0,0.0,0.0,0.0,1.0,-0.0814306640625,-0.803529052734,10.0842297363,0.1,0.0,0.0,0.0,0.1,0.0,0.0,0.0,0.1
1446038005190872053,5,1446038005187767982,robocape,9.43882017933,4.63418532423,-23.2834637215,0.0,10.0,0.0,0.0,0.0,10.0,0.0,0.0,0.0,10.0,0.477504783451,0.0247673981377,-0.0359526747161,1.0,0.0,0.0,0.0,1.0,0.0,0.0,0.0,1.0,-0.252674560547,-1.43820922852,10.1153649902,0.1,0.0,0.0,0.0,0.1,0.0,0.0,0.0,0.1
1446038005221693053,6,1446038005218405008,robocape,10.4872569519,4.67521884236,-23.464098716,0.0,10.0,0.0,0.0,0.0,10.0,0.0,0.0,0.0,10.0,0.577373324329,0.00972053797879,-0.140215431393,1.0,0.0,0.0,0.0,1.0,0.0,0.0,0.0,1.0,-0.750838623047,2.6860144043,10.0051940918,0.1,0.0,0.0,0.0,0.1,0.0,0.0,0.0,0.1
1446038005254672470,7,1446038005251610994,robocape,10.8635440208,4.66395873173,-23.2105985827,0.0,10.0,0.0,0.0,0.0,10.0,0.0,0.0,0.0,10.0,0.199603923701,0.0215716048296,0.103996440568,1.0,0.0,0.0,0.0,1.0,0.0,0.0,0.0,1.0,0.392783203125,0.707728271484,9.93094848633,0.1,0.0,0.0,0.0,0.1,0.0,0.0,0.0,0.1
1446038005289340720,8,1446038005285459995,robocape,11.228590528,4.65037716158,-22.9963519218,0.0,10.0,0.0,0.0,0.0,10.0,0.0,0.0,0.0,10.0,0.196274972339,0.0173105470855,0.0833569421195,1.0,0.0,0.0,0.0,1.0,0.0,0.0,0.0,1.0,0.302969970703,0.384400634766,10.0231567383,0.1,0.0,0.0,0.0,0.1,0.0,0.0,0.0,0.1
1446038005321457637,9,1446038005318124055,robocape,11.579175444,4.65882546517,-22.9490526812,0.0,10.0,0.0,0.0,0.0,10.0,0.0,0.0,0.0,10.0,0.198272343156,0.0123836990689,-0.00825579937925,1.0,0.0,0.0,0.0,1.0,0.0,0.0,0.0,1.0,-0.640667724609,0.451461181641,10.1752404785,0.1,0.0,0.0,0.0,0.1,0.0,0.0,0.0,0.1
1446038005354598137,10,1446038005351440906,robocape,11.9594351123,4.70971955663,-23.152710272,0.0,10.0,0.0,0.0,0.0,10.0,0.0,0.0,0.0,10.0,0.228632379583,0.00812264132474,-0.147938598554,1.0,0.0,0.0,0.0,1.0,0.0,0.0,0.0,1.0,0.326920166016,1.77111694336,10.0291442871,0.1,0.0,0.0,0.0,0.1,0.0,0.0,0.0,0.1
1446038005387948387,11,1446038005384896039,robocape,11.7179980808,4.73335425834,-23.0878398552,0.0,10.0,0.0,0.0,0.0,10.0,0.0,0.0,0.0,10.0,-0.115980665473,0.0214384467751,0.00572579634367,1.0,0.0,0.0,0.0,1.0,0.0,0.0,0.0,1.0,0.227526855469,2.34951416016,9.98244140625,0.1,0.0,0.0,0.0,0.1,0.0,0.0,0.0,0.1
1446038005421964512,12,1446038005418189048,robocape,11.1557535505,4.76069266252,-22.945920627,0.0,10.0,0.0,0.0,0.0,10.0,0.0,0.0,0.0,10.0,-0.290817191037,0.0306263525359,0.050733218766,1.0,0.0,0.0,0.0,1.0,0.0,0.0,0.0,1.0,-0.244291992188,0.166453857422,10.1261425781,0.1,0.0,0.0,0.0,0.1,0.0,0.0,0.0,0.1
1446038005454889012,13,1446038005451659917,robocape,10.646033474,4.78178103163,-22.8886486416,0.0,10.0,0.0,0.0,0.0,10.0,0.0,0.0,0.0,10.0,-0.258859257956,0.0187752856851,0.00585895439817,1.0,0.0,0.0,0.0,1.0,0.0,0.0,0.0,1.0,-0.0263452148438,0.0598754882813,9.83993774414,0.1,0.0,0.0,0.0,0.1,0.0,0.0,0.0,0.1
1446038005487885970,14,1446038005484785079,robocape,10.18430587,4.77973583009,-22.7457545509,0.0,10.0,0.0,0.0,0.0,10.0,0.0,0.0,0.0,10.0,-0.238619233671,0.0146473859954,0.0537958540196,1.0,0.0,0.0,0.0,1.0,0.0,0.0,0.0,1.0,-0.067060546875,-0.1149609375,10.0902172852,0.1,0.0,0.0,0.0,0.1,0.0,0.0,0.0,0.1
1446038005521947429,15,1446038005518755912,robocape,9.87832979639,4.77170687768,-22.5488270934,0.0,10.0,0.0,0.0,0.0,10.0,0.0,0.0,0.0,10.0,-0.159523349296,0.016112124595,0.0820253615744,1.0,0.0,0.0,0.0,1.0,0.0,0.0,0.0,1.0,0.0443078613281,-1.47772705078,10.213560791,0.1,0.0,0.0,0.0,0.1,0.0,0.0,0.0,0.1
1446038005554937304,16,1446038005551717042,robocape,10.0075621486,4.7693653723,-22.4647334598,0.0,10.0,0.0,0.0,0.0,10.0,0.0,0.0,0.0,10.0,0.0765658813398,0.00958737992429,0.016911072922,1.0,0.0,0.0,0.0,1.0,0.0,0.0,0.0,1.0,-0.439486083984,-0.0359252929688,9.96447875977,0.1,0.0,0.0,0.0,0.1,0.0,0.0,0.0,0.1
1446038005588329012,17,1446038005585155010,robocape,10.1696680795,4.78387202403,-22.3259133704,0.0,10.0,0.0,0.0,0.0,10.0,0.0,0.0,0.0,10.0,0.0912132673352,0.0233026595382,0.0443416321498,1.0,0.0,0.0,0.0,1.0,0.0,0.0,0.0,1.0,-0.305364990234,-0.947230224609,10.2219433594,0.1,0.0,0.0,0.0,0.1,0.0,0.0,0.0,0.1
1446038005621445929,18,1446038005618338108,robocape,10.5588665809,4.81858077825,-22.3647304048,0.0,10.0,0.0,0.0,0.0,10.0,0.0,0.0,0.0,10.0,0.22144184464,0.0181094954125,-0.0551274345646,1.0,0.0,0.0,0.0,1.0,0.0,0.0,0.0,1.0,-0.301772460938,0.488583984375,9.92615844727,0.1,0.0,0.0,0.0,0.1,0.0,0.0,0.0,0.1
1446038005654965095,19,1446038005651808023,robocape,10.7267542604,4.78652270571,-22.1159059485,0.0,10.0,0.0,0.0,0.0,10.0,0.0,0.0,0.0,10.0,0.0888164223541,0.0102531701968,0.107591708039,1.0,0.0,0.0,0.0,1.0,0.0,0.0,0.0,1.0,0.567619628906,0.313747558594,9.86388793945,0.1,0.0,0.0,0.0,0.1,0.0,0.0,0.0,0.1
1446038005688498762,20,1446038005684945106,robocape,10.9374626496,4.7418835521,-21.8039093934,0.0,10.0,0.0,0.0,0.0,10.0,0.0,0.0,0.0,10.0,0.108257498312,0.0102531701968,0.142479118319,1.0,0.0,0.0,0.0,1.0,0.0,0.0,0.0,1.0,-0.423918457031,-0.0658630371094,10.3021765137,0.1,0.0,0.0,0.0,0.1,0.0,0.0,0.0,0.1
1446038005721253012,21,1446038005718103885,robocape,11.3417940864,4.74094344386,-21.7460075932,0.0,10.0,0.0,0.0,0.0,10.0,0.0,0.0,0.0,10.0,0.225170270166,0.00878843159726,0.000532632218016,1.0,0.0,0.0,0.0,1.0,0.0,0.0,0.0,1.0,-0.250279541016,-0.361647949219,10.1273400879,0.1,0.0,0.0,0.0,0.1,0.0,0.0,0.0,0.1
1446038005754436429,22,1446038005751312971,robocape,12.0093643806,4.78459424463,-21.9638751163,0.0,10.0,0.0,0.0,0.0,10.0,0.0,0.0,0.0,10.0,0.38109835199,0.00372842552611,-0.154596501279,1.0,0.0,0.0,0.0,1.0,0.0,0.0,0.0,1.0,0.216749267578,1.55915771484,9.96926879883,0.1,0.0,0.0,0.0,0.1,0.0,0.0,0.0,0.1
1446038005788130429,23,1446038005784841060,robocape,11.9973494214,4.79070326484,-21.8353868774,0.0,10.0,0.0,0.0,0.0,10.0,0.0,0.0,0.0,10.0,0.00186421276306,0.0197073920666,0.0408795227327,1.0,0.0,0.0,0.0,1.0,0.0,0.0,0.0,1.0,-0.0263452148438,2.11001220703,10.0830322266,0.1,0.0,0.0,0.0,0.1,0.0,0.0,0.0,0.1
1446038005821266762,24,1446038005818084955,robocape,11.5577776116,4.75408417667,-21.4837771097,0.0,10.0,0.0,0.0,0.0,10.0,0.0,0.0,0.0,10.0,-0.23768712729,0.0202400242846,0.169643361438,1.0,0.0,0.0,0.0,1.0,0.0,0.0,0.0,1.0,-0.0047900390625,0.220341796875,9.86508544922,0.1,0.0,0.0,0.0,0.1,0.0,0.0,0.0,0.1
1446038005854433804,25,1446038005851295948,robocape,11.597940412,4.79122158254,-21.5515519831,0.0,10.0,0.0,0.0,0.0,10.0,0.0,0.0,0.0,10.0,0.0396811002422,0.0151800182135,-0.0664458691975,1.0,0.0,0.0,0.0,1.0,0.0,0.0,0.0,1.0,-0.215551757813,-0.167651367188,10.2626586914,0.1,0.0,0.0,0.0,0.1,0.0,0.0,0.0,0.1
1446038005887838470,26,1446038005884659051,robocape,11.7188950791,4.86200479113,-21.736234523,0.0,10.0,0.0,0.0,0.0,10.0,0.0,0.0,0.0,10.0,0.0893490545722,0.0205063403936,-0.133557528667,1.0,0.0,0.0,0.0,1.0,0.0,0.0,0.0,1.0,0.0886157226563,1.04183349609,10.1213525391,0.1,0.0,0.0,0.0,0.1,0.0,0.0,0.0,0.1
1446038005921229012,27,1446038005917980909,robocape,11.7195277667,4.92829579669,-21.8851954004,0.0,10.0,0.0,0.0,0.0,10.0,0.0,0.0,0.0,10.0,0.0238352917562,0.0217047628841,-0.113184346328,1.0,0.0,0.0,0.0,1.0,0.0,0.0,0.0,1.0,-0.193996582031,1.08494384766,10.1105749512,0.1,0.0,0.0,0.0,0.1,0.0,0.0,0.0,0.1
1446038005954572762,28,1446038005951433897,robocape,11.2834325701,4.95846575566,-21.7879802625,0.0,10.0,0.0,0.0,0.0,10.0,0.0,0.0,0.0,10.0,-0.221974476858,0.0279631914458,0.0267647689553,1.0,0.0,0.0,0.0,1.0,0.0,0.0,0.0,1.0,0.0682580566406,0.778381347656,9.68306396484,0.1,0.0,0.0,0.0,0.1,0.0,0.0,0.0,0.1
1446038005988157429,29,1446038005984729051,robocape,10.9421255907,4.98680255302,-21.7684640229,0.0,10.0,0.0,0.0,0.0,10.0,0.0,0.0,0.0,10.0,-0.167779148675,0.0193079179031,-0.0151800182135,1.0,0.0,0.0,0.0,1.0,0.0,0.0,0.0,1.0,-0.117355957031,0.0610729980469,9.88903564453,0.1,0.0,0.0,0.0,0.1,0.0,0.0,0.0,0.1
1446038006022645637,30,1446038006019213914,robocape,10.6217611684,5.00119729681,-21.6769395504,0.0,10.0,0.0,0.0,0.0,10.0,0.0,0.0,0.0,10.0,-0.16112124595,0.0190416017941,0.0246342400832,1.0,0.0,0.0,0.0,1.0,0.0,0.0,0.0,1.0,-0.146096191406,-0.0311352539063,10.0698596191,0.1,0.0,0.0,0.0,0.1,0.0,0.0,0.0,0.1
1446038006055185846,31,1446038006051640987,robocape,10.2808872299,4.96903378407,-21.3753411288,0.0,10.0,0.0,0.0,0.0,10.0,0.0,0.0,0.0,10.0,-0.184157589379,0.0141147537774,0.141946486101,1.0,0.0,0.0,0.0,1.0,0.0,0.0,0.0,1.0,0.0419128417969,-0.411943359375,9.9980090332,0.1,0.0,0.0,0.0,0.1,0.0,0.0,0.0,0.1
1446038006088132762,32,1446038006084817886,robocape,10.1800661295,4.90425654845,-20.988792488,0.0,10.0,0.0,0.0,0.0,10.0,0.0,0.0,0.0,10.0,-0.0620516533988,0.00466053190764,0.188551805178,1.0,0.0,0.0,0.0,1.0,0.0,0.0,0.0,1.0,-0.0598754882813,-1.01309326172,10.1153649902,0.1,0.0,0.0,0.0,0.1,0.0,0.0,0.0,0.1
1446038006121227804,33,1446038006117961883,robocape,10.3514078605,4.8277463607,-20.6139672592,0.0,10.0,0.0,0.0,0.0,10.0,0.0,0.0,0.0,10.0,0.082691151847,-0.00199737081756,0.181361270234,1.0,0.0,0.0,0.0,1.0,0.0,0.0,0.0,1.0,-0.401165771484,-0.8813671875,10.003996582,0.1,0.0,0.0,0.0,0.1,0.0,0.0,0.0,0.1
1446038006154710929,34,1446038006151314020,robocape,11.0092817131,4.8190762136,-20.5992426177,0.0,10.0,0.0,0.0,0.0,10.0,0.0,0.0,0.0,10.0,0.360458853542,0.00106526443603,-0.0213052887206,1.0,0.0,0.0,0.0,1.0,0.0,0.0,0.0,1.0,-0.684975585938,0.298179931641,10.3404968262,0.1,0.0,0.0,0.0,0.1,0.0,0.0,0.0,0.1
1446038006187970554,35,1446038006184685945,robocape,11.6619019136,4.80584735518,-20.5225491621,0.0,10.0,0.0,0.0,0.0,10.0,0.0,0.0,0.0,10.0,0.355532005526,0.00492684801665,0.0115847507418,1.0,0.0,0.0,0.0,1.0,0.0,0.0,0.0,1.0,0.135318603516,-0.147293701172,10.1967956543,0.1,0.0,0.0,0.0,0.1,0.0,0.0,0.0,0.1
1446038006221020679,36,1446038006217938899,robocape,12.6872840692,4.85853781948,-20.7058959029,0.0,10.0,0.0,0.0,0.0,10.0,0.0,0.0,0.0,10.0,0.569783315222,0.0117179087963,-0.13835121863,1.0,0.0,0.0,0.0,1.0,0.0,0.0,0.0,1.0,-0.0622705078125,1.17954711914,10.1764379883,0.1,0.0,0.0,0.0,0.1,0.0,0.0,0.0,0.1
1446038006254397679,37,1446038006251370906,robocape,13.0659027559,4.83491499394,-20.576756505,0.0,10.0,0.0,0.0,0.0,10.0,0.0,0.0,0.0,10.0,0.209990251953,0.00612527050718,0.0418116291142,1.0,0.0,0.0,0.0,1.0,0.0,0.0,0.0,1.0,-0.131726074219,2.67164428711,9.6914465332,0.1,0.0,0.0,0.0,0.1,0.0,0.0,0.0,0.1
1446038006288166012,38,1446038006284945011,robocape,13.2075607094,4.84128730595,-20.527009466,0.0,10.0,0.0,0.0,0.0,10.0,0.0,0.0,0.0,10.0,0.0889495804086,0.0121173829599,-0.00106526443603,1.0,0.0,0.0,0.0,1.0,0.0,0.0,0.0,1.0,0.323327636719,1.90404052734,10.0830322266,0.1,0.0,0.0,0.0,0.1,0.0,0.0,0.0,0.1
1446038006321093971,39,1446038006318099975,robocape,13.0347535718,4.88451736741,-20.5209061778,0.0,10.0,0.0,0.0,0.0,10.0,0.0,0.0,0.0,10.0,-0.0757669330128,0.0254331884103,-0.0249005561922,1.0,0.0,0.0,0.0,1.0,0.0,0.0,0.0,1.0,-0.113763427734,2.24173828125,10.1716479492,0.1,0.0,0.0,0.0,0.1,0.0,0.0,0.0,0.1
1446038006355459554,40,1446038006352314949,robocape,12.4853318805,4.9191558336,-20.4272582534,0.0,10.0,0.0,0.0,0.0,10.0,0.0,0.0,0.0,10.0,-0.281362969167,0.0304931944814,0.0270310850643,1.0,0.0,0.0,0.0,1.0,0.0,0.0,0.0,1.0,0.0730480957031,1.17116455078,9.85670288086,0.1,0.0,0.0,0.0,0.1,0.0,0.0,0.0,0.1
1446038006389042887,41,1446038006385797023,robocape,12.0078753241,4.95921140999,-20.400557426,0.0,10.0,0.0,0.0,0.0,10.0,0.0,0.0,0.0,10.0,-0.239817656162,0.0258326625738,-0.00945422186978,1.0,0.0,0.0,0.0,1.0,0.0,0.0,0.0,1.0,-0.217946777344,0.128133544922,10.0255517578,0.1,0.0,0.0,0.0,0.1,0.0,0.0,0.0,0.1
1446038006422491471,42,1446038006419425964,robocape,11.9524293397,5.05240023483,-20.6378263692,0.0,10.0,0.0,0.0,0.0,10.0,0.0,0.0,0.0,10.0,-0.000932106381528,0.0258326625738,-0.159789665405,1.0,0.0,0.0,0.0,1.0,0.0,0.0,0.0,1.0,-0.150886230469,-0.310155029297,10.1884130859,0.1,0.0,0.0,0.0,0.1,0.0,0.0,0.0,0.1
1446038006456234304,43,1446038006452625036,robocape,12.1009977359,5.16596552165,-21.0092154994,0.0,10.0,0.0,0.0,0.0,10.0,0.0,0.0,0.0,10.0,0.115714349364,0.0223705531567,-0.236089230636,1.0,0.0,0.0,0.0,1.0,0.0,0.0,0.0,1.0,-0.0227526855469,0.892144775391,10.0495019531,0.1,0.0,0.0,0.0,0.1,0.0,0.0,0.0,0.1
1446038006489968762,44,1446038006486848115,robocape,12.0621901148,5.25890149369,-21.2706817933,0.0,10.0,0.0,0.0,0.0,10.0,0.0,0.0,0.0,10.0,0.0103863282513,0.0231695014837,-0.174303893346,1.0,0.0,0.0,0.0,1.0,0.0,0.0,0.0,1.0,-0.0718505859375,1.31247070313,10.0063916016,0.1,0.0,0.0,0.0,0.1,0.0,0.0,0.0,0.1
1446038006522213929,45,1446038006518994092,robocape,11.542462276,5.2959325592,-21.205651127,0.0,10.0,0.0,0.0,0.0,10.0,0.0,0.0,0.0,10.0,-0.264585054299,0.0284958236638,0.0105194863058,1.0,0.0,0.0,0.0,1.0,0.0,0.0,0.0,1.0,0.0730480957031,0.568817138672,9.79562988281,0.1,0.0,0.0,0.0,0.1,0.0,0.0,0.0,0.1
1446038006560952054,46,1446038006556961059,robocape,11.0908664147,5.32089513847,-21.1795697052,0.0,10.0,0.0,0.0,0.0,10.0,0.0,0.0,0.0,10.0,-0.226635008766,0.0183758115215,-0.00932106381528,1.0,0.0,0.0,0.0,1.0,0.0,0.0,0.0,1.0,-0.177231445313,-0.511336669922,9.91538085938,0.1,0.0,0.0,0.0,0.1,0.0,0.0,0.0,0.1
1446038006589571971,47,1446038006586273908,robocape,11.0109400818,5.37042010252,-21.2972351752,0.0,10.0,0.0,0.0,0.0,10.0,0.0,0.0,0.0,10.0,-0.0213052887206,0.017710021249,-0.0922785317712,1.0,0.0,0.0,0.0,1.0,0.0,0.0,0.0,1.0,-0.203576660156,-0.730480957031,10.1632653809,0.1,0.0,0.0,0.0,0.1,0.0,0.0,0.0,0.1
1446038006625840304,48,1446038006620454072,robocape,10.9120933646,5.38503731991,-21.1950087112,0.0,10.0,0.0,0.0,0.0,10.0,0.0,0.0,0.0,10.0,-0.0446079482588,0.0210389726116,0.0284958236638,1.0,0.0,0.0,0.0,1.0,0.0,0.0,0.0,1.0,-0.166453857422,0.0898132324219,9.9980090332,0.1,0.0,0.0,0.0,0.1,0.0,0.0,0.0,0.1
1446038006656122429,49,1446038006652955055,robocape,10.8289577888,5.34538157916,-20.9066491146,0.0,10.0,0.0,0.0,0.0,10.0,0.0,0.0,0.0,10.0,-0.0476705835124,0.0107858024148,0.133291212558,1.0,0.0,0.0,0.0,1.0,0.0,0.0,0.0,1.0,-0.110170898438,-0.332907714844,10.0027990723,0.1,0.0,0.0,0.0,0.1,0.0,0.0,0.0,0.1
1446038006691553054,50,1446038006687752008,robocape,11.1285535635,5.3342928946,-20.7621222331,0.0,10.0,0.0,0.0,0.0,10.0,0.0,0.0,0.0,10.0,0.16378440704,0.0125168571234,0.0503337446025,1.0,0.0,0.0,0.0,1.0,0.0,0.0,0.0,1.0,-0.304167480469,-0.851429443359,10.2650537109,0.1,0.0,0.0,0.0,0.1,0.0,0.0,0.0,0.1
1446038006724214013,51,1446038006720963954,robocape,11.5583929084,5.28932569733,-20.5199090053,0.0,10.0,0.0,0.0,0.0,10.0,0.0,0.0,0.0,10.0,0.227433957093,0.00545948023466,0.104529072786,1.0,0.0,0.0,0.0,1.0,0.0,0.0,0.0,1.0,-0.0802331542969,1.07296875,9.91897338867,0.1,0.0,0.0,0.0,0.1,0.0,0.0,0.0,0.1
1446038006758630804,52,1446038006755352020,robocape,12.0870417624,5.28150341627,-20.409433771,0.0,10.0,0.0,0.0,0.0,10.0,0.0,0.0,0.0,10.0,0.28855350411,0.0119842249054,0.0295610880999,1.0,0.0,0.0,0.0,1.0,0.0,0.0,0.0,1.0,0.0742456054688,-0.246687011719,10.208770752,0.1,0.0,0.0,0.0,0.1,0.0,0.0,0.0,0.1
1446038006792133346,53,1446038006788212060,robocape,12.5713760613,5.2887482147,-20.4271364172,0.0,10.0,0.0,0.0,0.0,10.0,0.0,0.0,0.0,10.0,0.273639802006,0.00612527050718,-0.0398142582967,1.0,0.0,0.0,0.0,1.0,0.0,0.0,0.0,1.0,-0.347277832031,1.28253295898,10.0495019531,0.1,0.0,0.0,0.0,0.1,0.0,0.0,0.0,0.1
1446038006826174346,54,1446038006822489023,robocape,12.6570794201,5.28879886269,-20.3249181877,0.0,10.0,0.0,0.0,0.0,10.0,0.0,0.0,0.0,10.0,0.0551274345646,0.0150468601589,0.0284958236638,1.0,0.0,0.0,0.0,1.0,0.0,0.0,0.0,1.0,0.171243896484,1.89326293945,9.8483203125,0.1,0.0,0.0,0.0,0.1,0.0,0.0,0.0,0.1
1446038006857773221,55,1446038006854655027,robocape,12.5206017891,5.31055995646,-20.2952540946,0.0,10.0,0.0,0.0,0.0,10.0,0.0,0.0,0.0,10.0,-0.0585895439817,0.017710021249,-0.00972053797879,1.0,0.0,0.0,0.0,1.0,0.0,0.0,0.0,1.0,-0.204774169922,1.63220581055,10.0985998535,0.1,0.0,0.0,0.0,0.1,0.0,0.0,0.0,0.1
1446038006891405596,56,1446038006887586116,robocape,12.1345123682,5.32097056716,-20.1640982328,0.0,10.0,0.0,0.0,0.0,10.0,0.0,0.0,0.0,10.0,-0.197606552884,0.0225037112112,0.0482032157304,1.0,0.0,0.0,0.0,1.0,0.0,0.0,0.0,1.0,0.100590820313,1.17116455078,10.0267492676,0.1,0.0,0.0,0.0,0.1,0.0,0.0,0.0,0.1
1446038006924691971,57,1446038006921355009,robocape,11.4773893496,5.28714792185,-19.7858631771,0.0,10.0,0.0,0.0,0.0,10.0,0.0,0.0,0.0,10.0,-0.356597269962,0.0245010820287,0.187087066578,1.0,0.0,0.0,0.0,1.0,0.0,0.0,0.0,1.0,-0.104183349609,0.161663818359,9.86748046875,0.1,0.0,0.0,0.0,0.1,0.0,0.0,0.0,0.1
1446038006958472763,58,1446038006954922914,robocape,11.1422271409,5.24451993842,-19.4806151129,0.0,10.0,0.0,0.0,0.0,10.0,0.0,0.0,0.0,10.0,-0.181893902452,0.0115847507418,0.146607018009,1.0,0.0,0.0,0.0,1.0,0.0,0.0,0.0,1.0,-0.0167651367188,-0.975970458984,9.98962646484,0.1,0.0,0.0,0.0,0.1,0.0,0.0,0.0,0.1
1446038006993919304,59,1446038006990334987,robocape,11.2588757002,5.22653172698,-19.2935940197,0.0,10.0,0.0,0.0,0.0,10.0,0.0,0.0,0.0,10.0,0.0643153403254,0.0130494893414,0.0774979877213,1.0,0.0,0.0,0.0,1.0,0.0,0.0,0.0,1.0,-0.148491210938,-1.48371459961,10.249486084,0.1,0.0,0.0,0.0,0.1,0.0,0.0,0.0,0.1
1446038007025778138,60,1446038007022200107,robocape,11.958732634,5.30777307979,-19.5703384188,0.0,10.0,0.0,0.0,0.0,10.0,0.0,0.0,0.0,10.0,0.401471534329,0.018242653467,-0.184024431324,1.0,0.0,0.0,0.0,1.0,0.0,0.0,0.0,1.0,-0.932860107422,0.553249511719,10.1405126953,0.1,0.0,0.0,0.0,0.1,0.0,0.0,0.0,0.1
1446038007058556929,61,1446038007055358886,robocape,12.4393815057,5.31662695784,-19.5733316652,0.0,10.0,0.0,0.0,0.0,10.0,0.0,0.0,0.0,10.0,0.270177692589,0.00865527354276,-0.0303600364269,1.0,0.0,0.0,0.0,1.0,0.0,0.0,0.0,1.0,1.00231567383,1.5747253418,9.81239501953,0.1,0.0,0.0,0.0,0.1,0.0,0.0,0.0,0.1
1446038007091385596,62,1446038007088057994,robocape,12.5416238704,5.28143569658,-19.2916332838,0.0,10.0,0.0,0.0,0.0,10.0,0.0,0.0,0.0,10.0,0.0525974315291,0.0167779148675,0.128497522596,1.0,0.0,0.0,0.0,1.0,0.0,0.0,0.0,1.0,-0.208366699219,1.68848876953,10.1560803223,0.1,0.0,0.0,0.0,0.1,0.0,0.0,0.0,0.1
1446038007124460804,63,1446038007121265888,robocape,12.3093463553,5.26357422618,-19.0560217326,0.0,10.0,0.0,0.0,0.0,10.0,0.0,0.0,0.0,10.0,-0.122372252089,0.0198405501211,0.10612696944,1.0,0.0,0.0,0.0,1.0,0.0,0.0,0.0,1.0,-0.335302734375,-0.590372314453,10.0435144043,0.1,0.0,0.0,0.0,0.1,0.0,0.0,0.0,0.1
1446038007158576179,64,1446038007155467033,robocape,12.6723643601,5.31370164367,-19.1710826458,0.0,10.0,0.0,0.0,0.0,10.0,0.0,0.0,0.0,10.0,0.214783941915,0.017177389031,-0.0922785317712,1.0,0.0,0.0,0.0,1.0,0.0,0.0,0.0,1.0,0.132923583984,0.106578369141,9.87945556641,0.1,0.0,0.0,0.0,0.1,0.0,0.0,0.0,0.1
1446038007191946929,65,1446038007188627004,robocape,12.7281380225,5.32124698846,-19.1786814663,0.0,10.0,0.0,0.0,0.0,10.0,0.0,0.0,0.0,10.0,0.0454068965859,0.0066579027252,-0.0278300333913,1.0,0.0,0.0,0.0,1.0,0.0,0.0,0.0,1.0,-0.234711914063,1.94834838867,9.75850708008,0.1,0.0,0.0,0.0,0.1,0.0,0.0,0.0,0.1
1446038007222992596,66,1446038007219835042,robocape,12.5236197128,5.3442909289,-19.0745608109,0.0,10.0,0.0,0.0,0.0,10.0,0.0,0.0,0.0,10.0,-0.099602224769,0.0266316109008,0.0318247750264,1.0,0.0,0.0,0.0,1.0,0.0,0.0,0.0,1.0,-0.00838256835938,0.620310058594,10.1476977539,0.1,0.0,0.0,0.0,0.1,0.0,0.0,0.0,0.1
1446038007257272304,67,1446038007254163980,robocape,12.3764895897,5.3990893834,-19.1512561552,0.0,10.0,0.0,0.0,0.0,10.0,0.0,0.0,0.0,10.0,-0.0584563859272,0.0230363434292,-0.067377975579,1.0,0.0,0.0,0.0,1.0,0.0,0.0,0.0,1.0,-0.311352539063,0.311352539063,10.1225500488,0.1,0.0,0.0,0.0,0.1,0.0,0.0,0.0,0.1
1446038007291253763,68,1446038007287786006,robocape,12.1762771616,5.43933847083,-19.1884218747,0.0,10.0,0.0,0.0,0.0,10.0,0.0,0.0,0.0,10.0,-0.0892158965177,0.0199737081756,-0.0443416321498,1.0,0.0,0.0,0.0,1.0,0.0,0.0,0.0,1.0,0.137713623047,1.53401000977,9.88185058594,0.1,0.0,0.0,0.0,0.1,0.0,0.0,0.0,0.1
1446038007324484388,69,1446038007321386098,robocape,11.7132315037,5.42766982661,-18.99117915,0.0,10.0,0.0,0.0,0.0,10.0,0.0,0.0,0.0,10.0,-0.243279765579,0.017710021249,0.0878843159726,1.0,0.0,0.0,0.0,1.0,0.0,0.0,0.0,1.0,-0.0910107421875,0.719703369141,10.0650695801,0.1,0.0,0.0,0.0,0.1,0.0,0.0,0.0,0.1
1446038007357006388,70,1446038007353888988,robocape,11.2919459534,5.39061165756,-18.6492205974,0.0,10.0,0.0,0.0,0.0,10.0,0.0,0.0,0.0,10.0,-0.230097118183,0.0186421276306,0.166847042293,1.0,0.0,0.0,0.0,1.0,0.0,0.0,0.0,1.0,-0.0263452148438,-0.698148193359,10.1512902832,0.1,0.0,0.0,0.0,0.1,0.0,0.0,0.0,0.1
1446038007390842763,71,1446038007387465000,robocape,11.278572809,5.33991472615,-18.365767504,0.0,10.0,0.0,0.0,0.0,10.0,0.0,0.0,0.0,10.0,-0.0106526443603,0.00585895439817,0.134090160885,1.0,0.0,0.0,0.0,1.0,0.0,0.0,0.0,1.0,-0.142503662109,-1.25139770508,9.97884887695,0.1,0.0,0.0,0.0,0.1,0.0,0.0,0.0,0.1
1446038007422916721,72,1446038007419645071,robocape,11.739458475,5.33326572261,-18.3402102744,0.0,10.0,0.0,0.0,0.0,10.0,0.0,0.0,0.0,10.0,0.256196096866,0.00372842552611,-0.0105194863058,1.0,0.0,0.0,0.0,1.0,0.0,0.0,0.0,1.0,-0.546064453125,0.216749267578,10.1225500488,0.1,0.0,0.0,0.0,0.1,0.0,0.0,0.0,0.1
1446038007455465055,73,1446038007452390909,robocape,12.2690373982,5.32458724419,-18.2689624855,0.0,10.0,0.0,0.0,0.0,10.0,0.0,0.0,0.0,10.0,0.290817191037,0.00772316716123,0.0127831732324,1.0,0.0,0.0,0.0,1.0,0.0,0.0,0.0,1.0,0.320932617188,0.0993933105469,10.2363134766,0.1,0.0,0.0,0.0,0.1,0.0,0.0,0.0,0.1
1446038007488572805,74,1446038007485215902,robocape,12.8540805359,5.31918203042,-18.2069622458,0.0,10.0,0.0,0.0,0.0,10.0,0.0,0.0,0.0,10.0,0.321843017736,0.00878843159726,0.0066579027252,1.0,0.0,0.0,0.0,1.0,0.0,0.0,0.0,1.0,-0.0610729980469,1.32684082031,9.96447875977,0.1,0.0,0.0,0.0,0.1,0.0,0.0,0.0,0.1
1446038007521641096,75,1446038007518532991,robocape,13.167166989,5.32572052244,-18.2060053154,0.0,10.0,0.0,0.0,0.0,10.0,0.0,0.0,0.0,10.0,0.181760744398,0.00759000910673,-0.0243679239742,1.0,0.0,0.0,0.0,1.0,0.0,0.0,0.0,1.0,-0.0706530761719,1.37833374023,9.99561401367,0.1,0.0,0.0,0.0,0.1,0.0,0.0,0.0,0.1
1446038007555153263,76,1446038007552171945,robocape,13.2283066165,5.35877415365,-18.2703613271,0.0,10.0,0.0,0.0,0.0,10.0,0.0,0.0,0.0,10.0,0.052064799311,0.0130494893414,-0.0593884923088,1.0,0.0,0.0,0.0,1.0,0.0,0.0,0.0,1.0,0.241896972656,2.7590625,9.67468139648,0.1,0.0,0.0,0.0,0.1,0.0,0.0,0.0,0.1
1446038007588235638,77,1446038007585150957,robocape,12.6050862487,5.34533701635,-17.9701960035,0.0,10.0,0.0,0.0,0.0,10.0,0.0,0.0,0.0,10.0,-0.333960400696,0.0298274042089,0.144343331082,1.0,0.0,0.0,0.0,1.0,0.0,0.0,0.0,1.0,0.0598754882813,1.98187866211,10.1105749512,0.1,0.0,0.0,0.0,0.1,0.0,0.0,0.0,0.1
1446038007621187763,78,1446038007618113040,robocape,12.1991236376,5.3790001726,-17.9659790497,0.0,10.0,0.0,0.0,0.0,10.0,0.0,0.0,0.0,10.0,-0.20133497841,0.0206394984481,-0.017976337358,1.0,0.0,0.0,0.0,1.0,0.0,0.0,0.0,1.0,-0.09580078125,1.1076965332,9.91059082031,0.1,0.0,0.0,0.0,0.1,0.0,0.0,0.0,0.1
1446038007654760763,79,1446038007651745080,robocape,11.8545329315,5.42296386154,-17.9157534013,0.0,10.0,0.0,0.0,0.0,10.0,0.0,0.0,0.0,10.0,-0.17177389031,0.0310258266994,0.00452737385313,1.0,0.0,0.0,0.0,1.0,0.0,0.0,0.0,1.0,-0.0874182128906,-0.656235351563,10.3357067871,0.1,0.0,0.0,0.0,0.1,0.0,0.0,0.0,0.1
1446038007687882638,80,1446038007684782981,robocape,12.1203847951,5.53741108965,-18.3213044485,0.0,10.0,0.0,0.0,0.0,10.0,0.0,0.0,0.0,10.0,0.179630215526,0.0202400242846,-0.248606087759,1.0,0.0,0.0,0.0,1.0,0.0,0.0,0.0,1.0,-0.143701171875,0.705333251953,10.1536853027,0.1,0.0,0.0,0.0,0.1,0.0,0.0,0.0,0.1
1446038007721134471,81,1446038007718132972,robocape,12.1050925003,5.6113412232,-18.4615041217,0.0,10.0,0.0,0.0,0.0,10.0,0.0,0.0,0.0,10.0,0.0149137021044,0.0268979270098,-0.102798018077,1.0,0.0,0.0,0.0,1.0,0.0,0.0,0.0,1.0,0.102985839844,1.22145996094,9.91298583984,0.1,0.0,0.0,0.0,0.1,0.0,0.0,0.0,0.1
1446038007754503971,82,1446038007751514911,robocape,12.0224324993,5.7021340864,-18.7011406589,0.0,10.0,0.0,0.0,0.0,10.0,0.0,0.0,0.0,10.0,-0.0145142279409,0.0250337142467,-0.156593872097,1.0,0.0,0.0,0.0,1.0,0.0,0.0,0.0,1.0,-0.184416503906,0.546064453125,10.0483044434,0.1,0.0,0.0,0.0,0.1,0.0,0.0,0.0,0.1
1446038007787742430,83,1446038007784702062,robocape,11.9091444751,5.80942219511,-19.0507875799,0.0,10.0,0.0,0.0,0.0,10.0,0.0,0.0,0.0,10.0,-0.0235689756472,0.0222373951022,-0.216514996623,1.0,0.0,0.0,0.0,1.0,0.0,0.0,0.0,1.0,0.0131726074219,1.10170898438,9.98962646484,0.1,0.0,0.0,0.0,0.1,0.0,0.0,0.0,0.1
1446038007824955930,84,1446038007821248054,robocape,11.482689954,5.87209944595,-19.2292317911,0.0,10.0,0.0,0.0,0.0,10.0,0.0,0.0,0.0,10.0,-0.200669188137,0.0173105470855,-0.118643826563,1.0,0.0,0.0,0.0,1.0,0.0,0.0,0.0,1.0,-0.0107775878906,1.72201904297,9.91897338867,0.1,0.0,0.0,0.0,0.1,0.0,0.0,0.0,0.1
1446038007854383055,85,1446038007851242065,robocape,10.7721665857,5.8795647714,-19.088546862,0.0,10.0,0.0,0.0,0.0,10.0,0.0,0.0,0.0,10.0,-0.372043604284,0.0205063403936,0.0584563859272,1.0,0.0,0.0,0.0,1.0,0.0,0.0,0.0,1.0,-0.0490979003906,0.182021484375,10.1021923828,0.1,0.0,0.0,0.0,0.1,0.0,0.0,0.0,0.1
1446038007887915388,86,1446038007884768962,robocape,10.3575071841,5.89073940423,-18.9886392631,0.0,10.0,0.0,0.0,0.0,10.0,0.0,0.0,0.0,10.0,-0.213186045261,0.0186421276306,0.0339553038985,1.0,0.0,0.0,0.0,1.0,0.0,0.0,0.0,1.0,-0.0946032714844,-0.481398925781,10.213560791,0.1,0.0,0.0,0.0,0.1,0.0,0.0,0.0,0.1
1446038007921377263,87,1446038007918277978,robocape,10.1518524656,5.90414386247,-18.9305177217,0.0,10.0,0.0,0.0,0.0,10.0,0.0,0.0,0.0,10.0,-0.100268015041,0.0162452826495,0.0099868540878,1.0,0.0,0.0,0.0,1.0,0.0,0.0,0.0,1.0,-0.259859619141,-0.275427246094,10.1069824219,0.1,0.0,0.0,0.0,0.1,0.0,0.0,0.0,0.1
1446038007954855638,88,1446038007951632022,robocape,10.0951397503,5.91894410778,-18.845791514,0.0,10.0,0.0,0.0,0.0,10.0,0.0,0.0,0.0,10.0,-0.0233026595382,0.0195742340121,0.0227700273202,1.0,0.0,0.0,0.0,1.0,0.0,0.0,0.0,1.0,-0.203576660156,-0.453856201172,9.96807128906,0.1,0.0,0.0,0.0,0.1,0.0,0.0,0.0,0.1
1446038007995736888,89,1446038007987567901,robocape,10.1918129697,5.931825352,-18.7881133473,0.0,10.0,0.0,0.0,0.0,10.0,0.0,0.0,0.0,10.0,0.0595216503633,0.0165115987585,0.00745685105222,1.0,0.0,0.0,0.0,1.0,0.0,0.0,0.0,1.0,-0.233514404297,-0.00598754882813,9.94771362305,0.1,0.0,0.0,0.0,0.1,0.0,0.0,0.0,0.1
1446038008026274346,90,1446038008022241115,robocape,10.2085968088,5.90680960318,-18.5522347547,0.0,10.0,0.0,0.0,0.0,10.0,0.0,0.0,0.0,10.0,0.00599211245268,0.0126500151779,0.10612696944,1.0,0.0,0.0,0.0,1.0,0.0,0.0,0.0,1.0,-0.0179626464844,0.227526855469,9.88424560547,0.1,0.0,0.0,0.0,0.1,0.0,0.0,0.0,0.1
1446038008060687263,91,1446038008055229902,robocape,10.1873564123,5.82182508803,-18.0252778225,0.0,10.0,0.0,0.0,0.0,10.0,0.0,0.0,0.0,10.0,-0.0323574072445,0.00745685105222,0.266316109008,1.0,0.0,0.0,0.0,1.0,0.0,0.0,0.0,1.0,0.104183349609,-0.647852783203,10.0722546387,0.1,0.0,0.0,0.0,0.1,0.0,0.0,0.0,0.1
1446038008093126638,92,1446038008089541912,robocape,10.6720729336,5.80858020824,-17.9430187064,0.0,10.0,0.0,0.0,0.0,10.0,0.0,0.0,0.0,10.0,0.263386631809,0.00599211245268,0.0210389726116,1.0,0.0,0.0,0.0,1.0,0.0,0.0,0.0,1.0,-0.457448730469,-0.780776367188,10.3201391602,0.1,0.0,0.0,0.0,0.1,0.0,0.0,0.0,0.1
1446038008125962513,93,1446038008122747898,robocape,11.3148005532,5.84524585528,-17.9405514869,0.0,10.0,0.0,0.0,0.0,10.0,0.0,0.0,0.0,10.0,0.353135160545,0.0247673981377,-0.0278300333913,1.0,0.0,0.0,0.0,1.0,0.0,0.0,0.0,1.0,-0.76640625,0.399968261719,9.98723144531,0.1,0.0,0.0,0.0,0.1,0.0,0.0,0.0,0.1
1446038008159336013,94,1446038008156218051,robocape,11.9089122881,5.84071374556,-17.9925606556,0.0,10.0,0.0,0.0,0.0,10.0,0.0,0.0,0.0,10.0,0.331829871824,-0.00213052887206,-0.0521979573656,1.0,0.0,0.0,0.0,1.0,0.0,0.0,0.0,1.0,0.880169677734,1.34719848633,9.51541259766,0.1,0.0,0.0,0.0,0.1,0.0,0.0,0.0,0.1
1446038008192730472,95,1446038008189161062,robocape,12.2550369246,5.85495988293,-17.9015766693,0.0,10.0,0.0,0.0,0.0,10.0,0.0,0.0,0.0,10.0,0.192147072649,0.0219710789932,0.0225037112112,1.0,0.0,0.0,0.0,1.0,0.0,0.0,0.0,1.0,-0.00838256835938,1.6058605957,10.4015698242,0.1,0.0,0.0,0.0,0.1,0.0,0.0,0.0,0.1
1446038008224198472,96,1446038008220741987,robocape,12.2988853228,5.8695093863,-17.8741373952,0.0,10.0,0.0,0.0,0.0,10.0,0.0,0.0,0.0,10.0,0.0359526747161,0.0147805440499,-0.00798948327024,1.0,0.0,0.0,0.0,1.0,0.0,0.0,0.0,1.0,0.225131835938,1.51125732422,9.95609619141,0.1,0.0,0.0,0.0,0.1,0.0,0.0,0.0,0.1
1446038008258071972,97,1446038008254884004,robocape,12.2596366498,5.94838141391,-18.041501152,0.0,10.0,0.0,0.0,0.0,10.0,0.0,0.0,0.0,10.0,0.00452737385313,0.0266316109008,-0.1167796138,1.0,0.0,0.0,0.0,1.0,0.0,0.0,0.0,1.0,-0.0838256835938,1.53161499023,9.99441650391,0.1,0.0,0.0,0.0,0.1,0.0,0.0,0.0,0.1
1446038008290559430,98,1446038008287298917,robocape,11.9496691341,6.02989171048,-18.2574281365,0.0,10.0,0.0,0.0,0.0,10.0,0.0,0.0,0.0,10.0,-0.136087531703,0.0226368692657,-0.140082273338,1.0,0.0,0.0,0.0,1.0,0.0,0.0,0.0,1.0,-0.0634680175781,1.59628051758,9.99321899414,0.1,0.0,0.0,0.0,0.1,0.0,0.0,0.0,0.1
1446038008323684180,99,1446038008320475101,robocape,11.461985231,6.08147768284,-18.34334631,0.0,10.0,0.0,0.0,0.0,10.0,0.0,0.0,0.0,10.0,-0.239151865889,0.0211721306661,-0.066845343361,1.0,0.0,0.0,0.0,1.0,0.0,0.0,0.0,1.0,0.21076171875,1.74117919922,9.91777587891,0.1,0.0,0.0,0.0,0.1,0.0,0.0,0.0,0.1
1446038008357840055,100,1446038008354806900,robocape,10.5822096607,6.08439469627,-18.2034906576,0.0,10.0,0.0,0.0,0.0,10.0,0.0,0.0,0.0,10.0,-0.462191607183,0.017710021249,0.0609863889628,1.0,0.0,0.0,0.0,1.0,0.0,0.0,0.0,1.0,-0.154478759766,0.348475341797,10.1141674805,0.1,0.0,0.0,0.0,0.1,0.0,0.0,0.0,0.1
1446038008390731180,101,1446038008387644052,robocape,9.69563442368,6.03435414989,-17.8317265883,0.0,10.0,0.0,0.0,0.0,10.0,0.0,0.0,0.0,10.0,-0.480966892868,0.00985369603329,0.188551805178,1.0,0.0,0.0,0.0,1.0,0.0,0.0,0.0,1.0,0.0562829589844,0.126936035156,9.9596887207,0.1,0.0,0.0,0.0,0.1,0.0,0.0,0.0,0.1
1446038008422961805,102,1446038008419929981,robocape,8.99214141065,5.95867958901,-17.3377258915,0.0,10.0,0.0,0.0,0.0,10.0,0.0,0.0,0.0,10.0,-0.391884154405,0.00426105774413,0.253932409939,1.0,0.0,0.0,0.0,1.0,0.0,0.0,0.0,1.0,-0.264649658203,-1.69806884766,10.0782421875,0.1,0.0,0.0,0.0,0.1,0.0,0.0,0.0,0.1
1446038008457944222,103,1446038008454924106,robocape,9.00170002597,5.95716210229,-17.2735572488,0.0,10.0,0.0,0.0,0.0,10.0,0.0,0.0,0.0,10.0,0.0111852765783,0.00892158965177,0.0157126504315,1.0,0.0,0.0,0.0,1.0,0.0,0.0,0.0,1.0,-0.656235351563,-0.452658691406,9.99561401367,0.1,0.0,0.0,0.0,0.1,0.0,0.0,0.0,0.1
1446038008490586888,104,1446038008487277030,robocape,9.14135135475,5.98281965301,-17.2247072835,0.0,10.0,0.0,0.0,0.0,10.0,0.0,0.0,0.0,10.0,0.0809600971384,0.0221042370477,0.00439421579863,1.0,0.0,0.0,0.0,1.0,0.0,0.0,0.0,1.0,-0.237106933594,-1.39869140625,10.1979931641,0.1,0.0,0.0,0.0,0.1,0.0,0.0,0.0,0.1
1446038008523296055,105,1446038008520184040,robocape,9.6261631407,5.99248483481,-17.1442246922,0.0,10.0,0.0,0.0,0.0,10.0,0.0,0.0,0.0,10.0,0.2616555771,0.017177389031,0.0199737081756,1.0,0.0,0.0,0.0,1.0,0.0,0.0,0.0,1.0,0.105380859375,-0.324525146484,10.1057849121,0.1,0.0,0.0,0.0,0.1,0.0,0.0,0.0,0.1
1446038008556937680,106,1446038008553603887,robocape,10.0707732868,5.98882903606,-16.9802051461,0.0,10.0,0.0,0.0,0.0,10.0,0.0,0.0,0.0,10.0,0.235822914527,0.017710021249,0.0652474467069,1.0,0.0,0.0,0.0,1.0,0.0,0.0,0.0,1.0,-0.262254638672,0.108973388672,10.0902172852,0.1,0.0,0.0,0.0,0.1,0.0,0.0,0.0,0.1
1446038008588932597,107,1446038008585699081,robocape,10.6128749963,6.01584004143,-17.0251630589,0.0,10.0,0.0,0.0,0.0,10.0,0.0,0.0,0.0,10.0,0.301336677342,0.015579492377,-0.0486026898939,1.0,0.0,0.0,0.0,1.0,0.0,0.0,0.0,1.0,-0.358055419922,0.354462890625,9.9285534668,0.1,0.0,0.0,0.0,0.1,0.0,0.0,0.0,0.1
1446038008621858930,108,1446038008618787050,robocape,11.035838651,6.03836987101,-17.0831852041,0.0,10.0,0.0,0.0,0.0,10.0,0.0,0.0,0.0,10.0,0.239950814216,0.0115847507418,-0.0545948023466,1.0,0.0,0.0,0.0,1.0,0.0,0.0,0.0,1.0,0.476608886719,1.37114868164,9.86388793945,0.1,0.0,0.0,0.0,0.1,0.0,0.0,0.0,0.1
1446038008655421055,109,1446038008652363061,robocape,11.1095570407,6.02286953881,-16.9012650878,0.0,10.0,0.0,0.0,0.0,10.0,0.0,0.0,0.0,10.0,0.0399474163512,0.0143810698864,0.0778974618848,1.0,0.0,0.0,0.0,1.0,0.0,0.0,0.0,1.0,-0.0467028808594,1.70166137695,10.1357226563,0.1,0.0,0.0,0.0,0.1,0.0,0.0,0.0,0.1
1446038008688422263,110,1446038008685231924,robocape,10.9164393899,6.01284899158,-16.6919438189,0.0,10.0,0.0,0.0,0.0,10.0,0.0,0.0,0.0,10.0,-0.103197492241,0.0191747598486,0.0941427445343,1.0,0.0,0.0,0.0,1.0,0.0,0.0,0.0,1.0,-0.176033935547,-0.166453857422,10.1680554199,0.1,0.0,0.0,0.0,0.1,0.0,0.0,0.0,0.1
1446038008721517888,111,1446038008718488931,robocape,10.9641777042,6.01779984687,-16.6143710268,0.0,10.0,0.0,0.0,0.0,10.0,0.0,0.0,0.0,10.0,0.0326237233535,0.0146473859954,0.0218379209386,1.0,0.0,0.0,0.0,1.0,0.0,0.0,0.0,1.0,0.0431103515625,0.952020263672,9.81119750977,0.1,0.0,0.0,0.0,0.1,0.0,0.0,0.0,0.1
1446038008754699264,112,1446038008751687049,robocape,10.8710404147,6.02346823082,-16.4623015628,0.0,10.0,0.0,0.0,0.0,10.0,0.0,0.0,0.0,10.0,-0.0467384771309,0.0218379209386,0.0620516533988,1.0,0.0,0.0,0.0,1.0,0.0,0.0,0.0,1.0,-0.0550854492188,-0.322130126953,10.1848205566,0.1,0.0,0.0,0.0,0.1,0.0,0.0,0.0,0.1
1446038008788282180,113,1446038008785084962,robocape,11.1035733837,6.07824166587,-16.6065042599,0.0,10.0,0.0,0.0,0.0,10.0,0.0,0.0,0.0,10.0,0.144742805246,0.0194410759576,-0.100800647259,1.0,0.0,0.0,0.0,1.0,0.0,0.0,0.0,1.0,-0.231119384766,-0.067060546875,10.0471069336,0.1,0.0,0.0,0.0,0.1,0.0,0.0,0.0,0.1
1446038008821212764,114,1446038008818191051,robocape,11.3078980213,6.14480519585,-16.8108981714,0.0,10.0,0.0,0.0,0.0,10.0,0.0,0.0,0.0,10.0,0.13422331894,0.0193079179031,-0.133823844776,1.0,0.0,0.0,0.0,1.0,0.0,0.0,0.0,1.0,-0.0395178222656,0.920885009766,9.98962646484,0.1,0.0,0.0,0.0,0.1,0.0,0.0,0.0,0.1
1446038008854842972,115,1446038008851453065,robocape,11.3261989412,6.21918461667,-17.0236125574,0.0,10.0,0.0,0.0,0.0,10.0,0.0,0.0,0.0,10.0,0.0366184649886,0.0219710789932,-0.137951744466,1.0,0.0,0.0,0.0,1.0,0.0,0.0,0.0,1.0,-0.00598754882813,1.28971801758,10.0207617188,0.1,0.0,0.0,0.0,0.1,0.0,0.0,0.0,0.1
1446038008888178055,116,1446038008884910106,robocape,11.0627356083,6.29248058072,-17.2603824169,0.0,10.0,0.0,0.0,0.0,10.0,0.0,0.0,0.0,10.0,-0.111053817456,0.0187752856851,-0.148338072717,1.0,0.0,0.0,0.0,1.0,0.0,0.0,0.0,1.0,0.0203576660156,2.04295166016,9.94891113281,0.1,0.0,0.0,0.0,0.1,0.0,0.0,0.0,0.1
1446038008920971055,117,1446038008917963981,robocape,10.3973265103,6.30942449639,-17.1523849532,0.0,10.0,0.0,0.0,0.0,10.0,0.0,0.0,0.0,10.0,-0.347143048092,0.0222373951022,0.0418116291142,1.0,0.0,0.0,0.0,1.0,0.0,0.0,0.0,1.0,-0.1149609375,0.602347412109,10.1656604004,0.1,0.0,0.0,0.0,0.1,0.0,0.0,0.0,0.1
1446038008954732972,118,1446038008951498985,robocape,9.62510456872,6.27600638426,-16.8201597698,0.0,10.0,0.0,0.0,0.0,10.0,0.0,0.0,0.0,10.0,-0.418782081415,0.0149137021044,0.165648619803,1.0,0.0,0.0,0.0,1.0,0.0,0.0,0.0,1.0,0.107775878906,-0.0335302734375,9.91418334961,0.1,0.0,0.0,0.0,0.1,0.0,0.0,0.0,0.1
1446038008992421805,119,1446038008986352920,robocape,8.95390138699,6.1811895482,-16.3753347645,0.0,10.0,0.0,0.0,0.0,10.0,0.0,0.0,0.0,10.0,-0.372842552611,-0.00972053797879,0.229830802074,1.0,0.0,0.0,0.0,1.0,0.0,0.0,0.0,1.0,-0.0730480957031,-1.20589233398,10.0351318359,0.1,0.0,0.0,0.0,0.1,0.0,0.0,0.0,0.1
1446038009022253597,120,1446038009019244909,robocape,8.88262177221,6.16862107668,-16.1735130554,0.0,10.0,0.0,0.0,0.0,10.0,0.0,0.0,0.0,10.0,-0.0406132066237,0.0138484376684,0.0909469512262,1.0,0.0,0.0,0.0,1.0,0.0,0.0,0.0,1.0,-0.433498535156,-1.83218994141,10.208770752,0.1,0.0,0.0,0.0,0.1,0.0,0.0,0.0,0.1
1446038009054677055,121,1446038009051568984,robocape,9.39704564645,6.22467097522,-16.2632825747,0.0,10.0,0.0,0.0,0.0,10.0,0.0,0.0,0.0,10.0,0.287488239674,0.0278300333913,-0.0721716655411,1.0,0.0,0.0,0.0,1.0,0.0,0.0,0.0,1.0,0.0275427246094,-1.46215942383,10.1500927734,0.1,0.0,0.0,0.0,0.1,0.0,0.0,0.0,0.1
1446038009087947264,122,1446038009084880113,robocape,10.068804673,6.25514182688,-16.3551275101,0.0,10.0,0.0,0.0,0.0,10.0,0.0,0.0,0.0,10.0,0.371777288175,0.0142479118319,-0.0727042977592,1.0,0.0,0.0,0.0,1.0,0.0,0.0,0.0,1.0,-0.308957519531,1.19750976562,9.99082397461,0.1,0.0,0.0,0.0,0.1,0.0,0.0,0.0,0.1
1446038009121282680,123,1446038009118246078,robocape,10.4384689679,6.2671359751,-16.3076817933,0.0,10.0,0.0,0.0,0.0,10.0,0.0,0.0,0.0,10.0,0.203864981446,0.016112124595,0.00372842552611,1.0,0.0,0.0,0.0,1.0,0.0,0.0,0.0,1.0,-0.237106933594,0.473016357422,10.213560791,0.1,0.0,0.0,0.0,0.1,0.0,0.0,0.0,0.1
1446038009154849139,124,1446038009151860952,robocape,10.8248969146,6.30488108136,-16.3569224618,0.0,10.0,0.0,0.0,0.0,10.0,0.0,0.0,0.0,10.0,0.219710789932,0.0206394984481,-0.049934270439,1.0,0.0,0.0,0.0,1.0,0.0,0.0,0.0,1.0,0.120948486328,0.447868652344,9.89262817383,0.1,0.0,0.0,0.0,0.1,0.0,0.0,0.0,0.1
1446038009188439722,125,1446038009185409069,robocape,11.0542525871,6.3211883828,-16.3703946123,0.0,10.0,0.0,0.0,0.0,10.0,0.0,0.0,0.0,10.0,0.134622793104,0.0125168571234,-0.0280963495003,1.0,0.0,0.0,0.0,1.0,0.0,0.0,0.0,1.0,0.261057128906,1.62142822266,9.83754272461,0.1,0.0,0.0,0.0,0.1,0.0,0.0,0.0,0.1
1446038009221603180,126,1446038009218588113,robocape,10.8770210529,6.30660808181,-16.2135223231,0.0,10.0,0.0,0.0,0.0,10.0,0.0,0.0,0.0,10.0,-0.0920122156622,0.0119842249054,0.0675111336335,1.0,0.0,0.0,0.0,1.0,0.0,0.0,0.0,1.0,-0.106578369141,1.73040161133,10.0650695801,0.1,0.0,0.0,0.0,0.1,0.0,0.0,0.0,0.1
1446038009254807680,127,1446038009251811027,robocape,10.4947568862,6.28147505998,-15.892103145,0.0,10.0,0.0,0.0,0.0,10.0,0.0,0.0,0.0,10.0,-0.211588148607,0.0210389726116,0.156593872097,1.0,0.0,0.0,0.0,1.0,0.0,0.0,0.0,1.0,0.0562829589844,-0.673000488281,10.254276123,0.1,0.0,0.0,0.0,0.1,0.0,0.0,0.0,0.1
1446038009287880347,128,1446038009284852027,robocape,10.4230380557,6.30523542015,-15.9133826568,0.0,10.0,0.0,0.0,0.0,10.0,0.0,0.0,0.0,10.0,-0.0250337142467,0.0150468601589,-0.0296942461544,1.0,0.0,0.0,0.0,1.0,0.0,0.0,0.0,1.0,-0.168848876953,0.407153320313,9.84712280273,0.1,0.0,0.0,0.0,0.1,0.0,0.0,0.0,0.1
1446038009321171680,129,1446038009318135023,robocape,10.3377607729,6.31902650677,-15.870660826,0.0,10.0,0.0,0.0,0.0,10.0,0.0,0.0,0.0,10.0,-0.0364853069341,0.0157126504315,0.00492684801665,1.0,0.0,0.0,0.0,1.0,0.0,0.0,0.0,1.0,-0.197589111328,0.209564208984,10.0471069336,0.1,0.0,0.0,0.0,0.1,0.0,0.0,0.0,0.1
1446038009354292764,130,1446038009351288080,robocape,10.1212656436,6.29116571566,-15.6321524011,0.0,10.0,0.0,0.0,0.0,10.0,0.0,0.0,0.0,10.0,-0.118910142672,0.0113184346328,0.11265171411,1.0,0.0,0.0,0.0,1.0,0.0,0.0,0.0,1.0,0.0443078613281,0.17244140625,9.9980090332,0.1,0.0,0.0,0.0,0.1,0.0,0.0,0.0,0.1
1446038009388194889,131,1446038009385109901,robocape,10.0275495871,6.24458722447,-15.32046986,0.0,10.0,0.0,0.0,0.0,10.0,0.0,0.0,0.0,10.0,-0.0588558600908,0.00798948327024,0.152199656298,1.0,0.0,0.0,0.0,1.0,0.0,0.0,0.0,1.0,0.0826281738281,-0.439486083984,10.0087866211,0.1,0.0,0.0,0.0,0.1,0.0,0.0,0.0,0.1
1446038009421097972,132,1446038009418061971,robocape,10.2709726814,6.2379117101,-15.3028697744,0.0,10.0,0.0,0.0,0.0,10.0,0.0,0.0,0.0,10.0,0.138484376684,0.0034621094171,-0.00759000910673,1.0,0.0,0.0,0.0,1.0,0.0,0.0,0.0,1.0,-0.484991455078,0.777183837891,10.1153649902,0.1,0.0,0.0,0.0,0.1,0.0,0.0,0.0,0.1
1446038009455382889,133,1446038009452162981,robocape,10.3929657006,6.26395770815,-15.2474931214,0.0,10.0,0.0,0.0,0.0,10.0,0.0,0.0,0.0,10.0,0.0721716655411,0.0235689756472,0.00972053797879,1.0,0.0,0.0,0.0,1.0,0.0,0.0,0.0,1.0,-0.353265380859,0.441881103516,10.3452868652,0.1,0.0,0.0,0.0,0.1,0.0,0.0,0.0,0.1
1446038009488255347,134,1446038009484978914,robocape,10.5027650783,6.27755675929,-15.1979401493,0.0,10.0,0.0,0.0,0.0,10.0,0.0,0.0,0.0,10.0,0.0661795530885,0.016644756813,0.00798948327024,1.0,0.0,0.0,0.0,1.0,0.0,0.0,0.0,1.0,0.111368408203,-0.0371228027344,9.99920654297,0.1,0.0,0.0,0.0,0.1,0.0,0.0,0.0,0.1
1446038009521188181,135,1446038009517940998,robocape,10.7414305977,6.29157955843,-15.1633181579,0.0,10.0,0.0,0.0,0.0,10.0,0.0,0.0,0.0,10.0,0.135554899485,0.015845808486,-0.000798948327024,1.0,0.0,0.0,0.0,1.0,0.0,0.0,0.0,1.0,0.202379150391,0.0502954101563,9.95250366211,0.1,0.0,0.0,0.0,0.1,0.0,0.0,0.0,0.1
1446038009554720389,136,1446038009551359891,robocape,10.9467151953,6.30072413184,-15.1217694832,0.0,10.0,0.0,0.0,0.0,10.0,0.0,0.0,0.0,10.0,0.117711720182,0.0139815957229,0.0034621094171,1.0,0.0,0.0,0.0,1.0,0.0,0.0,0.0,1.0,-0.342487792969,0.710123291016,10.075847168,0.1,0.0,0.0,0.0,0.1,0.0,0.0,0.0,0.1
1446038009588323014,137,1446038009584908008,robocape,11.0590985255,6.31155865717,-15.0780311703,0.0,10.0,0.0,0.0,0.0,10.0,0.0,0.0,0.0,10.0,0.0685763980695,0.0149137021044,0.00506000607115,1.0,0.0,0.0,0.0,1.0,0.0,0.0,0.0,1.0,0.171243896484,0.671802978516,9.99920654297,0.1,0.0,0.0,0.0,0.1,0.0,0.0,0.0,0.1
1446038009621658847,138,1446038009618240118,robocape,11.0740982085,6.32846556007,-15.0316611088,0.0,10.0,0.0,0.0,0.0,10.0,0.0,0.0,0.0,10.0,0.016911072922,0.0181094954125,0.00652474467069,1.0,0.0,0.0,0.0,1.0,0.0,0.0,0.0,1.0,-0.0455053710938,0.874182128906,10.0746496582,0.1,0.0,0.0,0.0,0.1,0.0,0.0,0.0,0.1
1446038009654661472,139,1446038009651474952,robocape,10.9708172341,6.34577527892,-14.9831980005,0.0,10.0,0.0,0.0,0.0,10.0,0.0,0.0,0.0,10.0,-0.0459395288039,0.018242653467,0.00852211548825,1.0,0.0,0.0,0.0,1.0,0.0,0.0,0.0,1.0,0.0646655273438,0.629890136719,10.0219592285,0.1,0.0,0.0,0.0,0.1,0.0,0.0,0.0,0.1
1446038009688439556,140,1446038009685416936,robocape,10.8220481693,6.36667473422,-14.9346216673,0.0,10.0,0.0,0.0,0.0,10.0,0.0,0.0,0.0,10.0,-0.0701742947236,0.0199737081756,0.00865527354276,1.0,0.0,0.0,0.0,1.0,0.0,0.0,0.0,1.0,-0.0910107421875,0.499361572266,10.0698596191,0.1,0.0,0.0,0.0,0.1,0.0,0.0,0.0,0.1
1446038009722908431,141,1446038009719837903,robocape,10.6610905406,6.38644670546,-14.8877002459,0.0,10.0,0.0,0.0,0.0,10.0,0.0,0.0,0.0,10.0,-0.0766990393943,0.0191747598486,0.00812264132474,1.0,0.0,0.0,0.0,1.0,0.0,0.0,0.0,1.0,-0.0826281738281,0.237106933594,10.0590820312,0.1,0.0,0.0,0.0,0.1,0.0,0.0,0.0,0.1
1446038009756253806,142,1446038009752639055,robocape,10.6781462472,6.4292789403,-14.9187147632,0.0,10.0,0.0,0.0,0.0,10.0,0.0,0.0,0.0,10.0,0.0226368692657,0.0242347659197,-0.0360858327706,1.0,0.0,0.0,0.0,1.0,0.0,0.0,0.0,1.0,-0.067060546875,-0.644260253906,10.136920166,0.1,0.0,0.0,0.0,0.1,0.0,0.0,0.0,0.1
1446038009789587222,143,1446038009786324977,robocape,10.9048049843,6.49549138919,-15.2393757149,0.0,10.0,0.0,0.0,0.0,10.0,0.0,0.0,0.0,10.0,0.15313176268,0.00945422186978,-0.191348124322,1.0,0.0,0.0,0.0,1.0,0.0,0.0,0.0,1.0,-0.217946777344,2.6405090332,9.78485229492,0.1,0.0,0.0,0.0,0.1,0.0,0.0,0.0,0.1
1446038009822088556,144,1446038009819020032,robocape,10.6597363886,6.5306734587,-15.0953895362,0.0,10.0,0.0,0.0,0.0,10.0,0.0,0.0,0.0,10.0,-0.127565416215,0.0362189908251,0.0573911214912,1.0,0.0,0.0,0.0,1.0,0.0,0.0,0.0,1.0,-0.0934057617188,-0.67060546875,10.540480957,0.1,0.0,0.0,0.0,0.1,0.0,0.0,0.0,0.1
1446038009855195014,145,1446038009851970911,robocape,10.73387085,6.60073395819,-15.3100557662,0.0,10.0,0.0,0.0,0.0,10.0,0.0,0.0,0.0,10.0,0.0655137628159,0.0214384467751,-0.135554899485,1.0,0.0,0.0,0.0,1.0,0.0,0.0,0.0,1.0,-0.302969970703,0.821491699219,9.8902331543,0.1,0.0,0.0,0.0,0.1,0.0,0.0,0.0,0.1
1446038009888265431,146,1446038009885145902,robocape,10.6004217454,6.64568050424,-15.3672507004,0.0,10.0,0.0,0.0,0.0,10.0,0.0,0.0,0.0,10.0,-0.0549942765101,0.0227700273202,-0.0495347962755,1.0,0.0,0.0,0.0,1.0,0.0,0.0,0.0,1.0,0.117355957031,0.104183349609,9.92975097656,0.1,0.0,0.0,0.0,0.1,0.0,0.0,0.0,0.1
1446038009921591514,147,1446038009918488025,robocape,10.6057757438,6.7410804334,-15.7113512804,0.0,10.0,0.0,0.0,0.0,10.0,0.0,0.0,0.0,10.0,0.0383495196971,0.0227700273202,-0.205729194209,1.0,0.0,0.0,0.0,1.0,0.0,0.0,0.0,1.0,-0.280217285156,0.174836425781,10.0614770508,0.1,0.0,0.0,0.0,0.1,0.0,0.0,0.0,0.1
1446038009954843056,148,1446038009951762914,robocape,10.5685764323,6.85163530426,-16.1546608878,0.0,10.0,0.0,0.0,0.0,10.0,0.0,0.0,0.0,10.0,0.0233026595382,0.0215716048296,-0.259525048228,1.0,0.0,0.0,0.0,1.0,0.0,0.0,0.0,1.0,-0.0490979003906,1.05021606445,10.0471069336,0.1,0.0,0.0,0.0,0.1,0.0,0.0,0.0,0.1
1446038009992322847,149,1446038009986229896,robocape,10.1932603184,6.91794485549,-16.3996130964,0.0,10.0,0.0,0.0,0.0,10.0,0.0,0.0,0.0,10.0,-0.169510203384,0.0167779148675,-0.149270179099,1.0,0.0,0.0,0.0,1.0,0.0,0.0,0.0,1.0,-0.0526904296875,1.63220581055,9.90460327148,0.1,0.0,0.0,0.0,0.1,0.0,0.0,0.0,0.1
1446038010023452597,150,1446038010020363092,robocape,9.56431797406,6.94208172939,-16.3611369465,0.0,10.0,0.0,0.0,0.0,10.0,0.0,0.0,0.0,10.0,-0.324106704663,0.0198405501211,0.00519316412565,1.0,0.0,0.0,0.0,1.0,0.0,0.0,0.0,1.0,0.0778381347656,-0.397573242188,10.193203125,0.1,0.0,0.0,0.0,0.1,0.0,0.0,0.0,0.1
1446038010054684597,151,1446038010051614046,robocape,9.14305027591,6.97532516825,-16.3422549456,0.0,10.0,0.0,0.0,0.0,10.0,0.0,0.0,0.0,10.0,-0.213319203315,0.0234358175927,-0.00732369299772,1.0,0.0,0.0,0.0,1.0,0.0,0.0,0.0,1.0,-0.0934057617188,-0.663420410156,10.0710571289,0.1,0.0,0.0,0.0,0.1,0.0,0.0,0.0,0.1
1446038010088141014,152,1446038010085089921,robocape,9.01886604692,7.02889094231,-16.5358020345,0.0,10.0,0.0,0.0,0.0,10.0,0.0,0.0,0.0,10.0,-0.0415453130052,0.0181094954125,-0.122771726253,1.0,0.0,0.0,0.0,1.0,0.0,0.0,0.0,1.0,-0.589174804688,-0.300574951172,9.87586303711,0.1,0.0,0.0,0.0,0.1,0.0,0.0,0.0,0.1
1446038010121199889,153,1446038010118144989,robocape,8.90073417319,7.06862590252,-16.64552941,0.0,10.0,0.0,0.0,0.0,10.0,0.0,0.0,0.0,10.0,-0.0443416321498,0.017710021249,-0.0777643038303,1.0,0.0,0.0,0.0,1.0,0.0,0.0,0.0,1.0,0.0490979003906,-0.323327636719,10.0842297363,0.1,0.0,0.0,0.0,0.1,0.0,0.0,0.0,0.1
1446038010155041639,154,1446038010152033090,robocape,8.80433145291,7.08150681943,-16.6096469958,0.0,10.0,0.0,0.0,0.0,10.0,0.0,0.0,0.0,10.0,-0.0434095257683,0.0150468601589,0.000932106381528,1.0,0.0,0.0,0.0,1.0,0.0,0.0,0.0,1.0,-0.143701171875,0.15328125,10.2027832031,0.1,0.0,0.0,0.0,0.1,0.0,0.0,0.0,0.1
1446038010187973389,155,1446038010184948921,robocape,8.84790103303,7.09297260597,-16.5298190095,0.0,10.0,0.0,0.0,0.0,10.0,0.0,0.0,0.0,10.0,0.0272974011733,0.017976337358,0.0233026595382,1.0,0.0,0.0,0.0,1.0,0.0,0.0,0.0,1.0,-0.108973388672,-0.874182128906,10.1417102051,0.1,0.0,0.0,0.0,0.1,0.0,0.0,0.0,0.1
1446038010221294598,156,1446038010218278884,robocape,9.04319819935,7.1045466282,-16.4547192171,0.0,10.0,0.0,0.0,0.0,10.0,0.0,0.0,0.0,10.0,0.107858024148,0.0181094954125,0.0198405501211,1.0,0.0,0.0,0.0,1.0,0.0,0.0,0.0,1.0,-0.178428955078,-0.148491210938,10.075847168,0.1,0.0,0.0,0.0,0.1,0.0,0.0,0.0,0.1
1446038010254898139,157,1446038010251892089,robocape,9.31507217653,7.12679448264,-16.4608304561,0.0,10.0,0.0,0.0,0.0,10.0,0.0,0.0,0.0,10.0,0.154463343225,0.0175768631945,-0.0243679239742,1.0,0.0,0.0,0.0,1.0,0.0,0.0,0.0,1.0,-0.342487792969,0.144898681641,10.0578845215,0.1,0.0,0.0,0.0,0.1,0.0,0.0,0.0,0.1
1446038010288065264,158,1446038010285034894,robocape,9.62030804815,7.16567484224,-16.5916535356,0.0,10.0,0.0,0.0,0.0,10.0,0.0,0.0,0.0,10.0,0.181627586343,0.016112124595,-0.0918790576077,1.0,0.0,0.0,0.0,1.0,0.0,0.0,0.0,1.0,-0.0898132324219,0.271834716797,10.0722546387,0.1,0.0,0.0,0.0,0.1,0.0,0.0,0.0,0.1
1446038010321085014,159,1446038010318061113,robocape,10.034861547,7.24072769366,-16.9407979243,0.0,10.0,0.0,0.0,0.0,10.0,0.0,0.0,0.0,10.0,0.25632925492,0.0162452826495,-0.211321832498,1.0,0.0,0.0,0.0,1.0,0.0,0.0,0.0,1.0,-0.119750976563,0.816701660156,10.0866247559,0.1,0.0,0.0,0.0,0.1,0.0,0.0,0.0,0.1
1446038010354718973,160,1446038010351618051,robocape,9.98817262752,7.29798159818,-17.1456700819,0.0,10.0,0.0,0.0,0.0,10.0,0.0,0.0,0.0,10.0,0.00226368692657,0.0178431793035,-0.131160683686,1.0,0.0,0.0,0.0,1.0,0.0,0.0,0.0,1.0,0.353265380859,2.14114746094,9.89143066406,0.1,0.0,0.0,0.0,0.1,0.0,0.0,0.0,0.1
1446038010389238431,161,1446038010386221885,robocape,9.50877074701,7.32908142747,-17.2334046245,0.0,10.0,0.0,0.0,0.0,10.0,0.0,0.0,0.0,10.0,-0.235556598418,0.0135821215594,-0.0639158661619,1.0,0.0,0.0,0.0,1.0,0.0,0.0,0.0,1.0,-0.113763427734,1.16996704102,10.0051940918,0.1,0.0,0.0,0.0,0.1,0.0,0.0,0.0,0.1
1446038010421122431,162,1446038010418090105,robocape,8.82928361073,7.33925839778,-17.2094121712,0.0,10.0,0.0,0.0,0.0,10.0,0.0,0.0,0.0,10.0,-0.350072525291,0.0115847507418,-0.00173105470855,1.0,0.0,0.0,0.0,1.0,0.0,0.0,0.0,1.0,0.0981958007813,0.113763427734,10.039921875,0.1,0.0,0.0,0.0,0.1,0.0,0.0,0.0,0.1
1446038010454590139,163,1446038010451308012,robocape,8.18565932474,7.3121698911,-17.168844491,0.0,10.0,0.0,0.0,0.0,10.0,0.0,0.0,0.0,10.0,-0.33289513626,-0.00652474467069,0.00985369603329,1.0,0.0,0.0,0.0,1.0,0.0,0.0,0.0,1.0,-0.0838256835938,-0.36404296875,10.1944006348,0.1,0.0,0.0,0.0,0.1,0.0,0.0,0.0,0.1
1446038010488067181,164,1446038010484972953,robocape,7.63664661617,7.31147540942,-17.1914500067,0.0,10.0,0.0,0.0,0.0,10.0,0.0,0.0,0.0,10.0,-0.278699808077,0.00306263525359,-0.0263652947918,1.0,0.0,0.0,0.0,1.0,0.0,0.0,0.0,1.0,-0.680185546875,-0.233514404297,10.0914147949,0.1,0.0,0.0,0.0,0.1,0.0,0.0,0.0,0.1
1446038010521824639,165,1446038010518012046,robocape,7.117346182,7.31184107782,-17.1120697869,0.0,10.0,0.0,0.0,0.0,10.0,0.0,0.0,0.0,10.0,-0.270843482861,0.0102531701968,0.0271642431188,1.0,0.0,0.0,0.0,1.0,0.0,0.0,0.0,1.0,-0.0275427246094,-0.358055419922,10.0291442871,0.1,0.0,0.0,0.0,0.1,0.0,0.0,0.0,0.1
1446038010554617764,166,1446038010551384925,robocape,6.64271330814,7.30571195128,-17.023875223,0.0,10.0,0.0,0.0,0.0,10.0,0.0,0.0,0.0,10.0,-0.24833977165,0.00719053494321,0.0320910911355,1.0,0.0,0.0,0.0,1.0,0.0,0.0,0.0,1.0,0.0706530761719,-0.28740234375,10.0495019531,0.1,0.0,0.0,0.0,0.1,0.0,0.0,0.0,0.1
1446038010588080223,167,1446038010584692955,robocape,6.28243961662,7.30158332406,-16.9640966346,0.0,10.0,0.0,0.0,0.0,10.0,0.0,0.0,0.0,10.0,-0.186421276306,0.0066579027252,0.016378440704,1.0,0.0,0.0,0.0,1.0,0.0,0.0,0.0,1.0,-0.176033935547,-0.613125,10.0099841309,0.1,0.0,0.0,0.0,0.1,0.0,0.0,0.0,0.1
1446038010621616389,168,1446038010618341922,robocape,6.0785031243,7.31199399054,-16.9522861696,0.0,10.0,0.0,0.0,0.0,10.0,0.0,0.0,0.0,10.0,-0.100933805314,0.0119842249054,-0.0106526443603,1.0,0.0,0.0,0.0,1.0,0.0,0.0,0.0,1.0,-0.131726074219,-1.07416625977,10.0506994629,0.1,0.0,0.0,0.0,0.1,0.0,0.0,0.0,0.1
1446038010654655723,169,1446038010651351928,robocape,6.04443408152,7.32811296552,-16.9008286468,0.0,10.0,0.0,0.0,0.0,10.0,0.0,0.0,0.0,10.0,-0.0145142279409,0.0173105470855,0.00918790576077,1.0,0.0,0.0,0.0,1.0,0.0,0.0,0.0,1.0,-0.0526904296875,-1.08374633789,10.0794396973,0.1,0.0,0.0,0.0,0.1,0.0,0.0,0.0,0.1
1446038010688054931,170,1446038010684703111,robocape,6.16345842886,7.35121948207,-16.8490042413,0.0,10.0,0.0,0.0,0.0,10.0,0.0,0.0,0.0,10.0,0.066046395034,0.0213052887206,0.00825579937925,1.0,0.0,0.0,0.0,1.0,0.0,0.0,0.0,1.0,0.0934057617188,-0.736468505859,10.0950073242,0.1,0.0,0.0,0.0,0.1,0.0,0.0,0.0,0.1
1446038010721441098,171,1446038010718035936,robocape,6.34828916793,7.38230936759,-16.8021217669,0.0,10.0,0.0,0.0,0.0,10.0,0.0,0.0,0.0,10.0,0.101200121423,0.0254331884103,0.00479368996214,1.0,0.0,0.0,0.0,1.0,0.0,0.0,0.0,1.0,-0.243094482422,-0.36404296875,10.0183666992,0.1,0.0,0.0,0.0,0.1,0.0,0.0,0.0,0.1
1446038010755031723,172,1446038010751698017,robocape,6.55568214299,7.41209063146,-16.7575508799,0.0,10.0,0.0,0.0,0.0,10.0,0.0,0.0,0.0,10.0,0.113450662437,0.0247673981377,0.0034621094171,1.0,0.0,0.0,0.0,1.0,0.0,0.0,0.0,1.0,-0.0742456054688,-0.173638916016,10.060279541,0.1,0.0,0.0,0.0,0.1,0.0,0.0,0.0,0.1
1446038010787983264,173,1446038010784805059,robocape,6.76094258152,7.43701073899,-16.7144456753,0.0,10.0,0.0,0.0,0.0,10.0,0.0,0.0,0.0,10.0,0.11265171411,0.0222373951022,0.00292947719909,1.0,0.0,0.0,0.0,1.0,0.0,0.0,0.0,1.0,-0.168848876953,-0.1149609375,10.0734521484,0.1,0.0,0.0,0.0,0.1,0.0,0.0,0.0,0.1
1446038010821150306,174,1446038010818037033,robocape,6.92580930307,7.46087001653,-16.6825806245,0.0,10.0,0.0,0.0,0.0,10.0,0.0,0.0,0.0,10.0,0.0924116898257,0.0210389726116,-0.00279631914458,1.0,0.0,0.0,0.0,1.0,0.0,0.0,0.0,1.0,-0.09580078125,0.0814306640625,10.075847168,0.1,0.0,0.0,0.0,0.1,0.0,0.0,0.0,0.1
1446038010854927348,175,1446038010851490974,robocape,7.04333738342,7.48117336403,-16.6455187029,0.0,10.0,0.0,0.0,0.0,10.0,0.0,0.0,0.0,10.0,0.0672448175245,0.0194410759576,0.000399474163512,1.0,0.0,0.0,0.0,1.0,0.0,0.0,0.0,1.0,-0.102985839844,0.0455053710938,10.080637207,0.1,0.0,0.0,0.0,0.1,0.0,0.0,0.0,0.1
1446038010887793848,176,1446038010884756088,robocape,7.11904242815,7.49961579216,-16.6025620947,0.0,10.0,0.0,0.0,0.0,10.0,0.0,0.0,0.0,10.0,0.0448742643678,0.0187752856851,0.00386158358061,1.0,0.0,0.0,0.0,1.0,0.0,0.0,0.0,1.0,-0.140108642578,-0.0227526855469,10.0734521484,0.1,0.0,0.0,0.0,0.1,0.0,0.0,0.0,0.1
1446038010921563723,177,1446038010918117046,robocape,7.17106198005,7.51508138258,-16.5512091109,0.0,10.0,0.0,0.0,0.0,10.0,0.0,0.0,0.0,10.0,0.0318247750264,0.017710021249,0.00865527354276,1.0,0.0,0.0,0.0,1.0,0.0,0.0,0.0,1.0,-0.132923583984,0.0347277832031,10.0566870117,0.1,0.0,0.0,0.0,0.1,0.0,0.0,0.0,0.1
1446038010955141598,178,1446038010951596021,robocape,7.02933068259,7.50454348936,-16.3010989635,0.0,10.0,0.0,0.0,0.0,10.0,0.0,0.0,0.0,10.0,-0.085087996828,0.015579492377,0.116513297691,1.0,0.0,0.0,0.0,1.0,0.0,0.0,0.0,1.0,-0.123343505859,-0.0299377441406,10.0375268555,0.1,0.0,0.0,0.0,0.1,0.0,0.0,0.0,0.1
1446038010992382765,179,1446038010986638069,robocape,7.07370474304,7.51924629972,-16.2507885107,0.0,10.0,0.0,0.0,0.0,10.0,0.0,0.0,0.0,10.0,0.0276968753368,0.017177389031,0.00865527354276,1.0,0.0,0.0,0.0,1.0,0.0,0.0,0.0,1.0,-0.105380859375,-0.63228515625,10.0938098145,0.1,0.0,0.0,0.0,0.1,0.0,0.0,0.0,0.1
1446038011023412348,180,1446038011019248962,robocape,7.12390186461,7.53261987673,-16.1784533275,0.0,10.0,0.0,0.0,0.0,10.0,0.0,0.0,0.0,10.0,0.0291616139364,0.0178431793035,0.0203731823391,1.0,0.0,0.0,0.0,1.0,0.0,0.0,0.0,1.0,-0.0922082519531,-0.209564208984,10.0950073242,0.1,0.0,0.0,0.0,0.1,0.0,0.0,0.0,0.1
1446038011056305890,181,1446038011053018093,robocape,7.00228889685,7.51824558428,-15.8985331942,0.0,10.0,0.0,0.0,0.0,10.0,0.0,0.0,0.0,10.0,-0.0768321974488,0.015313176268,0.13275858034,1.0,0.0,0.0,0.0,1.0,0.0,0.0,0.0,1.0,-0.141306152344,0.370030517578,10.0231567383,0.1,0.0,0.0,0.0,0.1,0.0,0.0,0.0,0.1
1446038011089263015,182,1446038011086167097,robocape,6.77715889725,7.45754594355,-15.3045906543,0.0,10.0,0.0,0.0,0.0,10.0,0.0,0.0,0.0,10.0,-0.154596501279,0.00865527354276,0.302135625669,1.0,0.0,0.0,0.0,1.0,0.0,0.0,0.0,1.0,-0.184416503906,-0.422720947266,10.0495019531,0.1,0.0,0.0,0.0,0.1,0.0,0.0,0.0,0.1
1446038011123363515,183,1446038011119376897,robocape,6.629723913,7.39173329801,-14.5661245051,0.0,10.0,0.0,0.0,0.0,10.0,0.0,0.0,0.0,10.0,-0.123970148743,0.0133158054504,0.3784351909,1.0,0.0,0.0,0.0,1.0,0.0,0.0,0.0,1.0,-0.0167651367188,-1.91841064453,9.86029541016,0.1,0.0,0.0,0.0,0.1,0.0,0.0,0.0,0.1
1446038011156728306,184,1446038011153017044,robocape,7.23262608755,7.38818532457,-14.3496473482,0.0,10.0,0.0,0.0,0.0,10.0,0.0,0.0,0.0,10.0,0.309193002558,0.018242653467,0.0970722217334,1.0,0.0,0.0,0.0,1.0,0.0,0.0,0.0,1.0,-0.0047900390625,-2.22138061523,10.2794238281,0.1,0.0,0.0,0.0,0.1,0.0,0.0,0.0,0.1
1446038011188438348,185,1446038011185250043,robocape,8.36501491219,7.4573364763,-14.6033001099,0.0,10.0,0.0,0.0,0.0,10.0,0.0,0.0,0.0,10.0,0.623978643406,0.0276968753368,-0.157925452642,1.0,0.0,0.0,0.0,1.0,0.0,0.0,0.0,1.0,-0.0155676269531,-1.08973388672,10.0339343262,0.1,0.0,0.0,0.0,0.1,0.0,0.0,0.0,0.1
1446038011223175556,186,1446038011219686031,robocape,9.71058049987,7.51769590349,-14.9134589573,0.0,10.0,0.0,0.0,0.0,10.0,0.0,0.0,0.0,10.0,0.743687734405,0.016644756813,-0.190016543777,1.0,0.0,0.0,0.0,1.0,0.0,0.0,0.0,1.0,-0.534089355469,1.90763305664,10.100994873,0.1,0.0,0.0,0.0,0.1,0.0,0.0,0.0,0.1
1446038011259202056,187,1446038011255238056,robocape,10.2946905076,7.53644958509,-14.8369181982,0.0,10.0,0.0,0.0,0.0,10.0,0.0,0.0,0.0,10.0,0.314119850575,0.0241016078652,0.0187752856851,1.0,0.0,0.0,0.0,1.0,0.0,0.0,0.0,1.0,-0.866997070313,1.88368286133,10.0075891113,0.1,0.0,0.0,0.0,0.1,0.0,0.0,0.0,0.1
1446038011289799973,188,1446038011286546945,robocape,10.7112429509,7.55301860884,-14.8495979397,0.0,10.0,0.0,0.0,0.0,10.0,0.0,0.0,0.0,10.0,0.233026595382,0.0147805440499,-0.0267647689553,1.0,0.0,0.0,0.0,1.0,0.0,0.0,0.0,1.0,0.894539794922,1.12326416016,9.9668737793,0.1,0.0,0.0,0.0,0.1,0.0,0.0,0.0,0.1
1446038011326854473,189,1446038011322887897,robocape,10.7657880614,7.57959931897,-14.868140943,0.0,10.0,0.0,0.0,0.0,10.0,0.0,0.0,0.0,10.0,0.0422111032778,0.0183758115215,-0.0284958236638,1.0,0.0,0.0,0.0,1.0,0.0,0.0,0.0,1.0,-0.392783203125,2.02858154297,10.2423010254,0.1,0.0,0.0,0.0,0.1,0.0,0.0,0.0,0.1
1446038011355547931,190,1446038011352375984,robocape,10.3954079735,7.59182692347,-14.7911737886,0.0,10.0,0.0,0.0,0.0,10.0,0.0,0.0,0.0,10.0,-0.190282859886,0.0185089695761,0.0258326625738,1.0,0.0,0.0,0.0,1.0,0.0,0.0,0.0,1.0,0.0898132324219,1.50047973633,9.94771362305,0.1,0.0,0.0,0.0,0.1,0.0,0.0,0.0,0.1
1446038011392875765,191,1446038011389017105,robocape,9.93148252864,7.61939416584,-14.7489963238,0.0,10.0,0.0,0.0,0.0,10.0,0.0,0.0,0.0,10.0,-0.237420811181,0.0229031853747,0.00705737688871,1.0,0.0,0.0,0.0,1.0,0.0,0.0,0.0,1.0,0.076640625,0.522114257812,10.0566870117,0.1,0.0,0.0,0.0,0.1,0.0,0.0,0.0,0.1
1446038011424183556,192,1446038011418797016,robocape,9.58216958048,7.66731611254,-14.886162366,0.0,10.0,0.0,0.0,0.0,10.0,0.0,0.0,0.0,10.0,-0.163384932876,0.0186421276306,-0.0890827384632,1.0,0.0,0.0,0.0,1.0,0.0,0.0,0.0,1.0,-0.233514404297,0.360450439453,10.1189575195,0.1,0.0,0.0,0.0,0.1,0.0,0.0,0.0,0.1
1446038011459290098,193,1446038011455615043,robocape,8.9991150298,7.68815452634,-14.8362359886,0.0,10.0,0.0,0.0,0.0,10.0,0.0,0.0,0.0,10.0,-0.301602993451,0.0195742340121,0.0126500151779,1.0,0.0,0.0,0.0,1.0,0.0,0.0,0.0,1.0,-0.119750976563,0.0455053710938,9.99920654297,0.1,0.0,0.0,0.0,0.1,0.0,0.0,0.0,0.1
1446038011492791848,194,1446038011489233970,robocape,8.53641330277,7.69617471997,-14.8454929364,0.0,10.0,0.0,0.0,0.0,10.0,0.0,0.0,0.0,10.0,-0.233958701763,0.00865527354276,-0.0178431793035,1.0,0.0,0.0,0.0,1.0,0.0,0.0,0.0,1.0,-0.192799072266,-0.481398925781,10.080637207,0.1,0.0,0.0,0.0,0.1,0.0,0.0,0.0,0.1
