%time,field.header.seq,field.header.stamp,field.header.frame_id,field.magnetic_field.x,field.magnetic_field.y,field.magnetic_field.z,field.magnetic_field_covariance0,field.magnetic_field_covariance1,field.magnetic_field_covariance2,field.magnetic_field_covariance3,field.magnetic_field_covariance4,field.magnetic_field_covariance5,field.magnetic_field_covariance6,field.magnetic_field_covariance7,field.magnetic_field_covariance8
1452010576399053489,1,1452010576051604986,robocape_mag,14.55,-6.45,-6.0,10.0,0.0,0.0,0.0,10.0,0.0,0.0,0.0,10.0
1452010576430046780,2,1452010576082611083,robocape_mag,14.55,-6.45,-6.0,10.0,0.0,0.0,0.0,10.0,0.0,0.0,0.0,10.0
1452010576445241364,3,1452010576116043090,robocape_mag,14.55,-6.45,-6.0,10.0,0.0,0.0,0.0,10.0,0.0,0.0,0.0,10.0
1452010576445666489,4,1452010576149241924,robocape_mag,15.15,-4.05,-7.2,10.0,0.0,0.0,0.0,10.0,0.0,0.0,0.0,10.0
1452010576445706614,5,1452010576192466974,robocape_mag,15.15,-4.05,-7.2,10.0,0.0,0.0,0.0,10.0,0.0,0.0,0.0,10.0
1452010576445740905,6,1452010576217710018,robocape_mag,15.15,-4.05,-7.2,10.0,0.0,0.0,0.0,10.0,0.0,0.0,0.0,10.0
1452010576446746322,7,1452010576254386901,robocape_mag,15.15,-4.05,-7.2,10.0,0.0,0.0,0.0,10.0,0.0,0.0,0.0,10.0
1452010576448042489,8,1452010576284110069,robocape_mag,14.25,-4.95,-6.3,10.0,0.0,0.0,0.0,10.0,0.0,0.0,0.0,10.0
1452010576461435864,9,1452010576314529895,robocape_mag,14.25,-4.95,-6.3,10.0,0.0,0.0,0.0,10.0,0.0,0.0,0.0,10.0
1452010576466888989,10,1452010576373016119,robocape_mag,14.25,-4.95,-6.3,10.0,0.0,0.0,0.0,10.0,0.0,0.0,0.0,10.0
1452010576472933905,11,1452010576409575939,robocape_mag,14.25,-4.95,-6.3,10.0,0.0,0.0,0.0,10.0,0.0,0.0,0.0,10.0
1452010576472974614,12,1452010576431428909,robocape_mag,14.25,-4.95,-6.3,10.0,0.0,0.0,0.0,10.0,0.0,0.0,0.0,10.0
1452010576476620947,13,1452010576451396942,robocape_mag,13.65,-5.55,-6.3,10.0,0.0,0.0,0.0,10.0,0.0,0.0,0.0,10.0
1452010576501701780,14,1452010576488401889,robocape_mag,13.65,-5.55,-6.3,10.0,0.0,0.0,0.0,10.0,0.0,0.0,0.0,10.0
1452010576522133739,15,1452010576517311096,robocape_mag,13.65,-5.55,-6.3,10.0,0.0,0.0,0.0,10.0,0.0,0.0,0.0,10.0
1452010576554828739,16,1452010576549813985,robocape_mag,13.65,-5.55,-6.3,10.0,0.0,0.0,0.0,10.0,0.0,0.0,0.0,10.0
1452010576589723739,17,1452010576584588050,robocape_mag,13.65,-5.55,-6.3,10.0,0.0,0.0,0.0,10.0,0.0,0.0,0.0,10.0
1452010576622356197,18,1452010576617566108,robocape_mag,13.35,-5.85,-6.6,10.0,0.0,0.0,0.0,10.0,0.0,0.0,0.0,10.0
1452010576658113572,19,1452010576649554014,robocape_mag,13.35,-5.85,-6.6,10.0,0.0,0.0,0.0,10.0,0.0,0.0,0.0,10.0
1452010576689297530,20,1452010576684137105,robocape_mag,13.35,-5.85,-6.6,10.0,0.0,0.0,0.0,10.0,0.0,0.0,0.0,10.0
1452010576721078989,21,1452010576716337919,robocape_mag,13.35,-5.85,-6.6,10.0,0.0,0.0,0.0,10.0,0.0,0.0,0.0,10.0
1452010576754115655,22,1452010576748966932,robocape_mag,13.35,-5.85,-6.6,10.0,0.0,0.0,0.0,10.0,0.0,0.0,0.0,10.0
1452010576786066697,23,1452010576781286001,robocape_mag,13.95,-6.45,-7.2,10.0,0.0,0.0,0.0,10.0,0.0,0.0,0.0,10.0
1452010576819351697,24,1452010576814569950,robocape_mag,13.95,-6.45,-7.2,10.0,0.0,0.0,0.0,10.0,0.0,0.0,0.0,10.0
1452010576852623239,25,1452010576847623109,robocape_mag,13.95,-6.45,-7.2,10.0,0.0,0.0,0.0,10.0,0.0,0.0,0.0,10.0
1452010576885616739,26,1452010576880816936,robocape_mag,13.95,-6.45,-7.2,10.0,0.0,0.0,0.0,10.0,0.0,0.0,0.0,10.0
1452010576919323114,27,1452010576914340972,robocape_mag,13.95,-6.45,-7.2,10.0,0.0,0.0,0.0,10.0,0.0,0.0,0.0,10.0
1452010576951981030,28,1452010576947249889,robocape_mag,13.95,-6.45,-6.6,10.0,0.0,0.0,0.0,10.0,0.0,0.0,0.0,10.0
1452010576985553239,29,1452010576980488061,robocape_mag,13.95,-6.45,-6.6,10.0,0.0,0.0,0.0,10.0,0.0,0.0,0.0,10.0
1452010577018898947,30,1452010577013989925,robocape_mag,13.95,-6.45,-6.6,10.0,0.0,0.0,0.0,10.0,0.0,0.0,0.0,10.0
1452010577052133572,31,1452010577047039031,robocape_mag,13.95,-6.45,-6.6,10.0,0.0,0.0,0.0,10.0,0.0,0.0,0.0,10.0
1452010577085207072,32,1452010577080384969,robocape_mag,14.55,-5.25,-7.2,10.0,0.0,0.0,0.0,10.0,0.0,0.0,0.0,10.0
1452010577120144697,33,1452010577115300893,robocape_mag,14.55,-5.25,-7.2,10.0,0.0,0.0,0.0,10.0,0.0,0.0,0.0,10.0
1452010577152369531,34,1452010577147192955,robocape_mag,14.55,-5.25,-7.2,10.0,0.0,0.0,0.0,10.0,0.0,0.0,0.0,10.0
1452010577185562364,35,1452010577180716991,robocape_mag,14.55,-5.25,-7.2,10.0,0.0,0.0,0.0,10.0,0.0,0.0,0.0,10.0
1452010577219217031,36,1452010577214299917,robocape_mag,14.55,-5.25,-7.2,10.0,0.0,0.0,0.0,10.0,0.0,0.0,0.0,10.0
1452010577252069781,37,1452010577247272968,robocape_mag,13.65,-6.15,-6.9,10.0,0.0,0.0,0.0,10.0,0.0,0.0,0.0,10.0
1452010577285512322,38,1452010577280706882,robocape_mag,13.65,-6.15,-6.9,10.0,0.0,0.0,0.0,10.0,0.0,0.0,0.0,10.0
1452010577319056072,39,1452010577314135074,robocape_mag,13.65,-6.15,-6.9,10.0,0.0,0.0,0.0,10.0,0.0,0.0,0.0,10.0
1452010577352269281,40,1452010577347471952,robocape_mag,13.65,-6.15,-6.9,10.0,0.0,0.0,0.0,10.0,0.0,0.0,0.0,10.0
1452010577385420614,41,1452010577380620002,robocape_mag,13.65,-6.15,-6.9,10.0,0.0,0.0,0.0,10.0,0.0,0.0,0.0,10.0
1452010577422823822,42,1452010577415870904,robocape_mag,14.25,-6.15,-7.5,10.0,0.0,0.0,0.0,10.0,0.0,0.0,0.0,10.0
1452010577452234656,43,1452010577447295904,robocape_mag,14.25,-6.15,-7.5,10.0,0.0,0.0,0.0,10.0,0.0,0.0,0.0,10.0
1452010577485209281,44,1452010577480401992,robocape_mag,14.25,-6.15,-7.5,10.0,0.0,0.0,0.0,10.0,0.0,0.0,0.0,10.0
1452010577519638697,45,1452010577514090061,robocape_mag,14.25,-6.15,-7.5,10.0,0.0,0.0,0.0,10.0,0.0,0.0,0.0,10.0
1452010577552631781,46,1452010577546961069,robocape_mag,14.25,-6.15,-7.5,10.0,0.0,0.0,0.0,10.0,0.0,0.0,0.0,10.0
1452010577585611072,47,1452010577580564975,robocape_mag,14.85,-5.55,-6.3,10.0,0.0,0.0,0.0,10.0,0.0,0.0,0.0,10.0
1452010577619049364,48,1452010577613749027,robocape_mag,14.85,-5.55,-6.3,10.0,0.0,0.0,0.0,10.0,0.0,0.0,0.0,10.0
1452010577652338614,49,1452010577647109985,robocape_mag,14.85,-5.55,-6.3,10.0,0.0,0.0,0.0,10.0,0.0,0.0,0.0,10.0
1452010577686067739,50,1452010577680988073,robocape_mag,14.85,-5.55,-6.3,10.0,0.0,0.0,0.0,10.0,0.0,0.0,0.0,10.0
1452010577721378614,51,1452010577714569091,robocape_mag,14.85,-5.55,-6.3,10.0,0.0,0.0,0.0,10.0,0.0,0.0,0.0,10.0
1452010577752239072,52,1452010577747064113,robocape_mag,12.45,-4.95,-6.9,10.0,0.0,0.0,0.0,10.0,0.0,0.0,0.0,10.0
1452010577785357322,53,1452010577780471086,robocape_mag,12.45,-4.95,-6.9,10.0,0.0,0.0,0.0,10.0,0.0,0.0,0.0,10.0
1452010577819002114,54,1452010577814068078,robocape_mag,12.45,-4.95,-6.9,10.0,0.0,0.0,0.0,10.0,0.0,0.0,0.0,10.0
1452010577882558864,55,1452010577847409009,robocape_mag,12.45,-4.95,-6.9,10.0,0.0,0.0,0.0,10.0,0.0,0.0,0.0,10.0
1452010577905455614,56,1452010577900191068,robocape_mag,13.95,-4.65,-7.2,10.0,0.0,0.0,0.0,10.0,0.0,0.0,0.0,10.0
1452010577932344698,57,1452010577925590038,robocape_mag,13.95,-4.65,-7.2,10.0,0.0,0.0,0.0,10.0,0.0,0.0,0.0,10.0
1452010577951863531,58,1452010577946991920,robocape_mag,13.95,-4.65,-7.2,10.0,0.0,0.0,0.0,10.0,0.0,0.0,0.0,10.0
1452010577985288239,59,1452010577980483055,robocape_mag,13.95,-4.65,-7.2,10.0,0.0,0.0,0.0,10.0,0.0,0.0,0.0,10.0
1452010578020357073,60,1452010578015276908,robocape_mag,13.95,-4.65,-7.2,10.0,0.0,0.0,0.0,10.0,0.0,0.0,0.0,10.0
1452010578053318989,61,1452010578048212051,robocape_mag,13.95,-4.65,-8.4,10.0,0.0,0.0,0.0,10.0,0.0,0.0,0.0,10.0
1452010578086607739,62,1452010578081698894,robocape_mag,13.95,-4.65,-8.4,10.0,0.0,0.0,0.0,10.0,0.0,0.0,0.0,10.0
1452010578120375489,63,1452010578115384101,robocape_mag,13.95,-4.65,-8.4,10.0,0.0,0.0,0.0,10.0,0.0,0.0,0.0,10.0
1452010578155626281,64,1452010578148737907,robocape_mag,13.95,-4.65,-8.4,10.0,0.0,0.0,0.0,10.0,0.0,0.0,0.0,10.0
1452010578188392239,65,1452010578182138919,robocape_mag,13.95,-4.65,-8.4,10.0,0.0,0.0,0.0,10.0,0.0,0.0,0.0,10.0
1452010578220904781,66,1452010578215332984,robocape_mag,13.95,-7.05,-6.0,10.0,0.0,0.0,0.0,10.0,0.0,0.0,0.0,10.0
1452010578253257323,67,1452010578248177051,robocape_mag,13.95,-7.05,-6.0,10.0,0.0,0.0,0.0,10.0,0.0,0.0,0.0,10.0
1452010578286396198,68,1452010578281303882,robocape_mag,13.95,-7.05,-6.0,10.0,0.0,0.0,0.0,10.0,0.0,0.0,0.0,10.0
1452010578320822239,69,1452010578315651893,robocape_mag,13.95,-7.05,-6.0,10.0,0.0,0.0,0.0,10.0,0.0,0.0,0.0,10.0
1452010578357717448,70,1452010578351247072,robocape_mag,13.95,-7.05,-6.0,10.0,0.0,0.0,0.0,10.0,0.0,0.0,0.0,10.0
1452010578388685239,71,1452010578383589029,robocape_mag,14.55,-5.25,-7.8,10.0,0.0,0.0,0.0,10.0,0.0,0.0,0.0,10.0
1452010578422485323,72,1452010578416799068,robocape_mag,14.55,-5.25,-7.8,10.0,0.0,0.0,0.0,10.0,0.0,0.0,0.0,10.0
1452010578456590031,73,1452010578448565006,robocape_mag,14.55,-5.25,-7.8,10.0,0.0,0.0,0.0,10.0,0.0,0.0,0.0,10.0
1452010578489850239,74,1452010578483781099,robocape_mag,14.55,-5.25,-7.8,10.0,0.0,0.0,0.0,10.0,0.0,0.0,0.0,10.0
1452010578523516573,75,1452010578518187046,robocape_mag,14.55,-5.25,-7.8,10.0,0.0,0.0,0.0,10.0,0.0,0.0,0.0,10.0
1452010578555689281,76,1452010578550532102,robocape_mag,12.15,-7.65,-6.6,10.0,0.0,0.0,0.0,10.0,0.0,0.0,0.0,10.0
1452010578590299990,77,1452010578585197925,robocape_mag,12.15,-7.65,-6.6,10.0,0.0,0.0,0.0,10.0,0.0,0.0,0.0,10.0
1452010578623654323,78,1452010578618230104,robocape_mag,12.15,-7.65,-6.6,10.0,0.0,0.0,0.0,10.0,0.0,0.0,0.0,10.0
1452010578660697323,79,1452010578650696039,robocape_mag,12.15,-7.65,-6.6,10.0,0.0,0.0,0.0,10.0,0.0,0.0,0.0,10.0
1452010578689293990,80,1452010578684251070,robocape_mag,11.55,-5.25,-7.8,10.0,0.0,0.0,0.0,10.0,0.0,0.0,0.0,10.0
1452010578724084365,81,1452010578718801975,robocape_mag,11.55,-5.25,-7.8,10.0,0.0,0.0,0.0,10.0,0.0,0.0,0.0,10.0
1452010578754757281,82,1452010578749814033,robocape_mag,11.55,-5.25,-7.8,10.0,0.0,0.0,0.0,10.0,0.0,0.0,0.0,10.0
1452010578789089281,83,1452010578783973932,robocape_mag,11.55,-5.25,-7.8,10.0,0.0,0.0,0.0,10.0,0.0,0.0,0.0,10.0
1452010578822157365,84,1452010578817293882,robocape_mag,11.55,-5.25,-7.8,10.0,0.0,0.0,0.0,10.0,0.0,0.0,0.0,10.0
1452010578855446865,85,1452010578850558996,robocape_mag,12.45,-6.75,-7.5,10.0,0.0,0.0,0.0,10.0,0.0,0.0,0.0,10.0
1452010578888421781,86,1452010578883627891,robocape_mag,12.45,-6.75,-7.5,10.0,0.0,0.0,0.0,10.0,0.0,0.0,0.0,10.0
1452010578921863531,87,1452010578916681051,robocape_mag,12.45,-6.75,-7.5,10.0,0.0,0.0,0.0,10.0,0.0,0.0,0.0,10.0
1452010578955018740,88,1452010578949887037,robocape_mag,12.45,-6.75,-7.5,10.0,0.0,0.0,0.0,10.0,0.0,0.0,0.0,10.0
1452010578987819323,89,1452010578982963085,robocape_mag,12.45,-6.75,-7.5,10.0,0.0,0.0,0.0,10.0,0.0,0.0,0.0,10.0
1452010579021100656,90,1452010579015841007,robocape_mag,12.15,-5.25,-7.2,10.0,0.0,0.0,0.0,10.0,0.0,0.0,0.0,10.0
1452010579053737865,91,1452010579048747062,robocape_mag,12.15,-5.25,-7.2,10.0,0.0,0.0,0.0,10.0,0.0,0.0,0.0,10.0
1452010579086862781,92,1452010579082014083,robocape_mag,12.15,-5.25,-7.2,10.0,0.0,0.0,0.0,10.0,0.0,0.0,0.0,10.0
1452010579120657406,93,1452010579115289926,robocape_mag,12.15,-5.25,-7.2,10.0,0.0,0.0,0.0,10.0,0.0,0.0,0.0,10.0
1452010579153139531,94,1452010579148257017,robocape_mag,12.15,-5.25,-7.2,10.0,0.0,0.0,0.0,10.0,0.0,0.0,0.0,10.0
1452010579186563281,95,1452010579181448936,robocape_mag,12.75,-4.65,-6.6,10.0,0.0,0.0,0.0,10.0,0.0,0.0,0.0,10.0
1452010579219264532,96,1452010579214400053,robocape_mag,12.75,-4.65,-6.6,10.0,0.0,0.0,0.0,10.0,0.0,0.0,0.0,10.0
1452010579252309240,97,1452010579247504949,robocape_mag,12.75,-4.65,-6.6,10.0,0.0,0.0,0.0,10.0,0.0,0.0,0.0,10.0
1452010579285573282,98,1452010579280800104,robocape_mag,12.75,-4.65,-6.6,10.0,0.0,0.0,0.0,10.0,0.0,0.0,0.0,10.0
1452010579318784490,99,1452010579314007043,robocape_mag,12.75,-4.65,-6.6,10.0,0.0,0.0,0.0,10.0,0.0,0.0,0.0,10.0
1452010579351973948,100,1452010579347258090,robocape_mag,12.15,-5.25,-8.4,10.0,0.0,0.0,0.0,10.0,0.0,0.0,0.0,10.0
1452010579385183323,101,1452010579380419969,robocape_mag,12.15,-5.25,-8.4,10.0,0.0,0.0,0.0,10.0,0.0,0.0,0.0,10.0
1452010579420096532,102,1452010579415324926,robocape_mag,12.15,-5.25,-8.4,10.0,0.0,0.0,0.0,10.0,0.0,0.0,0.0,10.0
1452010579452238907,103,1452010579447395086,robocape_mag,12.15,-5.25,-8.4,10.0,0.0,0.0,0.0,10.0,0.0,0.0,0.0,10.0
1452010579485252657,104,1452010579480473995,robocape_mag,13.05,-5.55,-7.5,10.0,0.0,0.0,0.0,10.0,0.0,0.0,0.0,10.0
1452010579518855740,105,1452010579513866901,robocape_mag,13.05,-5.55,-7.5,10.0,0.0,0.0,0.0,10.0,0.0,0.0,0.0,10.0
1452010579552050573,106,1452010579547070980,robocape_mag,13.05,-5.55,-7.5,10.0,0.0,0.0,0.0,10.0,0.0,0.0,0.0,10.0
1452010579585558115,107,1452010579580748081,robocape_mag,13.05,-5.55,-7.5,10.0,0.0,0.0,0.0,10.0,0.0,0.0,0.0,10.0
1452010579618954698,108,1452010579613918066,robocape_mag,13.05,-5.55,-7.5,10.0,0.0,0.0,0.0,10.0,0.0,0.0,0.0,10.0
1452010579653081365,109,1452010579648113012,robocape_mag,13.95,-4.65,-6.6,10.0,0.0,0.0,0.0,10.0,0.0,0.0,0.0,10.0
1452010579685930240,110,1452010579681107997,robocape_mag,13.95,-4.65,-6.6,10.0,0.0,0.0,0.0,10.0,0.0,0.0,0.0,10.0
1452010579721703907,111,1452010579715964078,robocape_mag,13.95,-4.65,-6.6,10.0,0.0,0.0,0.0,10.0,0.0,0.0,0.0,10.0
1452010579752003532,112,1452010579747248888,robocape_mag,13.95,-4.65,-6.6,10.0,0.0,0.0,0.0,10.0,0.0,0.0,0.0,10.0
1452010579785334240,113,1452010579780579090,robocape_mag,13.95,-4.65,-6.6,10.0,0.0,0.0,0.0,10.0,0.0,0.0,0.0,10.0
1452010579821224032,114,1452010579813787937,robocape_mag,14.55,-8.25,-6.6,10.0,0.0,0.0,0.0,10.0,0.0,0.0,0.0,10.0
1452010579854363698,115,1452010579847580909,robocape_mag,14.55,-8.25,-6.6,10.0,0.0,0.0,0.0,10.0,0.0,0.0,0.0,10.0
1452010579887193823,116,1452010579880430936,robocape_mag,14.55,-8.25,-6.6,10.0,0.0,0.0,0.0,10.0,0.0,0.0,0.0,10.0
1452010579919481032,117,1452010579913736104,robocape_mag,14.55,-8.25,-6.6,10.0,0.0,0.0,0.0,10.0,0.0,0.0,0.0,10.0
1452010579952210824,118,1452010579947137117,robocape_mag,14.55,-8.25,-6.6,10.0,0.0,0.0,0.0,10.0,0.0,0.0,0.0,10.0
1452010579985393449,119,1452010579980482101,robocape_mag,14.85,-6.75,-6.9,10.0,0.0,0.0,0.0,10.0,0.0,0.0,0.0,10.0
1452010580020836407,120,1452010580013850927,robocape_mag,14.85,-6.75,-6.9,10.0,0.0,0.0,0.0,10.0,0.0,0.0,0.0,10.0
1452010580054237074,121,1452010580047276973,robocape_mag,14.85,-6.75,-6.9,10.0,0.0,0.0,0.0,10.0,0.0,0.0,0.0,10.0
1452010580085817907,122,1452010580080544948,robocape_mag,14.85,-6.75,-6.9,10.0,0.0,0.0,0.0,10.0,0.0,0.0,0.0,10.0
1452010580118601157,123,1452010580113600015,robocape_mag,14.85,-6.75,-6.9,10.0,0.0,0.0,0.0,10.0,0.0,0.0,0.0,10.0
1452010580152285949,124,1452010580147130012,robocape_mag,14.25,-4.95,-7.5,10.0,0.0,0.0,0.0,10.0,0.0,0.0,0.0,10.0
1452010580186022574,125,1452010580181170940,robocape_mag,14.25,-4.95,-7.5,10.0,0.0,0.0,0.0,10.0,0.0,0.0,0.0,10.0
1452010580219072115,126,1452010580214139938,robocape_mag,14.25,-4.95,-7.5,10.0,0.0,0.0,0.0,10.0,0.0,0.0,0.0,10.0
1452010580252048740,127,1452010580247298955,robocape_mag,14.25,-4.95,-7.5,10.0,0.0,0.0,0.0,10.0,0.0,0.0,0.0,10.0
1452010580285413282,128,1452010580280535936,robocape_mag,14.25,-4.65,-7.2,10.0,0.0,0.0,0.0,10.0,0.0,0.0,0.0,10.0
1452010580319218407,129,1452010580314256906,robocape_mag,13.95,-4.65,-7.2,10.0,0.0,0.0,0.0,10.0,0.0,0.0,0.0,10.0
1452010580353285990,130,1452010580348499059,robocape_mag,13.95,-4.65,-7.2,10.0,0.0,0.0,0.0,10.0,0.0,0.0,0.0,10.0
1452010580386668824,131,1452010580381664991,robocape_mag,13.95,-4.65,-7.2,10.0,0.0,0.0,0.0,10.0,0.0,0.0,0.0,10.0
1452010580421552907,132,1452010580415374040,robocape_mag,13.95,-4.65,-7.2,10.0,0.0,0.0,0.0,10.0,0.0,0.0,0.0,10.0
1452010580454004699,133,1452010580448698043,robocape_mag,14.25,-5.55,-6.9,10.0,0.0,0.0,0.0,10.0,0.0,0.0,0.0,10.0
1452010580488687824,134,1452010580482141971,robocape_mag,14.25,-5.55,-6.9,10.0,0.0,0.0,0.0,10.0,0.0,0.0,0.0,10.0
1452010580523827282,135,1452010580515407085,robocape_mag,14.25,-5.55,-6.9,10.0,0.0,0.0,0.0,10.0,0.0,0.0,0.0,10.0
1452010580554555365,136,1452010580548254013,robocape_mag,14.25,-5.55,-6.9,10.0,0.0,0.0,0.0,10.0,0.0,0.0,0.0,10.0
1452010580587449032,137,1452010580582154989,robocape_mag,14.25,-5.55,-6.9,10.0,0.0,0.0,0.0,10.0,0.0,0.0,0.0,10.0
1452010580623083116,138,1452010580617969989,robocape_mag,13.65,-4.95,-8.1,10.0,0.0,0.0,0.0,10.0,0.0,0.0,0.0,10.0
1452010580658405407,139,1452010580650449037,robocape_mag,13.65,-4.95,-8.1,10.0,0.0,0.0,0.0,10.0,0.0,0.0,0.0,10.0
1452010580691502074,140,1452010580684068918,robocape_mag,13.65,-4.95,-8.1,10.0,0.0,0.0,0.0,10.0,0.0,0.0,0.0,10.0
1452010580728404324,141,1452010580717948913,robocape_mag,13.65,-4.95,-8.1,10.0,0.0,0.0,0.0,10.0,0.0,0.0,0.0,10.0
1452010580762212491,142,1452010580750814914,robocape_mag,13.65,-4.95,-8.1,10.0,0.0,0.0,0.0,10.0,0.0,0.0,0.0,10.0
1452010580790301824,143,1452010580785027980,robocape_mag,10.95,-4.65,-10.2,10.0,0.0,0.0,0.0,10.0,0.0,0.0,0.0,10.0
1452010580823331449,144,1452010580818195104,robocape_mag,10.95,-4.65,-10.2,10.0,0.0,0.0,0.0,10.0,0.0,0.0,0.0,10.0
1452010580859861157,145,1452010580850750923,robocape_mag,10.95,-4.65,-10.2,10.0,0.0,0.0,0.0,10.0,0.0,0.0,0.0,10.0
1452010580888930574,146,1452010580883198976,robocape_mag,10.95,-4.65,-10.2,10.0,0.0,0.0,0.0,10.0,0.0,0.0,0.0,10.0
1452010580928196574,147,1452010580917988061,robocape_mag,10.95,-4.65,-10.2,10.0,0.0,0.0,0.0,10.0,0.0,0.0,0.0,10.0
1452010580959436407,148,1452010580950489997,robocape_mag,13.65,-6.15,-8.7,10.0,0.0,0.0,0.0,10.0,0.0,0.0,0.0,10.0
1452010580994507199,149,1452010580984930992,robocape_mag,13.65,-6.15,-8.7,10.0,0.0,0.0,0.0,10.0,0.0,0.0,0.0,10.0
1452010581022654449,150,1452010581017143011,robocape_mag,13.65,-6.15,-8.7,10.0,0.0,0.0,0.0,10.0,0.0,0.0,0.0,10.0
1452010581059154157,151,1452010581051064014,robocape_mag,13.65,-6.15,-8.7,10.0,0.0,0.0,0.0,10.0,0.0,0.0,0.0,10.0
1452010581091827532,152,1452010581082856893,robocape_mag,4.65,-6.15,-3.3,10.0,0.0,0.0,0.0,10.0,0.0,0.0,0.0,10.0
1452010581124444241,153,1452010581117084026,robocape_mag,4.65,-6.15,-3.3,10.0,0.0,0.0,0.0,10.0,0.0,0.0,0.0,10.0
1452010581155018199,154,1452010581149962902,robocape_mag,4.65,-6.15,-3.3,10.0,0.0,0.0,0.0,10.0,0.0,0.0,0.0,10.0
1452010581189171199,155,1452010581183971881,robocape_mag,4.65,-6.15,-3.3,10.0,0.0,0.0,0.0,10.0,0.0,0.0,0.0,10.0
1452010581222101991,156,1452010581216852903,robocape_mag,4.65,-6.15,-3.3,10.0,0.0,0.0,0.0,10.0,0.0,0.0,0.0,10.0
1452010581254124241,157,1452010581249346017,robocape_mag,-4.95,1.05,39.9,10.0,0.0,0.0,0.0,10.0,0.0,0.0,0.0,10.0
1452010581288381574,158,1452010581283395051,robocape_mag,-4.95,1.05,39.9,10.0,0.0,0.0,0.0,10.0,0.0,0.0,0.0,10.0
1452010581325997074,159,1452010581317224025,robocape_mag,-4.95,1.05,39.9,10.0,0.0,0.0,0.0,10.0,0.0,0.0,0.0,10.0
1452010581354842074,160,1452010581349766016,robocape_mag,-4.95,1.05,39.9,10.0,0.0,0.0,0.0,10.0,0.0,0.0,0.0,10.0
1452010581387382491,161,1452010581382344007,robocape_mag,-4.95,1.05,39.9,10.0,0.0,0.0,0.0,10.0,0.0,0.0,0.0,10.0
1452010581423454491,162,1452010581418025016,robocape_mag,-2.25,-10.65,26.4,10.0,0.0,0.0,0.0,10.0,0.0,0.0,0.0,10.0
1452010581454147199,163,1452010581448896884,robocape_mag,-2.25,-10.65,26.4,10.0,0.0,0.0,0.0,10.0,0.0,0.0,0.0,10.0
1452010581486724116,164,1452010581481766939,robocape_mag,-2.25,-10.65,26.4,10.0,0.0,0.0,0.0,10.0,0.0,0.0,0.0,10.0
1452010581519240283,165,1452010581514218091,robocape_mag,-2.25,-10.65,26.4,10.0,0.0,0.0,0.0,10.0,0.0,0.0,0.0,10.0
1452010581552879658,166,1452010581548122882,robocape_mag,-2.25,-10.65,26.4,10.0,0.0,0.0,0.0,10.0,0.0,0.0,0.0,10.0
1452010581589122699,167,1452010581580753087,robocape_mag,-17.55,-0.15,17.7,10.0,0.0,0.0,0.0,10.0,0.0,0.0,0.0,10.0
1452010581620901366,168,1452010581614151954,robocape_mag,-17.55,-0.15,17.7,10.0,0.0,0.0,0.0,10.0,0.0,0.0,0.0,10.0
1452010581652163449,169,1452010581647291898,robocape_mag,-17.55,-0.15,17.7,10.0,0.0,0.0,0.0,10.0,0.0,0.0,0.0,10.0
1452010581686228116,170,1452010581681165933,robocape_mag,-17.55,-0.15,17.7,10.0,0.0,0.0,0.0,10.0,0.0,0.0,0.0,10.0
1452010581724483699,171,1452010581713737964,robocape_mag,-17.55,-0.15,17.7,10.0,0.0,0.0,0.0,10.0,0.0,0.0,0.0,10.0
1452010581752119991,172,1452010581747370958,robocape_mag,-10.65,-31.05,7.2,10.0,0.0,0.0,0.0,10.0,0.0,0.0,0.0,10.0
1452010581785424824,173,1452010581780474901,robocape_mag,-10.65,-31.05,7.2,10.0,0.0,0.0,0.0,10.0,0.0,0.0,0.0,10.0
1452010581818485574,174,1452010581813724040,robocape_mag,-10.65,-31.05,7.2,10.0,0.0,0.0,0.0,10.0,0.0,0.0,0.0,10.0
1452010581852121074,175,1452010581847033023,robocape_mag,-10.65,-31.05,7.2,10.0,0.0,0.0,0.0,10.0,0.0,0.0,0.0,10.0
1452010581885691491,176,1452010581880615949,robocape_mag,1.05,-21.75,0.9,10.0,0.0,0.0,0.0,10.0,0.0,0.0,0.0,10.0
1452010581918760449,177,1452010581913983106,robocape_mag,1.05,-21.75,0.9,10.0,0.0,0.0,0.0,10.0,0.0,0.0,0.0,10.0
1452010581952746491,178,1452010581947644948,robocape_mag,1.05,-21.75,0.9,10.0,0.0,0.0,0.0,10.0,0.0,0.0,0.0,10.0
1452010581985698991,179,1452010581980590105,robocape_mag,1.05,-21.75,0.9,10.0,0.0,0.0,0.0,10.0,0.0,0.0,0.0,10.0
1452010582018790033,180,1452010582013861894,robocape_mag,1.05,-21.75,0.9,10.0,0.0,0.0,0.0,10.0,0.0,0.0,0.0,10.0
1452010582052259741,181,1452010582047164916,robocape_mag,-31.35,-13.95,2.1,10.0,0.0,0.0,0.0,10.0,0.0,0.0,0.0,10.0
1452010582087202450,182,1452010582080387115,robocape_mag,-31.35,-13.95,2.1,10.0,0.0,0.0,0.0,10.0,0.0,0.0,0.0,10.0
1452010582118680866,183,1452010582113845109,robocape_mag,-31.35,-13.95,2.1,10.0,0.0,0.0,0.0,10.0,0.0,0.0,0.0,10.0
1452010582152607491,184,1452010582147109031,robocape_mag,-31.35,-13.95,2.1,10.0,0.0,0.0,0.0,10.0,0.0,0.0,0.0,10.0
1452010582187003658,185,1452010582181041955,robocape_mag,-31.35,-13.95,2.1,10.0,0.0,0.0,0.0,10.0,0.0,0.0,0.0,10.0
1452010582219809033,186,1452010582214029073,robocape_mag,-1.35,-14.55,-2.1,10.0,0.0,0.0,0.0,10.0,0.0,0.0,0.0,10.0
1452010582252855283,187,1452010582247637987,robocape_mag,-1.35,-14.55,-2.1,10.0,0.0,0.0,0.0,10.0,0.0,0.0,0.0,10.0
1452010582285537991,188,1452010582280433893,robocape_mag,-1.35,-14.55,-2.1,10.0,0.0,0.0,0.0,10.0,0.0,0.0,0.0,10.0
1452010582318734950,189,1452010582313842058,robocape_mag,-1.35,-14.55,-2.1,10.0,0.0,0.0,0.0,10.0,0.0,0.0,0.0,10.0
1452010582354309325,190,1452010582347249031,robocape_mag,-1.35,-14.55,-2.1,10.0,0.0,0.0,0.0,10.0,0.0,0.0,0.0,10.0
1452010582387924658,191,1452010582381016016,robocape_mag,-33.75,-13.35,-2.1,10.0,0.0,0.0,0.0,10.0,0.0,0.0,0.0,10.0
1452010582420292366,192,1452010582415043115,robocape_mag,-33.75,-13.35,-2.1,10.0,0.0,0.0,0.0,10.0,0.0,0.0,0.0,10.0
1452010582454900158,193,1452010582447613000,robocape_mag,-33.75,-13.35,-2.1,10.0,0.0,0.0,0.0,10.0,0.0,0.0,0.0,10.0
1452010582486724033,194,1452010582480329036,robocape_mag,-33.75,-13.35,-2.1,10.0,0.0,0.0,0.0,10.0,0.0,0.0,0.0,10.0
1452010582518801825,195,1452010582513825893,robocape_mag,-33.75,-13.35,-2.1,10.0,0.0,0.0,0.0,10.0,0.0,0.0,0.0,10.0
1452010582552468325,196,1452010582547255992,robocape_mag,-23.55,-2.55,-3.3,10.0,0.0,0.0,0.0,10.0,0.0,0.0,0.0,10.0
1452010582587796075,197,1452010582580775976,robocape_mag,-23.55,-2.55,-3.3,10.0,0.0,0.0,0.0,10.0,0.0,0.0,0.0,10.0
1452010582618580033,198,1452010582613713979,robocape_mag,-23.55,-2.55,-3.3,10.0,0.0,0.0,0.0,10.0,0.0,0.0,0.0,10.0
1452010582653357825,199,1452010582648227930,robocape_mag,-23.55,-2.55,-3.3,10.0,0.0,0.0,0.0,10.0,0.0,0.0,0.0,10.0
1452010582687634491,200,1452010582680814027,robocape_mag,-26.85,-8.85,7.2,10.0,0.0,0.0,0.0,10.0,0.0,0.0,0.0,10.0
1452010582719306617,201,1452010582714070081,robocape_mag,-26.85,-8.85,7.2,10.0,0.0,0.0,0.0,10.0,0.0,0.0,0.0,10.0
1452010582752463242,202,1452010582747400045,robocape_mag,-26.85,-8.85,7.2,10.0,0.0,0.0,0.0,10.0,0.0,0.0,0.0,10.0
1452010582786953700,203,1452010582780807971,robocape_mag,-26.85,-8.85,7.2,10.0,0.0,0.0,0.0,10.0,0.0,0.0,0.0,10.0
1452010582818614783,204,1452010582813853979,robocape_mag,-26.85,-8.85,7.2,10.0,0.0,0.0,0.0,10.0,0.0,0.0,0.0,10.0
1452010582852785575,205,1452010582847414970,robocape_mag,-5.55,-23.55,13.5,10.0,0.0,0.0,0.0,10.0,0.0,0.0,0.0,10.0
1452010582885404992,206,1452010582880598068,robocape_mag,-5.55,-23.55,13.5,10.0,0.0,0.0,0.0,10.0,0.0,0.0,0.0,10.0
1452010582918511825,207,1452010582913724899,robocape_mag,-5.55,-23.55,13.5,10.0,0.0,0.0,0.0,10.0,0.0,0.0,0.0,10.0
1452010582953439450,208,1452010582947228908,robocape_mag,-5.55,-23.55,13.5,10.0,0.0,0.0,0.0,10.0,0.0,0.0,0.0,10.0
1452010582985443200,209,1452010582980621099,robocape_mag,-5.55,-23.55,13.5,10.0,0.0,0.0,0.0,10.0,0.0,0.0,0.0,10.0
1452010583018585492,210,1452010583013828992,robocape_mag,-9.15,-18.75,14.1,10.0,0.0,0.0,0.0,10.0,0.0,0.0,0.0,10.0
1452010583052133575,211,1452010583047149896,robocape_mag,-9.15,-18.75,14.1,10.0,0.0,0.0,0.0,10.0,0.0,0.0,0.0,10.0
1452010583085479867,212,1452010583080688953,robocape_mag,-9.15,-18.75,14.1,10.0,0.0,0.0,0.0,10.0,0.0,0.0,0.0,10.0
1452010583118513950,213,1452010583113703012,robocape_mag,-9.15,-18.75,14.1,10.0,0.0,0.0,0.0,10.0,0.0,0.0,0.0,10.0
1452010583152147367,214,1452010583147146940,robocape_mag,-9.15,-18.75,14.1,10.0,0.0,0.0,0.0,10.0,0.0,0.0,0.0,10.0
1452010583187586158,215,1452010583180546998,robocape_mag,-14.25,-32.25,9.6,10.0,0.0,0.0,0.0,10.0,0.0,0.0,0.0,10.0
1452010583218912617,216,1452010583213754892,robocape_mag,-14.25,-32.25,9.6,10.0,0.0,0.0,0.0,10.0,0.0,0.0,0.0,10.0
1452010583255867075,217,1452010583248333930,robocape_mag,-14.25,-32.25,9.6,10.0,0.0,0.0,0.0,10.0,0.0,0.0,0.0,10.0
1452010583285169075,218,1452010583280438899,robocape_mag,-14.25,-32.25,9.6,10.0,0.0,0.0,0.0,10.0,0.0,0.0,0.0,10.0
1452010583318673575,219,1452010583313918113,robocape_mag,-14.25,-32.25,9.6,10.0,0.0,0.0,0.0,10.0,0.0,0.0,0.0,10.0
1452010583352292617,220,1452010583347172975,robocape_mag,0.15,-32.25,3.0,10.0,0.0,0.0,0.0,10.0,0.0,0.0,0.0,10.0
1452010583385754700,221,1452010583380317926,robocape_mag,0.15,-32.25,3.0,10.0,0.0,0.0,0.0,10.0,0.0,0.0,0.0,10.0
1452010583419405325,222,1452010583414346933,robocape_mag,0.15,-32.25,3.0,10.0,0.0,0.0,0.0,10.0,0.0,0.0,0.0,10.0
1452010583453169367,223,1452010583447846889,robocape_mag,0.15,-32.25,3.0,10.0,0.0,0.0,0.0,10.0,0.0,0.0,0.0,10.0
1452010583485352867,224,1452010583480460882,robocape_mag,-24.15,-20.55,3.9,10.0,0.0,0.0,0.0,10.0,0.0,0.0,0.0,10.0
1452010583518914075,225,1452010583513848066,robocape_mag,-24.15,-20.55,3.9,10.0,0.0,0.0,0.0,10.0,0.0,0.0,0.0,10.0
1452010583552702117,226,1452010583547384023,robocape_mag,-24.15,-20.55,3.9,10.0,0.0,0.0,0.0,10.0,0.0,0.0,0.0,10.0
1452010583585445492,227,1452010583580331087,robocape_mag,-24.15,-20.55,3.9,10.0,0.0,0.0,0.0,10.0,0.0,0.0,0.0,10.0
1452010583618803242,228,1452010583613852977,robocape_mag,-24.15,-20.55,3.9,10.0,0.0,0.0,0.0,10.0,0.0,0.0,0.0,10.0
1452010583652175492,229,1452010583647165060,robocape_mag,20.25,1.05,12.9,10.0,0.0,0.0,0.0,10.0,0.0,0.0,0.0,10.0
1452010583687444867,230,1452010583680392980,robocape_mag,20.25,1.05,12.9,10.0,0.0,0.0,0.0,10.0,0.0,0.0,0.0,10.0
1452010583718800617,231,1452010583713838100,robocape_mag,20.25,1.05,12.9,10.0,0.0,0.0,0.0,10.0,0.0,0.0,0.0,10.0
1452010583752427034,232,1452010583747474908,robocape_mag,20.25,1.05,12.9,10.0,0.0,0.0,0.0,10.0,0.0,0.0,0.0,10.0
1452010583785272992,233,1452010583780545949,robocape_mag,20.25,1.05,12.9,10.0,0.0,0.0,0.0,10.0,0.0,0.0,0.0,10.0
1452010583818651075,234,1452010583813795089,robocape_mag,-5.25,-12.45,11.4,10.0,0.0,0.0,0.0,10.0,0.0,0.0,0.0,10.0
1452010583852373909,235,1452010583847213983,robocape_mag,-5.25,-12.45,11.4,10.0,0.0,0.0,0.0,10.0,0.0,0.0,0.0,10.0
1452010583886698284,236,1452010583881885051,robocape_mag,-5.25,-12.45,11.4,10.0,0.0,0.0,0.0,10.0,0.0,0.0,0.0,10.0
1452010583919781242,237,1452010583914931058,robocape_mag,-5.25,-12.45,11.4,10.0,0.0,0.0,0.0,10.0,0.0,0.0,0.0,10.0
1452010583953739075,238,1452010583948266983,robocape_mag,-5.25,-12.45,11.4,10.0,0.0,0.0,0.0,10.0,0.0,0.0,0.0,10.0
1452010583986744117,239,1452010583981832981,robocape_mag,10.65,2.85,12.3,10.0,0.0,0.0,0.0,10.0,0.0,0.0,0.0,10.0
1452010584020188742,240,1452010584015227079,robocape_mag,10.65,2.85,12.3,10.0,0.0,0.0,0.0,10.0,0.0,0.0,0.0,10.0
1452010584052974450,241,1452010584047678947,robocape_mag,10.65,2.85,12.3,10.0,0.0,0.0,0.0,10.0,0.0,0.0,0.0,10.0
1452010584085981617,242,1452010584081080913,robocape_mag,10.65,2.85,12.3,10.0,0.0,0.0,0.0,10.0,0.0,0.0,0.0,10.0
1452010584120767534,243,1452010584115658998,robocape_mag,10.65,2.85,12.3,10.0,0.0,0.0,0.0,10.0,0.0,0.0,0.0,10.0
1452010584159473076,244,1452010584149852991,robocape_mag,5.25,-34.95,8.1,10.0,0.0,0.0,0.0,10.0,0.0,0.0,0.0,10.0
1452010584191624826,245,1452010584182240962,robocape_mag,5.25,-34.95,8.1,10.0,0.0,0.0,0.0,10.0,0.0,0.0,0.0,10.0
1452010584224622742,246,1452010584217083930,robocape_mag,5.25,-34.95,8.1,10.0,0.0,0.0,0.0,10.0,0.0,0.0,0.0,10.0
1452010584258305159,247,1452010584250262975,robocape_mag,5.25,-34.95,8.1,10.0,0.0,0.0,0.0,10.0,0.0,0.0,0.0,10.0
1452010584293936451,248,1452010584284986972,robocape_mag,-4.05,-37.65,5.4,10.0,0.0,0.0,0.0,10.0,0.0,0.0,0.0,10.0
1452010584326616242,249,1452010584317157983,robocape_mag,-4.05,-37.65,5.4,10.0,0.0,0.0,0.0,10.0,0.0,0.0,0.0,10.0
1452010584357778659,250,1452010584350949048,robocape_mag,-4.05,-37.65,5.4,10.0,0.0,0.0,0.0,10.0,0.0,0.0,0.0,10.0
1452010584394511409,251,1452010584385087013,robocape_mag,-4.05,-37.65,5.4,10.0,0.0,0.0,0.0,10.0,0.0,0.0,0.0,10.0
1452010584425215492,252,1452010584417181015,robocape_mag,-4.05,-37.65,5.4,10.0,0.0,0.0,0.0,10.0,0.0,0.0,0.0,10.0
1452010584457715367,253,1452010584450834989,robocape_mag,-16.05,-38.25,-3.0,10.0,0.0,0.0,0.0,10.0,0.0,0.0,0.0,10.0
1452010584490823117,254,1452010584484690904,robocape_mag,-16.05,-38.25,-3.0,10.0,0.0,0.0,0.0,10.0,0.0,0.0,0.0,10.0
1452010584522901784,255,1452010584517900943,robocape_mag,-16.05,-38.25,-3.0,10.0,0.0,0.0,0.0,10.0,0.0,0.0,0.0,10.0
1452010584555875659,256,1452010584550326108,robocape_mag,-16.05,-38.25,-3.0,10.0,0.0,0.0,0.0,10.0,0.0,0.0,0.0,10.0
1452010584588922201,257,1452010584583736896,robocape_mag,-16.05,-38.25,-3.0,10.0,0.0,0.0,0.0,10.0,0.0,0.0,0.0,10.0
1452010584621117826,258,1452010584616080045,robocape_mag,-33.15,-20.55,-5.7,10.0,0.0,0.0,0.0,10.0,0.0,0.0,0.0,10.0
1452010584655154659,259,1452010584649816036,robocape_mag,-33.15,-20.55,-5.7,10.0,0.0,0.0,0.0,10.0,0.0,0.0,0.0,10.0
1452010584690817076,260,1452010584683562040,robocape_mag,-33.15,-20.55,-5.7,10.0,0.0,0.0,0.0,10.0,0.0,0.0,0.0,10.0
1452010584722462742,261,1452010584715810060,robocape_mag,-33.15,-20.55,-5.7,10.0,0.0,0.0,0.0,10.0,0.0,0.0,0.0,10.0
1452010584754939076,262,1452010584749743938,robocape_mag,-33.15,-20.55,-5.7,10.0,0.0,0.0,0.0,10.0,0.0,0.0,0.0,10.0
1452010584788383451,263,1452010584783417940,robocape_mag,-0.15,-33.15,4.5,10.0,0.0,0.0,0.0,10.0,0.0,0.0,0.0,10.0
1452010584820879826,264,1452010584815907001,robocape_mag,-0.15,-33.15,4.5,10.0,0.0,0.0,0.0,10.0,0.0,0.0,0.0,10.0
1452010584853825743,265,1452010584848927974,robocape_mag,-0.15,-33.15,4.5,10.0,0.0,0.0,0.0,10.0,0.0,0.0,0.0,10.0
1452010584886703659,266,1452010584881870985,robocape_mag,-0.15,-33.15,4.5,10.0,0.0,0.0,0.0,10.0,0.0,0.0,0.0,10.0
1452010584920000368,267,1452010584914877891,robocape_mag,-0.15,-33.15,4.5,10.0,0.0,0.0,0.0,10.0,0.0,0.0,0.0,10.0
1452010584953203493,268,1452010584948276996,robocape_mag,16.95,3.15,13.2,10.0,0.0,0.0,0.0,10.0,0.0,0.0,0.0,10.0
1452010584986277534,269,1452010584981457948,robocape_mag,16.95,3.15,13.2,10.0,0.0,0.0,0.0,10.0,0.0,0.0,0.0,10.0
1452010585019367659,270,1452010585014314889,robocape_mag,16.95,3.15,13.2,10.0,0.0,0.0,0.0,10.0,0.0,0.0,0.0,10.0
1452010585052458868,271,1452010585047380924,robocape_mag,16.95,3.15,13.2,10.0,0.0,0.0,0.0,10.0,0.0,0.0,0.0,10.0
1452010585085393076,272,1452010585080579042,robocape_mag,16.95,2.85,11.7,10.0,0.0,0.0,0.0,10.0,0.0,0.0,0.0,10.0
1452010585119577368,273,1452010585114634990,robocape_mag,4.05,2.85,11.7,10.0,0.0,0.0,0.0,10.0,0.0,0.0,0.0,10.0
1452010585152032951,274,1452010585147264003,robocape_mag,4.05,2.85,11.7,10.0,0.0,0.0,0.0,10.0,0.0,0.0,0.0,10.0
1452010585185550201,275,1452010585180424928,robocape_mag,4.05,2.85,11.7,10.0,0.0,0.0,0.0,10.0,0.0,0.0,0.0,10.0
1452010585218841159,276,1452010585213816881,robocape_mag,4.05,2.85,11.7,10.0,0.0,0.0,0.0,10.0,0.0,0.0,0.0,10.0
1452010585251803659,277,1452010585247004032,robocape_mag,15.75,-29.25,11.4,10.0,0.0,0.0,0.0,10.0,0.0,0.0,0.0,10.0
1452010585285495451,278,1452010585280733108,robocape_mag,15.75,-29.25,11.4,10.0,0.0,0.0,0.0,10.0,0.0,0.0,0.0,10.0
1452010585319144284,279,1452010585314135074,robocape_mag,15.75,-29.25,11.4,10.0,0.0,0.0,0.0,10.0,0.0,0.0,0.0,10.0
1452010585352105243,280,1452010585347354888,robocape_mag,15.75,-29.25,11.4,10.0,0.0,0.0,0.0,10.0,0.0,0.0,0.0,10.0
1452010585385394493,281,1452010585380635023,robocape_mag,15.75,-29.25,11.4,10.0,0.0,0.0,0.0,10.0,0.0,0.0,0.0,10.0
1452010585420326451,282,1452010585415282011,robocape_mag,-7.65,-2.25,12.6,10.0,0.0,0.0,0.0,10.0,0.0,0.0,0.0,10.0
1452010585452554493,283,1452010585447434902,robocape_mag,-7.65,-2.25,12.6,10.0,0.0,0.0,0.0,10.0,0.0,0.0,0.0,10.0
1452010585485378993,284,1452010585480660915,robocape_mag,-7.65,-2.25,12.6,10.0,0.0,0.0,0.0,10.0,0.0,0.0,0.0,10.0
1452010585518822993,285,1452010585513895988,robocape_mag,-7.65,-2.25,12.6,10.0,0.0,0.0,0.0,10.0,0.0,0.0,0.0,10.0
1452010585552108410,286,1452010585547211885,robocape_mag,-7.65,-2.25,12.6,10.0,0.0,0.0,0.0,10.0,0.0,0.0,0.0,10.0
1452010585589630493,287,1452010585582206964,robocape_mag,11.25,5.85,12.9,10.0,0.0,0.0,0.0,10.0,0.0,0.0,0.0,10.0
1452010585618633451,288,1452010585613616943,robocape_mag,11.25,5.85,12.9,10.0,0.0,0.0,0.0,10.0,0.0,0.0,0.0,10.0
1452010585652244535,289,1452010585647013902,robocape_mag,11.25,5.85,12.9,10.0,0.0,0.0,0.0,10.0,0.0,0.0,0.0,10.0
1452010585685543826,290,1452010585680269956,robocape_mag,11.25,5.85,12.9,10.0,0.0,0.0,0.0,10.0,0.0,0.0,0.0,10.0
1452010585720817368,291,1452010585714045047,robocape_mag,11.25,5.85,12.9,10.0,0.0,0.0,0.0,10.0,0.0,0.0,0.0,10.0
1452010585752606576,292,1452010585747509956,robocape_mag,32.85,-6.15,11.7,10.0,0.0,0.0,0.0,10.0,0.0,0.0,0.0,10.0
1452010585785653076,293,1452010585780736923,robocape_mag,32.85,-6.15,11.7,10.0,0.0,0.0,0.0,10.0,0.0,0.0,0.0,10.0
1452010585818666951,294,1452010585813800096,robocape_mag,32.85,-6.15,11.7,10.0,0.0,0.0,0.0,10.0,0.0,0.0,0.0,10.0
1452010585852186493,295,1452010585846999883,robocape_mag,32.85,-6.15,11.7,10.0,0.0,0.0,0.0,10.0,0.0,0.0,0.0,10.0
1452010585885635035,296,1452010585880461931,robocape_mag,32.85,-19.35,10.5,10.0,0.0,0.0,0.0,10.0,0.0,0.0,0.0,10.0
1452010585918826201,297,1452010585913743019,robocape_mag,2.85,-19.35,10.5,10.0,0.0,0.0,0.0,10.0,0.0,0.0,0.0,10.0
1452010585952368826,298,1452010585946942090,robocape_mag,2.85,-19.35,10.5,10.0,0.0,0.0,0.0,10.0,0.0,0.0,0.0,10.0
1452010585985437368,299,1452010585980335950,robocape_mag,2.85,-19.35,10.5,10.0,0.0,0.0,0.0,10.0,0.0,0.0,0.0,10.0
1452010586018783993,300,1452010586013773918,robocape_mag,2.85,-19.35,10.5,10.0,0.0,0.0,0.0,10.0,0.0,0.0,0.0,10.0
1452010586053489660,301,1452010586046997070,robocape_mag,6.45,-18.15,8.1,10.0,0.0,0.0,0.0,10.0,0.0,0.0,0.0,10.0
1452010586085453243,302,1452010586080326080,robocape_mag,6.45,-18.15,8.1,10.0,0.0,0.0,0.0,10.0,0.0,0.0,0.0,10.0
1452010586118686826,303,1452010586113704919,robocape_mag,6.45,-18.15,8.1,10.0,0.0,0.0,0.0,10.0,0.0,0.0,0.0,10.0
1452010586153677993,304,1452010586147211074,robocape_mag,6.45,-18.15,8.1,10.0,0.0,0.0,0.0,10.0,0.0,0.0,0.0,10.0
1452010586185918243,305,1452010586180461883,robocape_mag,6.45,-18.15,8.1,10.0,0.0,0.0,0.0,10.0,0.0,0.0,0.0,10.0
1452010586219786493,306,1452010586215032100,robocape_mag,28.95,-18.45,13.2,10.0,0.0,0.0,0.0,10.0,0.0,0.0,0.0,10.0
1452010586253291243,307,1452010586248217105,robocape_mag,28.95,-18.45,13.2,10.0,0.0,0.0,0.0,10.0,0.0,0.0,0.0,10.0
1452010586287042827,308,1452010586281780004,robocape_mag,28.95,-18.45,13.2,10.0,0.0,0.0,0.0,10.0,0.0,0.0,0.0,10.0
1452010586320075118,309,1452010586315136909,robocape_mag,28.95,-18.45,13.2,10.0,0.0,0.0,0.0,10.0,0.0,0.0,0.0,10.0
1452010586353810910,310,1452010586348824024,robocape_mag,28.95,-18.45,13.2,10.0,0.0,0.0,0.0,10.0,0.0,0.0,0.0,10.0
1452010586386860327,311,1452010586381803989,robocape_mag,-7.35,-10.35,12.3,10.0,0.0,0.0,0.0,10.0,0.0,0.0,0.0,10.0
1452010586420546077,312,1452010586415791988,robocape_mag,-7.35,-10.35,12.3,10.0,0.0,0.0,0.0,10.0,0.0,0.0,0.0,10.0
1452010586455600785,313,1452010586449913024,robocape_mag,-7.35,-10.35,12.3,10.0,0.0,0.0,0.0,10.0,0.0,0.0,0.0,10.0
1452010586490391910,314,1452010586483175039,robocape_mag,-7.35,-10.35,12.3,10.0,0.0,0.0,0.0,10.0,0.0,0.0,0.0,10.0
1452010586523247327,315,1452010586516292095,robocape_mag,-7.35,-10.35,12.3,10.0,0.0,0.0,0.0,10.0,0.0,0.0,0.0,10.0
1452010586554882118,316,1452010586549786090,robocape_mag,-10.05,-27.45,7.8,10.0,0.0,0.0,0.0,10.0,0.0,0.0,0.0,10.0
1452010586590244160,317,1452010586582992076,robocape_mag,-10.05,-27.45,7.8,10.0,0.0,0.0,0.0,10.0,0.0,0.0,0.0,10.0
1452010586622498035,318,1452010586616760969,robocape_mag,-10.05,-27.45,7.8,10.0,0.0,0.0,0.0,10.0,0.0,0.0,0.0,10.0
1452010586657288660,319,1452010586650810003,robocape_mag,-10.05,-27.45,7.8,10.0,0.0,0.0,0.0,10.0,0.0,0.0,0.0,10.0
1452010586693941618,320,1452010586683516025,robocape_mag,-4.35,-30.75,9.3,10.0,0.0,0.0,0.0,10.0,0.0,0.0,0.0,10.0
1452010586723452160,321,1452010586715790033,robocape_mag,-4.35,-30.75,9.3,10.0,0.0,0.0,0.0,10.0,0.0,0.0,0.0,10.0
1452010586756111910,322,1452010586750701904,robocape_mag,-4.35,-30.75,9.3,10.0,0.0,0.0,0.0,10.0,0.0,0.0,0.0,10.0
1452010586793406202,323,1452010586783533096,robocape_mag,-4.35,-30.75,9.3,10.0,0.0,0.0,0.0,10.0,0.0,0.0,0.0,10.0
1452010586822997327,324,1452010586817600011,robocape_mag,-4.35,-30.75,9.3,10.0,0.0,0.0,0.0,10.0,0.0,0.0,0.0,10.0
1452010586856374160,325,1452010586851130008,robocape_mag,-2.25,-0.45,12.6,10.0,0.0,0.0,0.0,10.0,0.0,0.0,0.0,10.0
1452010586889051952,326,1452010586883840084,robocape_mag,-2.25,-0.45,12.6,10.0,0.0,0.0,0.0,10.0,0.0,0.0,0.0,10.0
1452010586921570994,327,1452010586916543006,robocape_mag,-2.25,-0.45,12.6,10.0,0.0,0.0,0.0,10.0,0.0,0.0,0.0,10.0
1452010586955917494,328,1452010586949213027,robocape_mag,-2.25,-0.45,12.6,10.0,0.0,0.0,0.0,10.0,0.0,0.0,0.0,10.0
1452010586992225702,329,1452010586982409000,robocape_mag,-2.25,-0.45,12.6,10.0,0.0,0.0,0.0,10.0,0.0,0.0,0.0,10.0
1452010587021628827,330,1452010587016608953,robocape_mag,26.25,-5.55,16.5,10.0,0.0,0.0,0.0,10.0,0.0,0.0,0.0,10.0
1452010587054030452,331,1452010587049065113,robocape_mag,26.25,-5.55,16.5,10.0,0.0,0.0,0.0,10.0,0.0,0.0,0.0,10.0
1452010587088304285,332,1452010587082528114,robocape_mag,26.25,-5.55,16.5,10.0,0.0,0.0,0.0,10.0,0.0,0.0,0.0,10.0
1452010587121230785,333,1452010587116156101,robocape_mag,26.25,-5.55,16.5,10.0,0.0,0.0,0.0,10.0,0.0,0.0,0.0,10.0
1452010587154845744,334,1452010587150090932,robocape_mag,26.25,-5.55,16.5,10.0,0.0,0.0,0.0,10.0,0.0,0.0,0.0,10.0
1452010587191287619,335,1452010587182591915,robocape_mag,15.45,2.85,16.5,10.0,0.0,0.0,0.0,10.0,0.0,0.0,0.0,10.0
1452010587220086202,336,1452010587215251922,robocape_mag,15.45,2.85,16.5,10.0,0.0,0.0,0.0,10.0,0.0,0.0,0.0,10.0
1452010587253312827,337,1452010587248459100,robocape_mag,15.45,2.85,16.5,10.0,0.0,0.0,0.0,10.0,0.0,0.0,0.0,10.0
1452010587286014077,338,1452010587281090974,robocape_mag,15.45,2.85,16.5,10.0,0.0,0.0,0.0,10.0,0.0,0.0,0.0,10.0
1452010587319297327,339,1452010587314536094,robocape_mag,15.45,2.85,16.5,10.0,0.0,0.0,0.0,10.0,0.0,0.0,0.0,10.0
1452010587352354410,340,1452010587347572088,robocape_mag,-8.85,-4.05,9.6,10.0,0.0,0.0,0.0,10.0,0.0,0.0,0.0,10.0
1452010587385630535,341,1452010587380877017,robocape_mag,-8.85,-4.05,9.6,10.0,0.0,0.0,0.0,10.0,0.0,0.0,0.0,10.0
1452010587421677577,342,1452010587416805982,robocape_mag,-8.85,-4.05,9.6,10.0,0.0,0.0,0.0,10.0,0.0,0.0,0.0,10.0
1452010587451913160,343,1452010587447138071,robocape_mag,-8.85,-4.05,9.6,10.0,0.0,0.0,0.0,10.0,0.0,0.0,0.0,10.0
1452010587485599119,344,1452010587480788946,robocape_mag,-55.65,-18.45,15.0,10.0,0.0,0.0,0.0,10.0,0.0,0.0,0.0,10.0
1452010587518631994,345,1452010587513910055,robocape_mag,21.15,-18.45,15.0,10.0,0.0,0.0,0.0,10.0,0.0,0.0,0.0,10.0
1452010587551732244,346,1452010587547019004,robocape_mag,21.15,-18.45,15.0,10.0,0.0,0.0,0.0,10.0,0.0,0.0,0.0,10.0
1452010587585753494,347,1452010587580893039,robocape_mag,21.15,-18.45,15.0,10.0,0.0,0.0,0.0,10.0,0.0,0.0,0.0,10.0
1452010587618603286,348,1452010587613637924,robocape_mag,21.15,-18.45,15.0,10.0,0.0,0.0,0.0,10.0,0.0,0.0,0.0,10.0
1452010587651966119,349,1452010587647130012,robocape_mag,-15.15,-19.95,8.7,10.0,0.0,0.0,0.0,10.0,0.0,0.0,0.0,10.0
1452010587685465161,350,1452010587680583000,robocape_mag,-15.15,-19.95,8.7,10.0,0.0,0.0,0.0,10.0,0.0,0.0,0.0,10.0
1452010587718511702,351,1452010587713735103,robocape_mag,-15.15,-19.95,8.7,10.0,0.0,0.0,0.0,10.0,0.0,0.0,0.0,10.0
1452010587752071786,352,1452010587747279882,robocape_mag,-15.15,-19.95,8.7,10.0,0.0,0.0,0.0,10.0,0.0,0.0,0.0,10.0
1452010587785885369,353,1452010587780838012,robocape_mag,-15.15,-19.95,8.7,10.0,0.0,0.0,0.0,10.0,0.0,0.0,0.0,10.0
1452010587819009244,354,1452010587814135074,robocape_mag,-2.55,-24.15,9.3,10.0,0.0,0.0,0.0,10.0,0.0,0.0,0.0,10.0
1452010587852142494,355,1452010587847323894,robocape_mag,-2.55,-24.15,9.3,10.0,0.0,0.0,0.0,10.0,0.0,0.0,0.0,10.0
1452010587885483494,356,1452010587880724906,robocape_mag,-2.55,-24.15,9.3,10.0,0.0,0.0,0.0,10.0,0.0,0.0,0.0,10.0
1452010587918803161,357,1452010587913979053,robocape_mag,-2.55,-24.15,9.3,10.0,0.0,0.0,0.0,10.0,0.0,0.0,0.0,10.0
1452010587954055911,358,1452010587948380947,robocape_mag,-2.55,-24.15,9.3,10.0,0.0,0.0,0.0,10.0,0.0,0.0,0.0,10.0
1452010587985753994,359,1452010587980906009,robocape_mag,22.35,-17.25,15.6,10.0,0.0,0.0,0.0,10.0,0.0,0.0,0.0,10.0
1452010588018900452,360,1452010588013916015,robocape_mag,22.35,-17.25,15.6,10.0,0.0,0.0,0.0,10.0,0.0,0.0,0.0,10.0
1452010588052624744,361,1452010588047039031,robocape_mag,22.35,-17.25,15.6,10.0,0.0,0.0,0.0,10.0,0.0,0.0,0.0,10.0
1452010588085680202,362,1452010588080435991,robocape_mag,22.35,-17.25,15.6,10.0,0.0,0.0,0.0,10.0,0.0,0.0,0.0,10.0
1452010588120924952,363,1452010588115994930,robocape_mag,22.35,-17.25,15.6,10.0,0.0,0.0,0.0,10.0,0.0,0.0,0.0,10.0
1452010588152218994,364,1452010588147176027,robocape_mag,17.25,-9.75,16.5,10.0,0.0,0.0,0.0,10.0,0.0,0.0,0.0,10.0
1452010588185631827,365,1452010588180562019,robocape_mag,17.25,-9.75,16.5,10.0,0.0,0.0,0.0,10.0,0.0,0.0,0.0,10.0
1452010588218830286,366,1452010588213738918,robocape_mag,17.25,-9.75,16.5,10.0,0.0,0.0,0.0,10.0,0.0,0.0,0.0,10.0
1452010588252486619,367,1452010588247304916,robocape_mag,17.25,-9.75,16.5,10.0,0.0,0.0,0.0,10.0,0.0,0.0,0.0,10.0
1452010588285409786,368,1452010588280481100,robocape_mag,17.25,-11.85,8.4,10.0,0.0,0.0,0.0,10.0,0.0,0.0,0.0,10.0
1452010588318722703,369,1452010588313853979,robocape_mag,4.35,-11.85,8.4,10.0,0.0,0.0,0.0,10.0,0.0,0.0,0.0,10.0
1452010588351952661,370,1452010588347059965,robocape_mag,4.35,-11.85,8.4,10.0,0.0,0.0,0.0,10.0,0.0,0.0,0.0,10.0
1452010588385216786,371,1452010588380394935,robocape_mag,4.35,-11.85,8.4,10.0,0.0,0.0,0.0,10.0,0.0,0.0,0.0,10.0
1452010588420251369,372,1452010588415450096,robocape_mag,4.35,-11.85,8.4,10.0,0.0,0.0,0.0,10.0,0.0,0.0,0.0,10.0
1452010588452210661,373,1452010588447249889,robocape_mag,9.45,-0.75,17.1,10.0,0.0,0.0,0.0,10.0,0.0,0.0,0.0,10.0
1452010588485336286,374,1452010588480551958,robocape_mag,9.45,-0.75,17.1,10.0,0.0,0.0,0.0,10.0,0.0,0.0,0.0,10.0
1452010588519939036,375,1452010588515047073,robocape_mag,9.45,-0.75,17.1,10.0,0.0,0.0,0.0,10.0,0.0,0.0,0.0,10.0
1452010588552591619,376,1452010588547333955,robocape_mag,9.45,-0.75,17.1,10.0,0.0,0.0,0.0,10.0,0.0,0.0,0.0,10.0
1452010588586449453,377,1452010588581708908,robocape_mag,9.45,-0.75,17.1,10.0,0.0,0.0,0.0,10.0,0.0,0.0,0.0,10.0
1452010588626526244,378,1452010588619992971,robocape_mag,4.65,-22.95,13.5,10.0,0.0,0.0,0.0,10.0,0.0,0.0,0.0,10.0
1452010588652178994,379,1452010588647336959,robocape_mag,4.65,-22.95,13.5,10.0,0.0,0.0,0.0,10.0,0.0,0.0,0.0,10.0
1452010588685614411,380,1452010588680901050,robocape_mag,4.65,-22.95,13.5,10.0,0.0,0.0,0.0,10.0,0.0,0.0,0.0,10.0
1452010588720179411,381,1452010588715289115,robocape_mag,4.65,-22.95,13.5,10.0,0.0,0.0,0.0,10.0,0.0,0.0,0.0,10.0
1452010588753393411,382,1452010588748529911,robocape_mag,4.65,-22.95,13.5,10.0,0.0,0.0,0.0,10.0,0.0,0.0,0.0,10.0
1452010588787081869,383,1452010588782053947,robocape_mag,-5.55,-5.55,8.1,10.0,0.0,0.0,0.0,10.0,0.0,0.0,0.0,10.0
1452010588819267994,384,1452010588814519882,robocape_mag,-5.55,-5.55,8.1,10.0,0.0,0.0,0.0,10.0,0.0,0.0,0.0,10.0
1452010588856375536,385,1452010588850117921,robocape_mag,-5.55,-5.55,8.1,10.0,0.0,0.0,0.0,10.0,0.0,0.0,0.0,10.0
1452010588888532578,386,1452010588883675098,robocape_mag,-5.55,-5.55,8.1,10.0,0.0,0.0,0.0,10.0,0.0,0.0,0.0,10.0
1452010588923634869,387,1452010588916975021,robocape_mag,-5.55,-5.55,8.1,10.0,0.0,0.0,0.0,10.0,0.0,0.0,0.0,10.0
1452010588954176078,388,1452010588949409008,robocape_mag,-19.35,-28.95,1.5,10.0,0.0,0.0,0.0,10.0,0.0,0.0,0.0,10.0
1452010588989783578,389,1452010588984514951,robocape_mag,-19.35,-28.95,1.5,10.0,0.0,0.0,0.0,10.0,0.0,0.0,0.0,10.0
1452010589025719745,390,1452010589017188072,robocape_mag,-19.35,-28.95,1.5,10.0,0.0,0.0,0.0,10.0,0.0,0.0,0.0,10.0
1452010589060514745,391,1452010589049232959,robocape_mag,-19.35,-28.95,1.5,10.0,0.0,0.0,0.0,10.0,0.0,0.0,0.0,10.0
1452010589088866995,392,1452010589083812952,robocape_mag,8.55,-23.85,12.0,10.0,0.0,0.0,0.0,10.0,0.0,0.0,0.0,10.0
1452010589127365495,393,1452010589117232084,robocape_mag,8.55,-23.85,12.0,10.0,0.0,0.0,0.0,10.0,0.0,0.0,0.0,10.0
1452010589155307161,394,1452010589150190114,robocape_mag,8.55,-23.85,12.0,10.0,0.0,0.0,0.0,10.0,0.0,0.0,0.0,10.0
1452010589190168578,395,1452010589184634923,robocape_mag,8.55,-23.85,12.0,10.0,0.0,0.0,0.0,10.0,0.0,0.0,0.0,10.0
1452010589222021120,396,1452010589217015981,robocape_mag,8.55,-23.85,12.0,10.0,0.0,0.0,0.0,10.0,0.0,0.0,0.0,10.0
1452010589254654453,397,1452010589249536991,robocape_mag,-9.15,-28.35,5.1,10.0,0.0,0.0,0.0,10.0,0.0,0.0,0.0,10.0
1452010589288489953,398,1452010589283497095,robocape_mag,-9.15,-28.35,5.1,10.0,0.0,0.0,0.0,10.0,0.0,0.0,0.0,10.0
1452010589321786203,399,1452010589316874027,robocape_mag,-9.15,-28.35,5.1,10.0,0.0,0.0,0.0,10.0,0.0,0.0,0.0,10.0
1452010589354236620,400,1452010589349375963,robocape_mag,-9.15,-28.35,5.1,10.0,0.0,0.0,0.0,10.0,0.0,0.0,0.0,10.0
1452010589388036370,401,1452010589382817983,robocape_mag,-9.15,-28.35,5.1,10.0,0.0,0.0,0.0,10.0,0.0,0.0,0.0,10.0
1452010589420941953,402,1452010589416117906,robocape_mag,-9.45,-32.25,4.2,10.0,0.0,0.0,0.0,10.0,0.0,0.0,0.0,10.0
1452010589454438036,403,1452010589449434995,robocape_mag,-9.45,-32.25,4.2,10.0,0.0,0.0,0.0,10.0,0.0,0.0,0.0,10.0
1452010589488046161,404,1452010589482852935,robocape_mag,-9.45,-32.25,4.2,10.0,0.0,0.0,0.0,10.0,0.0,0.0,0.0,10.0
1452010589520108870,405,1452010589515253067,robocape_mag,-9.45,-32.25,4.2,10.0,0.0,0.0,0.0,10.0,0.0,0.0,0.0,10.0
1452010589553154036,406,1452010589548379898,robocape_mag,-9.45,-32.25,4.2,10.0,0.0,0.0,0.0,10.0,0.0,0.0,0.0,10.0
1452010589585977745,407,1452010589581124067,robocape_mag,-13.95,-15.75,6.9,10.0,0.0,0.0,0.0,10.0,0.0,0.0,0.0,10.0
1452010589619656786,408,1452010589614696025,robocape_mag,-13.95,-15.75,6.9,10.0,0.0,0.0,0.0,10.0,0.0,0.0,0.0,10.0
1452010589652899578,409,1452010589648108005,robocape_mag,-13.95,-15.75,6.9,10.0,0.0,0.0,0.0,10.0,0.0,0.0,0.0,10.0
1452010589686190578,410,1452010589681401968,robocape_mag,-13.95,-15.75,6.9,10.0,0.0,0.0,0.0,10.0,0.0,0.0,0.0,10.0
1452010589719300912,411,1452010589714518070,robocape_mag,-13.95,-15.75,6.9,10.0,0.0,0.0,0.0,10.0,0.0,0.0,0.0,10.0
1452010589752173995,412,1452010589747313022,robocape_mag,-14.55,-33.15,0.3,10.0,0.0,0.0,0.0,10.0,0.0,0.0,0.0,10.0
1452010589788165370,413,1452010589780741930,robocape_mag,-14.55,-33.15,0.3,10.0,0.0,0.0,0.0,10.0,0.0,0.0,0.0,10.0
1452010589819105828,414,1452010589814130067,robocape_mag,-14.55,-33.15,0.3,10.0,0.0,0.0,0.0,10.0,0.0,0.0,0.0,10.0
1452010589852220245,415,1452010589847237110,robocape_mag,-14.55,-33.15,0.3,10.0,0.0,0.0,0.0,10.0,0.0,0.0,0.0,10.0
1452010589885507328,416,1452010589880568027,robocape_mag,-14.55,-7.05,12.6,10.0,0.0,0.0,0.0,10.0,0.0,0.0,0.0,10.0
1452010589918654495,417,1452010589913775920,robocape_mag,5.55,-7.05,12.6,10.0,0.0,0.0,0.0,10.0,0.0,0.0,0.0,10.0
1452010589951853703,418,1452010589947082042,robocape_mag,5.55,-7.05,12.6,10.0,0.0,0.0,0.0,10.0,0.0,0.0,0.0,10.0
1452010589985420578,419,1452010589980386972,robocape_mag,5.55,-7.05,12.6,10.0,0.0,0.0,0.0,10.0,0.0,0.0,0.0,10.0
1452010590018961537,420,1452010590013919115,robocape_mag,5.55,-7.05,12.6,10.0,0.0,0.0,0.0,10.0,0.0,0.0,0.0,10.0
1452010590052175203,421,1452010590047377109,robocape_mag,12.75,-18.45,14.4,10.0,0.0,0.0,0.0,10.0,0.0,0.0,0.0,10.0
1452010590085435995,422,1452010590080419063,robocape_mag,12.75,-18.45,14.4,10.0,0.0,0.0,0.0,10.0,0.0,0.0,0.0,10.0
1452010590119466370,423,1452010590114623069,robocape_mag,12.75,-18.45,14.4,10.0,0.0,0.0,0.0,10.0,0.0,0.0,0.0,10.0
1452010590152314953,424,1452010590147464036,robocape_mag,12.75,-18.45,14.4,10.0,0.0,0.0,0.0,10.0,0.0,0.0,0.0,10.0
1452010590185620495,425,1452010590180512905,robocape_mag,12.75,-18.45,14.4,10.0,0.0,0.0,0.0,10.0,0.0,0.0,0.0,10.0
1452010590220319495,426,1452010590215485095,robocape_mag,0.15,-30.45,8.4,10.0,0.0,0.0,0.0,10.0,0.0,0.0,0.0,10.0
1452010590251932412,427,1452010590247070074,robocape_mag,0.15,-30.45,8.4,10.0,0.0,0.0,0.0,10.0,0.0,0.0,0.0,10.0
1452010590286687995,428,1452010590280339002,robocape_mag,0.15,-30.45,8.4,10.0,0.0,0.0,0.0,10.0,0.0,0.0,0.0,10.0
1452010590318610870,429,1452010590313812017,robocape_mag,0.15,-30.45,8.4,10.0,0.0,0.0,0.0,10.0,0.0,0.0,0.0,10.0
1452010590351844245,430,1452010590347022056,robocape_mag,0.15,-30.45,8.4,10.0,0.0,0.0,0.0,10.0,0.0,0.0,0.0,10.0
1452010590385990370,431,1452010590380250930,robocape_mag,-22.95,-15.15,-5.7,10.0,0.0,0.0,0.0,10.0,0.0,0.0,0.0,10.0
1452010590420694745,432,1452010590415488958,robocape_mag,-22.95,-15.15,-5.7,10.0,0.0,0.0,0.0,10.0,0.0,0.0,0.0,10.0
1452010590452170495,433,1452010590446986913,robocape_mag,-22.95,-15.15,-5.7,10.0,0.0,0.0,0.0,10.0,0.0,0.0,0.0,10.0
1452010590485300704,434,1452010590480387926,robocape_mag,-22.95,-15.15,-5.7,10.0,0.0,0.0,0.0,10.0,0.0,0.0,0.0,10.0
1452010590519031620,435,1452010590513809919,robocape_mag,-22.95,-15.15,-5.7,10.0,0.0,0.0,0.0,10.0,0.0,0.0,0.0,10.0
1452010590552287329,436,1452010590547019958,robocape_mag,-23.55,-17.55,-5.1,10.0,0.0,0.0,0.0,10.0,0.0,0.0,0.0,10.0
1452010590585519745,437,1452010590580359935,robocape_mag,-23.55,-17.55,-5.1,10.0,0.0,0.0,0.0,10.0,0.0,0.0,0.0,10.0
1452010590619192079,438,1452010590613744974,robocape_mag,-23.55,-17.55,-5.1,10.0,0.0,0.0,0.0,10.0,0.0,0.0,0.0,10.0
1452010590652285662,439,1452010590647142887,robocape_mag,-23.55,-17.55,-5.1,10.0,0.0,0.0,0.0,10.0,0.0,0.0,0.0,10.0
1452010590685300037,440,1452010590680293083,robocape_mag,-23.55,-16.95,1.5,10.0,0.0,0.0,0.0,10.0,0.0,0.0,0.0,10.0
1452010590719428704,441,1452010590714257001,robocape_mag,-21.75,-16.95,1.5,10.0,0.0,0.0,0.0,10.0,0.0,0.0,0.0,10.0
1452010590751994162,442,1452010590747028112,robocape_mag,-21.75,-16.95,1.5,10.0,0.0,0.0,0.0,10.0,0.0,0.0,0.0,10.0
1452010590785229870,443,1452010590780471086,robocape_mag,-21.75,-16.95,1.5,10.0,0.0,0.0,0.0,10.0,0.0,0.0,0.0,10.0
1452010590820444829,444,1452010590813982009,robocape_mag,-21.75,-16.95,1.5,10.0,0.0,0.0,0.0,10.0,0.0,0.0,0.0,10.0
1452010590852083995,445,1452010590847095966,robocape_mag,8.55,-1.65,12.6,10.0,0.0,0.0,0.0,10.0,0.0,0.0,0.0,10.0
1452010590886217412,446,1452010590881432056,robocape_mag,8.55,-1.65,12.6,10.0,0.0,0.0,0.0,10.0,0.0,0.0,0.0,10.0
1452010590920045537,447,1452010590915066003,robocape_mag,8.55,-1.65,12.6,10.0,0.0,0.0,0.0,10.0,0.0,0.0,0.0,10.0
1452010590954472662,448,1452010590949398040,robocape_mag,8.55,-1.65,12.6,10.0,0.0,0.0,0.0,10.0,0.0,0.0,0.0,10.0
1452010590986879162,449,1452010590981976985,robocape_mag,8.55,-1.65,12.6,10.0,0.0,0.0,0.0,10.0,0.0,0.0,0.0,10.0
1452010591020200829,450,1452010591015239000,robocape_mag,16.05,-0.75,13.5,10.0,0.0,0.0,0.0,10.0,0.0,0.0,0.0,10.0
1452010591053298329,451,1452010591048371076,robocape_mag,16.05,-0.75,13.5,10.0,0.0,0.0,0.0,10.0,0.0,0.0,0.0,10.0
1452010591086595621,452,1452010591081835985,robocape_mag,16.05,-0.75,13.5,10.0,0.0,0.0,0.0,10.0,0.0,0.0,0.0,10.0
1452010591124350537,453,1452010591117319107,robocape_mag,16.05,-0.75,13.5,10.0,0.0,0.0,0.0,10.0,0.0,0.0,0.0,10.0
1452010591152700246,454,1452010591147756099,robocape_mag,16.05,-0.75,13.5,10.0,0.0,0.0,0.0,10.0,0.0,0.0,0.0,10.0
1452010591188157537,455,1452010591183433055,robocape_mag,7.65,-20.55,8.7,10.0,0.0,0.0,0.0,10.0,0.0,0.0,0.0,10.0
1452010591228390246,456,1452010591217350006,robocape_mag,7.65,-20.55,8.7,10.0,0.0,0.0,0.0,10.0,0.0,0.0,0.0,10.0
1452010591255317621,457,1452010591250241041,robocape_mag,7.65,-20.55,8.7,10.0,0.0,0.0,0.0,10.0,0.0,0.0,0.0,10.0
1452010591288990204,458,1452010591283370971,robocape_mag,7.65,-20.55,8.7,10.0,0.0,0.0,0.0,10.0,0.0,0.0,0.0,10.0
1452010591320928537,459,1452010591315918922,robocape_mag,7.65,-20.55,8.7,10.0,0.0,0.0,0.0,10.0,0.0,0.0,0.0,10.0
1452010591355710662,460,1452010591349406003,robocape_mag,12.75,-24.45,10.8,10.0,0.0,0.0,0.0,10.0,0.0,0.0,0.0,10.0
1452010591388545621,461,1452010591382389068,robocape_mag,12.75,-24.45,10.8,10.0,0.0,0.0,0.0,10.0,0.0,0.0,0.0,10.0
1452010591423916454,462,1452010591415887117,robocape_mag,12.75,-24.45,10.8,10.0,0.0,0.0,0.0,10.0,0.0,0.0,0.0,10.0
1452010591456488621,463,1452010591451123952,robocape_mag,12.75,-24.45,10.8,10.0,0.0,0.0,0.0,10.0,0.0,0.0,0.0,10.0
1452010591487798412,464,1452010591482737064,robocape_mag,31.05,-13.95,15.3,10.0,0.0,0.0,0.0,10.0,0.0,0.0,0.0,10.0
1452010591522922412,465,1452010591517735004,robocape_mag,31.05,-13.95,15.3,10.0,0.0,0.0,0.0,10.0,0.0,0.0,0.0,10.0
1452010591556027996,466,1452010591550890922,robocape_mag,31.05,-13.95,15.3,10.0,0.0,0.0,0.0,10.0,0.0,0.0,0.0,10.0
1452010591588215204,467,1452010591583056926,robocape_mag,31.05,-13.95,15.3,10.0,0.0,0.0,0.0,10.0,0.0,0.0,0.0,10.0
1452010591622901871,468,1452010591617775917,robocape_mag,31.05,-13.95,15.3,10.0,0.0,0.0,0.0,10.0,0.0,0.0,0.0,10.0
1452010591658417412,469,1452010591649234056,robocape_mag,34.65,-9.15,16.5,10.0,0.0,0.0,0.0,10.0,0.0,0.0,0.0,10.0
1452010591687781287,470,1452010591682909965,robocape_mag,34.65,-9.15,16.5,10.0,0.0,0.0,0.0,10.0,0.0,0.0,0.0,10.0
1452010591726380121,471,1452010591716814041,robocape_mag,34.65,-9.15,16.5,10.0,0.0,0.0,0.0,10.0,0.0,0.0,0.0,10.0
1452010591754738704,472,1452010591749741077,robocape_mag,34.65,-9.15,16.5,10.0,0.0,0.0,0.0,10.0,0.0,0.0,0.0,10.0
1452010591788385579,473,1452010591783392906,robocape_mag,34.65,-9.15,16.5,10.0,0.0,0.0,0.0,10.0,0.0,0.0,0.0,10.0
1452010591821687746,474,1452010591816715955,robocape_mag,16.35,-17.85,6.6,10.0,0.0,0.0,0.0,10.0,0.0,0.0,0.0,10.0
1452010591855309163,475,1452010591849818944,robocape_mag,16.35,-17.85,6.6,10.0,0.0,0.0,0.0,10.0,0.0,0.0,0.0,10.0
1452010591886603288,476,1452010591881781101,robocape_mag,16.35,-17.85,6.6,10.0,0.0,0.0,0.0,10.0,0.0,0.0,0.0,10.0
1452010591920468413,477,1452010591915503978,robocape_mag,16.35,-17.85,6.6,10.0,0.0,0.0,0.0,10.0,0.0,0.0,0.0,10.0
1452010591953159413,478,1452010591948210000,robocape_mag,16.35,-17.85,6.6,10.0,0.0,0.0,0.0,10.0,0.0,0.0,0.0,10.0
1452010591986176663,479,1452010591981189966,robocape_mag,19.65,5.85,8.7,10.0,0.0,0.0,0.0,10.0,0.0,0.0,0.0,10.0
1452010592019887371,480,1452010592014960050,robocape_mag,19.65,5.85,8.7,10.0,0.0,0.0,0.0,10.0,0.0,0.0,0.0,10.0
1452010592052382538,481,1452010592047364950,robocape_mag,19.65,5.85,8.7,10.0,0.0,0.0,0.0,10.0,0.0,0.0,0.0,10.0
1452010592085813788,482,1452010592080941915,robocape_mag,19.65,5.85,8.7,10.0,0.0,0.0,0.0,10.0,0.0,0.0,0.0,10.0
1452010592121948329,483,1452010592117058038,robocape_mag,19.65,5.85,8.7,10.0,0.0,0.0,0.0,10.0,0.0,0.0,0.0,10.0
1452010592155286913,484,1452010592147347927,robocape_mag,27.15,-15.45,7.2,10.0,0.0,0.0,0.0,10.0,0.0,0.0,0.0,10.0
1452010592185271079,485,1452010592180397033,robocape_mag,27.15,-15.45,7.2,10.0,0.0,0.0,0.0,10.0,0.0,0.0,0.0,10.0
1452010592218962746,486,1452010592214046001,robocape_mag,27.15,-15.45,7.2,10.0,0.0,0.0,0.0,10.0,0.0,0.0,0.0,10.0
1452010592255217079,487,1452010592247227907,robocape_mag,27.15,-15.45,7.2,10.0,0.0,0.0,0.0,10.0,0.0,0.0,0.0,10.0
1452010592285383288,488,1452010592280597925,robocape_mag,40.05,-3.15,14.1,10.0,0.0,0.0,0.0,10.0,0.0,0.0,0.0,10.0
1452010592319021204,489,1452010592313973903,robocape_mag,40.05,-3.15,14.1,10.0,0.0,0.0,0.0,10.0,0.0,0.0,0.0,10.0
1452010592352053996,490,1452010592347100973,robocape_mag,40.05,-3.15,14.1,10.0,0.0,0.0,0.0,10.0,0.0,0.0,0.0,10.0
1452010592385121746,491,1452010592380382061,robocape_mag,40.05,-3.15,14.1,10.0,0.0,0.0,0.0,10.0,0.0,0.0,0.0,10.0
1452010592419998663,492,1452010592414977073,robocape_mag,40.05,-3.15,14.1,10.0,0.0,0.0,0.0,10.0,0.0,0.0,0.0,10.0
1452010592452680829,493,1452010592447623014,robocape_mag,41.85,-0.75,13.5,10.0,0.0,0.0,0.0,10.0,0.0,0.0,0.0,10.0
1452010592485383830,494,1452010592480631113,robocape_mag,41.85,-0.75,13.5,10.0,0.0,0.0,0.0,10.0,0.0,0.0,0.0,10.0
1452010592518892496,495,1452010592513921022,robocape_mag,41.85,-0.75,13.5,10.0,0.0,0.0,0.0,10.0,0.0,0.0,0.0,10.0
1452010592552063246,496,1452010592547278881,robocape_mag,41.85,-0.75,13.5,10.0,0.0,0.0,0.0,10.0,0.0,0.0,0.0,10.0
1452010592585283413,497,1452010592580482959,robocape_mag,41.85,-0.75,13.5,10.0,0.0,0.0,0.0,10.0,0.0,0.0,0.0,10.0
1452010592622389163,498,1452010592615467071,robocape_mag,40.95,-6.45,11.4,10.0,0.0,0.0,0.0,10.0,0.0,0.0,0.0,10.0
1452010592651891996,499,1452010592647104024,robocape_mag,40.95,-6.45,11.4,10.0,0.0,0.0,0.0,10.0,0.0,0.0,0.0,10.0
1452010592685434746,500,1452010592680455923,robocape_mag,40.95,-6.45,11.4,10.0,0.0,0.0,0.0,10.0,0.0,0.0,0.0,10.0
1452010592719519288,501,1452010592714066982,robocape_mag,40.95,-6.45,11.4,10.0,0.0,0.0,0.0,10.0,0.0,0.0,0.0,10.0
1452010592752325663,502,1452010592746957063,robocape_mag,40.95,-6.45,11.4,10.0,0.0,0.0,0.0,10.0,0.0,0.0,0.0,10.0
1452010592785512913,503,1452010592780437946,robocape_mag,39.45,-2.55,13.5,10.0,0.0,0.0,0.0,10.0,0.0,0.0,0.0,10.0
1452010592818773163,504,1452010592813843965,robocape_mag,39.45,-2.55,13.5,10.0,0.0,0.0,0.0,10.0,0.0,0.0,0.0,10.0
1452010592852041413,505,1452010592847043991,robocape_mag,39.45,-2.55,13.5,10.0,0.0,0.0,0.0,10.0,0.0,0.0,0.0,10.0
1452010592885539080,506,1452010592880469083,robocape_mag,39.45,-2.55,13.5,10.0,0.0,0.0,0.0,10.0,0.0,0.0,0.0,10.0
1452010592919297163,507,1452010592913767099,robocape_mag,39.45,-2.55,13.5,10.0,0.0,0.0,0.0,10.0,0.0,0.0,0.0,10.0
1452010592952043580,508,1452010592947128057,robocape_mag,41.85,11.85,14.7,10.0,0.0,0.0,0.0,10.0,0.0,0.0,0.0,10.0
1452010592985175371,509,1452010592980287075,robocape_mag,41.85,11.85,14.7,10.0,0.0,0.0,0.0,10.0,0.0,0.0,0.0,10.0
1452010593019077288,510,1452010593013879060,robocape_mag,41.85,11.85,14.7,10.0,0.0,0.0,0.0,10.0,0.0,0.0,0.0,10.0
1452010593052122955,511,1452010593047151088,robocape_mag,41.85,11.85,14.7,10.0,0.0,0.0,0.0,10.0,0.0,0.0,0.0,10.0
1452010593085957496,512,1452010593081141948,robocape_mag,41.85,8.25,5.1,10.0,0.0,0.0,0.0,10.0,0.0,0.0,0.0,10.0
1452010593118991871,513,1452010593113864898,robocape_mag,15.45,8.25,5.1,10.0,0.0,0.0,0.0,10.0,0.0,0.0,0.0,10.0
1452010593152350080,514,1452010593147521018,robocape_mag,15.45,8.25,5.1,10.0,0.0,0.0,0.0,10.0,0.0,0.0,0.0,10.0
1452010593186482122,515,1452010593181562900,robocape_mag,15.45,8.25,5.1,10.0,0.0,0.0,0.0,10.0,0.0,0.0,0.0,10.0
1452010593220162163,516,1452010593215092897,robocape_mag,15.45,8.25,5.1,10.0,0.0,0.0,0.0,10.0,0.0,0.0,0.0,10.0
1452010593253229288,517,1452010593248378992,robocape_mag,38.55,18.75,15.0,10.0,0.0,0.0,0.0,10.0,0.0,0.0,0.0,10.0
1452010593287006038,518,1452010593281761884,robocape_mag,38.55,18.75,15.0,10.0,0.0,0.0,0.0,10.0,0.0,0.0,0.0,10.0
1452010593319623663,519,1452010593314697980,robocape_mag,38.55,18.75,15.0,10.0,0.0,0.0,0.0,10.0,0.0,0.0,0.0,10.0
1452010593352406622,520,1452010593347676992,robocape_mag,38.55,18.75,15.0,10.0,0.0,0.0,0.0,10.0,0.0,0.0,0.0,10.0
1452010593386617663,521,1452010593381805896,robocape_mag,38.55,18.75,15.0,10.0,0.0,0.0,0.0,10.0,0.0,0.0,0.0,10.0
1452010593421968913,522,1452010593416987895,robocape_mag,36.75,10.95,16.8,10.0,0.0,0.0,0.0,10.0,0.0,0.0,0.0,10.0
1452010593456110788,523,1452010593450205087,robocape_mag,36.75,10.95,16.8,10.0,0.0,0.0,0.0,10.0,0.0,0.0,0.0,10.0
1452010593485706455,524,1452010593480843067,robocape_mag,36.75,10.95,16.8,10.0,0.0,0.0,0.0,10.0,0.0,0.0,0.0,10.0
1452010593527562288,525,1452010593517977952,robocape_mag,36.75,10.95,16.8,10.0,0.0,0.0,0.0,10.0,0.0,0.0,0.0,10.0
1452010593554827288,526,1452010593548777103,robocape_mag,36.75,10.95,16.8,10.0,0.0,0.0,0.0,10.0,0.0,0.0,0.0,10.0
1452010593588055330,527,1452010593583301067,robocape_mag,5.55,1.95,12.6,10.0,0.0,0.0,0.0,10.0,0.0,0.0,0.0,10.0
