%time,field.header.seq,field.header.stamp,field.header.frame_id,field.orientation.x,field.orientation.y,field.orientation.z,field.orientation.w,field.orientation_covariance0,field.orientation_covariance1,field.orientation_covariance2,field.orientation_covariance3,field.orientation_covariance4,field.orientation_covariance5,field.orientation_covariance6,field.orientation_covariance7,field.orientation_covariance8,field.angular_velocity.x,field.angular_velocity.y,field.angular_velocity.z,field.angular_velocity_covariance0,field.angular_velocity_covariance1,field.angular_velocity_covariance2,field.angular_velocity_covariance3,field.angular_velocity_covariance4,field.angular_velocity_covariance5,field.angular_velocity_covariance6,field.angular_velocity_covariance7,field.angular_velocity_covariance8,field.linear_acceleration.x,field.linear_acceleration.y,field.linear_acceleration.z,field.linear_acceleration_covariance0,field.linear_acceleration_covariance1,field.linear_acceleration_covariance2,field.linear_acceleration_covariance3,field.linear_acceleration_covariance4,field.linear_acceleration_covariance5,field.linear_acceleration_covariance6,field.linear_acceleration_covariance7,field.linear_acceleration_covariance8
1446036458276401245,1,1446036457938256978,robocape,3.59746680179,12.9462179611,3.59746680179,0.0,10.0,0.0,0.0,0.0,10.0,0.0,0.0,0.0,10.0,0.00692421883421,0.0262321367373,0.00745685105222,1.0,0.0,0.0,0.0,1.0,0.0,0.0,0.0,1.0,-0.0215551757813,0.689765625,10.0351318359,0.1,0.0,0.0,0.0,0.1,0.0,0.0,0.0,0.1
1446036458309007536,2,1446036457975847959,robocape,3.59678992417,12.9685084763,3.59678992417,0.0,10.0,0.0,0.0,0.0,10.0,0.0,0.0,0.0,10.0,0.00545948023466,0.0268979270098,0.00719053494321,1.0,0.0,0.0,0.0,1.0,0.0,0.0,0.0,1.0,-0.0239501953125,0.696950683594,10.0327368164,0.1,0.0,0.0,0.0,0.1,0.0,0.0,0.0,0.1
1446036458332927953,3,1446036458005220890,robocape,3.59742020547,12.9904055094,3.59742020547,0.0,10.0,0.0,0.0,0.0,10.0,0.0,0.0,0.0,10.0,0.00599211245268,0.0267647689553,0.00785632521573,1.0,0.0,0.0,0.0,1.0,0.0,0.0,0.0,1.0,-0.0107775878906,0.677790527344,10.0590820312,0.1,0.0,0.0,0.0,0.1,0.0,0.0,0.0,0.1
1446036458332995953,4,1446036458049122095,robocape,3.59880087026,13.0123723481,3.59880087026,0.0,10.0,0.0,0.0,0.0,10.0,0.0,0.0,0.0,10.0,0.00652474467069,0.0267647689553,0.00719053494321,1.0,0.0,0.0,0.0,1.0,0.0,0.0,0.0,1.0,-0.0203576660156,0.683778076172,10.0351318359,0.1,0.0,0.0,0.0,0.1,0.0,0.0,0.0,0.1
1446036458333032120,5,1446036458074696063,robocape,3.60246318837,13.0325518823,3.60246318837,0.0,10.0,0.0,0.0,0.0,10.0,0.0,0.0,0.0,10.0,0.00772316716123,0.0258326625738,0.00719053494321,1.0,0.0,0.0,0.0,1.0,0.0,0.0,0.0,1.0,-0.0179626464844,0.690963134766,10.0171691895,0.1,0.0,0.0,0.0,0.1,0.0,0.0,0.0,0.1
1446036458333103036,6,1446036458102463960,robocape,3.60741758071,13.054701428,3.60741758071,0.0,10.0,0.0,0.0,0.0,10.0,0.0,0.0,0.0,10.0,0.00838895743375,0.0268979270098,0.00719053494321,1.0,0.0,0.0,0.0,1.0,0.0,0.0,0.0,1.0,-0.0107775878906,0.707728271484,10.0063916016,0.1,0.0,0.0,0.0,0.1,0.0,0.0,0.0,0.1
1446036458333234828,7,1446036458135792016,robocape,3.6088196129,13.0760664305,3.6088196129,0.0,10.0,0.0,0.0,0.0,10.0,0.0,0.0,0.0,10.0,0.00652474467069,0.0264984528463,0.00719053494321,1.0,0.0,0.0,0.0,1.0,0.0,0.0,0.0,1.0,-0.0179626464844,0.695753173828,10.024354248,0.1,0.0,0.0,0.0,0.1,0.0,0.0,0.0,0.1
1446036458333300911,8,1446036458171560049,robocape,3.60821086272,13.0981484126,3.60821086272,0.0,10.0,0.0,0.0,0.0,10.0,0.0,0.0,0.0,10.0,0.00545948023466,0.0268979270098,0.00719053494321,1.0,0.0,0.0,0.0,1.0,0.0,0.0,0.0,1.0,-0.0143701171875,0.694555664063,10.0495019531,0.1,0.0,0.0,0.0,0.1,0.0,0.0,0.0,0.1
1446036458333366161,9,1446036458219515085,robocape,3.60902417039,13.1197357992,3.60902417039,0.0,10.0,0.0,0.0,0.0,10.0,0.0,0.0,0.0,10.0,0.00625842856169,0.0266316109008,0.00692421883421,1.0,0.0,0.0,0.0,1.0,0.0,0.0,0.0,1.0,-0.01916015625,0.676593017578,10.0135766602,0.1,0.0,0.0,0.0,0.1,0.0,0.0,0.0,0.1
1446036458333399120,10,1446036458241319894,robocape,3.6090901498,13.1412888422,3.6090901498,0.0,10.0,0.0,0.0,0.0,10.0,0.0,0.0,0.0,10.0,0.00585895439817,0.0266316109008,0.00692421883421,1.0,0.0,0.0,0.0,1.0,0.0,0.0,0.0,1.0,-0.009580078125,0.693358154297,10.019564209,0.1,0.0,0.0,0.0,0.1,0.0,0.0,0.0,0.1
1446036458334118453,11,1446036458272839069,robocape,3.61060857721,13.1627426353,3.61060857721,0.0,10.0,0.0,0.0,0.0,10.0,0.0,0.0,0.0,10.0,0.00652474467069,0.0266316109008,0.00732369299772,1.0,0.0,0.0,0.0,1.0,0.0,0.0,0.0,1.0,-0.0167651367188,0.689765625,10.0279467773,0.1,0.0,0.0,0.0,0.1,0.0,0.0,0.0,0.1
1446036458334486995,12,1446036458317044019,robocape,3.61461488056,13.1836818292,3.61461488056,0.0,10.0,0.0,0.0,0.0,10.0,0.0,0.0,0.0,10.0,0.00785632521573,0.0263652947918,0.00719053494321,1.0,0.0,0.0,0.0,1.0,0.0,0.0,0.0,1.0,-0.0179626464844,0.694555664063,10.0363293457,0.1,0.0,0.0,0.0,0.1,0.0,0.0,0.0,0.1
1446036458349969578,13,1446036458344516992,robocape,3.61939080862,13.2048377993,3.61939080862,0.0,10.0,0.0,0.0,0.0,10.0,0.0,0.0,0.0,10.0,0.00825579937925,0.0264984528463,0.00719053494321,1.0,0.0,0.0,0.0,1.0,0.0,0.0,0.0,1.0,-0.0275427246094,0.689765625,10.0435144043,0.1,0.0,0.0,0.0,0.1,0.0,0.0,0.0,0.1
1446036458371173703,14,1446036458367877006,robocape,3.62512754987,13.2257311842,3.62512754987,0.0,10.0,0.0,0.0,0.0,10.0,0.0,0.0,0.0,10.0,0.00878843159726,0.0263652947918,0.00705737688871,1.0,0.0,0.0,0.0,1.0,0.0,0.0,0.0,1.0,-0.0311352539063,0.696950683594,10.0267492676,0.1,0.0,0.0,0.0,0.1,0.0,0.0,0.0,0.1
1446036458406237786,15,1446036458402837038,robocape,3.63090137615,13.2469850973,3.63090137615,0.0,10.0,0.0,0.0,0.0,10.0,0.0,0.0,0.0,10.0,0.00865527354276,0.0266316109008,0.00772316716123,1.0,0.0,0.0,0.0,1.0,0.0,0.0,0.0,1.0,-0.00598754882813,0.701740722656,10.0459094238,0.1,0.0,0.0,0.0,0.1,0.0,0.0,0.0,0.1
1446036458448010328,16,1446036458438669919,robocape,3.63926883673,13.2679319257,3.63926883673,0.0,10.0,0.0,0.0,0.0,10.0,0.0,0.0,0.0,10.0,0.0099868540878,0.0264984528463,0.00785632521573,1.0,0.0,0.0,0.0,1.0,0.0,0.0,0.0,1.0,-0.0239501953125,0.693358154297,10.019564209,0.1,0.0,0.0,0.0,0.1,0.0,0.0,0.0,0.1
1446036458471481161,17,1446036458468002080,robocape,3.64433373529,13.2885967066,3.64433373529,0.0,10.0,0.0,0.0,0.0,10.0,0.0,0.0,0.0,10.0,0.00825579937925,0.0263652947918,0.00785632521573,1.0,0.0,0.0,0.0,1.0,0.0,0.0,0.0,1.0,-0.0263452148438,0.720900878906,10.0327368164,0.1,0.0,0.0,0.0,0.1,0.0,0.0,0.0,0.1
1446036458504237786,18,1446036458500988006,robocape,3.64536571185,13.3088160213,3.64536571185,0.0,10.0,0.0,0.0,0.0,10.0,0.0,0.0,0.0,10.0,0.00625842856169,0.0260989786828,0.00732369299772,1.0,0.0,0.0,0.0,1.0,0.0,0.0,0.0,1.0,-0.0143701171875,0.717308349609,10.0435144043,0.1,0.0,0.0,0.0,0.1,0.0,0.0,0.0,0.1
1446036458537703245,19,1446036458534431934,robocape,3.64323781719,13.33021179,3.64323781719,0.0,10.0,0.0,0.0,0.0,10.0,0.0,0.0,0.0,10.0,0.00452737385313,0.0267647689553,0.00759000910673,1.0,0.0,0.0,0.0,1.0,0.0,0.0,0.0,1.0,-0.0239501953125,0.704135742188,10.0255517578,0.1,0.0,0.0,0.0,0.1,0.0,0.0,0.0,0.1
1446036458570840245,20,1446036458567545890,robocape,3.64076284911,13.3518646236,3.64076284911,0.0,10.0,0.0,0.0,0.0,10.0,0.0,0.0,0.0,10.0,0.00439421579863,0.0268979270098,0.00732369299772,1.0,0.0,0.0,0.0,1.0,0.0,0.0,0.0,1.0,-0.01916015625,0.694555664063,10.0411193848,0.1,0.0,0.0,0.0,0.1,0.0,0.0,0.0,0.1
1446036458604432120,21,1446036458601273059,robocape,3.63883293728,13.3728166183,3.63883293728,0.0,10.0,0.0,0.0,0.0,10.0,0.0,0.0,0.0,10.0,0.00479368996214,0.0264984528463,0.0067910607797,1.0,0.0,0.0,0.0,1.0,0.0,0.0,0.0,1.0,-0.0179626464844,0.688568115234,10.0351318359,0.1,0.0,0.0,0.0,0.1,0.0,0.0,0.0,0.1
1446036458637484161,22,1446036458634309053,robocape,3.63904644077,13.3941048732,3.63904644077,0.0,10.0,0.0,0.0,0.0,10.0,0.0,0.0,0.0,10.0,0.00572579634367,0.0267647689553,0.00759000910673,1.0,0.0,0.0,0.0,1.0,0.0,0.0,0.0,1.0,-0.0119750976563,0.682580566406,10.0471069336,0.1,0.0,0.0,0.0,0.1,0.0,0.0,0.0,0.1
1446036458670890578,23,1446036458667777061,robocape,3.63929308395,13.414943443,3.63929308395,0.0,10.0,0.0,0.0,0.0,10.0,0.0,0.0,0.0,10.0,0.00585895439817,0.0264984528463,0.00705737688871,1.0,0.0,0.0,0.0,1.0,0.0,0.0,0.0,1.0,-0.0179626464844,0.694555664063,10.0135766602,0.1,0.0,0.0,0.0,0.1,0.0,0.0,0.0,0.1
1446036458704217328,24,1446036458701183080,robocape,3.64054756975,13.4359118903,3.64054756975,0.0,10.0,0.0,0.0,0.0,10.0,0.0,0.0,0.0,10.0,0.00625842856169,0.0266316109008,0.00759000910673,1.0,0.0,0.0,0.0,1.0,0.0,0.0,0.0,1.0,-0.0155676269531,0.704135742188,10.0171691895,0.1,0.0,0.0,0.0,0.1,0.0,0.0,0.0,0.1
1446036458737343036,25,1446036458734318017,robocape,3.64260128588,13.457430841,3.64260128588,0.0,10.0,0.0,0.0,0.0,10.0,0.0,0.0,0.0,10.0,0.0067910607797,0.0268979270098,0.00705737688871,1.0,0.0,0.0,0.0,1.0,0.0,0.0,0.0,1.0,-0.00598754882813,0.693358154297,10.0327368164,0.1,0.0,0.0,0.0,0.1,0.0,0.0,0.0,0.1
1446036458770699703,26,1446036458767657041,robocape,3.64649414705,13.4783920774,3.64649414705,0.0,10.0,0.0,0.0,0.0,10.0,0.0,0.0,0.0,10.0,0.00772316716123,0.0266316109008,0.00719053494321,1.0,0.0,0.0,0.0,1.0,0.0,0.0,0.0,1.0,-0.0335302734375,0.694555664063,10.0291442871,0.1,0.0,0.0,0.0,0.1,0.0,0.0,0.0,0.1
1446036458804229661,27,1446036458801217079,robocape,3.65025333885,13.4990265023,3.65025333885,0.0,10.0,0.0,0.0,0.0,10.0,0.0,0.0,0.0,10.0,0.00759000910673,0.0264984528463,0.00745685105222,1.0,0.0,0.0,0.0,1.0,0.0,0.0,0.0,1.0,-0.01916015625,0.701740722656,10.0471069336,0.1,0.0,0.0,0.0,0.1,0.0,0.0,0.0,0.1
1446036458838648578,28,1446036458835596084,robocape,3.65024173334,13.5204648196,3.65024173334,0.0,10.0,0.0,0.0,0.0,10.0,0.0,0.0,0.0,10.0,0.00572579634367,0.0268979270098,0.00692421883421,1.0,0.0,0.0,0.0,1.0,0.0,0.0,0.0,1.0,-0.0239501953125,0.70892578125,10.0231567383,0.1,0.0,0.0,0.0,0.1,0.0,0.0,0.0,0.1
1446036458871508245,29,1446036458867928028,robocape,3.64922348921,13.5411183771,3.64922348921,0.0,10.0,0.0,0.0,0.0,10.0,0.0,0.0,0.0,10.0,0.00519316412565,0.0264984528463,0.00692421883421,1.0,0.0,0.0,0.0,1.0,0.0,0.0,0.0,1.0,-0.0155676269531,0.686173095703,10.0339343262,0.1,0.0,0.0,0.0,0.1,0.0,0.0,0.0,0.1
1446036458905716286,30,1446036458902534961,robocape,3.64872288727,13.5609883966,3.64872288727,0.0,10.0,0.0,0.0,0.0,10.0,0.0,0.0,0.0,10.0,0.00545948023466,0.0260989786828,0.00692421883421,1.0,0.0,0.0,0.0,1.0,0.0,0.0,0.0,1.0,-0.0227526855469,0.689765625,10.0339343262,0.1,0.0,0.0,0.0,0.1,0.0,0.0,0.0,0.1
1446036458938342286,31,1446036458935230970,robocape,3.65013865731,13.5817822661,3.65013865731,0.0,10.0,0.0,0.0,0.0,10.0,0.0,0.0,0.0,10.0,0.00639158661619,0.0266316109008,0.00719053494321,1.0,0.0,0.0,0.0,1.0,0.0,0.0,0.0,1.0,-0.0179626464844,0.700543212891,10.0075891113,0.1,0.0,0.0,0.0,0.1,0.0,0.0,0.0,0.1
1446036458972594703,32,1446036458969188928,robocape,3.65251745117,13.6020632373,3.65251745117,0.0,10.0,0.0,0.0,0.0,10.0,0.0,0.0,0.0,10.0,0.00692421883421,0.0263652947918,0.00705737688871,1.0,0.0,0.0,0.0,1.0,0.0,0.0,0.0,1.0,-0.01916015625,0.700543212891,10.0506994629,0.1,0.0,0.0,0.0,0.1,0.0,0.0,0.0,0.1
1446036459009394787,33,1446036459006027936,robocape,3.65406669583,13.6222475141,3.65406669583,0.0,10.0,0.0,0.0,0.0,10.0,0.0,0.0,0.0,10.0,0.00639158661619,0.0263652947918,0.00745685105222,1.0,0.0,0.0,0.0,1.0,0.0,0.0,0.0,1.0,-0.0263452148438,0.704135742188,10.0435144043,0.1,0.0,0.0,0.0,0.1,0.0,0.0,0.0,0.1
1446036459039443828,34,1446036459036039113,robocape,3.65551151817,13.642691668,3.65551151817,0.0,10.0,0.0,0.0,0.0,10.0,0.0,0.0,0.0,10.0,0.00639158661619,0.0264984528463,0.00719053494321,1.0,0.0,0.0,0.0,1.0,0.0,0.0,0.0,1.0,-0.0203576660156,0.698148193359,10.0279467773,0.1,0.0,0.0,0.0,0.1,0.0,0.0,0.0,0.1
1446036459075675203,35,1446036459071759939,robocape,3.65563823897,13.6628747442,3.65563823897,0.0,10.0,0.0,0.0,0.0,10.0,0.0,0.0,0.0,10.0,0.00572579634367,0.0263652947918,0.00705737688871,1.0,0.0,0.0,0.0,1.0,0.0,0.0,0.0,1.0,-0.00119750976563,0.699345703125,10.024354248,0.1,0.0,0.0,0.0,0.1,0.0,0.0,0.0,0.1
1446036459108593620,36,1446036459105120897,robocape,3.65667778572,13.6833173011,3.65667778572,0.0,10.0,0.0,0.0,0.0,10.0,0.0,0.0,0.0,10.0,0.00625842856169,0.0264984528463,0.0067910607797,1.0,0.0,0.0,0.0,1.0,0.0,0.0,0.0,1.0,-0.0119750976563,0.704135742188,10.0219592285,0.1,0.0,0.0,0.0,0.1,0.0,0.0,0.0,0.1
1446036459141057037,37,1446036459136087894,robocape,3.65942593938,13.7034114126,3.65942593938,0.0,10.0,0.0,0.0,0.0,10.0,0.0,0.0,0.0,10.0,0.00705737688871,0.0263652947918,0.00719053494321,1.0,0.0,0.0,0.0,1.0,0.0,0.0,0.0,1.0,-0.0215551757813,0.701740722656,10.0279467773,0.1,0.0,0.0,0.0,0.1,0.0,0.0,0.0,0.1
1446036459176336287,38,1446036459172728061,robocape,3.6622456109,13.7239508931,3.6622456109,0.0,10.0,0.0,0.0,0.0,10.0,0.0,0.0,0.0,10.0,0.00705737688871,0.0266316109008,0.00732369299772,1.0,0.0,0.0,0.0,1.0,0.0,0.0,0.0,1.0,-0.0347277832031,0.699345703125,10.0255517578,0.1,0.0,0.0,0.0,0.1,0.0,0.0,0.0,0.1
1446036459207295245,39,1446036459204091072,robocape,3.66589101881,13.7441845883,3.66589101881,0.0,10.0,0.0,0.0,0.0,10.0,0.0,0.0,0.0,10.0,0.00745685105222,0.0264984528463,0.00745685105222,1.0,0.0,0.0,0.0,1.0,0.0,0.0,0.0,1.0,-0.0263452148438,0.686173095703,10.0590820312,0.1,0.0,0.0,0.0,0.1,0.0,0.0,0.0,0.1
1446036459240310328,40,1446036459237076997,robocape,3.6695488357,13.7651341489,3.6695488357,0.0,10.0,0.0,0.0,0.0,10.0,0.0,0.0,0.0,10.0,0.00745685105222,0.0268979270098,0.00745685105222,1.0,0.0,0.0,0.0,1.0,0.0,0.0,0.0,1.0,-0.0347277832031,0.706530761719,10.0291442871,0.1,0.0,0.0,0.0,0.1,0.0,0.0,0.0,0.1
1446036459277776703,41,1446036459273500919,robocape,3.67220198987,13.7865483353,3.67220198987,0.0,10.0,0.0,0.0,0.0,10.0,0.0,0.0,0.0,10.0,0.00692421883421,0.0271642431188,0.00745685105222,1.0,0.0,0.0,0.0,1.0,0.0,0.0,0.0,1.0,-0.0263452148438,0.705333251953,10.039921875,0.1,0.0,0.0,0.0,0.1,0.0,0.0,0.0,0.1
1446036459308726203,42,1446036459304651975,robocape,3.67518507619,13.8072410966,3.67518507619,0.0,10.0,0.0,0.0,0.0,10.0,0.0,0.0,0.0,10.0,0.00719053494321,0.0267647689553,0.00705737688871,1.0,0.0,0.0,0.0,1.0,0.0,0.0,0.0,1.0,-0.028740234375,0.692160644531,10.0327368164,0.1,0.0,0.0,0.0,0.1,0.0,0.0,0.0,0.1
1446036459341170495,43,1446036459337608098,robocape,3.67671095691,13.8276289604,3.67671095691,0.0,10.0,0.0,0.0,0.0,10.0,0.0,0.0,0.0,10.0,0.00639158661619,0.0266316109008,0.00719053494321,1.0,0.0,0.0,0.0,1.0,0.0,0.0,0.0,1.0,-0.0119750976563,0.696950683594,10.0255517578,0.1,0.0,0.0,0.0,0.1,0.0,0.0,0.0,0.1
1446036459374638620,44,1446036459370913028,robocape,3.6775502095,13.8484610424,3.6775502095,0.0,10.0,0.0,0.0,0.0,10.0,0.0,0.0,0.0,10.0,0.00599211245268,0.0268979270098,0.00732369299772,1.0,0.0,0.0,0.0,1.0,0.0,0.0,0.0,1.0,-0.0119750976563,0.692160644531,10.0363293457,0.1,0.0,0.0,0.0,0.1,0.0,0.0,0.0,0.1
1446036459409359037,45,1446036459404495000,robocape,3.68028735191,13.8682146008,3.68028735191,0.0,10.0,0.0,0.0,0.0,10.0,0.0,0.0,0.0,10.0,0.00692421883421,0.0263652947918,0.00759000910673,1.0,0.0,0.0,0.0,1.0,0.0,0.0,0.0,1.0,-0.0119750976563,0.686173095703,10.0255517578,0.1,0.0,0.0,0.0,0.1,0.0,0.0,0.0,0.1
1446036459441123412,46,1446036459437674045,robocape,3.68412083029,13.8879996741,3.68412083029,0.0,10.0,0.0,0.0,0.0,10.0,0.0,0.0,0.0,10.0,0.00759000910673,0.0263652947918,0.00719053494321,1.0,0.0,0.0,0.0,1.0,0.0,0.0,0.0,1.0,-0.00838256835938,0.704135742188,10.0279467773,0.1,0.0,0.0,0.0,0.1,0.0,0.0,0.0,0.1
1446036459475159287,47,1446036459471860885,robocape,3.68676028313,13.9087301719,3.68676028313,0.0,10.0,0.0,0.0,0.0,10.0,0.0,0.0,0.0,10.0,0.00692421883421,0.0268979270098,0.00732369299772,1.0,0.0,0.0,0.0,1.0,0.0,0.0,0.0,1.0,-0.0119750976563,0.695753173828,10.0123791504,0.1,0.0,0.0,0.0,0.1,0.0,0.0,0.0,0.1
1446036459508610162,48,1446036459505336999,robocape,3.68865317862,13.9287635064,3.68865317862,0.0,10.0,0.0,0.0,0.0,10.0,0.0,0.0,0.0,10.0,0.0066579027252,0.0264984528463,0.0067910607797,1.0,0.0,0.0,0.0,1.0,0.0,0.0,0.0,1.0,-0.0119750976563,0.710123291016,10.0087866211,0.1,0.0,0.0,0.0,0.1,0.0,0.0,0.0,0.1
1446036459541450703,49,1446036459538297891,robocape,3.68901864273,13.9484286644,3.68901864273,0.0,10.0,0.0,0.0,0.0,10.0,0.0,0.0,0.0,10.0,0.00572579634367,0.0263652947918,0.00732369299772,1.0,0.0,0.0,0.0,1.0,0.0,0.0,0.0,1.0,-0.0251477050781,0.694555664063,10.0219592285,0.1,0.0,0.0,0.0,0.1,0.0,0.0,0.0,0.1
1446036459573899995,50,1446036459570642948,robocape,3.68932994416,13.9673339602,3.68932994416,0.0,10.0,0.0,0.0,0.0,10.0,0.0,0.0,0.0,10.0,0.00572579634367,0.0259658206283,0.00719053494321,1.0,0.0,0.0,0.0,1.0,0.0,0.0,0.0,1.0,-0.0155676269531,0.692160644531,10.0291442871,0.1,0.0,0.0,0.0,0.1,0.0,0.0,0.0,0.1
1446036459607709287,51,1446036459604603052,robocape,3.69060071855,13.9866424617,3.69060071855,0.0,10.0,0.0,0.0,0.0,10.0,0.0,0.0,0.0,10.0,0.00612527050718,0.0262321367373,0.00759000910673,1.0,0.0,0.0,0.0,1.0,0.0,0.0,0.0,1.0,-0.0275427246094,0.689765625,10.0578845215,0.1,0.0,0.0,0.0,0.1,0.0,0.0,0.0,0.1
1446036459641055745,52,1446036459638026952,robocape,3.69245867812,14.0068953433,3.69245867812,0.0,10.0,0.0,0.0,0.0,10.0,0.0,0.0,0.0,10.0,0.00639158661619,0.0267647689553,0.00772316716123,1.0,0.0,0.0,0.0,1.0,0.0,0.0,0.0,1.0,-0.0215551757813,0.702938232422,10.0291442871,0.1,0.0,0.0,0.0,0.1,0.0,0.0,0.0,0.1
1446036459674588287,53,1446036459671485900,robocape,3.69369057509,14.0264083504,3.69369057509,0.0,10.0,0.0,0.0,0.0,10.0,0.0,0.0,0.0,10.0,0.00612527050718,0.0263652947918,0.00745685105222,1.0,0.0,0.0,0.0,1.0,0.0,0.0,0.0,1.0,-0.0215551757813,0.704135742188,10.0051940918,0.1,0.0,0.0,0.0,0.1,0.0,0.0,0.0,0.1
1446036459707388162,54,1446036459704133987,robocape,3.71392321243,14.0417525618,3.71392321243,0.0,10.0,0.0,0.0,0.0,10.0,0.0,0.0,0.0,10.0,0.0122505410144,0.0255663464648,0.0235689756472,1.0,0.0,0.0,0.0,1.0,0.0,0.0,0.0,1.0,0.0395178222656,1.04183349609,10.0363293457,0.1,0.0,0.0,0.0,0.1,0.0,0.0,0.0,0.1
1446036459741026287,55,1446036459737824916,robocape,3.41900507366,14.0280394302,3.41900507366,0.0,10.0,0.0,0.0,0.0,10.0,0.0,0.0,0.0,10.0,-0.206128668372,0.0286289817184,0.244478188069,1.0,0.0,0.0,0.0,1.0,0.0,0.0,0.0,1.0,-0.119750976563,0.694555664063,9.91059082031,0.1,0.0,0.0,0.0,0.1,0.0,0.0,0.0,0.1
1446036459773504245,56,1446036459770255088,robocape,3.13263476576,13.9834281207,3.13263476576,0.0,10.0,0.0,0.0,0.0,10.0,0.0,0.0,0.0,10.0,-0.226235534602,0.0194410759576,0.347143048092,1.0,0.0,0.0,0.0,1.0,0.0,0.0,0.0,1.0,0.0275427246094,-0.140108642578,9.97046630859,0.1,0.0,0.0,0.0,0.1,0.0,0.0,0.0,0.1
1446036459807427954,57,1446036459804311037,robocape,3.21764466746,13.9476787055,3.21764466746,0.0,10.0,0.0,0.0,0.0,10.0,0.0,0.0,0.0,10.0,-0.0105194863058,0.017177389031,0.261122944882,1.0,0.0,0.0,0.0,1.0,0.0,0.0,0.0,1.0,-0.00119750976563,-1.00830322266,10.0111816406,0.1,0.0,0.0,0.0,0.1,0.0,0.0,0.0,0.1
1446036459839297662,58,1446036459836231946,robocape,3.71042112066,13.9194045661,3.71042112066,0.0,10.0,0.0,0.0,0.0,10.0,0.0,0.0,0.0,10.0,0.224238163785,0.0154463343225,0.176301264163,1.0,0.0,0.0,0.0,1.0,0.0,0.0,0.0,1.0,0.067060546875,-0.906514892578,9.99202148437,0.1,0.0,0.0,0.0,0.1,0.0,0.0,0.0,0.1
1446036459872130870,59,1446036459869046926,robocape,4.6736818503,13.9026019383,4.6736818503,0.0,10.0,0.0,0.0,0.0,10.0,0.0,0.0,0.0,10.0,0.498676914117,0.0130494893414,0.0640490242164,1.0,0.0,0.0,0.0,1.0,0.0,0.0,0.0,1.0,-0.274229736328,-0.378413085938,10.0351318359,0.1,0.0,0.0,0.0,0.1,0.0,0.0,0.0,0.1
1446036459905530495,60,1446036459901938915,robocape,6.03995690709,13.9337063645,6.03995690709,0.0,10.0,0.0,0.0,0.0,10.0,0.0,0.0,0.0,10.0,0.775911983595,0.00825579937925,-0.211454990552,1.0,0.0,0.0,0.0,1.0,0.0,0.0,0.0,1.0,-0.505349121094,2.21659057617,10.2578686523,0.1,0.0,0.0,0.0,0.1,0.0,0.0,0.0,0.1
1446036459939217537,61,1446036459936141967,robocape,6.80524547036,13.9783138397,6.80524547036,0.0,10.0,0.0,0.0,0.0,10.0,0.0,0.0,0.0,10.0,0.441818424844,0.0231695014837,-0.125168571234,1.0,0.0,0.0,0.0,1.0,0.0,0.0,0.0,1.0,0.262254638672,3.05125488281,9.95370117188,0.1,0.0,0.0,0.0,0.1,0.0,0.0,0.0,0.1
1446036459971730370,62,1446036459968630075,robocape,6.85670296649,14.0154394188,6.85670296649,0.0,10.0,0.0,0.0,0.0,10.0,0.0,0.0,0.0,10.0,0.0411458388417,0.0331563555715,-0.0131826473959,1.0,0.0,0.0,0.0,1.0,0.0,0.0,0.0,1.0,0.379610595703,2.78660522461,9.79443237305,0.1,0.0,0.0,0.0,0.1,0.0,0.0,0.0,0.1
1446036460004996995,63,1446036460001858949,robocape,6.48342778349,14.0495908122,6.48342778349,0.0,10.0,0.0,0.0,0.0,10.0,0.0,0.0,0.0,10.0,-0.188818121287,0.0347542522255,0.0146473859954,1.0,0.0,0.0,0.0,1.0,0.0,0.0,0.0,1.0,0.401165771484,2.49201782227,9.85311035156,0.1,0.0,0.0,0.0,0.1,0.0,0.0,0.0,0.1
1446036460037937079,64,1446036460034723997,robocape,5.91843589255,14.0911807945,5.91843589255,0.0,10.0,0.0,0.0,0.0,10.0,0.0,0.0,0.0,10.0,-0.283360339984,0.0347542522255,-0.0137152796139,1.0,0.0,0.0,0.0,1.0,0.0,0.0,0.0,1.0,0.0886157226563,1.46814697266,9.93693603516,0.1,0.0,0.0,0.0,0.1,0.0,0.0,0.0,0.1
1446036460070750412,65,1446036460067724943,robocape,5.33112428832,14.1428291518,5.33112428832,0.0,10.0,0.0,0.0,0.0,10.0,0.0,0.0,0.0,10.0,-0.28589034302,0.0355532005526,-0.0545948023466,1.0,0.0,0.0,0.0,1.0,0.0,0.0,0.0,1.0,-0.0131726074219,0.825084228516,10.0339343262,0.1,0.0,0.0,0.0,0.1,0.0,0.0,0.0,0.1
1446036460105474287,66,1446036460102410078,robocape,4.97597744294,14.2023360308,4.97597744294,0.0,10.0,0.0,0.0,0.0,10.0,0.0,0.0,0.0,10.0,-0.152865446571,0.0352868844435,-0.102664860023,1.0,0.0,0.0,0.0,1.0,0.0,0.0,0.0,1.0,-0.0155676269531,0.1149609375,10.1309326172,0.1,0.0,0.0,0.0,0.1,0.0,0.0,0.0,0.1
1446036460137584454,67,1446036460134272098,robocape,4.86218085888,14.2887618332,4.86218085888,0.0,10.0,0.0,0.0,0.0,10.0,0.0,0.0,0.0,10.0,0.0202400242846,0.0294279300454,-0.295877197108,1.0,0.0,0.0,0.0,1.0,0.0,0.0,0.0,1.0,-0.183218994141,0.417930908203,9.99202148437,0.1,0.0,0.0,0.0,0.1,0.0,0.0,0.0,0.1
1446036460171025495,68,1446036460167962074,robocape,4.88108756256,14.3704207943,4.88108756256,0.0,10.0,0.0,0.0,0.0,10.0,0.0,0.0,0.0,10.0,0.109056446639,0.0190416017941,-0.372975710666,1.0,0.0,0.0,0.0,1.0,0.0,0.0,0.0,1.0,-0.0335302734375,1.15559692383,9.98004638672,0.1,0.0,0.0,0.0,0.1,0.0,0.0,0.0,0.1
1446036460204442537,69,1446036460201327085,robocape,4.67382246139,14.4299376124,4.67382246139,0.0,10.0,0.0,0.0,0.0,10.0,0.0,0.0,0.0,10.0,-0.0139815957229,0.00985369603329,-0.352735686381,1.0,0.0,0.0,0.0,1.0,0.0,0.0,0.0,1.0,-0.00598754882813,2.17108520508,9.86149291992,0.1,0.0,0.0,0.0,0.1,0.0,0.0,0.0,0.1
1446036460237987079,70,1446036460234673976,robocape,4.06596785959,14.4615729409,4.06596785959,0.0,10.0,0.0,0.0,0.0,10.0,0.0,0.0,0.0,10.0,-0.243146607524,0.00479368996214,-0.274971382551,1.0,0.0,0.0,0.0,1.0,0.0,0.0,0.0,1.0,0.00359252929688,2.26928100586,9.86748046875,0.1,0.0,0.0,0.0,0.1,0.0,0.0,0.0,0.1
1446036460278136662,71,1446036460269102096,robocape,2.96656176849,14.4564250849,2.96656176849,0.0,10.0,0.0,0.0,0.0,10.0,0.0,0.0,0.0,10.0,-0.554736455064,0.0067910607797,-0.0608532309083,1.0,0.0,0.0,0.0,1.0,0.0,0.0,0.0,1.0,-0.161663818359,1.88009033203,10.0016015625,0.1,0.0,0.0,0.0,0.1,0.0,0.0,0.0,0.1
1446036460304868329,72,1446036460301810026,robocape,1.50896080997,14.4140690813,1.50896080997,0.0,10.0,0.0,0.0,0.0,10.0,0.0,0.0,0.0,10.0,-0.808269390839,0.00452737385313,0.196541288448,1.0,0.0,0.0,0.0,1.0,0.0,0.0,0.0,1.0,-0.340092773437,0.947230224609,9.86987548828,0.1,0.0,0.0,0.0,0.1,0.0,0.0,0.0,0.1
1446036460337889662,73,1446036460334733009,robocape,0.0212152997023,14.3175360437,0.0212152997023,0.0,10.0,0.0,0.0,0.0,10.0,0.0,0.0,0.0,10.0,-0.796817798152,-0.0316916169719,0.082691151847,1.0,0.0,0.0,0.0,1.0,0.0,0.0,0.0,1.0,-0.341290283203,-1.78309204102,10.0566870117,0.1,0.0,0.0,0.0,0.1,0.0,0.0,0.0,0.1
1446036460370685204,74,1446036460367649078,robocape,-1.03289509337,14.2960750222,-1.03289509337,0.0,10.0,0.0,0.0,0.0,10.0,0.0,0.0,0.0,10.0,-0.57324542464,0.00745685105222,0.0918790576077,1.0,0.0,0.0,0.0,1.0,0.0,0.0,0.0,1.0,-0.0610729980469,-0.437091064453,10.0722546387,0.1,0.0,0.0,0.0,0.1,0.0,0.0,0.0,0.1
1446036460404230204,75,1446036460401205062,robocape,-1.77509522751,14.2735600702,-1.77509522751,0.0,10.0,0.0,0.0,0.0,10.0,0.0,0.0,0.0,10.0,-0.390153099697,0.00585895439817,0.0101200121423,1.0,0.0,0.0,0.0,1.0,0.0,0.0,0.0,1.0,0.296982421875,-1.17236206055,9.99321899414,0.1,0.0,0.0,0.0,0.1,0.0,0.0,0.0,0.1
1446036460437665954,76,1446036460434539079,robocape,-2.12188932134,14.2682274473,-2.12188932134,0.0,10.0,0.0,0.0,0.0,10.0,0.0,0.0,0.0,10.0,-0.179497057471,0.0145142279409,-0.00559263828917,1.0,0.0,0.0,0.0,1.0,0.0,0.0,0.0,1.0,-0.105380859375,-1.65735351563,10.0016015625,0.1,0.0,0.0,0.0,0.1,0.0,0.0,0.0,0.1
1446036460470732662,77,1446036460467741966,robocape,-2.06272384447,14.2895876569,-2.06272384447,0.0,10.0,0.0,0.0,0.0,10.0,0.0,0.0,0.0,10.0,0.0300937203179,0.0275637172823,0.0067910607797,1.0,0.0,0.0,0.0,1.0,0.0,0.0,0.0,1.0,0.240699462891,-1.76872192383,10.024354248,0.1,0.0,0.0,0.0,0.1,0.0,0.0,0.0,0.1
1446036460504394162,78,1446036460501321077,robocape,-1.64416862672,14.3368525208,-1.64416862672,0.0,10.0,0.0,0.0,0.0,10.0,0.0,0.0,0.0,10.0,0.225303428221,0.0406132066237,-0.0189084437396,1.0,0.0,0.0,0.0,1.0,0.0,0.0,0.0,1.0,0.00359252929688,-0.734073486328,10.0566870117,0.1,0.0,0.0,0.0,0.1,0.0,0.0,0.0,0.1
1446036460539206912,79,1446036460536086082,robocape,-1.10142273705,14.3936999316,-1.10142273705,0.0,10.0,0.0,0.0,0.0,10.0,0.0,0.0,0.0,10.0,0.295078248781,0.0452737385313,-0.0355532005526,1.0,0.0,0.0,0.0,1.0,0.0,0.0,0.0,1.0,0.104183349609,-0.219144287109,10.0674645996,0.1,0.0,0.0,0.0,0.1,0.0,0.0,0.0,0.1
1446036460570943871,80,1446036460567912101,robocape,-0.551687485059,14.4221272154,-0.551687485059,0.0,10.0,0.0,0.0,0.0,10.0,0.0,0.0,0.0,10.0,0.320111963028,0.0291616139364,-0.1182443524,1.0,0.0,0.0,0.0,1.0,0.0,0.0,0.0,1.0,-0.0143701171875,0.283809814453,10.0471069336,0.1,0.0,0.0,0.0,0.1,0.0,0.0,0.0,0.1
1446036460604424246,81,1446036460600948095,robocape,-0.0721299414073,14.4355774844,-0.0721299414073,0.0,10.0,0.0,0.0,0.0,10.0,0.0,0.0,0.0,10.0,0.316783011665,0.0181094954125,-0.248606087759,1.0,0.0,0.0,0.0,1.0,0.0,0.0,0.0,1.0,-0.264649658203,0.756826171875,9.98483642578,0.1,0.0,0.0,0.0,0.1,0.0,0.0,0.0,0.1
1446036460637695496,82,1446036460634613990,robocape,0.108897429948,14.4400614691,0.108897429948,0.0,10.0,0.0,0.0,0.0,10.0,0.0,0.0,0.0,10.0,0.148870704935,0.0134489635049,-0.202133926737,1.0,0.0,0.0,0.0,1.0,0.0,0.0,0.0,1.0,-0.207169189453,1.61424316406,10.0183666992,0.1,0.0,0.0,0.0,0.1,0.0,0.0,0.0,0.1
1446036460670794829,83,1446036460667714118,robocape,-0.226204393667,14.4388517435,-0.226204393667,0.0,10.0,0.0,0.0,0.0,10.0,0.0,0.0,0.0,10.0,-0.171241258092,0.015313176268,-0.0067910607797,1.0,0.0,0.0,0.0,1.0,0.0,0.0,0.0,1.0,-0.173638916016,1.58191040039,10.039921875,0.1,0.0,0.0,0.0,0.1,0.0,0.0,0.0,0.1
1446036460704578412,84,1446036460701086044,robocape,-1.02149861954,14.4265515623,-1.02149861954,0.0,10.0,0.0,0.0,0.0,10.0,0.0,0.0,0.0,10.0,-0.449941066169,0.0118510668509,0.137818586412,1.0,0.0,0.0,0.0,1.0,0.0,0.0,0.0,1.0,-0.0359252929688,1.51245483398,9.98244140625,0.1,0.0,0.0,0.0,0.1,0.0,0.0,0.0,0.1
1446036460737590204,85,1446036460734414100,robocape,-2.02434645555,14.4568501148,-2.02434645555,0.0,10.0,0.0,0.0,0.0,10.0,0.0,0.0,0.0,10.0,-0.553937506736,0.0336889877895,0.115181717146,1.0,0.0,0.0,0.0,1.0,0.0,0.0,0.0,1.0,-0.195194091797,-0.821491699219,10.1057849121,0.1,0.0,0.0,0.0,0.1,0.0,0.0,0.0,0.1
1446036460770678829,86,1446036460767556905,robocape,-2.76826452384,14.4431944088,-2.76826452384,0.0,10.0,0.0,0.0,0.0,10.0,0.0,0.0,0.0,10.0,-0.40413469542,0.0099868540878,0.0555269087282,1.0,0.0,0.0,0.0,1.0,0.0,0.0,0.0,1.0,0.203576660156,-1.35198852539,9.96088623047,0.1,0.0,0.0,0.0,0.1,0.0,0.0,0.0,0.1
1446036460804097746,87,1446036460800904989,robocape,-3.01571547522,14.4432041286,-3.01571547522,0.0,10.0,0.0,0.0,0.0,10.0,0.0,0.0,0.0,10.0,-0.123703832634,0.017976337358,-0.0243679239742,1.0,0.0,0.0,0.0,1.0,0.0,0.0,0.0,1.0,0.253872070313,-1.69926635742,9.97405883789,0.1,0.0,0.0,0.0,0.1,0.0,0.0,0.0,0.1
1446036460837648454,88,1446036460834315061,robocape,-3.00391145546,14.4621226939,-3.00391145546,0.0,10.0,0.0,0.0,0.0,10.0,0.0,0.0,0.0,10.0,0.00745685105222,0.0267647689553,-0.00599211245268,1.0,0.0,0.0,0.0,1.0,0.0,0.0,0.0,1.0,0.0910107421875,-1.23942260742,10.019564209,0.1,0.0,0.0,0.0,0.1,0.0,0.0,0.0,0.1
1446036460870818704,89,1446036460867465019,robocape,-2.76517000715,14.5024497058,-2.76517000715,0.0,10.0,0.0,0.0,0.0,10.0,0.0,0.0,0.0,10.0,0.123038042362,0.0370179391521,0.00812264132474,1.0,0.0,0.0,0.0,1.0,0.0,0.0,0.0,1.0,0.147293701172,-1.04183349609,10.0506994629,0.1,0.0,0.0,0.0,0.1,0.0,0.0,0.0,0.1
1446036460904391496,90,1446036460901201963,robocape,-2.40919226236,14.5545842319,-2.40919226236,0.0,10.0,0.0,0.0,0.0,10.0,0.0,0.0,0.0,10.0,0.180562321907,0.0426105774413,0.0246342400832,1.0,0.0,0.0,0.0,1.0,0.0,0.0,0.0,1.0,0.0646655273438,-0.455053710938,10.0506994629,0.1,0.0,0.0,0.0,0.1,0.0,0.0,0.0,0.1
1446036460937760621,91,1446036460934581995,robocape,-2.05895794608,14.6054503023,-2.05895794608,0.0,10.0,0.0,0.0,0.0,10.0,0.0,0.0,0.0,10.0,0.17057546782,0.0416784710597,0.0527305895836,1.0,0.0,0.0,0.0,1.0,0.0,0.0,0.0,1.0,0.0359252929688,-0.119750976563,10.0075891113,0.1,0.0,0.0,0.0,0.1,0.0,0.0,0.0,0.1
1446036460970911496,92,1446036460967771053,robocape,-1.72286782519,14.6512409697,-1.72286782519,0.0,10.0,0.0,0.0,0.0,10.0,0.0,0.0,0.0,10.0,0.174037577237,0.0398142582967,0.0119842249054,1.0,0.0,0.0,0.0,1.0,0.0,0.0,0.0,1.0,-0.0718505859375,0.0467028808594,10.0291442871,0.1,0.0,0.0,0.0,0.1,0.0,0.0,0.0,0.1
1446036461004680162,93,1446036461001264095,robocape,-1.521369408,14.6876045285,-1.521369408,0.0,10.0,0.0,0.0,0.0,10.0,0.0,0.0,0.0,10.0,0.10053433115,0.035153726389,0.0242347659197,1.0,0.0,0.0,0.0,1.0,0.0,0.0,0.0,1.0,-0.146096191406,0.523311767578,10.0518969727,0.1,0.0,0.0,0.0,0.1,0.0,0.0,0.0,0.1
1446036461037471371,94,1446036461034413099,robocape,-1.60115002558,14.7108968069,-1.60115002558,0.0,10.0,0.0,0.0,0.0,10.0,0.0,0.0,0.0,10.0,-0.0709732430506,0.0284958236638,0.116646455745,1.0,0.0,0.0,0.0,1.0,0.0,0.0,0.0,1.0,-0.117355957031,0.433498535156,10.0818347168,0.1,0.0,0.0,0.0,0.1,0.0,0.0,0.0,0.1
1446036461070687246,95,1446036461067670106,robocape,-1.80320983505,14.7296891518,-1.80320983505,0.0,10.0,0.0,0.0,0.0,10.0,0.0,0.0,0.0,10.0,-0.147272808281,0.0259658206283,0.162585984549,1.0,0.0,0.0,0.0,1.0,0.0,0.0,0.0,1.0,-0.0167651367188,-0.354462890625,10.0495019531,0.1,0.0,0.0,0.0,0.1,0.0,0.0,0.0,0.1
1446036461104255288,96,1446036461101038932,robocape,-1.90712191548,14.7502239677,-1.90712191548,0.0,10.0,0.0,0.0,0.0,10.0,0.0,0.0,0.0,10.0,-0.0952080089703,0.0264984528463,0.159523349296,1.0,0.0,0.0,0.0,1.0,0.0,0.0,0.0,1.0,0.0850231933594,-0.946032714844,10.0291442871,0.1,0.0,0.0,0.0,0.1,0.0,0.0,0.0,0.1
1446036461137806621,97,1446036461134416103,robocape,-1.77647088454,14.7834374079,-1.77647088454,0.0,10.0,0.0,0.0,0.0,10.0,0.0,0.0,0.0,10.0,0.0368847810976,0.0331563555715,0.124902255125,1.0,0.0,0.0,0.0,1.0,0.0,0.0,0.0,1.0,0.164058837891,-1.26337280273,10.0375268555,0.1,0.0,0.0,0.0,0.1,0.0,0.0,0.0,0.1
1446036461171397621,98,1446036461168342113,robocape,-1.3795815956,14.8329587023,-1.3795815956,0.0,10.0,0.0,0.0,0.0,10.0,0.0,0.0,0.0,10.0,0.186288118251,0.0419447871687,0.0885501062451,1.0,0.0,0.0,0.0,1.0,0.0,0.0,0.0,1.0,0.0598754882813,-0.887354736328,10.003996582,0.1,0.0,0.0,0.0,0.1,0.0,0.0,0.0,0.1
1446036461205532496,99,1446036461202318906,robocape,-0.789338520699,14.8865041646,-0.789338520699,0.0,10.0,0.0,0.0,0.0,10.0,0.0,0.0,0.0,10.0,0.301469835397,0.0442084740953,0.0375505713701,1.0,0.0,0.0,0.0,1.0,0.0,0.0,0.0,1.0,0.101788330078,-0.196391601563,10.0734521484,0.1,0.0,0.0,0.0,0.1,0.0,0.0,0.0,0.1
1446036461239194704,100,1446036461235775947,robocape,-0.288273268086,14.9196281448,-0.288273268086,0.0,10.0,0.0,0.0,0.0,10.0,0.0,0.0,0.0,10.0,0.25100293274,0.0342216200075,0.0536626959651,1.0,0.0,0.0,0.0,1.0,0.0,0.0,0.0,1.0,-0.196391601563,0.580792236328,9.98723144531,0.1,0.0,0.0,0.0,0.1,0.0,0.0,0.0,0.1
1446036461276950579,101,1446036461269202947,robocape,0.128005247477,14.9469929473,0.128005247477,0.0,10.0,0.0,0.0,0.0,10.0,0.0,0.0,0.0,10.0,0.214917099969,0.0311589847539,0.0237021337017,1.0,0.0,0.0,0.0,1.0,0.0,0.0,0.0,1.0,-0.197589111328,0.353265380859,10.1177600098,0.1,0.0,0.0,0.0,0.1,0.0,0.0,0.0,0.1
1446036461306557663,102,1446036461303323984,robocape,0.504211600966,14.975582544,0.504211600966,0.0,10.0,0.0,0.0,0.0,10.0,0.0,0.0,0.0,10.0,0.215982364405,0.0296942461544,-0.0588558600908,1.0,0.0,0.0,0.0,1.0,0.0,0.0,0.0,1.0,-0.0886157226563,0.300574951172,10.0303417969,0.1,0.0,0.0,0.0,0.1,0.0,0.0,0.0,0.1
1446036461343665413,103,1446036461340281963,robocape,0.863406451074,15.0035316657,0.863406451074,0.0,10.0,0.0,0.0,0.0,10.0,0.0,0.0,0.0,10.0,0.223172899349,0.0268979270098,-0.118910142672,1.0,0.0,0.0,0.0,1.0,0.0,0.0,0.0,1.0,-0.0239501953125,0.465831298828,10.0291442871,0.1,0.0,0.0,0.0,0.1,0.0,0.0,0.0,0.1
1446036461372276621,104,1446036461369160890,robocape,1.11684354781,15.0276389318,1.11684354781,0.0,10.0,0.0,0.0,0.0,10.0,0.0,0.0,0.0,10.0,0.152998604625,0.0266316109008,-0.0615190211808,1.0,0.0,0.0,0.0,1.0,0.0,0.0,0.0,1.0,0.0227526855469,0.828676757813,10.0459094238,0.1,0.0,0.0,0.0,0.1,0.0,0.0,0.0,0.1
1446036461406273204,105,1446036461402787923,robocape,1.13280136846,15.0458533761,1.13280136846,0.0,10.0,0.0,0.0,0.0,10.0,0.0,0.0,0.0,10.0,0.0121173829599,0.0262321367373,0.00159789665405,1.0,0.0,0.0,0.0,1.0,0.0,0.0,0.0,1.0,0.0514929199219,0.674197998047,10.0351318359,0.1,0.0,0.0,0.0,0.1,0.0,0.0,0.0,0.1
1446036461441781288,106,1446036461436639070,robocape,1.05270769589,15.0670239094,1.05270769589,0.0,10.0,0.0,0.0,0.0,10.0,0.0,0.0,0.0,10.0,-0.0402137324602,0.0282295075548,0.00905474770627,1.0,0.0,0.0,0.0,1.0,0.0,0.0,0.0,1.0,-0.149688720703,0.596359863281,10.0375268555,0.1,0.0,0.0,0.0,0.1,0.0,0.0,0.0,0.1
1446036461474431204,107,1446036461471333026,robocape,0.888524952598,15.0944462955,0.888524952598,0.0,10.0,0.0,0.0,0.0,10.0,0.0,0.0,0.0,10.0,-0.085354312937,0.0318247750264,0.0126500151779,1.0,0.0,0.0,0.0,1.0,0.0,0.0,0.0,1.0,-1.23343505859,0.511336669922,10.3812121582,0.1,0.0,0.0,0.0,0.1,0.0,0.0,0.0,0.1
1446036461508208329,108,1446036461505007028,robocape,0.686287348027,15.1676447065,0.686287348027,0.0,10.0,0.0,0.0,0.0,10.0,0.0,0.0,0.0,10.0,-0.0994690667145,0.0555269087282,-0.0099868540878,1.0,0.0,0.0,0.0,1.0,0.0,0.0,0.0,1.0,-4.02962036133,0.404758300781,10.9153015137,0.1,0.0,0.0,0.0,0.1,0.0,0.0,0.0,0.1
1446036461542435746,109,1446036461538657903,robocape,0.368771261243,15.1988529599,0.368771261243,0.0,10.0,0.0,0.0,0.0,10.0,0.0,0.0,0.0,10.0,-0.157525978478,0.0331563555715,-0.0197073920666,1.0,0.0,0.0,0.0,1.0,0.0,0.0,0.0,1.0,-4.85590209961,0.104183349609,10.9835595703,0.1,0.0,0.0,0.0,0.1,0.0,0.0,0.0,0.1
1446036461574015121,110,1446036461570888042,robocape,0.0474518967004,15.1801664383,0.0474518967004,0.0,10.0,0.0,0.0,0.0,10.0,0.0,0.0,0.0,10.0,-0.146473859954,0.00545948023466,-0.0699079786146,1.0,0.0,0.0,0.0,1.0,0.0,0.0,0.0,1.0,-8.51908447266,0.628692626953,10.366842041,0.1,0.0,0.0,0.0,0.1,0.0,0.0,0.0,0.1
1446036461607266913,111,1446036461604239940,robocape,-0.467277502784,15.1111685019,-0.467277502784,0.0,10.0,0.0,0.0,0.0,10.0,0.0,0.0,0.0,10.0,-0.261522419046,-0.0195742340121,-0.0209058145571,1.0,0.0,0.0,0.0,1.0,0.0,0.0,0.0,1.0,-9.81119750977,-0.0790356445313,11.076965332,0.1,0.0,0.0,0.0,0.1,0.0,0.0,0.0,0.1
1446036461642115079,112,1446036461638431072,robocape,-1.0035069063,15.0888153256,-1.0035069063,0.0,10.0,0.0,0.0,0.0,10.0,0.0,0.0,0.0,10.0,-0.259391890174,0.00519316412565,-0.0729706138682,1.0,0.0,0.0,0.0,1.0,0.0,0.0,0.0,1.0,-9.14777709961,-0.255069580078,9.6219909668,0.1,0.0,0.0,0.0,0.1,0.0,0.0,0.0,0.1
1446036461675169038,113,1446036461671899080,robocape,-1.63627453595,14.7870129575,-1.63627453595,0.0,10.0,0.0,0.0,0.0,10.0,0.0,0.0,0.0,10.0,-0.30866037034,-0.142745434428,-0.085354312937,1.0,0.0,0.0,0.0,1.0,0.0,0.0,0.0,1.0,-4.76010131836,-0.880169677734,9.47828979492,0.1,0.0,0.0,0.0,0.1,0.0,0.0,0.0,0.1
1446036461709436496,114,1446036461705926895,robocape,-2.28186066648,14.6848894685,-2.28186066648,0.0,10.0,0.0,0.0,0.0,10.0,0.0,0.0,0.0,10.0,-0.309592476722,-0.0350205683345,-0.10879013053,1.0,0.0,0.0,0.0,1.0,0.0,0.0,0.0,1.0,-5.17443969727,0.322130126953,12.2385498047,0.1,0.0,0.0,0.0,0.1,0.0,0.0,0.0,0.1
1446036461741263288,115,1446036461737725973,robocape,-2.86626086272,14.4162269587,-2.86626086272,0.0,10.0,0.0,0.0,0.0,10.0,0.0,0.0,0.0,10.0,-0.256728729084,-0.120641197381,-0.196940762611,1.0,0.0,0.0,0.0,1.0,0.0,0.0,0.0,1.0,-10.8242907715,0.107775878906,10.2961889648,0.1,0.0,0.0,0.0,0.1,0.0,0.0,0.0,0.1
1446036461773379371,116,1446036461769850969,robocape,-3.510236433,14.2350800775,-3.510236433,0.0,10.0,0.0,0.0,0.0,10.0,0.0,0.0,0.0,10.0,-0.275370856714,-0.0699079786146,-0.250070826358,1.0,0.0,0.0,0.0,1.0,0.0,0.0,0.0,1.0,-6.61983398438,-0.176033935547,11.4481933594,0.1,0.0,0.0,0.0,0.1,0.0,0.0,0.0,0.1
1446036461807121538,117,1446036461803579092,robocape,-4.2032014305,13.9830580657,-4.2032014305,0.0,10.0,0.0,0.0,0.0,10.0,0.0,0.0,0.0,10.0,-0.30333404816,-0.104529072786,-0.250470300522,1.0,0.0,0.0,0.0,1.0,0.0,0.0,0.0,1.0,-2.65128662109,0.560434570312,10.6973547363,0.1,0.0,0.0,0.0,0.1,0.0,0.0,0.0,0.1
1446036461843070663,118,1446036461839993000,robocape,-4.86401491839,13.5362085351,-4.86401491839,0.0,10.0,0.0,0.0,0.0,10.0,0.0,0.0,0.0,10.0,-0.27909928224,-0.20279971701,-0.297075619598,1.0,0.0,0.0,0.0,1.0,0.0,0.0,0.0,1.0,-5.24030273438,-0.4215234375,10.0878222656,0.1,0.0,0.0,0.0,0.1,0.0,0.0,0.0,0.1
1446036461875252121,119,1446036461872148036,robocape,-5.54061635651,13.3172271837,-5.54061635651,0.0,10.0,0.0,0.0,0.0,10.0,0.0,0.0,0.0,10.0,-0.289485610492,-0.0782969360483,-0.290950349091,1.0,0.0,0.0,0.0,1.0,0.0,0.0,0.0,1.0,-3.59372680664,0.468226318359,9.07592651367,0.1,0.0,0.0,0.0,0.1,0.0,0.0,0.0,0.1
1446036461907304163,120,1446036461904007911,robocape,-6.3977118586,13.658900894,-6.3977118586,0.0,10.0,0.0,0.0,0.0,10.0,0.0,0.0,0.0,10.0,-0.383894671135,0.224238163785,-0.269778218425,1.0,0.0,0.0,0.0,1.0,0.0,0.0,0.0,1.0,-1.8010546875,0.484991455078,12.2241796875,0.1,0.0,0.0,0.0,0.1,0.0,0.0,0.0,0.1
1446036461940974788,121,1446036461937832117,robocape,-7.51500039117,13.8739203732,-7.51500039117,0.0,10.0,0.0,0.0,0.0,10.0,0.0,0.0,0.0,10.0,-0.532365901907,0.159390191241,-0.226235534602,1.0,0.0,0.0,0.0,1.0,0.0,0.0,0.0,1.0,0.608334960938,0.742456054688,9.39566162109,0.1,0.0,0.0,0.0,0.1,0.0,0.0,0.0,0.1
1446036461973883288,122,1446036461970377922,robocape,-8.9928982576,14.0632024205,-8.9928982576,0.0,10.0,0.0,0.0,0.0,10.0,0.0,0.0,0.0,10.0,-0.73676351557,0.147938598554,-0.17323862891,1.0,0.0,0.0,0.0,1.0,0.0,0.0,0.0,1.0,1.71483398438,0.591569824219,9.84233276367,0.1,0.0,0.0,0.0,0.1,0.0,0.0,0.0,0.1
1446036462007374330,123,1446036462004254102,robocape,-10.6846315077,14.1299399922,-10.6846315077,0.0,10.0,0.0,0.0,0.0,10.0,0.0,0.0,0.0,10.0,-0.829175205396,0.105061705004,-0.266049792899,1.0,0.0,0.0,0.0,1.0,0.0,0.0,0.0,1.0,-0.104183349609,0.239501953125,9.8483203125,0.1,0.0,0.0,0.0,0.1,0.0,0.0,0.0,0.1
1446036462039409413,124,1446036462036187887,robocape,-12.4852633023,14.3394270198,-12.4852633023,0.0,10.0,0.0,0.0,0.0,10.0,0.0,0.0,0.0,10.0,-0.876712630854,0.20133497841,-0.301070361233,1.0,0.0,0.0,0.0,1.0,0.0,0.0,0.0,1.0,1.51005981445,0.360450439453,12.5151745605,0.1,0.0,0.0,0.0,0.1,0.0,0.0,0.0,0.1
1446036462072626121,125,1446036462069586038,robocape,-14.4702054952,14.4530687839,-14.4702054952,0.0,10.0,0.0,0.0,0.0,10.0,0.0,0.0,0.0,10.0,-0.963132208227,0.178431793035,-0.36099148576,1.0,0.0,0.0,0.0,1.0,0.0,0.0,0.0,1.0,-0.316142578125,0.403560791016,8.24126220703,0.1,0.0,0.0,0.0,0.1,0.0,0.0,0.0,0.1
1446036462107287330,126,1446036462104228973,robocape,-16.7754556875,14.7384966085,-16.7754556875,0.0,10.0,0.0,0.0,0.0,10.0,0.0,0.0,0.0,10.0,-1.10174974297,0.324239862717,-0.468450035745,1.0,0.0,0.0,0.0,1.0,0.0,0.0,0.0,1.0,0.354462890625,-0.518521728516,11.899654541,0.1,0.0,0.0,0.0,0.1,0.0,0.0,0.0,0.1
1446036462139758080,127,1446036462136259078,robocape,-18.8623280449,14.3108146599,-18.8623280449,0.0,10.0,0.0,0.0,0.0,10.0,0.0,0.0,0.0,10.0,-0.941826919507,0.0276968753368,-0.728108242028,1.0,0.0,0.0,0.0,1.0,0.0,0.0,0.0,1.0,-0.997525634766,-0.943637695313,7.91194702148,0.1,0.0,0.0,0.0,0.1,0.0,0.0,0.0,0.1
1446036462172074121,128,1446036462169058084,robocape,-20.1758531968,13.7596822296,-20.1758531968,0.0,10.0,0.0,0.0,0.0,10.0,0.0,0.0,0.0,10.0,-0.388954677206,0.157525978478,-1.27392310744,1.0,0.0,0.0,0.0,1.0,0.0,0.0,0.0,1.0,-1.16996704102,-3.53744384766,10.5225183105,0.1,0.0,0.0,0.0,0.1,0.0,0.0,0.0,0.1
1446036462207334871,129,1446036462203975915,robocape,-20.2233059575,13.4047532997,-20.2233059575,0.0,10.0,0.0,0.0,0.0,10.0,0.0,0.0,0.0,10.0,0.453136859477,0.489089534193,-1.88724910648,1.0,0.0,0.0,0.0,1.0,0.0,0.0,0.0,1.0,0.374820556641,-2.06211181641,10.3776196289,0.1,0.0,0.0,0.0,0.1,0.0,0.0,0.0,0.1
1446036462242996330,130,1446036462239805936,robocape,-19.0270556398,12.8711879435,-19.0270556398,0.0,10.0,0.0,0.0,0.0,10.0,0.0,0.0,0.0,10.0,1.1367703113,0.425573142195,-2.07074090559,1.0,0.0,0.0,0.0,1.0,0.0,0.0,0.0,1.0,-2.17707275391,-2.07767944336,11.1200756836,0.1,0.0,0.0,0.0,0.1,0.0,0.0,0.0,0.1
1446036462277792788,131,1446036462268089056,robocape,-16.882616326,12.8379842071,-16.882616326,0.0,10.0,0.0,0.0,0.0,10.0,0.0,0.0,0.0,10.0,1.63597985764,0.644884457963,-2.08299144661,1.0,0.0,0.0,0.0,1.0,0.0,0.0,0.0,1.0,-2.55189331055,-1.88368286133,9.88783813477,0.1,0.0,0.0,0.0,0.1,0.0,0.0,0.0,0.1
1446036462305714788,132,1446036462302318096,robocape,-13.6339287782,12.4343828046,-13.6339287782,0.0,10.0,0.0,0.0,0.0,10.0,0.0,0.0,0.0,10.0,2.16168785682,0.310924057267,-1.98298974767,1.0,0.0,0.0,0.0,1.0,0.0,0.0,0.0,1.0,-2.39142700195,-1.17715209961,10.0866247559,0.1,0.0,0.0,0.0,0.1,0.0,0.0,0.0,0.1
1446036462338436038,133,1446036462335057973,robocape,-9.41657040038,12.0520970286,-9.41657040038,0.0,10.0,0.0,0.0,0.0,10.0,0.0,0.0,0.0,10.0,2.61921893209,0.174303893346,-1.87566435574,1.0,0.0,0.0,0.0,1.0,0.0,0.0,0.0,1.0,-4.41641601562,-1.62382324219,7.93829223633,0.1,0.0,0.0,0.0,0.1,0.0,0.0,0.0,0.1
1446036462371011413,134,1446036462367928028,robocape,-3.64377785831,11.5799704299,-3.64377785831,0.0,10.0,0.0,0.0,0.0,10.0,0.0,0.0,0.0,10.0,3.38940511934,-0.0431432096593,-1.76394474801,1.0,0.0,0.0,0.0,1.0,0.0,0.0,0.0,1.0,-3.39733520508,-1.51245483398,7.17787353516,0.1,0.0,0.0,0.0,0.1,0.0,0.0,0.0,0.1
1446036462404278330,135,1446036462401266098,robocape,3.42215232354,11.3126109849,3.42215232354,0.0,10.0,0.0,0.0,0.0,10.0,0.0,0.0,0.0,10.0,4.03562115785,-0.112252239947,-1.61334298837,1.0,0.0,0.0,0.0,1.0,0.0,0.0,0.0,1.0,-1.34839599609,-0.846639404297,5.09899658203,0.1,0.0,0.0,0.0,0.1,0.0,0.0,0.0,0.1
1446036462437710413,136,1446036462434582948,robocape,11.2089675093,11.1990356191,11.2089675093,0.0,10.0,0.0,0.0,0.0,10.0,0.0,0.0,0.0,10.0,4.36318997193,-0.155928081824,-1.18670458174,1.0,0.0,0.0,0.0,1.0,0.0,0.0,0.0,1.0,4.58646240234,0.373623046875,7.36588256836,0.1,0.0,0.0,0.0,0.1,0.0,0.0,0.0,0.1
1446036462470713330,137,1446036462467734098,robocape,19.1133025871,10.9181117915,19.1133025871,0.0,10.0,0.0,0.0,0.0,10.0,0.0,0.0,0.0,10.0,4.36318997193,-0.206394984481,-0.533564324397,1.0,0.0,0.0,0.0,1.0,0.0,0.0,0.0,1.0,2.51716552734,1.25858276367,5.34328857422,0.1,0.0,0.0,0.0,0.1,0.0,0.0,0.0,0.1
1446036462504264455,138,1446036462501234054,robocape,27.1062873134,11.0547171779,27.1062873134,0.0,10.0,0.0,0.0,0.0,10.0,0.0,0.0,0.0,10.0,4.36318997193,0.249937668304,0.0748348266312,1.0,0.0,0.0,0.0,1.0,0.0,0.0,0.0,1.0,1.88847290039,8.67236572266,7.72513549805,0.1,0.0,0.0,0.0,0.1,0.0,0.0,0.0,0.1
1446036462537591663,139,1446036462534457921,robocape,30.1607783541,11.0353043732,30.1607783541,0.0,10.0,0.0,0.0,0.0,10.0,0.0,0.0,0.0,10.0,1.07605023845,1.29988892807,2.39245076527,1.0,0.0,0.0,0.0,1.0,0.0,0.0,0.0,1.0,16.9890710449,19.6194012451,13.9929016113,0.1,0.0,0.0,0.0,0.1,0.0,0.0,0.0,0.1
1446036462570682330,140,1446036462567662000,robocape,27.4029151651,12.8097317095,27.4029151651,0.0,10.0,0.0,0.0,0.0,10.0,0.0,0.0,0.0,10.0,-2.35237019087,2.4169518473,2.68459953685,1.0,0.0,0.0,0.0,1.0,0.0,0.0,0.0,1.0,0.496966552734,6.78509033203,9.61720092773,0.1,0.0,0.0,0.0,0.1,0.0,0.0,0.0,0.1
1446036462604146913,141,1446036462601077079,robocape,24.5300912781,14.2354838516,24.5300912781,0.0,10.0,0.0,0.0,0.0,10.0,0.0,0.0,0.0,10.0,-2.25090375333,1.80535690296,2.14251309697,1.0,0.0,0.0,0.0,1.0,0.0,0.0,0.0,1.0,2.069296875,1.58430541992,10.5081481934,0.1,0.0,0.0,0.0,0.1,0.0,0.0,0.0,0.1
1446036462637555372,142,1446036462634355068,robocape,22.2845621478,15.0970315765,22.2845621478,0.0,10.0,0.0,0.0,0.0,10.0,0.0,0.0,0.0,10.0,-1.76714054132,1.22758410447,1.76820580576,1.0,0.0,0.0,0.0,1.0,0.0,0.0,0.0,1.0,3.57935668945,0.3448828125,8.83762207031,0.1,0.0,0.0,0.0,0.1,0.0,0.0,0.0,0.1
1446036462670851955,143,1446036462667768001,robocape,20.4652640747,15.7934562079,20.4652640747,0.0,10.0,0.0,0.0,0.0,10.0,0.0,0.0,0.0,10.0,-1.43517751144,0.958072202156,1.46527123176,1.0,0.0,0.0,0.0,1.0,0.0,0.0,0.0,1.0,-5.45465698242,0.378413085938,9.57409057617,0.1,0.0,0.0,0.0,0.1,0.0,0.0,0.0,0.1
1446036462704459122,144,1446036462701332092,robocape,19.1220235292,16.6849149605,19.1220235292,0.0,10.0,0.0,0.0,0.0,10.0,0.0,0.0,0.0,10.0,-1.1309113569,0.963398524336,1.2652678339,1.0,0.0,0.0,0.0,1.0,0.0,0.0,0.0,1.0,-2.2189855957,0.961600341797,11.439810791,0.1,0.0,0.0,0.0,0.1,0.0,0.0,0.0,0.1
1446036462737464288,145,1446036462734231948,robocape,18.4960601655,15.9121900391,18.4960601655,0.0,10.0,0.0,0.0,0.0,10.0,0.0,0.0,0.0,10.0,-0.679372394079,0.0268979270098,1.30588104052,1.0,0.0,0.0,0.0,1.0,0.0,0.0,0.0,1.0,5.43310180664,0.258662109375,10.4710253906,0.1,0.0,0.0,0.0,0.1,0.0,0.0,0.0,0.1
1446036462770859997,146,1446036462767801046,robocape,17.6271111851,16.644442584,17.6271111851,0.0,10.0,0.0,0.0,0.0,10.0,0.0,0.0,0.0,10.0,-0.885634220506,0.88456895607,1.38870535042,1.0,0.0,0.0,0.0,1.0,0.0,0.0,0.0,1.0,-4.21283935547,3.36260742188,4.99601074219,0.1,0.0,0.0,0.0,0.1,0.0,0.0,0.0,0.1
1446036462804226788,147,1446036462801177024,robocape,15.8436793737,16.5503935334,15.8436793737,0.0,10.0,0.0,0.0,0.0,10.0,0.0,0.0,0.0,10.0,-1.37565586108,0.416385236434,1.49643021652,1.0,0.0,0.0,0.0,1.0,0.0,0.0,0.0,1.0,-3.41769287109,2.00343383789,10.8230932617,0.1,0.0,0.0,0.0,0.1,0.0,0.0,0.0,0.1
1446036462837589747,148,1446036462834558010,robocape,13.5777915406,16.4836594989,13.5777915406,0.0,10.0,0.0,0.0,0.0,10.0,0.0,0.0,0.0,10.0,-1.65049408558,0.407729962891,1.60002718292,1.0,0.0,0.0,0.0,1.0,0.0,0.0,0.0,1.0,0.376018066406,1.98427368164,8.81127685547,0.1,0.0,0.0,0.0,0.1,0.0,0.0,0.0,0.1
1446036462870704330,149,1446036462867676973,robocape,10.6632749039,16.4017253804,10.6632749039,0.0,10.0,0.0,0.0,0.0,10.0,0.0,0.0,0.0,10.0,-2.00828977803,0.35153726389,1.69483571773,1.0,0.0,0.0,0.0,1.0,0.0,0.0,0.0,1.0,-1.12446166992,1.70525390625,9.84712280273,0.1,0.0,0.0,0.0,0.1,0.0,0.0,0.0,0.1
1446036462904202247,150,1446036462901164054,robocape,7.08209108606,16.4678553938,7.08209108606,0.0,10.0,0.0,0.0,0.0,10.0,0.0,0.0,0.0,10.0,-2.33918754347,0.33409355875,1.64010775733,1.0,0.0,0.0,0.0,1.0,0.0,0.0,0.0,1.0,-1.86811523438,1.66094604492,9.62917602539,0.1,0.0,0.0,0.0,0.1,0.0,0.0,0.0,0.1
1446036462939025997,151,1446036462935851097,robocape,2.52735505784,16.002533268,2.52735505784,0.0,10.0,0.0,0.0,0.0,10.0,0.0,0.0,0.0,10.0,-2.82188549105,-0.0620516533988,1.57632504922,1.0,0.0,0.0,0.0,1.0,0.0,0.0,0.0,1.0,-4.43078613281,1.90044799805,7.80297363281,0.1,0.0,0.0,0.0,0.1,0.0,0.0,0.0,0.1
1446036462970523747,152,1446036462967545986,robocape,-2.92141554401,15.6755278146,-2.92141554401,0.0,10.0,0.0,0.0,0.0,10.0,0.0,0.0,0.0,10.0,-3.27302497971,-0.102531701968,1.48750862686,1.0,0.0,0.0,0.0,1.0,0.0,0.0,0.0,1.0,-2.21419555664,1.76512939453,8.73463623047,0.1,0.0,0.0,0.0,0.1,0.0,0.0,0.0,0.1
1446036463004193497,153,1446036463001147985,robocape,-9.8090118314,15.601464606,-9.8090118314,0.0,10.0,0.0,0.0,0.0,10.0,0.0,0.0,0.0,10.0,-4.01404955302,-0.0696416625056,1.31040841437,1.0,0.0,0.0,0.0,1.0,0.0,0.0,0.0,1.0,0.525706787109,1.59029296875,6.52163818359,0.1,0.0,0.0,0.0,0.1,0.0,0.0,0.0,0.1
1446036463037339622,154,1446036463034251928,robocape,-17.3287953167,15.5844788249,-17.3287953167,0.0,10.0,0.0,0.0,0.0,10.0,0.0,0.0,0.0,10.0,-4.36332312999,-0.0970722217334,1.10973922624,1.0,0.0,0.0,0.0,1.0,0.0,0.0,0.0,1.0,4.01285522461,1.58789794922,5.66182617188,0.1,0.0,0.0,0.0,0.1,0.0,0.0,0.0,0.1
1446036463070552705,155,1446036463067543029,robocape,-24.8206597057,15.0115706584,-24.8206597057,0.0,10.0,0.0,0.0,0.0,10.0,0.0,0.0,0.0,10.0,-4.36332312999,-0.368182020703,0.742622469969,1.0,0.0,0.0,0.0,1.0,0.0,0.0,0.0,1.0,-0.489781494141,-13.0803991699,4.31462768555,0.1,0.0,0.0,0.0,0.1,0.0,0.0,0.0,0.1
1446036463104252122,156,1446036463101090908,robocape,-30.295824604,13.4031019572,-30.295824604,0.0,10.0,0.0,0.0,0.0,10.0,0.0,0.0,0.0,10.0,-2.17833261363,0.466186348818,-2.74851540302,1.0,0.0,0.0,0.0,1.0,0.0,0.0,0.0,1.0,10.8841662598,-19.62,12.5199645996,0.1,0.0,0.0,0.0,0.1,0.0,0.0,0.0,0.1
1446036463137635289,157,1446036463134264945,robocape,-32.0204282465,14.4484264095,-32.0204282465,0.0,10.0,0.0,0.0,0.0,10.0,0.0,0.0,0.0,10.0,0.050733218766,2.16941102398,-2.68926006876,1.0,0.0,0.0,0.0,1.0,0.0,0.0,0.0,1.0,3.52307373047,-6.94316162109,4.65711547852,0.1,0.0,0.0,0.0,0.1,0.0,0.0,0.0,0.1
1446036463170722955,158,1446036463167481899,robocape,-33.5070962389,16.8913121016,-33.5070962389,0.0,10.0,0.0,0.0,0.0,10.0,0.0,0.0,0.0,10.0,0.613325999045,3.44879361165,-3.1650337975,1.0,0.0,0.0,0.0,1.0,0.0,0.0,0.0,1.0,-0.473016357422,-16.8010620117,8.65200805664,0.1,0.0,0.0,0.0,0.1,0.0,0.0,0.0,0.1
1446036463204409955,159,1446036463201025009,robocape,-30.0512735456,16.9512089146,-30.0512735456,0.0,10.0,0.0,0.0,0.0,10.0,0.0,0.0,0.0,10.0,2.58766047318,0.939962706743,-1.70628731041,1.0,0.0,0.0,0.0,1.0,0.0,0.0,0.0,1.0,-10.6650219727,-1.56035522461,13.6396362305,0.1,0.0,0.0,0.0,0.1,0.0,0.0,0.0,0.1
1446036463238040705,160,1446036463234636068,robocape,-26.6404851223,16.66785104,-26.6404851223,0.0,10.0,0.0,0.0,0.0,10.0,0.0,0.0,0.0,10.0,2.26421955879,0.357529376343,-1.15727665169,1.0,0.0,0.0,0.0,1.0,0.0,0.0,0.0,1.0,-5.85103271484,3.01293457031,6.6641418457,0.1,0.0,0.0,0.0,0.1,0.0,0.0,0.0,0.1
1446036463277000080,161,1446036463267777919,robocape,-24.3509495555,16.7423462266,-24.3509495555,0.0,10.0,0.0,0.0,0.0,10.0,0.0,0.0,0.0,10.0,1.55621818299,0.438622631536,-0.920255314677,1.0,0.0,0.0,0.0,1.0,0.0,0.0,0.0,1.0,-0.934057617188,1.43102416992,9.51301757812,0.1,0.0,0.0,0.0,0.1,0.0,0.0,0.0,0.1
1446036463305209247,162,1446036463302174091,robocape,-22.7026623595,16.4362684103,-22.7026623595,0.0,10.0,0.0,0.0,0.0,10.0,0.0,0.0,0.0,10.0,1.13304188577,0.157792294587,-0.817989928818,1.0,0.0,0.0,0.0,1.0,0.0,0.0,0.0,1.0,-1.04063598633,1.29690307617,10.9164990234,0.1,0.0,0.0,0.0,0.1,0.0,0.0,0.0,0.1
1446036463337831539,163,1446036463334784030,robocape,-21.7205338923,16.1797886728,-21.7205338923,0.0,10.0,0.0,0.0,0.0,10.0,0.0,0.0,0.0,10.0,0.741690363587,0.155528607661,-0.750478795184,1.0,0.0,0.0,0.0,1.0,0.0,0.0,0.0,1.0,-2.20461547852,0.777183837891,8.37059326172,0.1,0.0,0.0,0.0,0.1,0.0,0.0,0.0,0.1
1446036463370623872,164,1446036463367516040,robocape,-21.256125884,16.2970152641,-21.256125884,0.0,10.0,0.0,0.0,0.0,10.0,0.0,0.0,0.0,10.0,0.484828476449,0.380565719772,-0.778175670521,1.0,0.0,0.0,0.0,1.0,0.0,0.0,0.0,1.0,-1.0346484375,-0.188009033203,12.4325463867,0.1,0.0,0.0,0.0,0.1,0.0,0.0,0.0,0.1
1446036463404095414,165,1446036463401081085,robocape,-20.8033576022,16.1757322104,-20.8033576022,0.0,10.0,0.0,0.0,0.0,10.0,0.0,0.0,0.0,10.0,0.51798483202,0.302135625669,-0.946087977251,1.0,0.0,0.0,0.0,1.0,0.0,0.0,0.0,1.0,-2.31598388672,-0.383203125,9.56810302734,0.1,0.0,0.0,0.0,0.1,0.0,0.0,0.0,0.1
1446036463437810747,166,1446036463434784889,robocape,-20.049703637,16.0955651736,-20.049703637,0.0,10.0,0.0,0.0,0.0,10.0,0.0,0.0,0.0,10.0,0.730638245063,0.37577202981,-1.11812818367,1.0,0.0,0.0,0.0,1.0,0.0,0.0,0.0,1.0,0.690963134766,-1.01668579102,12.2996228027,0.1,0.0,0.0,0.0,0.1,0.0,0.0,0.0,0.1
1446036463470676455,167,1446036463467668056,robocape,-18.801468082,15.7135644577,-18.801468082,0.0,10.0,0.0,0.0,0.0,10.0,0.0,0.0,0.0,10.0,1.02957807742,0.245942926669,-1.30401682776,1.0,0.0,0.0,0.0,1.0,0.0,0.0,0.0,1.0,-2.79139526367,-1.03345092773,9.02443359375,0.1,0.0,0.0,0.0,0.1,0.0,0.0,0.0,0.1
1446036463504216830,168,1446036463501182079,robocape,-16.9588957723,15.4023840536,-16.9588957723,0.0,10.0,0.0,0.0,0.0,10.0,0.0,0.0,0.0,10.0,1.33477633835,0.247407665268,-1.30521525025,1.0,0.0,0.0,0.0,1.0,0.0,0.0,0.0,1.0,-1.66693359375,-0.547261962891,11.1667785645,0.1,0.0,0.0,0.0,0.1,0.0,0.0,0.0,0.1
1446036463538742039,169,1446036463535665035,robocape,-14.5280865962,15.0422687437,-14.5280865962,0.0,10.0,0.0,0.0,0.0,10.0,0.0,0.0,0.0,10.0,1.61201140782,0.15166702408,-1.24156570019,1.0,0.0,0.0,0.0,1.0,0.0,0.0,0.0,1.0,-1.46814697266,-0.917292480469,8.91665771484,0.1,0.0,0.0,0.0,0.1,0.0,0.0,0.0,0.1
1446036463571980705,170,1446036463568887948,robocape,-11.568618333,14.9284778222,-11.568618333,0.0,10.0,0.0,0.0,0.0,10.0,0.0,0.0,0.0,10.0,1.85901959893,0.206528142536,-1.14529242679,1.0,0.0,0.0,0.0,1.0,0.0,0.0,0.0,1.0,-0.950822753906,0.05748046875,10.7260949707,0.1,0.0,0.0,0.0,0.1,0.0,0.0,0.0,0.1
1446036463605799622,171,1446036463602752923,robocape,-8.20516237941,14.734435109,-8.20516237941,0.0,10.0,0.0,0.0,0.0,10.0,0.0,0.0,0.0,10.0,1.99577292091,0.0585895439817,-0.900414764556,1.0,0.0,0.0,0.0,1.0,0.0,0.0,0.0,1.0,-1.25618774414,0.474213867188,8.78133911133,0.1,0.0,0.0,0.0,0.1,0.0,0.0,0.0,0.1
1446036463638979914,172,1446036463635633945,robocape,-4.59575180747,14.9759676326,-4.59575180747,0.0,10.0,0.0,0.0,0.0,10.0,0.0,0.0,0.0,10.0,2.06608037368,0.215449732187,-0.665124482247,1.0,0.0,0.0,0.0,1.0,0.0,0.0,0.0,1.0,5.30257324219,0.799936523438,13.1247070313,0.1,0.0,0.0,0.0,0.1,0.0,0.0,0.0,0.1
1446036463671874747,173,1446036463668824911,robocape,-0.37872627336,14.7423699495,-0.37872627336,0.0,10.0,0.0,0.0,0.0,10.0,0.0,0.0,0.0,10.0,2.3473101848,-0.0836232582285,-0.534895904942,1.0,0.0,0.0,0.0,1.0,0.0,0.0,0.0,1.0,-1.2226574707,0.863404541016,7.79818359375,0.1,0.0,0.0,0.0,0.1,0.0,0.0,0.0,0.1
1446036463705831789,174,1446036463702701091,robocape,4.11957984971,14.7763178624,4.11957984971,0.0,10.0,0.0,0.0,0.0,10.0,0.0,0.0,0.0,10.0,2.4435834582,0.034621094171,-0.317981434155,1.0,0.0,0.0,0.0,1.0,0.0,0.0,0.0,1.0,-4.23199951172,0.827479248047,9.03521118164,0.1,0.0,0.0,0.0,0.1,0.0,0.0,0.0,0.1
1446036463739143122,175,1446036463735850095,robocape,8.99743238742,15.3536595832,8.99743238742,0.0,10.0,0.0,0.0,0.0,10.0,0.0,0.0,0.0,10.0,2.57181466469,0.345545151438,-0.031957933081,1.0,0.0,0.0,0.0,1.0,0.0,0.0,0.0,1.0,-7.67005004883,1.9962487793,10.0866247559,0.1,0.0,0.0,0.0,0.1,0.0,0.0,0.0,0.1
1446036463774492205,176,1446036463770513057,robocape,14.1724141869,15.1577844084,14.1724141869,0.0,10.0,0.0,0.0,0.0,10.0,0.0,0.0,0.0,10.0,2.69951323896,-0.0118510668509,0.188951279341,1.0,0.0,0.0,0.0,1.0,0.0,0.0,0.0,1.0,-1.20229980469,1.25858276367,8.0855859375,0.1,0.0,0.0,0.0,0.1,0.0,0.0,0.0,0.1
1446036463807985205,177,1446036463803983926,robocape,19.4082205385,15.5852214045,19.4082205385,0.0,10.0,0.0,0.0,0.0,10.0,0.0,0.0,0.0,10.0,2.66342740619,0.449941066169,0.450074224223,1.0,0.0,0.0,0.0,1.0,0.0,0.0,0.0,1.0,0.258662109375,2.00223632812,8.58255249023,0.1,0.0,0.0,0.0,0.1,0.0,0.0,0.0,0.1
1446036463841159539,178,1446036463837883949,robocape,24.5587256871,15.8519050319,24.5587256871,0.0,10.0,0.0,0.0,0.0,10.0,0.0,0.0,0.0,10.0,2.58513047014,0.520514835056,0.665257640302,1.0,0.0,0.0,0.0,1.0,0.0,0.0,0.0,1.0,-3.94818969727,1.57951538086,8.60770019531,0.1,0.0,0.0,0.0,0.1,0.0,0.0,0.0,0.1
1446036463873333581,179,1446036463870259046,robocape,29.2909228096,16.3359603625,29.2909228096,0.0,10.0,0.0,0.0,0.0,10.0,0.0,0.0,0.0,10.0,2.26581745544,0.894688968212,0.96912432068,1.0,0.0,0.0,0.0,1.0,0.0,0.0,0.0,1.0,-0.940045166016,9.23759033203,12.0457507324,0.1,0.0,0.0,0.0,0.1,0.0,0.0,0.0,0.1
1446036463907020581,180,1446036463903857946,robocape,30.5658266017,16.9968430672,30.5658266017,0.0,10.0,0.0,0.0,0.0,10.0,0.0,0.0,0.0,10.0,-0.0760332491218,1.58404821638,2.03172559562,1.0,0.0,0.0,0.0,1.0,0.0,0.0,0.0,1.0,2.13635742188,14.4479553223,15.5819970703,0.1,0.0,0.0,0.0,0.1,0.0,0.0,0.0,0.1
1446036463940099956,181,1446036463935432910,robocape,30.0510018024,18.046873163,30.0510018024,0.0,10.0,0.0,0.0,0.0,10.0,0.0,0.0,0.0,10.0,-1.10734238125,1.77819265985,1.97326920969,1.0,0.0,0.0,0.0,1.0,0.0,0.0,0.0,1.0,-6.11089233398,3.79490844727,9.76569213867,0.1,0.0,0.0,0.0,0.1,0.0,0.0,0.0,0.1
1446036463972689456,182,1446036463969640016,robocape,29.1524813936,18.6933444807,29.1524813936,0.0,10.0,0.0,0.0,0.0,10.0,0.0,0.0,0.0,10.0,-1.16140455138,1.31946316208,1.63877617678,1.0,0.0,0.0,0.0,1.0,0.0,0.0,0.0,1.0,-1.72201904297,2.73511230469,10.4267175293,0.1,0.0,0.0,0.0,0.1,0.0,0.0,0.0,0.1
1446036464008946581,183,1446036464005489110,robocape,27.9490720546,18.4901600451,27.9490720546,0.0,10.0,0.0,0.0,0.0,10.0,0.0,0.0,0.0,10.0,-1.19722406805,0.699079786146,1.51573813442,1.0,0.0,0.0,0.0,1.0,0.0,0.0,0.0,1.0,-4.67028808594,1.67531616211,8.15025146484,0.1,0.0,0.0,0.0,0.1,0.0,0.0,0.0,0.1
1446036464041958247,184,1446036464038463115,robocape,26.7745451274,18.6092018086,26.7745451274,0.0,10.0,0.0,0.0,0.0,10.0,0.0,0.0,0.0,10.0,-1.12145713503,0.778841460794,1.3495568824,1.0,0.0,0.0,0.0,1.0,0.0,0.0,0.0,1.0,-3.70988525391,1.36755615234,9.52259765625,0.1,0.0,0.0,0.0,0.1,0.0,0.0,0.0,0.1
1446036464074690997,185,1446036464071373939,robocape,25.5204658749,18.6118699099,25.5204658749,0.0,10.0,0.0,0.0,0.0,10.0,0.0,0.0,0.0,10.0,-1.10348079767,0.62677496255,1.24462833545,1.0,0.0,0.0,0.0,1.0,0.0,0.0,0.0,1.0,0.141306152344,1.78548706055,11.823013916,0.1,0.0,0.0,0.0,0.1,0.0,0.0,0.0,0.1
1446036464107944331,186,1446036464104290008,robocape,24.2010022192,18.6467787532,24.2010022192,0.0,10.0,0.0,0.0,0.0,10.0,0.0,0.0,0.0,10.0,-1.10987238429,0.593219132815,1.19509353917,1.0,0.0,0.0,0.0,1.0,0.0,0.0,0.0,1.0,-3.50870361328,1.56275024414,9.15136962891,0.1,0.0,0.0,0.0,0.1,0.0,0.0,0.0,0.1
1446036464142189914,187,1446036464138766050,robocape,22.8005755924,18.8551231453,22.8005755924,0.0,10.0,0.0,0.0,0.0,10.0,0.0,0.0,0.0,10.0,-1.1279818797,0.631435494458,1.12025871254,1.0,0.0,0.0,0.0,1.0,0.0,0.0,0.0,1.0,2.28005859375,1.54957763672,8.5107019043,0.1,0.0,0.0,0.0,0.1,0.0,0.0,0.0,0.1
1446036464174578706,188,1446036464171278953,robocape,20.9856735568,18.3458387726,20.9856735568,0.0,10.0,0.0,0.0,0.0,10.0,0.0,0.0,0.0,10.0,-1.27898311351,0.151533866026,1.05873969136,1.0,0.0,0.0,0.0,1.0,0.0,0.0,0.0,1.0,-2.62134887695,1.21307739258,9.96208374023,0.1,0.0,0.0,0.0,0.1,0.0,0.0,0.0,0.1
1446036464207803831,189,1446036464203654050,robocape,18.9827559438,18.0217651732,18.9827559438,0.0,10.0,0.0,0.0,0.0,10.0,0.0,0.0,0.0,10.0,-1.36180742341,0.209590777789,1.02385228108,1.0,0.0,0.0,0.0,1.0,0.0,0.0,0.0,1.0,-5.00319580078,1.41545654297,8.15504150391,0.1,0.0,0.0,0.0,0.1,0.0,0.0,0.0,0.1
1446036464241218289,190,1446036464237827062,robocape,16.7247554366,18.1438629577,16.7247554366,0.0,10.0,0.0,0.0,0.0,10.0,0.0,0.0,0.0,10.0,-1.49030494601,0.405466275965,0.971121691497,1.0,0.0,0.0,0.0,1.0,0.0,0.0,0.0,1.0,0.837059326172,1.02626586914,12.0002453613,0.1,0.0,0.0,0.0,0.1,0.0,0.0,0.0,0.1
1446036464276953664,191,1446036464271696090,robocape,14.1628343893,17.7602783492,14.1628343893,0.0,10.0,0.0,0.0,0.0,10.0,0.0,0.0,0.0,10.0,-1.59616559934,0.0543284862376,0.878576843617,1.0,0.0,0.0,0.0,1.0,0.0,0.0,0.0,1.0,0.452658691406,1.17116455078,9.00048339844,0.1,0.0,0.0,0.0,0.1,0.0,0.0,0.0,0.1
1446036464308209039,192,1446036464304595947,robocape,11.2794873097,17.399163774,11.2794873097,0.0,10.0,0.0,0.0,0.0,10.0,0.0,0.0,0.0,10.0,-1.72239943501,-0.00159789665405,0.758601436509,1.0,0.0,0.0,0.0,1.0,0.0,0.0,0.0,1.0,-2.89557861328,1.21547241211,8.99569335938,0.1,0.0,0.0,0.0,0.1,0.0,0.0,0.0,0.1
1446036464340356372,193,1446036464337308883,robocape,8.03591099089,17.4004003455,8.03591099089,0.0,10.0,0.0,0.0,0.0,10.0,0.0,0.0,0.0,10.0,-1.89230911256,0.1448759633,0.677508181316,1.0,0.0,0.0,0.0,1.0,0.0,0.0,0.0,1.0,0.0934057617188,0.952020263672,11.1907287598,0.1,0.0,0.0,0.0,0.1,0.0,0.0,0.0,0.1
1446036464372650122,194,1446036464369492053,robocape,4.48443013442,17.1104482286,4.48443013442,0.0,10.0,0.0,0.0,0.0,10.0,0.0,0.0,0.0,10.0,-2.01827663212,-0.0593884923088,0.574577005185,1.0,0.0,0.0,0.0,1.0,0.0,0.0,0.0,1.0,1.51005981445,0.980760498047,8.4723815918,0.1,0.0,0.0,0.0,0.1,0.0,0.0,0.0,0.1
