%time,field.header.seq,field.header.stamp,field.header.frame_id,field.magnetic_field.x,field.magnetic_field.y,field.magnetic_field.z,field.magnetic_field_covariance0,field.magnetic_field_covariance1,field.magnetic_field_covariance2,field.magnetic_field_covariance3,field.magnetic_field_covariance4,field.magnetic_field_covariance5,field.magnetic_field_covariance6,field.magnetic_field_covariance7,field.magnetic_field_covariance8
1446036124538736573,1,1446036124223378896,robocape_mag,17.1,-20.25,-11.55,10.0,0.0,0.0,0.0,10.0,0.0,0.0,0.0,10.0
1446036124566255823,2,1446036124256990909,robocape_mag,17.1,-20.25,-11.55,10.0,0.0,0.0,0.0,10.0,0.0,0.0,0.0,10.0
1446036124566846782,3,1446036124282119035,robocape_mag,17.1,-20.25,-11.55,10.0,0.0,0.0,0.0,10.0,0.0,0.0,0.0,10.0
1446036124566887865,4,1446036124314732074,robocape_mag,17.1,-20.25,-11.55,10.0,0.0,0.0,0.0,10.0,0.0,0.0,0.0,10.0
1446036124567311490,5,1446036124350650072,robocape_mag,15.6,-20.55,-11.85,10.0,0.0,0.0,0.0,10.0,0.0,0.0,0.0,10.0
1446036124567393282,6,1446036124382699966,robocape_mag,15.6,-20.55,-11.85,10.0,0.0,0.0,0.0,10.0,0.0,0.0,0.0,10.0
1446036124567630823,7,1446036124416416883,robocape_mag,15.6,-20.55,-11.85,10.0,0.0,0.0,0.0,10.0,0.0,0.0,0.0,10.0
1446036124568106907,8,1446036124451154947,robocape_mag,15.6,-20.55,-11.85,10.0,0.0,0.0,0.0,10.0,0.0,0.0,0.0,10.0
1446036124568935823,9,1446036124486954927,robocape_mag,15.6,-20.55,-11.85,10.0,0.0,0.0,0.0,10.0,0.0,0.0,0.0,10.0
1446036124569416990,10,1446036124546319007,robocape_mag,15.0,-20.55,-11.85,10.0,0.0,0.0,0.0,10.0,0.0,0.0,0.0,10.0
1446036124575760573,11,1446036124569593906,robocape_mag,15.0,-20.55,-11.85,10.0,0.0,0.0,0.0,10.0,0.0,0.0,0.0,10.0
1446036124592031240,12,1446036124587027072,robocape_mag,15.0,-20.55,-11.85,10.0,0.0,0.0,0.0,10.0,0.0,0.0,0.0,10.0
1446036124634914907,13,1446036124620064020,robocape_mag,15.0,-20.55,-11.85,10.0,0.0,0.0,0.0,10.0,0.0,0.0,0.0,10.0
1446036124653012490,14,1446036124647303104,robocape_mag,15.0,-20.55,-11.85,10.0,0.0,0.0,0.0,10.0,0.0,0.0,0.0,10.0
1446036124687903782,15,1446036124680325031,robocape_mag,17.4,-20.55,-12.45,10.0,0.0,0.0,0.0,10.0,0.0,0.0,0.0,10.0
1446036124725934823,16,1446036124714015960,robocape_mag,17.4,-20.55,-12.45,10.0,0.0,0.0,0.0,10.0,0.0,0.0,0.0,10.0
1446036124760115657,17,1446036124754895925,robocape_mag,17.4,-20.55,-12.45,10.0,0.0,0.0,0.0,10.0,0.0,0.0,0.0,10.0
1446036124788251657,18,1446036124780993938,robocape_mag,17.4,-20.55,-12.45,10.0,0.0,0.0,0.0,10.0,0.0,0.0,0.0,10.0
1446036124819062032,19,1446036124814012050,robocape_mag,17.4,-20.55,-12.45,10.0,0.0,0.0,0.0,10.0,0.0,0.0,0.0,10.0
1446036124856549115,20,1446036124849613904,robocape_mag,17.7,-20.25,-10.95,10.0,0.0,0.0,0.0,10.0,0.0,0.0,0.0,10.0
1446036124887739407,21,1446036124882370948,robocape_mag,17.7,-20.25,-10.95,10.0,0.0,0.0,0.0,10.0,0.0,0.0,0.0,10.0
1446036124923325740,22,1446036124914638996,robocape_mag,17.7,-20.25,-10.95,10.0,0.0,0.0,0.0,10.0,0.0,0.0,0.0,10.0
1446036124955650865,23,1446036124949541091,robocape_mag,17.7,-20.25,-10.95,10.0,0.0,0.0,0.0,10.0,0.0,0.0,0.0,10.0
1446036124987071490,24,1446036124981662034,robocape_mag,17.7,-20.25,-10.95,10.0,0.0,0.0,0.0,10.0,0.0,0.0,0.0,10.0
1446036125022394324,25,1446036125015837907,robocape_mag,17.7,-20.85,-12.75,10.0,0.0,0.0,0.0,10.0,0.0,0.0,0.0,10.0
1446036125054715782,26,1446036125047738075,robocape_mag,17.7,-20.85,-12.75,10.0,0.0,0.0,0.0,10.0,0.0,0.0,0.0,10.0
1446036125087897824,27,1446036125082288980,robocape_mag,17.7,-20.85,-12.75,10.0,0.0,0.0,0.0,10.0,0.0,0.0,0.0,10.0
1446036125123080532,28,1446036125117341995,robocape_mag,17.7,-20.85,-12.75,10.0,0.0,0.0,0.0,10.0,0.0,0.0,0.0,10.0
1446036125155136074,29,1446036125149873971,robocape_mag,15.9,-21.45,-12.15,10.0,0.0,0.0,0.0,10.0,0.0,0.0,0.0,10.0
1446036125191913782,30,1446036125182205915,robocape_mag,15.9,-21.45,-12.15,10.0,0.0,0.0,0.0,10.0,0.0,0.0,0.0,10.0
1446036125223013240,31,1446036125216232061,robocape_mag,15.9,-21.45,-12.15,10.0,0.0,0.0,0.0,10.0,0.0,0.0,0.0,10.0
1446036125260099865,32,1446036125249804019,robocape_mag,15.9,-21.45,-12.15,10.0,0.0,0.0,0.0,10.0,0.0,0.0,0.0,10.0
1446036125287955324,33,1446036125282710075,robocape_mag,15.9,-21.45,-12.15,10.0,0.0,0.0,0.0,10.0,0.0,0.0,0.0,10.0
1446036125322229449,34,1446036125316809892,robocape_mag,17.1,-20.85,-10.95,10.0,0.0,0.0,0.0,10.0,0.0,0.0,0.0,10.0
1446036125354071324,35,1446036125349047899,robocape_mag,17.1,-20.85,-10.95,10.0,0.0,0.0,0.0,10.0,0.0,0.0,0.0,10.0
1446036125388252699,36,1446036125381139993,robocape_mag,17.1,-20.85,-10.95,10.0,0.0,0.0,0.0,10.0,0.0,0.0,0.0,10.0
1446036125421956532,37,1446036125415425062,robocape_mag,17.1,-20.85,-10.95,10.0,0.0,0.0,0.0,10.0,0.0,0.0,0.0,10.0
1446036125452581115,38,1446036125447495937,robocape_mag,17.1,-20.85,-10.95,10.0,0.0,0.0,0.0,10.0,0.0,0.0,0.0,10.0
1446036125485757615,39,1446036125480866909,robocape_mag,15.0,-20.55,-12.45,10.0,0.0,0.0,0.0,10.0,0.0,0.0,0.0,10.0
1446036125520686532,40,1446036125515126943,robocape_mag,15.0,-20.55,-12.45,10.0,0.0,0.0,0.0,10.0,0.0,0.0,0.0,10.0
1446036125561197616,41,1446036125551219940,robocape_mag,15.0,-20.55,-12.45,10.0,0.0,0.0,0.0,10.0,0.0,0.0,0.0,10.0
1446036125586749657,42,1446036125581787109,robocape_mag,15.0,-20.55,-12.45,10.0,0.0,0.0,0.0,10.0,0.0,0.0,0.0,10.0
1446036125619128199,43,1446036125614095926,robocape_mag,15.0,-20.55,-12.45,10.0,0.0,0.0,0.0,10.0,0.0,0.0,0.0,10.0
1446036125653156907,44,1446036125648401021,robocape_mag,16.8,-20.55,-11.85,10.0,0.0,0.0,0.0,10.0,0.0,0.0,0.0,10.0
1446036125684427449,45,1446036125679661035,robocape_mag,16.8,-20.55,-11.85,10.0,0.0,0.0,0.0,10.0,0.0,0.0,0.0,10.0
1446036125718897866,46,1446036125713877916,robocape_mag,16.8,-20.55,-11.85,10.0,0.0,0.0,0.0,10.0,0.0,0.0,0.0,10.0
1446036125751118199,47,1446036125746187925,robocape_mag,16.8,-20.55,-11.85,10.0,0.0,0.0,0.0,10.0,0.0,0.0,0.0,10.0
1446036125784575907,48,1446036125779710054,robocape_mag,16.8,-20.55,-11.85,10.0,0.0,0.0,0.0,10.0,0.0,0.0,0.0,10.0
1446036125817311657,49,1446036125812531948,robocape_mag,16.2,-21.15,-11.85,10.0,0.0,0.0,0.0,10.0,0.0,0.0,0.0,10.0
1446036125850593991,50,1446036125845695972,robocape_mag,16.2,-21.15,-11.85,10.0,0.0,0.0,0.0,10.0,0.0,0.0,0.0,10.0
1446036125884024741,51,1446036125879211902,robocape_mag,16.2,-21.15,-11.85,10.0,0.0,0.0,0.0,10.0,0.0,0.0,0.0,10.0
1446036125917360032,52,1446036125912539958,robocape_mag,16.2,-21.15,-11.85,10.0,0.0,0.0,0.0,10.0,0.0,0.0,0.0,10.0
1446036125950700741,53,1446036125945723056,robocape_mag,16.2,-21.15,-11.85,10.0,0.0,0.0,0.0,10.0,0.0,0.0,0.0,10.0
1446036125983959574,54,1446036125979110956,robocape_mag,17.7,-20.85,-12.15,10.0,0.0,0.0,0.0,10.0,0.0,0.0,0.0,10.0
1446036126017249491,55,1446036126012386083,robocape_mag,17.7,-20.85,-12.15,10.0,0.0,0.0,0.0,10.0,0.0,0.0,0.0,10.0
1446036126051442032,56,1446036126046561956,robocape_mag,17.7,-20.85,-12.15,10.0,0.0,0.0,0.0,10.0,0.0,0.0,0.0,10.0
1446036126083972449,57,1446036126079171895,robocape_mag,17.7,-20.85,-12.15,10.0,0.0,0.0,0.0,10.0,0.0,0.0,0.0,10.0
1446036126122213782,58,1446036126115787982,robocape_mag,16.8,-20.55,-10.65,10.0,0.0,0.0,0.0,10.0,0.0,0.0,0.0,10.0
1446036126150426116,59,1446036126145461082,robocape_mag,16.8,-20.55,-10.65,10.0,0.0,0.0,0.0,10.0,0.0,0.0,0.0,10.0
1446036126184019449,60,1446036126179264068,robocape_mag,16.8,-20.55,-10.65,10.0,0.0,0.0,0.0,10.0,0.0,0.0,0.0,10.0
1446036126223239574,61,1446036126215102910,robocape_mag,16.8,-20.55,-10.65,10.0,0.0,0.0,0.0,10.0,0.0,0.0,0.0,10.0
1446036126256587824,62,1446036126249177932,robocape_mag,16.8,-20.55,-10.65,10.0,0.0,0.0,0.0,10.0,0.0,0.0,0.0,10.0
1446036126287194199,63,1446036126282080888,robocape_mag,16.5,-22.05,-11.55,10.0,0.0,0.0,0.0,10.0,0.0,0.0,0.0,10.0
1446036126320525241,64,1446036126315325021,robocape_mag,16.5,-22.05,-11.55,10.0,0.0,0.0,0.0,10.0,0.0,0.0,0.0,10.0
1446036126358354366,65,1446036126350431919,robocape_mag,16.5,-22.05,-11.55,10.0,0.0,0.0,0.0,10.0,0.0,0.0,0.0,10.0
1446036126389637574,66,1446036126383320093,robocape_mag,16.5,-22.05,-11.55,10.0,0.0,0.0,0.0,10.0,0.0,0.0,0.0,10.0
1446036126421531699,67,1446036126416378021,robocape_mag,16.5,-22.05,-11.55,10.0,0.0,0.0,0.0,10.0,0.0,0.0,0.0,10.0
1446036126454751533,68,1446036126449342012,robocape_mag,16.5,-21.45,-11.55,10.0,0.0,0.0,0.0,10.0,0.0,0.0,0.0,10.0
1446036126486581199,69,1446036126481520891,robocape_mag,16.5,-21.45,-11.55,10.0,0.0,0.0,0.0,10.0,0.0,0.0,0.0,10.0
1446036126520501783,70,1446036126515645980,robocape_mag,16.5,-21.45,-11.55,10.0,0.0,0.0,0.0,10.0,0.0,0.0,0.0,10.0
1446036126561065324,71,1446036126552124023,robocape_mag,16.5,-21.45,-11.55,10.0,0.0,0.0,0.0,10.0,0.0,0.0,0.0,10.0
1446036126589654824,72,1446036126582266092,robocape_mag,16.5,-21.45,-11.55,10.0,0.0,0.0,0.0,10.0,0.0,0.0,0.0,10.0
1446036126620231949,73,1446036126615487098,robocape_mag,18.0,-19.95,-12.45,10.0,0.0,0.0,0.0,10.0,0.0,0.0,0.0,10.0
1446036126653494991,74,1446036126648571014,robocape_mag,18.0,-19.95,-12.45,10.0,0.0,0.0,0.0,10.0,0.0,0.0,0.0,10.0
1446036126686497408,75,1446036126681653022,robocape_mag,18.0,-19.95,-12.45,10.0,0.0,0.0,0.0,10.0,0.0,0.0,0.0,10.0
1446036126720292116,76,1446036126715445995,robocape_mag,18.0,-19.95,-12.45,10.0,0.0,0.0,0.0,10.0,0.0,0.0,0.0,10.0
1446036126752703449,77,1446036126747737884,robocape_mag,18.0,-21.45,-10.35,10.0,0.0,0.0,0.0,10.0,0.0,0.0,0.0,10.0
1446036126785295866,78,1446036126780265092,robocape_mag,17.1,-21.45,-10.35,10.0,0.0,0.0,0.0,10.0,0.0,0.0,0.0,10.0
1446036126818028574,79,1446036126813163995,robocape_mag,17.1,-21.45,-10.35,10.0,0.0,0.0,0.0,10.0,0.0,0.0,0.0,10.0
1446036126851950449,80,1446036126847089052,robocape_mag,17.1,-21.45,-10.35,10.0,0.0,0.0,0.0,10.0,0.0,0.0,0.0,10.0
1446036126888675283,81,1446036126879964113,robocape_mag,17.1,-21.45,-10.35,10.0,0.0,0.0,0.0,10.0,0.0,0.0,0.0,10.0
1446036126918261116,82,1446036126913480043,robocape_mag,17.7,-18.45,-12.75,10.0,0.0,0.0,0.0,10.0,0.0,0.0,0.0,10.0
1446036126955087491,83,1446036126946386098,robocape_mag,17.7,-18.45,-12.75,10.0,0.0,0.0,0.0,10.0,0.0,0.0,0.0,10.0
1446036126984183158,84,1446036126979320049,robocape_mag,17.7,-18.45,-12.75,10.0,0.0,0.0,0.0,10.0,0.0,0.0,0.0,10.0
1446036127017420075,85,1446036127012633085,robocape_mag,17.7,-18.45,-12.75,10.0,0.0,0.0,0.0,10.0,0.0,0.0,0.0,10.0
1446036127051209408,86,1446036127046242952,robocape_mag,17.7,-18.45,-12.75,10.0,0.0,0.0,0.0,10.0,0.0,0.0,0.0,10.0
1446036127084012366,87,1446036127079176902,robocape_mag,16.5,-21.45,-11.55,10.0,0.0,0.0,0.0,10.0,0.0,0.0,0.0,10.0
1446036127117500408,88,1446036127112694978,robocape_mag,16.5,-21.45,-11.55,10.0,0.0,0.0,0.0,10.0,0.0,0.0,0.0,10.0
1446036127150441200,89,1446036127145569086,robocape_mag,16.5,-21.45,-11.55,10.0,0.0,0.0,0.0,10.0,0.0,0.0,0.0,10.0
1446036127184312658,90,1446036127179516077,robocape_mag,16.5,-21.45,-11.55,10.0,0.0,0.0,0.0,10.0,0.0,0.0,0.0,10.0
1446036127217592075,91,1446036127212810993,robocape_mag,16.5,-21.45,-11.55,10.0,0.0,0.0,0.0,10.0,0.0,0.0,0.0,10.0
1446036127250674908,92,1446036127245888948,robocape_mag,17.4,-20.55,-10.65,10.0,0.0,0.0,0.0,10.0,0.0,0.0,0.0,10.0
1446036127283894450,93,1446036127279073953,robocape_mag,17.4,-20.55,-10.65,10.0,0.0,0.0,0.0,10.0,0.0,0.0,0.0,10.0
1446036127317486783,94,1446036127312685966,robocape_mag,17.4,-20.55,-10.65,10.0,0.0,0.0,0.0,10.0,0.0,0.0,0.0,10.0
1446036127350578533,95,1446036127345798969,robocape_mag,17.4,-20.55,-10.65,10.0,0.0,0.0,0.0,10.0,0.0,0.0,0.0,10.0
1446036127383723658,96,1446036127378942966,robocape_mag,17.4,-20.55,-10.65,10.0,0.0,0.0,0.0,10.0,0.0,0.0,0.0,10.0
1446036127418275116,97,1446036127412467002,robocape_mag,16.8,-19.95,-13.05,10.0,0.0,0.0,0.0,10.0,0.0,0.0,0.0,10.0
1446036127450564325,98,1446036127445696115,robocape_mag,16.8,-19.95,-13.05,10.0,0.0,0.0,0.0,10.0,0.0,0.0,0.0,10.0
1446036127485977700,99,1446036127480421066,robocape_mag,16.8,-19.95,-13.05,10.0,0.0,0.0,0.0,10.0,0.0,0.0,0.0,10.0
1446036127517262991,100,1446036127512244939,robocape_mag,16.8,-19.95,-13.05,10.0,0.0,0.0,0.0,10.0,0.0,0.0,0.0,10.0
1446036127553924366,101,1446036127548731088,robocape_mag,16.8,-19.95,-12.45,10.0,0.0,0.0,0.0,10.0,0.0,0.0,0.0,10.0
1446036127583892450,102,1446036127578931093,robocape_mag,16.8,-19.95,-12.45,10.0,0.0,0.0,0.0,10.0,0.0,0.0,0.0,10.0
1446036127619064658,103,1446036127612272977,robocape_mag,16.8,-19.95,-12.45,10.0,0.0,0.0,0.0,10.0,0.0,0.0,0.0,10.0
1446036127652567200,104,1446036127645565986,robocape_mag,16.8,-19.95,-12.45,10.0,0.0,0.0,0.0,10.0,0.0,0.0,0.0,10.0
1446036127684160117,105,1446036127679208993,robocape_mag,16.8,-19.95,-12.45,10.0,0.0,0.0,0.0,10.0,0.0,0.0,0.0,10.0
1446036127717379325,106,1446036127712440967,robocape_mag,14.4,-20.55,-12.45,10.0,0.0,0.0,0.0,10.0,0.0,0.0,0.0,10.0
1446036127758190033,107,1446036127748716115,robocape_mag,14.4,-20.55,-12.45,10.0,0.0,0.0,0.0,10.0,0.0,0.0,0.0,10.0
1446036127786808867,108,1446036127781970977,robocape_mag,14.4,-20.55,-12.45,10.0,0.0,0.0,0.0,10.0,0.0,0.0,0.0,10.0
1446036127819718408,109,1446036127814642906,robocape_mag,14.4,-20.55,-12.45,10.0,0.0,0.0,0.0,10.0,0.0,0.0,0.0,10.0
1446036127854555950,110,1446036127848180055,robocape_mag,14.4,-20.55,-12.45,10.0,0.0,0.0,0.0,10.0,0.0,0.0,0.0,10.0
1446036127886340575,111,1446036127881515026,robocape_mag,15.3,18.15,-10.95,10.0,0.0,0.0,0.0,10.0,0.0,0.0,0.0,10.0
1446036127919554533,112,1446036127914525032,robocape_mag,15.3,18.15,-10.95,10.0,0.0,0.0,0.0,10.0,0.0,0.0,0.0,10.0
1446036127953184367,113,1446036127948107004,robocape_mag,15.3,18.15,-10.95,10.0,0.0,0.0,0.0,10.0,0.0,0.0,0.0,10.0
1446036127985886742,114,1446036127980959892,robocape_mag,15.3,18.15,-10.95,10.0,0.0,0.0,0.0,10.0,0.0,0.0,0.0,10.0
1446036128018227825,115,1446036128013432025,robocape_mag,15.3,18.15,-10.95,10.0,0.0,0.0,0.0,10.0,0.0,0.0,0.0,10.0
1446036128052832742,116,1446036128047924041,robocape_mag,25.5,-28.65,-16.95,10.0,0.0,0.0,0.0,10.0,0.0,0.0,0.0,10.0
1446036128084280200,117,1446036128079483032,robocape_mag,25.5,-28.65,-16.95,10.0,0.0,0.0,0.0,10.0,0.0,0.0,0.0,10.0
1446036128117886783,118,1446036128112998008,robocape_mag,25.5,-28.65,-16.95,10.0,0.0,0.0,0.0,10.0,0.0,0.0,0.0,10.0
1446036128150831367,119,1446036128146060943,robocape_mag,25.5,-28.65,-16.95,10.0,0.0,0.0,0.0,10.0,0.0,0.0,0.0,10.0
1446036128184044408,120,1446036128179270029,robocape_mag,25.5,-28.65,-16.95,10.0,0.0,0.0,0.0,10.0,0.0,0.0,0.0,10.0
1446036128217567200,121,1446036128212610960,robocape_mag,23.7,-30.45,-16.35,10.0,0.0,0.0,0.0,10.0,0.0,0.0,0.0,10.0
1446036128250567200,122,1446036128245721101,robocape_mag,23.7,-30.45,-16.35,10.0,0.0,0.0,0.0,10.0,0.0,0.0,0.0,10.0
1446036128283960617,123,1446036128279182910,robocape_mag,23.7,-30.45,-16.35,10.0,0.0,0.0,0.0,10.0,0.0,0.0,0.0,10.0
1446036128317258992,124,1446036128312453985,robocape_mag,23.7,-30.45,-16.35,10.0,0.0,0.0,0.0,10.0,0.0,0.0,0.0,10.0
1446036128350546200,125,1446036128345747947,robocape_mag,23.7,-30.45,-16.35,10.0,0.0,0.0,0.0,10.0,0.0,0.0,0.0,10.0
1446036128383819409,126,1446036128378952980,robocape_mag,-6.3,-19.05,-13.95,10.0,0.0,0.0,0.0,10.0,0.0,0.0,0.0,10.0
1446036128417635700,127,1446036128412626028,robocape_mag,-6.3,-19.05,-13.95,10.0,0.0,0.0,0.0,10.0,0.0,0.0,0.0,10.0
1446036128450684492,128,1446036128445835113,robocape_mag,-6.3,-19.05,-13.95,10.0,0.0,0.0,0.0,10.0,0.0,0.0,0.0,10.0
1446036128484147825,129,1446036128479091882,robocape_mag,-6.3,-19.05,-13.95,10.0,0.0,0.0,0.0,10.0,0.0,0.0,0.0,10.0
1446036128517502617,130,1446036128512523889,robocape_mag,-17.4,-10.95,-14.25,10.0,0.0,0.0,0.0,10.0,0.0,0.0,0.0,10.0
1446036128556885409,131,1446036128548492908,robocape_mag,-17.4,-10.95,-14.25,10.0,0.0,0.0,0.0,10.0,0.0,0.0,0.0,10.0
1446036128583781409,132,1446036128578969955,robocape_mag,-17.4,-10.95,-14.25,10.0,0.0,0.0,0.0,10.0,0.0,0.0,0.0,10.0
1446036128617835117,133,1446036128612462997,robocape_mag,-17.4,-10.95,-14.25,10.0,0.0,0.0,0.0,10.0,0.0,0.0,0.0,10.0
1446036128650860242,134,1446036128646063089,robocape_mag,-17.4,-10.95,-14.25,10.0,0.0,0.0,0.0,10.0,0.0,0.0,0.0,10.0
1446036128683602159,135,1446036128678811073,robocape_mag,-2.4,-21.75,-7.65,10.0,0.0,0.0,0.0,10.0,0.0,0.0,0.0,10.0
1446036128717352034,136,1446036128712562084,robocape_mag,-2.4,-21.75,-7.65,10.0,0.0,0.0,0.0,10.0,0.0,0.0,0.0,10.0
1446036128751616367,137,1446036128746083021,robocape_mag,-2.4,-21.75,-7.65,10.0,0.0,0.0,0.0,10.0,0.0,0.0,0.0,10.0
1446036128784441909,138,1446036128778918981,robocape_mag,-2.4,-21.75,-7.65,10.0,0.0,0.0,0.0,10.0,0.0,0.0,0.0,10.0
1446036128817585284,139,1446036128812427043,robocape_mag,-2.4,-21.75,-7.65,10.0,0.0,0.0,0.0,10.0,0.0,0.0,0.0,10.0
1446036128850754784,140,1446036128845819950,robocape_mag,9.0,-15.15,-6.45,10.0,0.0,0.0,0.0,10.0,0.0,0.0,0.0,10.0
1446036128883834700,141,1446036128878918886,robocape_mag,9.0,-15.15,-6.45,10.0,0.0,0.0,0.0,10.0,0.0,0.0,0.0,10.0
1446036128917936117,142,1446036128912448883,robocape_mag,9.0,-15.15,-6.45,10.0,0.0,0.0,0.0,10.0,0.0,0.0,0.0,10.0
1446036128953572992,143,1446036128948478937,robocape_mag,9.0,-15.15,-6.45,10.0,0.0,0.0,0.0,10.0,0.0,0.0,0.0,10.0
1446036128985839950,144,1446036128980751991,robocape_mag,9.0,-15.15,-6.45,10.0,0.0,0.0,0.0,10.0,0.0,0.0,0.0,10.0
1446036129020231451,145,1446036129015064001,robocape_mag,-2.1,-23.85,-15.15,10.0,0.0,0.0,0.0,10.0,0.0,0.0,0.0,10.0
1446036129054218242,146,1446036129049227952,robocape_mag,-2.1,-23.85,-15.15,10.0,0.0,0.0,0.0,10.0,0.0,0.0,0.0,10.0
1446036129086832159,147,1446036129081931114,robocape_mag,-2.1,-23.85,-15.15,10.0,0.0,0.0,0.0,10.0,0.0,0.0,0.0,10.0
1446036129118813659,148,1446036129113807916,robocape_mag,-2.1,-23.85,-15.15,10.0,0.0,0.0,0.0,10.0,0.0,0.0,0.0,10.0
1446036129151759992,149,1446036129146893978,robocape_mag,-2.1,-23.85,-8.25,10.0,0.0,0.0,0.0,10.0,0.0,0.0,0.0,10.0
1446036129185355451,150,1446036129180402040,robocape_mag,11.4,-27.15,-8.25,10.0,0.0,0.0,0.0,10.0,0.0,0.0,0.0,10.0
1446036129218611034,151,1446036129213664054,robocape_mag,11.4,-27.15,-8.25,10.0,0.0,0.0,0.0,10.0,0.0,0.0,0.0,10.0
1446036129250847367,152,1446036129246052026,robocape_mag,11.4,-27.15,-8.25,10.0,0.0,0.0,0.0,10.0,0.0,0.0,0.0,10.0
1446036129284049701,153,1446036129279269933,robocape_mag,11.4,-27.15,-8.25,10.0,0.0,0.0,0.0,10.0,0.0,0.0,0.0,10.0
1446036129317632992,154,1446036129312836885,robocape_mag,-2.1,-7.65,-12.15,10.0,0.0,0.0,0.0,10.0,0.0,0.0,0.0,10.0
1446036129351144617,155,1446036129346272945,robocape_mag,-2.1,-7.65,-12.15,10.0,0.0,0.0,0.0,10.0,0.0,0.0,0.0,10.0
1446036129385598201,156,1446036129380680084,robocape_mag,-2.1,-7.65,-12.15,10.0,0.0,0.0,0.0,10.0,0.0,0.0,0.0,10.0
1446036129417020117,157,1446036129412280082,robocape_mag,-2.1,-7.65,-12.15,10.0,0.0,0.0,0.0,10.0,0.0,0.0,0.0,10.0
1446036129450730909,158,1446036129445880889,robocape_mag,-2.1,-7.65,-12.15,10.0,0.0,0.0,0.0,10.0,0.0,0.0,0.0,10.0
1446036129483919409,159,1446036129479069948,robocape_mag,0.6,-16.95,-15.45,10.0,0.0,0.0,0.0,10.0,0.0,0.0,0.0,10.0
1446036129517607451,160,1446036129512690067,robocape_mag,0.6,-16.95,-15.45,10.0,0.0,0.0,0.0,10.0,0.0,0.0,0.0,10.0
1446036129554309617,161,1446036129549228906,robocape_mag,0.6,-16.95,-15.45,10.0,0.0,0.0,0.0,10.0,0.0,0.0,0.0,10.0
1446036129586441409,162,1446036129581651926,robocape_mag,0.6,-16.95,-15.45,10.0,0.0,0.0,0.0,10.0,0.0,0.0,0.0,10.0
1446036129617495659,163,1446036129612719058,robocape_mag,0.6,-16.95,-15.45,10.0,0.0,0.0,0.0,10.0,0.0,0.0,0.0,10.0
1446036129650879909,164,1446036129646001100,robocape_mag,10.8,-33.15,-14.25,10.0,0.0,0.0,0.0,10.0,0.0,0.0,0.0,10.0
1446036129684228367,165,1446036129679425001,robocape_mag,10.8,-33.15,-14.25,10.0,0.0,0.0,0.0,10.0,0.0,0.0,0.0,10.0
1446036129717915659,166,1446036129712887048,robocape_mag,10.8,-33.15,-14.25,10.0,0.0,0.0,0.0,10.0,0.0,0.0,0.0,10.0
1446036129750867493,167,1446036129746043920,robocape_mag,10.8,-33.15,-14.25,10.0,0.0,0.0,0.0,10.0,0.0,0.0,0.0,10.0
1446036129784104534,168,1446036129779155015,robocape_mag,10.8,-33.15,-14.25,10.0,0.0,0.0,0.0,10.0,0.0,0.0,0.0,10.0
1446036129817518743,169,1446036129812649011,robocape_mag,36.3,-23.85,-12.75,10.0,0.0,0.0,0.0,10.0,0.0,0.0,0.0,10.0
1446036129850482659,170,1446036129845669984,robocape_mag,36.3,-23.85,-12.75,10.0,0.0,0.0,0.0,10.0,0.0,0.0,0.0,10.0
1446036129883758368,171,1446036129878845930,robocape_mag,36.3,-23.85,-12.75,10.0,0.0,0.0,0.0,10.0,0.0,0.0,0.0,10.0
1446036129917393326,172,1446036129912214994,robocape_mag,36.3,-23.85,-12.75,10.0,0.0,0.0,0.0,10.0,0.0,0.0,0.0,10.0
1446036129951258118,173,1446036129945770978,robocape_mag,36.3,-23.85,-12.75,10.0,0.0,0.0,0.0,10.0,0.0,0.0,0.0,10.0
1446036129984263784,174,1446036129978851079,robocape_mag,38.7,-12.45,-14.55,10.0,0.0,0.0,0.0,10.0,0.0,0.0,0.0,10.0
1446036130017500326,175,1446036130012361049,robocape_mag,38.7,-12.45,-14.55,10.0,0.0,0.0,0.0,10.0,0.0,0.0,0.0,10.0
1446036130051004618,176,1446036130045927047,robocape_mag,38.7,-12.45,-14.55,10.0,0.0,0.0,0.0,10.0,0.0,0.0,0.0,10.0
1446036130084381701,177,1446036130078995943,robocape_mag,38.7,-12.45,-14.55,10.0,0.0,0.0,0.0,10.0,0.0,0.0,0.0,10.0
1446036130117535326,178,1446036130112400054,robocape_mag,35.7,-21.45,-13.35,10.0,0.0,0.0,0.0,10.0,0.0,0.0,0.0,10.0
1446036130150849993,179,1446036130145648002,robocape_mag,35.7,-21.45,-13.35,10.0,0.0,0.0,0.0,10.0,0.0,0.0,0.0,10.0
1446036130185765076,180,1446036130179043054,robocape_mag,35.7,-21.45,-13.35,10.0,0.0,0.0,0.0,10.0,0.0,0.0,0.0,10.0
1446036130217770368,181,1446036130212558984,robocape_mag,35.7,-21.45,-13.35,10.0,0.0,0.0,0.0,10.0,0.0,0.0,0.0,10.0
1446036130250687201,182,1446036130245799064,robocape_mag,35.7,-21.45,-13.35,10.0,0.0,0.0,0.0,10.0,0.0,0.0,0.0,10.0
1446036130283935368,183,1446036130278949975,robocape_mag,26.7,-23.25,-6.75,10.0,0.0,0.0,0.0,10.0,0.0,0.0,0.0,10.0
1446036130317452951,184,1446036130312604904,robocape_mag,26.7,-23.25,-6.75,10.0,0.0,0.0,0.0,10.0,0.0,0.0,0.0,10.0
1446036130350774284,185,1446036130345887899,robocape_mag,26.7,-23.25,-6.75,10.0,0.0,0.0,0.0,10.0,0.0,0.0,0.0,10.0
1446036130383977784,186,1446036130378998041,robocape_mag,26.7,-23.25,-6.75,10.0,0.0,0.0,0.0,10.0,0.0,0.0,0.0,10.0
1446036130417398576,187,1446036130412333965,robocape_mag,26.7,-23.25,-6.75,10.0,0.0,0.0,0.0,10.0,0.0,0.0,0.0,10.0
1446036130452099743,188,1446036130446855068,robocape_mag,7.8,-5.55,-10.05,10.0,0.0,0.0,0.0,10.0,0.0,0.0,0.0,10.0
1446036130488426451,189,1446036130479476928,robocape_mag,7.8,-5.55,-10.05,10.0,0.0,0.0,0.0,10.0,0.0,0.0,0.0,10.0
1446036130517876951,190,1446036130512846946,robocape_mag,7.8,-5.55,-10.05,10.0,0.0,0.0,0.0,10.0,0.0,0.0,0.0,10.0
1446036130558587076,191,1446036130549561023,robocape_mag,7.8,-5.55,-10.05,10.0,0.0,0.0,0.0,10.0,0.0,0.0,0.0,10.0
1446036130613325118,192,1446036130579566955,robocape_mag,7.8,-5.55,-10.05,10.0,0.0,0.0,0.0,10.0,0.0,0.0,0.0,10.0
1446036130635315368,193,1446036130630525112,robocape_mag,-4.5,-7.05,-12.75,10.0,0.0,0.0,0.0,10.0,0.0,0.0,0.0,10.0
1446036130661921993,194,1446036130652398109,robocape_mag,-4.5,-7.05,-12.75,10.0,0.0,0.0,0.0,10.0,0.0,0.0,0.0,10.0
1446036130687485493,195,1446036130680218935,robocape_mag,-4.5,-7.05,-12.75,10.0,0.0,0.0,0.0,10.0,0.0,0.0,0.0,10.0
1446036130717545868,196,1446036130712392091,robocape_mag,-4.5,-7.05,-12.75,10.0,0.0,0.0,0.0,10.0,0.0,0.0,0.0,10.0
1446036130755530660,197,1446036130745805978,robocape_mag,-4.5,-7.05,-12.75,10.0,0.0,0.0,0.0,10.0,0.0,0.0,0.0,10.0
1446036130784222993,198,1446036130779175996,robocape_mag,8.7,-23.25,-4.35,10.0,0.0,0.0,0.0,10.0,0.0,0.0,0.0,10.0
1446036130817542660,199,1446036130812549114,robocape_mag,8.7,-23.25,-4.35,10.0,0.0,0.0,0.0,10.0,0.0,0.0,0.0,10.0
1446036130851305535,200,1446036130846111059,robocape_mag,8.7,-23.25,-4.35,10.0,0.0,0.0,0.0,10.0,0.0,0.0,0.0,10.0
1446036130883994535,201,1446036130879246950,robocape_mag,8.7,-23.25,-4.35,10.0,0.0,0.0,0.0,10.0,0.0,0.0,0.0,10.0
1446036130917418326,202,1446036130912211894,robocape_mag,-0.6,-12.15,-15.45,10.0,0.0,0.0,0.0,10.0,0.0,0.0,0.0,10.0
1446036130953489868,203,1446036130947612047,robocape_mag,-0.6,-12.15,-15.45,10.0,0.0,0.0,0.0,10.0,0.0,0.0,0.0,10.0
1446036130983650493,204,1446036130978892087,robocape_mag,-0.6,-12.15,-15.45,10.0,0.0,0.0,0.0,10.0,0.0,0.0,0.0,10.0
1446036131017637993,205,1446036131012501955,robocape_mag,-0.6,-12.15,-15.45,10.0,0.0,0.0,0.0,10.0,0.0,0.0,0.0,10.0
1446036131055188868,206,1446036131046807050,robocape_mag,-0.6,-12.15,-15.45,10.0,0.0,0.0,0.0,10.0,0.0,0.0,0.0,10.0
1446036131084123076,207,1446036131079165935,robocape_mag,11.7,-27.45,-6.75,10.0,0.0,0.0,0.0,10.0,0.0,0.0,0.0,10.0
1446036131121241993,208,1446036131116177082,robocape_mag,11.7,-27.45,-6.75,10.0,0.0,0.0,0.0,10.0,0.0,0.0,0.0,10.0
1446036131156477452,209,1446036131148123025,robocape_mag,11.7,-27.45,-6.75,10.0,0.0,0.0,0.0,10.0,0.0,0.0,0.0,10.0
1446036131184100577,210,1446036131179073095,robocape_mag,11.7,-27.45,-6.75,10.0,0.0,0.0,0.0,10.0,0.0,0.0,0.0,10.0
1446036131217370618,211,1446036131212301969,robocape_mag,11.7,-27.45,-6.75,10.0,0.0,0.0,0.0,10.0,0.0,0.0,0.0,10.0
1446036131250921368,212,1446036131245826959,robocape_mag,-0.6,-28.35,-8.25,10.0,0.0,0.0,0.0,10.0,0.0,0.0,0.0,10.0
1446036131283872618,213,1446036131278872013,robocape_mag,-0.6,-28.35,-8.25,10.0,0.0,0.0,0.0,10.0,0.0,0.0,0.0,10.0
1446036131317386743,214,1446036131312417030,robocape_mag,-0.6,-28.35,-8.25,10.0,0.0,0.0,0.0,10.0,0.0,0.0,0.0,10.0
1446036131357314993,215,1446036131348670005,robocape_mag,-0.6,-28.35,-8.25,10.0,0.0,0.0,0.0,10.0,0.0,0.0,0.0,10.0
1446036131386296035,216,1446036131380779981,robocape_mag,-0.6,-28.35,-8.25,10.0,0.0,0.0,0.0,10.0,0.0,0.0,0.0,10.0
1446036131418994077,217,1446036131412215948,robocape_mag,-23.1,-20.85,-18.75,10.0,0.0,0.0,0.0,10.0,0.0,0.0,0.0,10.0
1446036131451210285,218,1446036131446336984,robocape_mag,-23.1,-20.85,-18.75,10.0,0.0,0.0,0.0,10.0,0.0,0.0,0.0,10.0
1446036131484230952,219,1446036131479412078,robocape_mag,-23.1,-20.85,-18.75,10.0,0.0,0.0,0.0,10.0,0.0,0.0,0.0,10.0
1446036131519309952,220,1446036131512346982,robocape_mag,-23.1,-20.85,-18.75,10.0,0.0,0.0,0.0,10.0,0.0,0.0,0.0,10.0
1446036131553701660,221,1446036131548821926,robocape_mag,-23.1,-15.15,-9.45,10.0,0.0,0.0,0.0,10.0,0.0,0.0,0.0,10.0
1446036131585705785,222,1446036131580631017,robocape_mag,-9.6,-15.15,-9.45,10.0,0.0,0.0,0.0,10.0,0.0,0.0,0.0,10.0
1446036131618815035,223,1446036131613677978,robocape_mag,-9.6,-15.15,-9.45,10.0,0.0,0.0,0.0,10.0,0.0,0.0,0.0,10.0
1446036131652053243,224,1446036131647209882,robocape_mag,-9.6,-15.15,-9.45,10.0,0.0,0.0,0.0,10.0,0.0,0.0,0.0,10.0
1446036131684196535,225,1446036131679435968,robocape_mag,-9.6,-15.15,-9.45,10.0,0.0,0.0,0.0,10.0,0.0,0.0,0.0,10.0
1446036131724807702,226,1446036131719516992,robocape_mag,-15.0,-31.95,-14.25,10.0,0.0,0.0,0.0,10.0,0.0,0.0,0.0,10.0
1446036131752344660,227,1446036131747484922,robocape_mag,-15.0,-31.95,-14.25,10.0,0.0,0.0,0.0,10.0,0.0,0.0,0.0,10.0
1446036131786314827,228,1446036131781327962,robocape_mag,-15.0,-31.95,-14.25,10.0,0.0,0.0,0.0,10.0,0.0,0.0,0.0,10.0
1446036131819815285,229,1446036131814533948,robocape_mag,-15.0,-31.95,-14.25,10.0,0.0,0.0,0.0,10.0,0.0,0.0,0.0,10.0
1446036131852083119,230,1446036131846853971,robocape_mag,-15.0,-31.95,-14.25,10.0,0.0,0.0,0.0,10.0,0.0,0.0,0.0,10.0
1446036131897090369,231,1446036131887020111,robocape_mag,-8.7,-26.25,-17.55,10.0,0.0,0.0,0.0,10.0,0.0,0.0,0.0,10.0
1446036131921354785,232,1446036131916311025,robocape_mag,-8.7,-26.25,-17.55,10.0,0.0,0.0,0.0,10.0,0.0,0.0,0.0,10.0
1446036131951682660,233,1446036131946661949,robocape_mag,-8.7,-26.25,-17.55,10.0,0.0,0.0,0.0,10.0,0.0,0.0,0.0,10.0
1446036131987269535,234,1446036131981935024,robocape_mag,-8.7,-26.25,-17.55,10.0,0.0,0.0,0.0,10.0,0.0,0.0,0.0,10.0
1446036132022821619,235,1446036132015934944,robocape_mag,-8.7,-26.25,-17.55,10.0,0.0,0.0,0.0,10.0,0.0,0.0,0.0,10.0
1446036132055509285,236,1446036132049168109,robocape_mag,7.8,-13.95,-14.25,10.0,0.0,0.0,0.0,10.0,0.0,0.0,0.0,10.0
1446036132088529035,237,1446036132083226919,robocape_mag,7.8,-13.95,-14.25,10.0,0.0,0.0,0.0,10.0,0.0,0.0,0.0,10.0
1446036132125681869,238,1446036132116409063,robocape_mag,7.8,-13.95,-14.25,10.0,0.0,0.0,0.0,10.0,0.0,0.0,0.0,10.0
1446036132153994202,239,1446036132148726940,robocape_mag,7.8,-13.95,-14.25,10.0,0.0,0.0,0.0,10.0,0.0,0.0,0.0,10.0
1446036132187641285,240,1446036132182311058,robocape_mag,7.8,-13.95,-14.25,10.0,0.0,0.0,0.0,10.0,0.0,0.0,0.0,10.0
1446036132217169535,241,1446036132212282896,robocape_mag,9.9,-29.85,-18.15,10.0,0.0,0.0,0.0,10.0,0.0,0.0,0.0,10.0
1446036132251632994,242,1446036132245937108,robocape_mag,9.9,-29.85,-18.15,10.0,0.0,0.0,0.0,10.0,0.0,0.0,0.0,10.0
1446036132284681619,243,1446036132279125928,robocape_mag,9.9,-29.85,-18.15,10.0,0.0,0.0,0.0,10.0,0.0,0.0,0.0,10.0
1446036132321028244,244,1446036132315048933,robocape_mag,9.9,-29.85,-18.15,10.0,0.0,0.0,0.0,10.0,0.0,0.0,0.0,10.0
1446036132357387244,245,1446036132348027944,robocape_mag,9.9,-25.35,-8.25,10.0,0.0,0.0,0.0,10.0,0.0,0.0,0.0,10.0
1446036132384004577,246,1446036132379025936,robocape_mag,27.6,-25.35,-8.25,10.0,0.0,0.0,0.0,10.0,0.0,0.0,0.0,10.0
1446036132421024785,247,1446036132413151979,robocape_mag,27.6,-25.35,-8.25,10.0,0.0,0.0,0.0,10.0,0.0,0.0,0.0,10.0
1446036132453035494,248,1446036132447591066,robocape_mag,27.6,-25.35,-8.25,10.0,0.0,0.0,0.0,10.0,0.0,0.0,0.0,10.0
1446036132486227244,249,1446036132480966091,robocape_mag,27.6,-25.35,-8.25,10.0,0.0,0.0,0.0,10.0,0.0,0.0,0.0,10.0
1446036132520707744,250,1446036132515459060,robocape_mag,24.3,-16.65,-7.35,10.0,0.0,0.0,0.0,10.0,0.0,0.0,0.0,10.0
1446036132558474411,251,1446036132548408031,robocape_mag,24.3,-16.65,-7.35,10.0,0.0,0.0,0.0,10.0,0.0,0.0,0.0,10.0
1446036132585365036,252,1446036132580533981,robocape_mag,24.3,-16.65,-7.35,10.0,0.0,0.0,0.0,10.0,0.0,0.0,0.0,10.0
1446036132621929494,253,1446036132614212989,robocape_mag,24.3,-16.65,-7.35,10.0,0.0,0.0,0.0,10.0,0.0,0.0,0.0,10.0
1446036132651293952,254,1446036132646289110,robocape_mag,24.3,-16.65,-7.35,10.0,0.0,0.0,0.0,10.0,0.0,0.0,0.0,10.0
1446036132683978661,255,1446036132679141998,robocape_mag,12.3,-11.85,-16.35,10.0,0.0,0.0,0.0,10.0,0.0,0.0,0.0,10.0
1446036132717371244,256,1446036132712440013,robocape_mag,12.3,-11.85,-16.35,10.0,0.0,0.0,0.0,10.0,0.0,0.0,0.0,10.0
1446036132750197827,257,1446036132745533943,robocape_mag,12.3,-11.85,-16.35,10.0,0.0,0.0,0.0,10.0,0.0,0.0,0.0,10.0
1446036132784908536,258,1446036132780073881,robocape_mag,12.3,-11.85,-16.35,10.0,0.0,0.0,0.0,10.0,0.0,0.0,0.0,10.0
1446036132817333577,259,1446036132812376022,robocape_mag,12.3,-11.85,-16.35,10.0,0.0,0.0,0.0,10.0,0.0,0.0,0.0,10.0
1446036132850521244,260,1446036132845726966,robocape_mag,9.6,-29.55,-19.05,10.0,0.0,0.0,0.0,10.0,0.0,0.0,0.0,10.0
1446036132885861786,261,1446036132880739927,robocape_mag,9.6,-29.55,-19.05,10.0,0.0,0.0,0.0,10.0,0.0,0.0,0.0,10.0
1446036132917604577,262,1446036132912657976,robocape_mag,9.6,-29.55,-19.05,10.0,0.0,0.0,0.0,10.0,0.0,0.0,0.0,10.0
1446036132950456911,263,1446036132945677995,robocape_mag,9.6,-29.55,-19.05,10.0,0.0,0.0,0.0,10.0,0.0,0.0,0.0,10.0
1446036132983828161,264,1446036132978986024,robocape_mag,9.6,-29.55,-19.05,10.0,0.0,0.0,0.0,10.0,0.0,0.0,0.0,10.0
1446036133023085327,265,1446036133015429019,robocape_mag,30.6,-15.15,-9.45,10.0,0.0,0.0,0.0,10.0,0.0,0.0,0.0,10.0
1446036133050752494,266,1446036133045759916,robocape_mag,30.6,-15.15,-9.45,10.0,0.0,0.0,0.0,10.0,0.0,0.0,0.0,10.0
1446036133084548202,267,1446036133079005956,robocape_mag,30.6,-15.15,-9.45,10.0,0.0,0.0,0.0,10.0,0.0,0.0,0.0,10.0
1446036133117571661,268,1446036133112659931,robocape_mag,30.6,-15.15,-9.45,10.0,0.0,0.0,0.0,10.0,0.0,0.0,0.0,10.0
1446036133150641452,269,1446036133145884037,robocape_mag,30.6,-15.15,-9.45,10.0,0.0,0.0,0.0,10.0,0.0,0.0,0.0,10.0
1446036133185066119,270,1446036133180128097,robocape_mag,35.7,-28.65,-16.35,10.0,0.0,0.0,0.0,10.0,0.0,0.0,0.0,10.0
1446036133217338286,271,1446036133212543010,robocape_mag,35.7,-28.65,-16.35,10.0,0.0,0.0,0.0,10.0,0.0,0.0,0.0,10.0
1446036133250565244,272,1446036133245815992,robocape_mag,35.7,-28.65,-16.35,10.0,0.0,0.0,0.0,10.0,0.0,0.0,0.0,10.0
1446036133283821578,273,1446036133278923988,robocape_mag,35.7,-28.65,-16.35,10.0,0.0,0.0,0.0,10.0,0.0,0.0,0.0,10.0
1446036133317274244,274,1446036133312290906,robocape_mag,34.2,-30.15,-13.05,10.0,0.0,0.0,0.0,10.0,0.0,0.0,0.0,10.0
1446036133350613078,275,1446036133345807075,robocape_mag,34.2,-30.15,-13.05,10.0,0.0,0.0,0.0,10.0,0.0,0.0,0.0,10.0
1446036133384931578,276,1446036133378834009,robocape_mag,34.2,-30.15,-13.05,10.0,0.0,0.0,0.0,10.0,0.0,0.0,0.0,10.0
1446036133417561703,277,1446036133412494897,robocape_mag,34.2,-30.15,-13.05,10.0,0.0,0.0,0.0,10.0,0.0,0.0,0.0,10.0
1446036133450428494,278,1446036133445627927,robocape_mag,34.2,-30.15,-13.05,10.0,0.0,0.0,0.0,10.0,0.0,0.0,0.0,10.0
1446036133484738619,279,1446036133478821992,robocape_mag,27.0,-25.95,-11.25,10.0,0.0,0.0,0.0,10.0,0.0,0.0,0.0,10.0
1446036133517421286,280,1446036133512279033,robocape_mag,27.0,-25.95,-11.25,10.0,0.0,0.0,0.0,10.0,0.0,0.0,0.0,10.0
1446036133555283578,281,1446036133547838926,robocape_mag,27.0,-25.95,-11.25,10.0,0.0,0.0,0.0,10.0,0.0,0.0,0.0,10.0
1446036133587000494,282,1446036133581757068,robocape_mag,27.0,-25.95,-11.25,10.0,0.0,0.0,0.0,10.0,0.0,0.0,0.0,10.0
1446036133620294411,283,1446036133612335920,robocape_mag,27.0,-25.95,-11.25,10.0,0.0,0.0,0.0,10.0,0.0,0.0,0.0,10.0
1446036133651189161,284,1446036133646141052,robocape_mag,11.4,-30.15,-10.65,10.0,0.0,0.0,0.0,10.0,0.0,0.0,0.0,10.0
1446036133688635244,285,1446036133681647062,robocape_mag,11.4,-30.15,-10.65,10.0,0.0,0.0,0.0,10.0,0.0,0.0,0.0,10.0
1446036133720809661,286,1446036133712258100,robocape_mag,11.4,-30.15,-10.65,10.0,0.0,0.0,0.0,10.0,0.0,0.0,0.0,10.0
1446036133750520703,287,1446036133745595932,robocape_mag,11.4,-30.15,-10.65,10.0,0.0,0.0,0.0,10.0,0.0,0.0,0.0,10.0
1446036133786642994,288,1446036133781598091,robocape_mag,11.4,-30.15,-10.65,10.0,0.0,0.0,0.0,10.0,0.0,0.0,0.0,10.0
1446036133818516286,289,1446036133813385963,robocape_mag,6.9,-29.25,-7.95,10.0,0.0,0.0,0.0,10.0,0.0,0.0,0.0,10.0
1446036133850367994,290,1446036133845612049,robocape_mag,6.9,-29.25,-7.95,10.0,0.0,0.0,0.0,10.0,0.0,0.0,0.0,10.0
1446036133884156869,291,1446036133879239082,robocape_mag,6.9,-29.25,-7.95,10.0,0.0,0.0,0.0,10.0,0.0,0.0,0.0,10.0
1446036133917233703,292,1446036133912200927,robocape_mag,6.9,-29.25,-7.95,10.0,0.0,0.0,0.0,10.0,0.0,0.0,0.0,10.0
1446036133953322245,293,1446036133946788072,robocape_mag,6.9,-29.25,-7.95,10.0,0.0,0.0,0.0,10.0,0.0,0.0,0.0,10.0
1446036133983758703,294,1446036133978920936,robocape_mag,9.0,-13.35,-5.25,10.0,0.0,0.0,0.0,10.0,0.0,0.0,0.0,10.0
1446036134017530120,295,1446036134012325048,robocape_mag,9.0,-13.35,-5.25,10.0,0.0,0.0,0.0,10.0,0.0,0.0,0.0,10.0
1446036134051344453,296,1446036134046062946,robocape_mag,9.0,-13.35,-5.25,10.0,0.0,0.0,0.0,10.0,0.0,0.0,0.0,10.0
1446036134083864745,297,1446036134079040050,robocape_mag,9.0,-13.35,-5.25,10.0,0.0,0.0,0.0,10.0,0.0,0.0,0.0,10.0
1446036134117037745,298,1446036134112268924,robocape_mag,8.7,-8.25,-9.75,10.0,0.0,0.0,0.0,10.0,0.0,0.0,0.0,10.0
1446036134152342870,299,1446036134147358894,robocape_mag,8.7,-8.25,-9.75,10.0,0.0,0.0,0.0,10.0,0.0,0.0,0.0,10.0
1446036134183830828,300,1446036134179049968,robocape_mag,8.7,-8.25,-9.75,10.0,0.0,0.0,0.0,10.0,0.0,0.0,0.0,10.0
1446036134217138703,301,1446036134212291002,robocape_mag,8.7,-8.25,-9.75,10.0,0.0,0.0,0.0,10.0,0.0,0.0,0.0,10.0
1446036134255431370,302,1446036134250238895,robocape_mag,8.7,-8.25,-9.75,10.0,0.0,0.0,0.0,10.0,0.0,0.0,0.0,10.0
1446036134283631536,303,1446036134278861999,robocape_mag,14.1,-9.45,-9.75,10.0,0.0,0.0,0.0,10.0,0.0,0.0,0.0,10.0
1446036134317578411,304,1446036134312333106,robocape_mag,14.1,-9.45,-9.75,10.0,0.0,0.0,0.0,10.0,0.0,0.0,0.0,10.0
1446036134350685328,305,1446036134345746994,robocape_mag,14.1,-9.45,-9.75,10.0,0.0,0.0,0.0,10.0,0.0,0.0,0.0,10.0
1446036134383565120,306,1446036134378850936,robocape_mag,14.1,-9.45,-9.75,10.0,0.0,0.0,0.0,10.0,0.0,0.0,0.0,10.0
1446036134422642661,307,1446036134415535926,robocape_mag,14.1,-9.45,-9.75,10.0,0.0,0.0,0.0,10.0,0.0,0.0,0.0,10.0
1446036134450591245,308,1446036134445643901,robocape_mag,13.8,-23.55,-24.45,10.0,0.0,0.0,0.0,10.0,0.0,0.0,0.0,10.0
1446036134483529620,309,1446036134478856086,robocape_mag,13.8,-23.55,-24.45,10.0,0.0,0.0,0.0,10.0,0.0,0.0,0.0,10.0
1446036134517559536,310,1446036134512229919,robocape_mag,13.8,-23.55,-24.45,10.0,0.0,0.0,0.0,10.0,0.0,0.0,0.0,10.0
1446036134554698245,311,1446036134548640966,robocape_mag,13.8,-23.55,-24.45,10.0,0.0,0.0,0.0,10.0,0.0,0.0,0.0,10.0
1446036134584010453,312,1446036134579026937,robocape_mag,13.8,-23.55,-24.45,10.0,0.0,0.0,0.0,10.0,0.0,0.0,0.0,10.0
1446036134618516828,313,1446036134612273931,robocape_mag,26.7,-27.45,-26.55,10.0,0.0,0.0,0.0,10.0,0.0,0.0,0.0,10.0
1446036134656224578,314,1446036134651124000,robocape_mag,26.7,-27.45,-26.55,10.0,0.0,0.0,0.0,10.0,0.0,0.0,0.0,10.0
1446036134691792078,315,1446036134681807994,robocape_mag,26.7,-27.45,-26.55,10.0,0.0,0.0,0.0,10.0,0.0,0.0,0.0,10.0
1446036134720227703,316,1446036134714955091,robocape_mag,26.7,-27.45,-26.55,10.0,0.0,0.0,0.0,10.0,0.0,0.0,0.0,10.0
1446036134750582412,317,1446036134745543956,robocape_mag,26.7,-27.45,-26.55,10.0,0.0,0.0,0.0,10.0,0.0,0.0,0.0,10.0
1446036134783903078,318,1446036134778995990,robocape_mag,31.8,-26.55,-17.25,10.0,0.0,0.0,0.0,10.0,0.0,0.0,0.0,10.0
1446036134817246203,319,1446036134812124013,robocape_mag,31.8,-26.55,-17.25,10.0,0.0,0.0,0.0,10.0,0.0,0.0,0.0,10.0
1446036134850295870,320,1446036134845535993,robocape_mag,31.8,-26.55,-17.25,10.0,0.0,0.0,0.0,10.0,0.0,0.0,0.0,10.0
1446036134883818412,321,1446036134879070997,robocape_mag,31.8,-26.55,-17.25,10.0,0.0,0.0,0.0,10.0,0.0,0.0,0.0,10.0
1446036134916963370,322,1446036134912153959,robocape_mag,17.1,-4.65,-13.95,10.0,0.0,0.0,0.0,10.0,0.0,0.0,0.0,10.0
1446036134950239037,323,1446036134945549964,robocape_mag,17.1,-4.65,-13.95,10.0,0.0,0.0,0.0,10.0,0.0,0.0,0.0,10.0
1446036134984035953,324,1446036134979171037,robocape_mag,17.1,-4.65,-13.95,10.0,0.0,0.0,0.0,10.0,0.0,0.0,0.0,10.0
1446036135017240453,325,1446036135012418031,robocape_mag,17.1,-4.65,-13.95,10.0,0.0,0.0,0.0,10.0,0.0,0.0,0.0,10.0
1446036135051114120,326,1446036135046113014,robocape_mag,17.1,-4.65,-13.95,10.0,0.0,0.0,0.0,10.0,0.0,0.0,0.0,10.0
1446036135084559328,327,1446036135079699039,robocape_mag,16.5,-24.45,-16.95,10.0,0.0,0.0,0.0,10.0,0.0,0.0,0.0,10.0
1446036135117542245,328,1446036135112658023,robocape_mag,16.5,-24.45,-16.95,10.0,0.0,0.0,0.0,10.0,0.0,0.0,0.0,10.0
1446036135151990412,329,1446036135146917104,robocape_mag,16.5,-24.45,-16.95,10.0,0.0,0.0,0.0,10.0,0.0,0.0,0.0,10.0
1446036135185235412,330,1446036135180341005,robocape_mag,16.5,-24.45,-16.95,10.0,0.0,0.0,0.0,10.0,0.0,0.0,0.0,10.0
1446036135217321870,331,1446036135212372064,robocape_mag,16.5,-24.45,-16.95,10.0,0.0,0.0,0.0,10.0,0.0,0.0,0.0,10.0
1446036135252646162,332,1446036135245476007,robocape_mag,18.6,-12.75,-25.05,10.0,0.0,0.0,0.0,10.0,0.0,0.0,0.0,10.0
1446036135283699245,333,1446036135278974056,robocape_mag,18.6,-12.75,-25.05,10.0,0.0,0.0,0.0,10.0,0.0,0.0,0.0,10.0
1446036135317454204,334,1446036135312339067,robocape_mag,18.6,-12.75,-25.05,10.0,0.0,0.0,0.0,10.0,0.0,0.0,0.0,10.0
1446036135350100162,335,1446036135345437049,robocape_mag,18.6,-12.75,-25.05,10.0,0.0,0.0,0.0,10.0,0.0,0.0,0.0,10.0
1446036135388104079,336,1446036135381941080,robocape_mag,18.6,-12.75,-25.05,10.0,0.0,0.0,0.0,10.0,0.0,0.0,0.0,10.0
1446036135417006204,337,1446036135412146091,robocape_mag,47.1,-13.05,-16.35,10.0,0.0,0.0,0.0,10.0,0.0,0.0,0.0,10.0
1446036135450417620,338,1446036135445647001,robocape_mag,47.1,-13.05,-16.35,10.0,0.0,0.0,0.0,10.0,0.0,0.0,0.0,10.0
1446036135487165120,339,1446036135482362985,robocape_mag,47.1,-13.05,-16.35,10.0,0.0,0.0,0.0,10.0,0.0,0.0,0.0,10.0
1446036135521250745,340,1446036135516391992,robocape_mag,47.1,-13.05,-16.35,10.0,0.0,0.0,0.0,10.0,0.0,0.0,0.0,10.0
1446036135557870745,341,1446036135548341035,robocape_mag,47.1,-19.65,-18.75,10.0,0.0,0.0,0.0,10.0,0.0,0.0,0.0,10.0
1446036135584048829,342,1446036135579046964,robocape_mag,40.5,-19.65,-18.75,10.0,0.0,0.0,0.0,10.0,0.0,0.0,0.0,10.0
1446036135617355412,343,1446036135612219095,robocape_mag,40.5,-19.65,-18.75,10.0,0.0,0.0,0.0,10.0,0.0,0.0,0.0,10.0
1446036135650173412,344,1446036135645451068,robocape_mag,40.5,-19.65,-18.75,10.0,0.0,0.0,0.0,10.0,0.0,0.0,0.0,10.0
1446036135686095537,345,1446036135681032896,robocape_mag,40.5,-19.65,-18.75,10.0,0.0,0.0,0.0,10.0,0.0,0.0,0.0,10.0
1446036135717415079,346,1446036135712476015,robocape_mag,32.1,-1.05,-11.55,10.0,0.0,0.0,0.0,10.0,0.0,0.0,0.0,10.0
1446036135750273162,347,1446036135745477914,robocape_mag,32.1,-1.05,-11.55,10.0,0.0,0.0,0.0,10.0,0.0,0.0,0.0,10.0
1446036135783684245,348,1446036135778945922,robocape_mag,32.1,-1.05,-11.55,10.0,0.0,0.0,0.0,10.0,0.0,0.0,0.0,10.0
1446036135817108412,349,1446036135812158107,robocape_mag,32.1,-1.05,-11.55,10.0,0.0,0.0,0.0,10.0,0.0,0.0,0.0,10.0
1446036135854111037,350,1446036135848391056,robocape_mag,32.1,-1.05,-11.55,10.0,0.0,0.0,0.0,10.0,0.0,0.0,0.0,10.0
1446036135883683537,351,1446036135878860950,robocape_mag,26.7,0.15,-12.75,10.0,0.0,0.0,0.0,10.0,0.0,0.0,0.0,10.0
1446036135917704954,352,1446036135912410020,robocape_mag,26.7,0.15,-12.75,10.0,0.0,0.0,0.0,10.0,0.0,0.0,0.0,10.0
1446036135950976162,353,1446036135945835113,robocape_mag,26.7,0.15,-12.75,10.0,0.0,0.0,0.0,10.0,0.0,0.0,0.0,10.0
1446036135986176662,354,1446036135981334924,robocape_mag,26.7,0.15,-12.75,10.0,0.0,0.0,0.0,10.0,0.0,0.0,0.0,10.0
1446036136017056287,355,1446036136012178897,robocape_mag,26.7,0.15,-12.75,10.0,0.0,0.0,0.0,10.0,0.0,0.0,0.0,10.0
1446036136052576829,356,1446036136045480012,robocape_mag,22.2,-10.95,-26.25,10.0,0.0,0.0,0.0,10.0,0.0,0.0,0.0,10.0
1446036136084098537,357,1446036136079037904,robocape_mag,22.2,-10.95,-26.25,10.0,0.0,0.0,0.0,10.0,0.0,0.0,0.0,10.0
1446036136118199454,358,1446036136113281965,robocape_mag,22.2,-10.95,-26.25,10.0,0.0,0.0,0.0,10.0,0.0,0.0,0.0,10.0
1446036136150185246,359,1446036136145484924,robocape_mag,22.2,-10.95,-26.25,10.0,0.0,0.0,0.0,10.0,0.0,0.0,0.0,10.0
1446036136183710079,360,1446036136178847074,robocape_mag,22.2,-10.95,-26.25,10.0,0.0,0.0,0.0,10.0,0.0,0.0,0.0,10.0
1446036136217894121,361,1446036136212997913,robocape_mag,43.2,-13.35,-22.05,10.0,0.0,0.0,0.0,10.0,0.0,0.0,0.0,10.0
1446036136250811246,362,1446036136245986938,robocape_mag,43.2,-13.35,-22.05,10.0,0.0,0.0,0.0,10.0,0.0,0.0,0.0,10.0
1446036136283758621,363,1446036136278940916,robocape_mag,43.2,-13.35,-22.05,10.0,0.0,0.0,0.0,10.0,0.0,0.0,0.0,10.0
1446036136316968204,364,1446036136312274932,robocape_mag,43.2,-13.35,-22.05,10.0,0.0,0.0,0.0,10.0,0.0,0.0,0.0,10.0
1446036136352005412,365,1446036136346909999,robocape_mag,43.2,-13.35,-22.05,10.0,0.0,0.0,0.0,10.0,0.0,0.0,0.0,10.0
1446036136383862496,366,1446036136379025936,robocape_mag,24.9,-1.05,-26.55,10.0,0.0,0.0,0.0,10.0,0.0,0.0,0.0,10.0
1446036136417726537,367,1446036136412446022,robocape_mag,24.9,-1.05,-26.55,10.0,0.0,0.0,0.0,10.0,0.0,0.0,0.0,10.0
1446036136450759704,368,1446036136445512056,robocape_mag,24.9,-1.05,-26.55,10.0,0.0,0.0,0.0,10.0,0.0,0.0,0.0,10.0
1446036136484694621,369,1446036136479274988,robocape_mag,24.9,-1.05,-26.55,10.0,0.0,0.0,0.0,10.0,0.0,0.0,0.0,10.0
1446036136518145371,370,1446036136512330055,robocape_mag,16.2,-2.55,-21.45,10.0,0.0,0.0,0.0,10.0,0.0,0.0,0.0,10.0
1446036136555688996,371,1446036136547642946,robocape_mag,16.2,-2.55,-21.45,10.0,0.0,0.0,0.0,10.0,0.0,0.0,0.0,10.0
1446036136584439829,372,1446036136579031944,robocape_mag,16.2,-2.55,-21.45,10.0,0.0,0.0,0.0,10.0,0.0,0.0,0.0,10.0
1446036136617438996,373,1446036136612421989,robocape_mag,16.2,-2.55,-21.45,10.0,0.0,0.0,0.0,10.0,0.0,0.0,0.0,10.0
1446036136650190287,374,1446036136645509004,robocape_mag,16.2,-2.55,-21.45,10.0,0.0,0.0,0.0,10.0,0.0,0.0,0.0,10.0
1446036136683978996,375,1446036136678772926,robocape_mag,9.6,-0.15,-19.05,10.0,0.0,0.0,0.0,10.0,0.0,0.0,0.0,10.0
1446036136717443371,376,1446036136712521076,robocape_mag,9.6,-0.15,-19.05,10.0,0.0,0.0,0.0,10.0,0.0,0.0,0.0,10.0
1446036136750261329,377,1446036136745546102,robocape_mag,9.6,-0.15,-19.05,10.0,0.0,0.0,0.0,10.0,0.0,0.0,0.0,10.0
1446036136785226996,378,1446036136778919935,robocape_mag,9.6,-0.15,-19.05,10.0,0.0,0.0,0.0,10.0,0.0,0.0,0.0,10.0
1446036136817042746,379,1446036136812289953,robocape_mag,9.6,-0.15,-19.05,10.0,0.0,0.0,0.0,10.0,0.0,0.0,0.0,10.0
1446036136850222621,380,1446036136845463037,robocape_mag,9.9,-6.45,-18.75,10.0,0.0,0.0,0.0,10.0,0.0,0.0,0.0,10.0
1446036136885183954,381,1446036136879142999,robocape_mag,9.9,-6.45,-18.75,10.0,0.0,0.0,0.0,10.0,0.0,0.0,0.0,10.0
1446036136917342579,382,1446036136912416934,robocape_mag,9.9,-6.45,-18.75,10.0,0.0,0.0,0.0,10.0,0.0,0.0,0.0,10.0
1446036136950286829,383,1446036136945559978,robocape_mag,9.9,-6.45,-18.75,10.0,0.0,0.0,0.0,10.0,0.0,0.0,0.0,10.0
1446036136984293829,384,1446036136979084014,robocape_mag,9.9,-6.45,-18.75,10.0,0.0,0.0,0.0,10.0,0.0,0.0,0.0,10.0
1446036137016962371,385,1446036137012207031,robocape_mag,30.9,-2.85,-6.75,10.0,0.0,0.0,0.0,10.0,0.0,0.0,0.0,10.0
1446036137056500663,386,1446036137048415899,robocape_mag,30.9,-2.85,-6.75,10.0,0.0,0.0,0.0,10.0,0.0,0.0,0.0,10.0
1446036137083658746,387,1446036137078859090,robocape_mag,30.9,-2.85,-6.75,10.0,0.0,0.0,0.0,10.0,0.0,0.0,0.0,10.0
1446036137116911288,388,1446036137112145900,robocape_mag,30.9,-2.85,-6.75,10.0,0.0,0.0,0.0,10.0,0.0,0.0,0.0,10.0
1446036137150743288,389,1446036137145643949,robocape_mag,30.9,-2.85,-6.75,10.0,0.0,0.0,0.0,10.0,0.0,0.0,0.0,10.0
1446036137184163121,390,1446036137179069995,robocape_mag,15.0,-9.15,-19.65,10.0,0.0,0.0,0.0,10.0,0.0,0.0,0.0,10.0
1446036137217079788,391,1446036137212362051,robocape_mag,15.0,-9.15,-19.65,10.0,0.0,0.0,0.0,10.0,0.0,0.0,0.0,10.0
1446036137250220121,392,1446036137245496988,robocape_mag,15.0,-9.15,-19.65,10.0,0.0,0.0,0.0,10.0,0.0,0.0,0.0,10.0
1446036137283908204,393,1446036137279047966,robocape_mag,15.0,-9.15,-19.65,10.0,0.0,0.0,0.0,10.0,0.0,0.0,0.0,10.0
1446036137316862704,394,1446036137312138080,robocape_mag,8.4,2.85,-17.85,10.0,0.0,0.0,0.0,10.0,0.0,0.0,0.0,10.0
1446036137350156163,395,1446036137345454931,robocape_mag,8.4,2.85,-17.85,10.0,0.0,0.0,0.0,10.0,0.0,0.0,0.0,10.0
1446036137383679538,396,1446036137378956079,robocape_mag,8.4,2.85,-17.85,10.0,0.0,0.0,0.0,10.0,0.0,0.0,0.0,10.0
1446036137416846205,397,1446036137412115097,robocape_mag,8.4,2.85,-17.85,10.0,0.0,0.0,0.0,10.0,0.0,0.0,0.0,10.0
1446036137450640080,398,1446036137445816993,robocape_mag,8.4,2.85,-17.85,10.0,0.0,0.0,0.0,10.0,0.0,0.0,0.0,10.0
1446036137484775580,399,1446036137480043888,robocape_mag,3.0,-7.95,-14.25,10.0,0.0,0.0,0.0,10.0,0.0,0.0,0.0,10.0
1446036137517083663,400,1446036137512300014,robocape_mag,3.0,-7.95,-14.25,10.0,0.0,0.0,0.0,10.0,0.0,0.0,0.0,10.0
1446036137557140205,401,1446036137547657012,robocape_mag,3.0,-7.95,-14.25,10.0,0.0,0.0,0.0,10.0,0.0,0.0,0.0,10.0
1446036137585360788,402,1446036137580420970,robocape_mag,3.0,-7.95,-14.25,10.0,0.0,0.0,0.0,10.0,0.0,0.0,0.0,10.0
1446036137617165538,403,1446036137612375974,robocape_mag,3.0,-7.95,-14.25,10.0,0.0,0.0,0.0,10.0,0.0,0.0,0.0,10.0
1446036137650360496,404,1446036137645560979,robocape_mag,5.4,3.45,-8.85,10.0,0.0,0.0,0.0,10.0,0.0,0.0,0.0,10.0
1446036137683973788,405,1446036137679163932,robocape_mag,5.4,3.45,-8.85,10.0,0.0,0.0,0.0,10.0,0.0,0.0,0.0,10.0
1446036137717121413,406,1446036137712323904,robocape_mag,5.4,3.45,-8.85,10.0,0.0,0.0,0.0,10.0,0.0,0.0,0.0,10.0
1446036137750521330,407,1446036137745723962,robocape_mag,5.4,3.45,-8.85,10.0,0.0,0.0,0.0,10.0,0.0,0.0,0.0,10.0
1446036137783749913,408,1446036137779009103,robocape_mag,5.4,3.45,-8.85,10.0,0.0,0.0,0.0,10.0,0.0,0.0,0.0,10.0
1446036137817067413,409,1446036137812326908,robocape_mag,3.6,1.05,-7.65,10.0,0.0,0.0,0.0,10.0,0.0,0.0,0.0,10.0
1446036137850470330,410,1446036137845691919,robocape_mag,3.6,1.05,-7.65,10.0,0.0,0.0,0.0,10.0,0.0,0.0,0.0,10.0
1446036137888407371,411,1446036137883049011,robocape_mag,3.6,1.05,-7.65,10.0,0.0,0.0,0.0,10.0,0.0,0.0,0.0,10.0
1446036137916811413,412,1446036137912100076,robocape_mag,3.6,1.05,-7.65,10.0,0.0,0.0,0.0,10.0,0.0,0.0,0.0,10.0
1446036137950228580,413,1446036137945552110,robocape_mag,3.6,1.05,-7.65,10.0,0.0,0.0,0.0,10.0,0.0,0.0,0.0,10.0
1446036137986333163,414,1446036137980261087,robocape_mag,-5.1,1.35,-11.55,10.0,0.0,0.0,0.0,10.0,0.0,0.0,0.0,10.0
1446036138017101330,415,1446036138012274026,robocape_mag,-5.1,1.35,-11.55,10.0,0.0,0.0,0.0,10.0,0.0,0.0,0.0,10.0
1446036138053064455,416,1446036138045856952,robocape_mag,-5.1,1.35,-11.55,10.0,0.0,0.0,0.0,10.0,0.0,0.0,0.0,10.0
1446036138084067871,417,1446036138079103946,robocape_mag,-5.1,1.35,-11.55,10.0,0.0,0.0,0.0,10.0,0.0,0.0,0.0,10.0
1446036138120337205,418,1446036138115392923,robocape_mag,-12.3,-9.45,-16.95,10.0,0.0,0.0,0.0,10.0,0.0,0.0,0.0,10.0
1446036138150184705,419,1446036138145466089,robocape_mag,-12.3,-9.45,-16.95,10.0,0.0,0.0,0.0,10.0,0.0,0.0,0.0,10.0
1446036138183750497,420,1446036138179033994,robocape_mag,-12.3,-9.45,-16.95,10.0,0.0,0.0,0.0,10.0,0.0,0.0,0.0,10.0
1446036138224634705,421,1446036138216207027,robocape_mag,-12.3,-9.45,-16.95,10.0,0.0,0.0,0.0,10.0,0.0,0.0,0.0,10.0
1446036138253294830,422,1446036138248433113,robocape_mag,-12.3,-9.45,-16.95,10.0,0.0,0.0,0.0,10.0,0.0,0.0,0.0,10.0
1446036138286500163,423,1446036138281680107,robocape_mag,26.1,-10.05,-3.75,10.0,0.0,0.0,0.0,10.0,0.0,0.0,0.0,10.0
1446036138316831705,424,1446036138312139034,robocape_mag,26.1,-10.05,-3.75,10.0,0.0,0.0,0.0,10.0,0.0,0.0,0.0,10.0
1446036138350237372,425,1446036138345541954,robocape_mag,26.1,-10.05,-3.75,10.0,0.0,0.0,0.0,10.0,0.0,0.0,0.0,10.0
1446036138386115580,426,1446036138381155967,robocape_mag,26.1,-10.05,-3.75,10.0,0.0,0.0,0.0,10.0,0.0,0.0,0.0,10.0
1446036138418268205,427,1446036138413513898,robocape_mag,26.1,-10.05,-3.75,10.0,0.0,0.0,0.0,10.0,0.0,0.0,0.0,10.0
1446036138450633705,428,1446036138445812940,robocape_mag,36.9,-11.85,-9.15,10.0,0.0,0.0,0.0,10.0,0.0,0.0,0.0,10.0
1446036138483980788,429,1446036138478995084,robocape_mag,36.9,-11.85,-9.15,10.0,0.0,0.0,0.0,10.0,0.0,0.0,0.0,10.0
1446036138517235163,430,1446036138512427091,robocape_mag,36.9,-11.85,-9.15,10.0,0.0,0.0,0.0,10.0,0.0,0.0,0.0,10.0
1446036138552674788,431,1446036138547458887,robocape_mag,36.9,-11.85,-9.15,10.0,0.0,0.0,0.0,10.0,0.0,0.0,0.0,10.0
1446036138584821913,432,1446036138580085039,robocape_mag,36.9,-11.85,-9.15,10.0,0.0,0.0,0.0,10.0,0.0,0.0,0.0,10.0
1446036138618203497,433,1446036138613445043,robocape_mag,32.1,-1.65,-21.15,10.0,0.0,0.0,0.0,10.0,0.0,0.0,0.0,10.0
1446036138652484788,434,1446036138647068977,robocape_mag,32.1,-1.65,-21.15,10.0,0.0,0.0,0.0,10.0,0.0,0.0,0.0,10.0
1446036138683895747,435,1446036138679117918,robocape_mag,32.1,-1.65,-21.15,10.0,0.0,0.0,0.0,10.0,0.0,0.0,0.0,10.0
1446036138717240955,436,1446036138712310075,robocape_mag,32.1,-1.65,-21.15,10.0,0.0,0.0,0.0,10.0,0.0,0.0,0.0,10.0
1446036138750481163,437,1446036138745585918,robocape_mag,32.1,-1.65,-21.15,10.0,0.0,0.0,0.0,10.0,0.0,0.0,0.0,10.0
1446036138784080247,438,1446036138779187917,robocape_mag,41.1,-13.65,-13.95,10.0,0.0,0.0,0.0,10.0,0.0,0.0,0.0,10.0
1446036138817229747,439,1446036138812352895,robocape_mag,41.1,-13.65,-13.95,10.0,0.0,0.0,0.0,10.0,0.0,0.0,0.0,10.0
1446036138850251914,440,1446036138845555067,robocape_mag,41.1,-13.65,-13.95,10.0,0.0,0.0,0.0,10.0,0.0,0.0,0.0,10.0
1446036138883746164,441,1446036138878859996,robocape_mag,41.1,-13.65,-13.95,10.0,0.0,0.0,0.0,10.0,0.0,0.0,0.0,10.0
1446036138917464039,442,1446036138912450075,robocape_mag,27.9,-0.45,-20.55,10.0,0.0,0.0,0.0,10.0,0.0,0.0,0.0,10.0
1446036138950627955,443,1446036138945842981,robocape_mag,27.9,-0.45,-20.55,10.0,0.0,0.0,0.0,10.0,0.0,0.0,0.0,10.0
1446036138983775872,444,1446036138978835105,robocape_mag,27.9,-0.45,-20.55,10.0,0.0,0.0,0.0,10.0,0.0,0.0,0.0,10.0
1446036139017033247,445,1446036139012164115,robocape_mag,27.9,-0.45,-20.55,10.0,0.0,0.0,0.0,10.0,0.0,0.0,0.0,10.0
1446036139050647164,446,1446036139045815944,robocape_mag,27.9,-0.45,-20.55,10.0,0.0,0.0,0.0,10.0,0.0,0.0,0.0,10.0
1446036139087580247,447,1446036139082108020,robocape_mag,16.8,-4.95,-22.65,10.0,0.0,0.0,0.0,10.0,0.0,0.0,0.0,10.0
1446036139122939747,448,1446036139115256071,robocape_mag,16.8,-4.95,-22.65,10.0,0.0,0.0,0.0,10.0,0.0,0.0,0.0,10.0
1446036139153583414,449,1446036139148551940,robocape_mag,16.8,-4.95,-22.65,10.0,0.0,0.0,0.0,10.0,0.0,0.0,0.0,10.0
1446036139187179539,450,1446036139182300090,robocape_mag,16.8,-4.95,-22.65,10.0,0.0,0.0,0.0,10.0,0.0,0.0,0.0,10.0
1446036139217196997,451,1446036139212265968,robocape_mag,16.8,-4.95,-22.65,10.0,0.0,0.0,0.0,10.0,0.0,0.0,0.0,10.0
1446036139250720539,452,1446036139245716094,robocape_mag,15.6,-6.75,-20.25,10.0,0.0,0.0,0.0,10.0,0.0,0.0,0.0,10.0
1446036139283991705,453,1446036139279077053,robocape_mag,15.6,-6.75,-20.25,10.0,0.0,0.0,0.0,10.0,0.0,0.0,0.0,10.0
1446036139317019205,454,1446036139312159061,robocape_mag,15.6,-6.75,-20.25,10.0,0.0,0.0,0.0,10.0,0.0,0.0,0.0,10.0
1446036139352699580,455,1446036139347573995,robocape_mag,15.6,-6.75,-20.25,10.0,0.0,0.0,0.0,10.0,0.0,0.0,0.0,10.0
1446036139386611580,456,1446036139381673097,robocape_mag,15.6,-6.75,-20.25,10.0,0.0,0.0,0.0,10.0,0.0,0.0,0.0,10.0
1446036139419562164,457,1446036139414212942,robocape_mag,13.5,-10.05,-19.35,10.0,0.0,0.0,0.0,10.0,0.0,0.0,0.0,10.0
1446036139450379164,458,1446036139445607900,robocape_mag,13.5,-10.05,-19.35,10.0,0.0,0.0,0.0,10.0,0.0,0.0,0.0,10.0
1446036139483613747,459,1446036139478945970,robocape_mag,13.5,-10.05,-19.35,10.0,0.0,0.0,0.0,10.0,0.0,0.0,0.0,10.0
1446036139517299914,460,1446036139512290000,robocape_mag,13.5,-10.05,-19.35,10.0,0.0,0.0,0.0,10.0,0.0,0.0,0.0,10.0
1446036139552697497,461,1446036139547771930,robocape_mag,13.5,-10.05,-16.35,10.0,0.0,0.0,0.0,10.0,0.0,0.0,0.0,10.0
1446036139583917247,462,1446036139579072952,robocape_mag,21.9,-12.45,-16.35,10.0,0.0,0.0,0.0,10.0,0.0,0.0,0.0,10.0
1446036139618248331,463,1446036139612368106,robocape_mag,21.9,-12.45,-16.35,10.0,0.0,0.0,0.0,10.0,0.0,0.0,0.0,10.0
1446036139651157122,464,1446036139646326065,robocape_mag,21.9,-12.45,-16.35,10.0,0.0,0.0,0.0,10.0,0.0,0.0,0.0,10.0
1446036139683906289,465,1446036139679097890,robocape_mag,21.9,-12.45,-16.35,10.0,0.0,0.0,0.0,10.0,0.0,0.0,0.0,10.0
1446036139717229247,466,1446036139712285995,robocape_mag,39.0,-1.35,-10.65,10.0,0.0,0.0,0.0,10.0,0.0,0.0,0.0,10.0
1446036139751718289,467,1446036139746844053,robocape_mag,39.0,-1.35,-10.65,10.0,0.0,0.0,0.0,10.0,0.0,0.0,0.0,10.0
1446036139783778331,468,1446036139778971910,robocape_mag,39.0,-1.35,-10.65,10.0,0.0,0.0,0.0,10.0,0.0,0.0,0.0,10.0
1446036139816945456,469,1446036139812228918,robocape_mag,39.0,-1.35,-10.65,10.0,0.0,0.0,0.0,10.0,0.0,0.0,0.0,10.0
1446036139852168706,470,1446036139847024917,robocape_mag,39.0,-1.35,-10.65,10.0,0.0,0.0,0.0,10.0,0.0,0.0,0.0,10.0
1446036139888519122,471,1446036139879547119,robocape_mag,45.9,-4.05,-16.35,10.0,0.0,0.0,0.0,10.0,0.0,0.0,0.0,10.0
1446036139916834872,472,1446036139912138938,robocape_mag,45.9,-4.05,-16.35,10.0,0.0,0.0,0.0,10.0,0.0,0.0,0.0,10.0
1446036139950544289,473,1446036139945643901,robocape_mag,45.9,-4.05,-16.35,10.0,0.0,0.0,0.0,10.0,0.0,0.0,0.0,10.0
1446036139985432581,474,1446036139980422973,robocape_mag,45.9,-4.05,-16.35,10.0,0.0,0.0,0.0,10.0,0.0,0.0,0.0,10.0
1446036140017105831,475,1446036140012188911,robocape_mag,45.9,-4.05,-16.35,10.0,0.0,0.0,0.0,10.0,0.0,0.0,0.0,10.0
1446036140051379164,476,1446036140045504093,robocape_mag,31.5,-4.65,-32.55,10.0,0.0,0.0,0.0,10.0,0.0,0.0,0.0,10.0
1446036140083763122,477,1446036140078967094,robocape_mag,31.5,-4.65,-32.55,10.0,0.0,0.0,0.0,10.0,0.0,0.0,0.0,10.0
1446036140117055664,478,1446036140112315893,robocape_mag,31.5,-4.65,-32.55,10.0,0.0,0.0,0.0,10.0,0.0,0.0,0.0,10.0
1446036140150311206,479,1446036140145566940,robocape_mag,31.5,-4.65,-32.55,10.0,0.0,0.0,0.0,10.0,0.0,0.0,0.0,10.0
1446036140183748789,480,1446036140179044961,robocape_mag,31.5,-4.65,-32.55,10.0,0.0,0.0,0.0,10.0,0.0,0.0,0.0,10.0
1446036140217367331,481,1446036140212527036,robocape_mag,44.1,3.15,-17.55,10.0,0.0,0.0,0.0,10.0,0.0,0.0,0.0,10.0
1446036140250439873,482,1446036140245614051,robocape_mag,44.1,3.15,-17.55,10.0,0.0,0.0,0.0,10.0,0.0,0.0,0.0,10.0
1446036140284163873,483,1446036140279252052,robocape_mag,44.1,3.15,-17.55,10.0,0.0,0.0,0.0,10.0,0.0,0.0,0.0,10.0
1446036140316883456,484,1446036140312161922,robocape_mag,44.1,3.15,-17.55,10.0,0.0,0.0,0.0,10.0,0.0,0.0,0.0,10.0
1446036140350198998,485,1446036140345525979,robocape_mag,44.1,3.15,-17.55,10.0,0.0,0.0,0.0,10.0,0.0,0.0,0.0,10.0
1446036140383770206,486,1446036140378886938,robocape_mag,29.7,4.95,-31.35,10.0,0.0,0.0,0.0,10.0,0.0,0.0,0.0,10.0
1446036140421554664,487,1446036140416245937,robocape_mag,29.7,4.95,-31.35,10.0,0.0,0.0,0.0,10.0,0.0,0.0,0.0,10.0
1446036140451824456,488,1446036140445611000,robocape_mag,29.7,4.95,-31.35,10.0,0.0,0.0,0.0,10.0,0.0,0.0,0.0,10.0
1446036140486728123,489,1446036140478874921,robocape_mag,29.7,4.95,-31.35,10.0,0.0,0.0,0.0,10.0,0.0,0.0,0.0,10.0
1446036140517334748,490,1446036140512348890,robocape_mag,45.3,5.55,-20.55,10.0,0.0,0.0,0.0,10.0,0.0,0.0,0.0,10.0
1446036140552827873,491,1446036140547844886,robocape_mag,45.3,5.55,-20.55,10.0,0.0,0.0,0.0,10.0,0.0,0.0,0.0,10.0
1446036140583851164,492,1446036140578989982,robocape_mag,45.3,5.55,-20.55,10.0,0.0,0.0,0.0,10.0,0.0,0.0,0.0,10.0
1446036140616958164,493,1446036140612164974,robocape_mag,45.3,5.55,-20.55,10.0,0.0,0.0,0.0,10.0,0.0,0.0,0.0,10.0
1446036140650627664,494,1446036140645505905,robocape_mag,45.3,5.55,-20.55,10.0,0.0,0.0,0.0,10.0,0.0,0.0,0.0,10.0
1446036140684452498,495,1446036140679631948,robocape_mag,38.7,-0.45,-24.75,10.0,0.0,0.0,0.0,10.0,0.0,0.0,0.0,10.0
1446036140717097289,496,1446036140712286949,robocape_mag,38.7,-0.45,-24.75,10.0,0.0,0.0,0.0,10.0,0.0,0.0,0.0,10.0
1446036140752842164,497,1446036140748014926,robocape_mag,38.7,-0.45,-24.75,10.0,0.0,0.0,0.0,10.0,0.0,0.0,0.0,10.0
1446036140785495623,498,1446036140778912067,robocape_mag,38.7,-0.45,-24.75,10.0,0.0,0.0,0.0,10.0,0.0,0.0,0.0,10.0
1446036140817030039,499,1446036140812293052,robocape_mag,38.7,-0.45,-24.75,10.0,0.0,0.0,0.0,10.0,0.0,0.0,0.0,10.0
1446036140850259914,500,1446036140845557928,robocape_mag,29.7,3.75,-28.95,10.0,0.0,0.0,0.0,10.0,0.0,0.0,0.0,10.0
1446036140885117498,501,1446036140880260944,robocape_mag,29.7,3.75,-28.95,10.0,0.0,0.0,0.0,10.0,0.0,0.0,0.0,10.0
1446036140917728498,502,1446036140912918090,robocape_mag,29.7,3.75,-28.95,10.0,0.0,0.0,0.0,10.0,0.0,0.0,0.0,10.0
1446036140950260915,503,1446036140945606946,robocape_mag,29.7,3.75,-28.95,10.0,0.0,0.0,0.0,10.0,0.0,0.0,0.0,10.0
1446036140983931581,504,1446036140978902101,robocape_mag,29.7,3.75,-28.95,10.0,0.0,0.0,0.0,10.0,0.0,0.0,0.0,10.0
1446036141017003831,505,1446036141012239933,robocape_mag,24.0,11.25,-34.65,10.0,0.0,0.0,0.0,10.0,0.0,0.0,0.0,10.0
1446036141050477873,506,1446036141045572042,robocape_mag,24.0,11.25,-34.65,10.0,0.0,0.0,0.0,10.0,0.0,0.0,0.0,10.0
1446036141084093706,507,1446036141079160928,robocape_mag,24.0,11.25,-34.65,10.0,0.0,0.0,0.0,10.0,0.0,0.0,0.0,10.0
1446036141117435873,508,1446036141112672090,robocape_mag,24.0,11.25,-34.65,10.0,0.0,0.0,0.0,10.0,0.0,0.0,0.0,10.0
1446036141150643998,509,1446036141145864009,robocape_mag,24.0,11.25,-34.65,10.0,0.0,0.0,0.0,10.0,0.0,0.0,0.0,10.0
1446036141184215915,510,1446036141179162979,robocape_mag,30.3,17.55,-27.75,10.0,0.0,0.0,0.0,10.0,0.0,0.0,0.0,10.0
1446036141217555540,511,1446036141212759971,robocape_mag,30.3,17.55,-27.75,10.0,0.0,0.0,0.0,10.0,0.0,0.0,0.0,10.0
1446036141250386581,512,1446036141245625972,robocape_mag,30.3,17.55,-27.75,10.0,0.0,0.0,0.0,10.0,0.0,0.0,0.0,10.0
1446036141283870873,513,1446036141278924942,robocape_mag,30.3,17.55,-27.75,10.0,0.0,0.0,0.0,10.0,0.0,0.0,0.0,10.0
1446036141317592331,514,1446036141312843084,robocape_mag,33.0,13.05,-13.05,10.0,0.0,0.0,0.0,10.0,0.0,0.0,0.0,10.0
1446036141350765498,515,1446036141346019029,robocape_mag,33.0,13.05,-13.05,10.0,0.0,0.0,0.0,10.0,0.0,0.0,0.0,10.0
1446036141384229790,516,1446036141379220008,robocape_mag,33.0,13.05,-13.05,10.0,0.0,0.0,0.0,10.0,0.0,0.0,0.0,10.0
1446036141417714248,517,1446036141412803888,robocape_mag,33.0,13.05,-13.05,10.0,0.0,0.0,0.0,10.0,0.0,0.0,0.0,10.0
1446036141456181873,518,1446036141451226949,robocape_mag,33.0,13.05,-13.05,10.0,0.0,0.0,0.0,10.0,0.0,0.0,0.0,10.0
1446036141487456748,519,1446036141482551097,robocape_mag,23.7,12.75,-9.75,10.0,0.0,0.0,0.0,10.0,0.0,0.0,0.0,10.0
1446036141517011040,520,1446036141512180089,robocape_mag,23.7,12.75,-9.75,10.0,0.0,0.0,0.0,10.0,0.0,0.0,0.0,10.0
1446036141554340415,521,1446036141549436092,robocape_mag,23.7,12.75,-9.75,10.0,0.0,0.0,0.0,10.0,0.0,0.0,0.0,10.0
1446036141584172123,522,1446036141579200983,robocape_mag,23.7,12.75,-9.75,10.0,0.0,0.0,0.0,10.0,0.0,0.0,0.0,10.0
