%time,field.header.seq,field.header.stamp,field.header.frame_id,field.magnetic_field.x,field.magnetic_field.y,field.magnetic_field.z,field.magnetic_field_covariance0,field.magnetic_field_covariance1,field.magnetic_field_covariance2,field.magnetic_field_covariance3,field.magnetic_field_covariance4,field.magnetic_field_covariance5,field.magnetic_field_covariance6,field.magnetic_field_covariance7,field.magnetic_field_covariance8
1446040013527340194,1,1446040013522202968,robocape_mag,-50.55,-6.45,0.45,10.0,0.0,0.0,0.0,10.0,0.0,0.0,0.0,10.0
1446040013560246527,2,1446040013555347919,robocape_mag,-50.55,-6.45,0.45,10.0,0.0,0.0,0.0,10.0,0.0,0.0,0.0,10.0
1446040013593733986,3,1446040013588685989,robocape_mag,-50.55,-6.45,0.45,10.0,0.0,0.0,0.0,10.0,0.0,0.0,0.0,10.0
1446040013626750069,4,1446040013621975898,robocape_mag,-50.55,-6.45,0.45,10.0,0.0,0.0,0.0,10.0,0.0,0.0,0.0,10.0
1446040013660186153,5,1446040013655272006,robocape_mag,-47.55,-11.85,3.45,10.0,0.0,0.0,0.0,10.0,0.0,0.0,0.0,10.0
1446040013693714528,6,1446040013688527107,robocape_mag,-47.55,-11.85,3.45,10.0,0.0,0.0,0.0,10.0,0.0,0.0,0.0,10.0
1446040013726845653,7,1446040013721925973,robocape_mag,-47.55,-11.85,3.45,10.0,0.0,0.0,0.0,10.0,0.0,0.0,0.0,10.0
1446040013760131736,8,1446040013755286931,robocape_mag,-47.55,-11.85,3.45,10.0,0.0,0.0,0.0,10.0,0.0,0.0,0.0,10.0
1446040013793839944,9,1446040013788609981,robocape_mag,-39.75,-16.05,3.45,10.0,0.0,0.0,0.0,10.0,0.0,0.0,0.0,10.0
1446040013826967486,10,1446040013822031021,robocape_mag,-39.75,-16.05,3.45,10.0,0.0,0.0,0.0,10.0,0.0,0.0,0.0,10.0
1446040013860540819,11,1446040013855453014,robocape_mag,-39.75,-16.05,3.45,10.0,0.0,0.0,0.0,10.0,0.0,0.0,0.0,10.0
1446040013893829569,12,1446040013888607025,robocape_mag,-39.75,-16.05,3.45,10.0,0.0,0.0,0.0,10.0,0.0,0.0,0.0,10.0
1446040013927322194,13,1446040013922195911,robocape_mag,-39.75,-16.05,3.45,10.0,0.0,0.0,0.0,10.0,0.0,0.0,0.0,10.0
1446040013960143528,14,1446040013955305099,robocape_mag,-28.95,-20.85,3.45,10.0,0.0,0.0,0.0,10.0,0.0,0.0,0.0,10.0
1446040013993710111,15,1446040013988759994,robocape_mag,-28.95,-20.85,3.45,10.0,0.0,0.0,0.0,10.0,0.0,0.0,0.0,10.0
1446040014026904528,16,1446040014021951913,robocape_mag,-28.95,-20.85,3.45,10.0,0.0,0.0,0.0,10.0,0.0,0.0,0.0,10.0
1446040014060124736,17,1446040014055267095,robocape_mag,-28.95,-20.85,3.45,10.0,0.0,0.0,0.0,10.0,0.0,0.0,0.0,10.0
1446040014093551236,18,1446040014088629007,robocape_mag,-28.95,-20.85,3.45,10.0,0.0,0.0,0.0,10.0,0.0,0.0,0.0,10.0
1446040014127039319,19,1446040014122018098,robocape_mag,-20.25,-23.55,1.95,10.0,0.0,0.0,0.0,10.0,0.0,0.0,0.0,10.0
1446040014160282403,20,1446040014155235052,robocape_mag,-20.25,-23.55,1.95,10.0,0.0,0.0,0.0,10.0,0.0,0.0,0.0,10.0
1446040014193581861,21,1446040014188474893,robocape_mag,-20.25,-23.55,1.95,10.0,0.0,0.0,0.0,10.0,0.0,0.0,0.0,10.0
1446040014226858361,22,1446040014221892118,robocape_mag,-20.25,-23.55,1.95,10.0,0.0,0.0,0.0,10.0,0.0,0.0,0.0,10.0
1446040014260375194,23,1446040014255516052,robocape_mag,-20.25,-23.55,1.95,10.0,0.0,0.0,0.0,10.0,0.0,0.0,0.0,10.0
1446040014293709569,24,1446040014288611888,robocape_mag,-17.25,-23.55,1.35,10.0,0.0,0.0,0.0,10.0,0.0,0.0,0.0,10.0
1446040014327261903,25,1446040014322019100,robocape_mag,-17.25,-23.55,1.35,10.0,0.0,0.0,0.0,10.0,0.0,0.0,0.0,10.0
1446040014360378945,26,1446040014355515956,robocape_mag,-17.25,-23.55,1.35,10.0,0.0,0.0,0.0,10.0,0.0,0.0,0.0,10.0
1446040014393893236,27,1446040014388566970,robocape_mag,-17.25,-23.55,1.35,10.0,0.0,0.0,0.0,10.0,0.0,0.0,0.0,10.0
1446040014427354320,28,1446040014422143936,robocape_mag,-17.25,-23.55,1.35,10.0,0.0,0.0,0.0,10.0,0.0,0.0,0.0,10.0
1446040014460149820,29,1446040014455394983,robocape_mag,-21.45,-24.15,0.75,10.0,0.0,0.0,0.0,10.0,0.0,0.0,0.0,10.0
1446040014493549236,30,1446040014488737106,robocape_mag,-21.45,-24.15,0.75,10.0,0.0,0.0,0.0,10.0,0.0,0.0,0.0,10.0
1446040014526706820,31,1446040014521980047,robocape_mag,-21.45,-24.15,0.75,10.0,0.0,0.0,0.0,10.0,0.0,0.0,0.0,10.0
1446040014560150070,32,1446040014555253982,robocape_mag,-21.45,-24.15,0.75,10.0,0.0,0.0,0.0,10.0,0.0,0.0,0.0,10.0
1446040014593665445,33,1446040014588538885,robocape_mag,-21.45,-22.95,1.95,10.0,0.0,0.0,0.0,10.0,0.0,0.0,0.0,10.0
1446040014626993320,34,1446040014622010946,robocape_mag,-21.45,-22.95,1.95,10.0,0.0,0.0,0.0,10.0,0.0,0.0,0.0,10.0
1446040014660161403,35,1446040014655262947,robocape_mag,-21.45,-22.95,1.95,10.0,0.0,0.0,0.0,10.0,0.0,0.0,0.0,10.0
1446040014693798236,36,1446040014688663959,robocape_mag,-21.45,-22.95,1.95,10.0,0.0,0.0,0.0,10.0,0.0,0.0,0.0,10.0
1446040014727294445,37,1446040014722335100,robocape_mag,-21.45,-22.95,1.95,10.0,0.0,0.0,0.0,10.0,0.0,0.0,0.0,10.0
1446040014764007528,38,1446040014759273052,robocape_mag,-23.55,-20.85,1.65,10.0,0.0,0.0,0.0,10.0,0.0,0.0,0.0,10.0
1446040014793665028,39,1446040014788605928,robocape_mag,-23.55,-20.85,1.65,10.0,0.0,0.0,0.0,10.0,0.0,0.0,0.0,10.0
1446040014827398320,40,1446040014822438955,robocape_mag,-23.55,-20.85,1.65,10.0,0.0,0.0,0.0,10.0,0.0,0.0,0.0,10.0
1446040014861053695,41,1446040014856178045,robocape_mag,-23.55,-20.85,1.65,10.0,0.0,0.0,0.0,10.0,0.0,0.0,0.0,10.0
1446040014893739820,42,1446040014888603925,robocape_mag,-23.55,-20.85,1.65,10.0,0.0,0.0,0.0,10.0,0.0,0.0,0.0,10.0
1446040014928178820,43,1446040014922651052,robocape_mag,-23.55,-20.25,0.45,10.0,0.0,0.0,0.0,10.0,0.0,0.0,0.0,10.0
1446040014960520361,44,1446040014955540895,robocape_mag,-23.55,-20.25,0.45,10.0,0.0,0.0,0.0,10.0,0.0,0.0,0.0,10.0
1446040014993462403,45,1446040014988598108,robocape_mag,-23.55,-20.25,0.45,10.0,0.0,0.0,0.0,10.0,0.0,0.0,0.0,10.0
1446040015027365195,46,1446040015022427082,robocape_mag,-23.55,-20.25,0.45,10.0,0.0,0.0,0.0,10.0,0.0,0.0,0.0,10.0
1446040015060149362,47,1446040015055285930,robocape_mag,-23.55,-20.25,0.45,10.0,0.0,0.0,0.0,10.0,0.0,0.0,0.0,10.0
1446040015093678695,48,1446040015088747024,robocape_mag,-21.75,-20.85,1.05,10.0,0.0,0.0,0.0,10.0,0.0,0.0,0.0,10.0
1446040015127399112,49,1446040015122415065,robocape_mag,-21.75,-20.85,1.05,10.0,0.0,0.0,0.0,10.0,0.0,0.0,0.0,10.0
1446040015166948820,50,1446040015155277967,robocape_mag,-21.75,-20.85,1.05,10.0,0.0,0.0,0.0,10.0,0.0,0.0,0.0,10.0
1446040015193693278,51,1446040015188695907,robocape_mag,-21.75,-20.85,1.05,10.0,0.0,0.0,0.0,10.0,0.0,0.0,0.0,10.0
1446040015232033445,52,1446040015227222919,robocape_mag,-21.75,-20.85,1.05,10.0,0.0,0.0,0.0,10.0,0.0,0.0,0.0,10.0
1446040015260090820,53,1446040015255383014,robocape_mag,-21.75,-22.05,-2.55,10.0,0.0,0.0,0.0,10.0,0.0,0.0,0.0,10.0
1446040015293545028,54,1446040015288631916,robocape_mag,-21.75,-22.05,-2.55,10.0,0.0,0.0,0.0,10.0,0.0,0.0,0.0,10.0
1446040015327454737,55,1446040015322446107,robocape_mag,-21.75,-22.05,-2.55,10.0,0.0,0.0,0.0,10.0,0.0,0.0,0.0,10.0
1446040015360049237,56,1446040015355355024,robocape_mag,-21.75,-22.05,-2.55,10.0,0.0,0.0,0.0,10.0,0.0,0.0,0.0,10.0
1446040015394176195,57,1446040015388674974,robocape_mag,-23.55,-23.25,-0.75,10.0,0.0,0.0,0.0,10.0,0.0,0.0,0.0,10.0
1446040015428689278,58,1446040015423016071,robocape_mag,-23.55,-23.25,-0.75,10.0,0.0,0.0,0.0,10.0,0.0,0.0,0.0,10.0
1446040015460509987,59,1446040015455542087,robocape_mag,-23.55,-23.25,-0.75,10.0,0.0,0.0,0.0,10.0,0.0,0.0,0.0,10.0
1446040015493408445,60,1446040015488671064,robocape_mag,-23.55,-23.25,-0.75,10.0,0.0,0.0,0.0,10.0,0.0,0.0,0.0,10.0
1446040015527375362,61,1446040015522413969,robocape_mag,-23.55,-23.25,-0.75,10.0,0.0,0.0,0.0,10.0,0.0,0.0,0.0,10.0
1446040015560261695,62,1446040015555438995,robocape_mag,-23.55,-22.65,-1.35,10.0,0.0,0.0,0.0,10.0,0.0,0.0,0.0,10.0
1446040015593674153,63,1446040015588732004,robocape_mag,-23.55,-22.65,-1.35,10.0,0.0,0.0,0.0,10.0,0.0,0.0,0.0,10.0
1446040015627469528,64,1446040015622349977,robocape_mag,-23.55,-22.65,-1.35,10.0,0.0,0.0,0.0,10.0,0.0,0.0,0.0,10.0
1446040015660175195,65,1446040015655380010,robocape_mag,-23.55,-22.65,-1.35,10.0,0.0,0.0,0.0,10.0,0.0,0.0,0.0,10.0
1446040015693830778,66,1446040015688937902,robocape_mag,-23.55,-22.65,-1.35,10.0,0.0,0.0,0.0,10.0,0.0,0.0,0.0,10.0
1446040015727644737,67,1446040015722618103,robocape_mag,-25.35,-7.65,-7.95,10.0,0.0,0.0,0.0,10.0,0.0,0.0,0.0,10.0
1446040015760204820,68,1446040015755430936,robocape_mag,-25.35,-7.65,-7.95,10.0,0.0,0.0,0.0,10.0,0.0,0.0,0.0,10.0
1446040015793787904,69,1446040015788840055,robocape_mag,-25.35,-7.65,-7.95,10.0,0.0,0.0,0.0,10.0,0.0,0.0,0.0,10.0
1446040015828193154,70,1446040015822268962,robocape_mag,-25.35,-7.65,-7.95,10.0,0.0,0.0,0.0,10.0,0.0,0.0,0.0,10.0
1446040015860138570,71,1446040015855375051,robocape_mag,-25.35,-7.65,-7.95,10.0,0.0,0.0,0.0,10.0,0.0,0.0,0.0,10.0
1446040015893708904,72,1446040015888784885,robocape_mag,-22.95,-12.45,-31.35,10.0,0.0,0.0,0.0,10.0,0.0,0.0,0.0,10.0
1446040015929687987,73,1446040015923300981,robocape_mag,-22.95,-12.45,-31.35,10.0,0.0,0.0,0.0,10.0,0.0,0.0,0.0,10.0
1446040015960273404,74,1446040015955338954,robocape_mag,-22.95,-12.45,-31.35,10.0,0.0,0.0,0.0,10.0,0.0,0.0,0.0,10.0
1446040015993981862,75,1446040015988965988,robocape_mag,-22.95,-12.45,-31.35,10.0,0.0,0.0,0.0,10.0,0.0,0.0,0.0,10.0
1446040016027116154,76,1446040016022227048,robocape_mag,-22.95,-12.45,-31.35,10.0,0.0,0.0,0.0,10.0,0.0,0.0,0.0,10.0
1446040016060134570,77,1446040016055284023,robocape_mag,-23.55,-24.45,-6.75,10.0,0.0,0.0,0.0,10.0,0.0,0.0,0.0,10.0
1446040016093931279,78,1446040016088927984,robocape_mag,-23.55,-24.45,-6.75,10.0,0.0,0.0,0.0,10.0,0.0,0.0,0.0,10.0
1446040016127254279,79,1446040016122420072,robocape_mag,-23.55,-24.45,-6.75,10.0,0.0,0.0,0.0,10.0,0.0,0.0,0.0,10.0
1446040016171128029,80,1446040016158288955,robocape_mag,-23.55,-24.45,-6.75,10.0,0.0,0.0,0.0,10.0,0.0,0.0,0.0,10.0
1446040016195478737,81,1446040016189877986,robocape_mag,-23.85,-4.95,-4.05,10.0,0.0,0.0,0.0,10.0,0.0,0.0,0.0,10.0
1446040016227440737,82,1446040016222377061,robocape_mag,-23.85,-4.95,-4.05,10.0,0.0,0.0,0.0,10.0,0.0,0.0,0.0,10.0
1446040016260182695,83,1446040016255439996,robocape_mag,-23.85,-4.95,-4.05,10.0,0.0,0.0,0.0,10.0,0.0,0.0,0.0,10.0
1446040016293535362,84,1446040016288646936,robocape_mag,-23.85,-4.95,-4.05,10.0,0.0,0.0,0.0,10.0,0.0,0.0,0.0,10.0
1446040016327343195,85,1446040016322362899,robocape_mag,-23.85,-4.95,-4.05,10.0,0.0,0.0,0.0,10.0,0.0,0.0,0.0,10.0
1446040016360284320,86,1446040016355443000,robocape_mag,-24.15,-3.45,-23.55,10.0,0.0,0.0,0.0,10.0,0.0,0.0,0.0,10.0
1446040016393743029,87,1446040016388844013,robocape_mag,-24.15,-3.45,-23.55,10.0,0.0,0.0,0.0,10.0,0.0,0.0,0.0,10.0
1446040016427692070,88,1446040016422214031,robocape_mag,-24.15,-3.45,-23.55,10.0,0.0,0.0,0.0,10.0,0.0,0.0,0.0,10.0
1446040016460313696,89,1446040016455379009,robocape_mag,-24.15,-3.45,-23.55,10.0,0.0,0.0,0.0,10.0,0.0,0.0,0.0,10.0
1446040016493797737,90,1446040016488801956,robocape_mag,-24.15,-3.45,-23.55,10.0,0.0,0.0,0.0,10.0,0.0,0.0,0.0,10.0
1446040016527067279,91,1446040016522229909,robocape_mag,-22.05,-15.15,-31.05,10.0,0.0,0.0,0.0,10.0,0.0,0.0,0.0,10.0
1446040016560279654,92,1446040016555449008,robocape_mag,-22.05,-15.15,-31.05,10.0,0.0,0.0,0.0,10.0,0.0,0.0,0.0,10.0
1446040016593941279,93,1446040016588898897,robocape_mag,-22.05,-15.15,-31.05,10.0,0.0,0.0,0.0,10.0,0.0,0.0,0.0,10.0
1446040016627277112,94,1446040016622226953,robocape_mag,-22.05,-15.15,-31.05,10.0,0.0,0.0,0.0,10.0,0.0,0.0,0.0,10.0
1446040016660441737,95,1446040016655350923,robocape_mag,-22.05,-15.15,-31.05,10.0,0.0,0.0,0.0,10.0,0.0,0.0,0.0,10.0
1446040016693638321,96,1446040016688694000,robocape_mag,-21.75,-22.05,-12.15,10.0,0.0,0.0,0.0,10.0,0.0,0.0,0.0,10.0
1446040016727203821,97,1446040016722207069,robocape_mag,-21.75,-22.05,-12.15,10.0,0.0,0.0,0.0,10.0,0.0,0.0,0.0,10.0
1446040016760367279,98,1446040016755449056,robocape_mag,-21.75,-22.05,-12.15,10.0,0.0,0.0,0.0,10.0,0.0,0.0,0.0,10.0
1446040016793685404,99,1446040016788772106,robocape_mag,-21.75,-22.05,-12.15,10.0,0.0,0.0,0.0,10.0,0.0,0.0,0.0,10.0
1446040016827351779,100,1446040016822364091,robocape_mag,-21.75,-22.05,-12.15,10.0,0.0,0.0,0.0,10.0,0.0,0.0,0.0,10.0
1446040016860222321,101,1446040016855303049,robocape_mag,-20.55,-22.65,-3.75,10.0,0.0,0.0,0.0,10.0,0.0,0.0,0.0,10.0
1446040016893602112,102,1446040016888701915,robocape_mag,-20.55,-22.65,-3.75,10.0,0.0,0.0,0.0,10.0,0.0,0.0,0.0,10.0
1446040016927798446,103,1446040016922329902,robocape_mag,-20.55,-22.65,-3.75,10.0,0.0,0.0,0.0,10.0,0.0,0.0,0.0,10.0
1446040016960842779,104,1446040016955539941,robocape_mag,-20.55,-22.65,-3.75,10.0,0.0,0.0,0.0,10.0,0.0,0.0,0.0,10.0
1446040016994400737,105,1446040016989401102,robocape_mag,-22.35,-25.05,-4.35,10.0,0.0,0.0,0.0,10.0,0.0,0.0,0.0,10.0
1446040017027398487,106,1446040017022069931,robocape_mag,-22.35,-25.05,-4.35,10.0,0.0,0.0,0.0,10.0,0.0,0.0,0.0,10.0
1446040017060467404,107,1446040017055423021,robocape_mag,-22.35,-25.05,-4.35,10.0,0.0,0.0,0.0,10.0,0.0,0.0,0.0,10.0
1446040017093793154,108,1446040017088665008,robocape_mag,-22.35,-25.05,-4.35,10.0,0.0,0.0,0.0,10.0,0.0,0.0,0.0,10.0
1446040017127491529,109,1446040017122045040,robocape_mag,-22.35,-25.05,-4.35,10.0,0.0,0.0,0.0,10.0,0.0,0.0,0.0,10.0
1446040017160454988,110,1446040017155250072,robocape_mag,-23.85,-23.55,-4.05,10.0,0.0,0.0,0.0,10.0,0.0,0.0,0.0,10.0
1446040017193712529,111,1446040017188627004,robocape_mag,-23.85,-23.55,-4.05,10.0,0.0,0.0,0.0,10.0,0.0,0.0,0.0,10.0
1446040017227680821,112,1446040017222234010,robocape_mag,-23.85,-23.55,-4.05,10.0,0.0,0.0,0.0,10.0,0.0,0.0,0.0,10.0
1446040017260538446,113,1446040017255431890,robocape_mag,-23.85,-23.55,-4.05,10.0,0.0,0.0,0.0,10.0,0.0,0.0,0.0,10.0
1446040017293857363,114,1446040017288811922,robocape_mag,-23.85,-23.55,-4.05,10.0,0.0,0.0,0.0,10.0,0.0,0.0,0.0,10.0
1446040017327719238,115,1446040017322249889,robocape_mag,-23.25,-24.75,-5.25,10.0,0.0,0.0,0.0,10.0,0.0,0.0,0.0,10.0
1446040017360214029,116,1446040017355210065,robocape_mag,-23.25,-24.75,-5.25,10.0,0.0,0.0,0.0,10.0,0.0,0.0,0.0,10.0
1446040017393917321,117,1446040017388508081,robocape_mag,-23.25,-24.75,-5.25,10.0,0.0,0.0,0.0,10.0,0.0,0.0,0.0,10.0
1446040017428198779,118,1446040017422317028,robocape_mag,-23.25,-24.75,-5.25,10.0,0.0,0.0,0.0,10.0,0.0,0.0,0.0,10.0
1446040017460269988,119,1446040017455218076,robocape_mag,-23.25,-24.75,-5.25,10.0,0.0,0.0,0.0,10.0,0.0,0.0,0.0,10.0
1446040017493825113,120,1446040017488723039,robocape_mag,-22.35,-23.85,-3.75,10.0,0.0,0.0,0.0,10.0,0.0,0.0,0.0,10.0
1446040017527210654,121,1446040017521975994,robocape_mag,-22.35,-23.85,-3.75,10.0,0.0,0.0,0.0,10.0,0.0,0.0,0.0,10.0
1446040017560352363,122,1446040017555250883,robocape_mag,-22.35,-23.85,-3.75,10.0,0.0,0.0,0.0,10.0,0.0,0.0,0.0,10.0
1446040017593715779,123,1446040017588608026,robocape_mag,-22.35,-23.85,-3.75,10.0,0.0,0.0,0.0,10.0,0.0,0.0,0.0,10.0
1446040017627475738,124,1446040017622052907,robocape_mag,-22.35,-23.85,-3.75,10.0,0.0,0.0,0.0,10.0,0.0,0.0,0.0,10.0
1446040017660260196,125,1446040017655237913,robocape_mag,-23.25,-24.15,-7.05,10.0,0.0,0.0,0.0,10.0,0.0,0.0,0.0,10.0
1446040017693861821,126,1446040017688677072,robocape_mag,-23.25,-24.15,-7.05,10.0,0.0,0.0,0.0,10.0,0.0,0.0,0.0,10.0
1446040017727328779,127,1446040017721945047,robocape_mag,-23.25,-24.15,-7.05,10.0,0.0,0.0,0.0,10.0,0.0,0.0,0.0,10.0
1446040017760263696,128,1446040017755280971,robocape_mag,-23.25,-24.15,-7.05,10.0,0.0,0.0,0.0,10.0,0.0,0.0,0.0,10.0
1446040017793705154,129,1446040017788722038,robocape_mag,-23.25,-24.75,-5.25,10.0,0.0,0.0,0.0,10.0,0.0,0.0,0.0,10.0
1446040017827486779,130,1446040017822140932,robocape_mag,-23.25,-24.75,-5.25,10.0,0.0,0.0,0.0,10.0,0.0,0.0,0.0,10.0
1446040017860264321,131,1446040017855294942,robocape_mag,-23.25,-24.75,-5.25,10.0,0.0,0.0,0.0,10.0,0.0,0.0,0.0,10.0
1446040017893909405,132,1446040017888982057,robocape_mag,-23.25,-24.75,-5.25,10.0,0.0,0.0,0.0,10.0,0.0,0.0,0.0,10.0
1446040017927703946,133,1446040017921911001,robocape_mag,-23.25,-24.75,-5.25,10.0,0.0,0.0,0.0,10.0,0.0,0.0,0.0,10.0
1446040017960475405,134,1446040017955296039,robocape_mag,-22.05,-24.75,-5.25,10.0,0.0,0.0,0.0,10.0,0.0,0.0,0.0,10.0
1446040017993956238,135,1446040017988765001,robocape_mag,-22.05,-24.75,-5.25,10.0,0.0,0.0,0.0,10.0,0.0,0.0,0.0,10.0
1446040018026712446,136,1446040018021985054,robocape_mag,-22.05,-24.75,-5.25,10.0,0.0,0.0,0.0,10.0,0.0,0.0,0.0,10.0
1446040018061063946,137,1446040018055272102,robocape_mag,-22.05,-24.75,-5.25,10.0,0.0,0.0,0.0,10.0,0.0,0.0,0.0,10.0
1446040018093920905,138,1446040018088633060,robocape_mag,-22.05,-24.75,-5.25,10.0,0.0,0.0,0.0,10.0,0.0,0.0,0.0,10.0
1446040018127172196,139,1446040018121896982,robocape_mag,-21.15,-23.85,-4.35,10.0,0.0,0.0,0.0,10.0,0.0,0.0,0.0,10.0
1446040018167772321,140,1446040018155847072,robocape_mag,-21.15,-23.85,-4.35,10.0,0.0,0.0,0.0,10.0,0.0,0.0,0.0,10.0
1446040018194019863,141,1446040018188925027,robocape_mag,-21.15,-23.85,-4.35,10.0,0.0,0.0,0.0,10.0,0.0,0.0,0.0,10.0
1446040018229736030,142,1446040018224371910,robocape_mag,-21.15,-23.85,-4.35,10.0,0.0,0.0,0.0,10.0,0.0,0.0,0.0,10.0
1446040018260179780,143,1446040018255363941,robocape_mag,-21.15,-23.85,-4.35,10.0,0.0,0.0,0.0,10.0,0.0,0.0,0.0,10.0
1446040018293849030,144,1446040018288825988,robocape_mag,-23.55,-23.25,-5.55,10.0,0.0,0.0,0.0,10.0,0.0,0.0,0.0,10.0
1446040018326890655,145,1446040018322027921,robocape_mag,-23.55,-23.25,-5.55,10.0,0.0,0.0,0.0,10.0,0.0,0.0,0.0,10.0
1446040018360065113,146,1446040018355307102,robocape_mag,-23.55,-23.25,-5.55,10.0,0.0,0.0,0.0,10.0,0.0,0.0,0.0,10.0
1446040018393493530,147,1446040018388606071,robocape_mag,-23.55,-23.25,-5.55,10.0,0.0,0.0,0.0,10.0,0.0,0.0,0.0,10.0
1446040018427659863,148,1446040018422175884,robocape_mag,-23.55,-23.25,-5.55,10.0,0.0,0.0,0.0,10.0,0.0,0.0,0.0,10.0
1446040018460176696,149,1446040018455249071,robocape_mag,-22.35,-23.85,-5.55,10.0,0.0,0.0,0.0,10.0,0.0,0.0,0.0,10.0
1446040018493858613,150,1446040018488838911,robocape_mag,-22.35,-23.85,-5.55,10.0,0.0,0.0,0.0,10.0,0.0,0.0,0.0,10.0
1446040018526901738,151,1446040018521969079,robocape_mag,-22.35,-23.85,-5.55,10.0,0.0,0.0,0.0,10.0,0.0,0.0,0.0,10.0
1446040018560095488,152,1446040018555247068,robocape_mag,-22.35,-23.85,-5.55,10.0,0.0,0.0,0.0,10.0,0.0,0.0,0.0,10.0
1446040018593864238,153,1446040018588634967,robocape_mag,-21.75,-24.45,-5.55,10.0,0.0,0.0,0.0,10.0,0.0,0.0,0.0,10.0
1446040018627308947,154,1446040018622138977,robocape_mag,-21.75,-24.45,-5.55,10.0,0.0,0.0,0.0,10.0,0.0,0.0,0.0,10.0
1446040018660087572,155,1446040018655262947,robocape_mag,-21.75,-24.45,-5.55,10.0,0.0,0.0,0.0,10.0,0.0,0.0,0.0,10.0
1446040018693728905,156,1446040018688740015,robocape_mag,-21.75,-24.45,-5.55,10.0,0.0,0.0,0.0,10.0,0.0,0.0,0.0,10.0
1446040018727304405,157,1446040018722141027,robocape_mag,-21.75,-24.45,-5.55,10.0,0.0,0.0,0.0,10.0,0.0,0.0,0.0,10.0
1446040018760166655,158,1446040018755233049,robocape_mag,-22.35,-23.25,-6.15,10.0,0.0,0.0,0.0,10.0,0.0,0.0,0.0,10.0
1446040018793577322,159,1446040018788705110,robocape_mag,-22.35,-23.25,-6.15,10.0,0.0,0.0,0.0,10.0,0.0,0.0,0.0,10.0
1446040018827172530,160,1446040018822077035,robocape_mag,-22.35,-23.25,-6.15,10.0,0.0,0.0,0.0,10.0,0.0,0.0,0.0,10.0
1446040018860175030,161,1446040018855179071,robocape_mag,-22.35,-23.25,-6.15,10.0,0.0,0.0,0.0,10.0,0.0,0.0,0.0,10.0
1446040018893557697,162,1446040018888659000,robocape_mag,-22.35,-23.25,-6.15,10.0,0.0,0.0,0.0,10.0,0.0,0.0,0.0,10.0
1446040018927502155,163,1446040018922074079,robocape_mag,-23.25,-23.55,-4.05,10.0,0.0,0.0,0.0,10.0,0.0,0.0,0.0,10.0
1446040018960229280,164,1446040018955131053,robocape_mag,-23.25,-23.55,-4.05,10.0,0.0,0.0,0.0,10.0,0.0,0.0,0.0,10.0
1446040018994011322,165,1446040018988857030,robocape_mag,-23.25,-23.55,-4.05,10.0,0.0,0.0,0.0,10.0,0.0,0.0,0.0,10.0
1446040019027652280,166,1446040019022303104,robocape_mag,-23.25,-23.55,-4.05,10.0,0.0,0.0,0.0,10.0,0.0,0.0,0.0,10.0
1446040019060170822,167,1446040019055150985,robocape_mag,-23.25,-23.55,-4.05,10.0,0.0,0.0,0.0,10.0,0.0,0.0,0.0,10.0
1446040019093668280,168,1446040019088645935,robocape_mag,-20.55,-24.45,-6.15,10.0,0.0,0.0,0.0,10.0,0.0,0.0,0.0,10.0
1446040019127133447,169,1446040019122056007,robocape_mag,-20.55,-24.45,-6.15,10.0,0.0,0.0,0.0,10.0,0.0,0.0,0.0,10.0
1446040019167532655,170,1446040019155258893,robocape_mag,-20.55,-24.45,-6.15,10.0,0.0,0.0,0.0,10.0,0.0,0.0,0.0,10.0
1446040019193853738,171,1446040019188801050,robocape_mag,-20.55,-24.45,-6.15,10.0,0.0,0.0,0.0,10.0,0.0,0.0,0.0,10.0
1446040019227342905,172,1446040019222310066,robocape_mag,-20.55,-24.45,-6.15,10.0,0.0,0.0,0.0,10.0,0.0,0.0,0.0,10.0
1446040019260436155,173,1446040019255422115,robocape_mag,-21.15,-22.65,-4.95,10.0,0.0,0.0,0.0,10.0,0.0,0.0,0.0,10.0
1446040019293496530,174,1446040019288688898,robocape_mag,-21.15,-22.65,-4.95,10.0,0.0,0.0,0.0,10.0,0.0,0.0,0.0,10.0
1446040019327351822,175,1446040019322041034,robocape_mag,-21.15,-22.65,-4.95,10.0,0.0,0.0,0.0,10.0,0.0,0.0,0.0,10.0
1446040019360236072,176,1446040019355289936,robocape_mag,-21.15,-22.65,-4.95,10.0,0.0,0.0,0.0,10.0,0.0,0.0,0.0,10.0
1446040019393831322,177,1446040019388597965,robocape_mag,-21.45,-24.15,-4.65,10.0,0.0,0.0,0.0,10.0,0.0,0.0,0.0,10.0
1446040019427139697,178,1446040019421874046,robocape_mag,-21.45,-24.15,-4.65,10.0,0.0,0.0,0.0,10.0,0.0,0.0,0.0,10.0
1446040019460119947,179,1446040019455183029,robocape_mag,-21.45,-24.15,-4.65,10.0,0.0,0.0,0.0,10.0,0.0,0.0,0.0,10.0
1446040019494510780,180,1446040019489485979,robocape_mag,-21.45,-24.15,-4.65,10.0,0.0,0.0,0.0,10.0,0.0,0.0,0.0,10.0
1446040019527139655,181,1446040019521883010,robocape_mag,-21.45,-24.15,-4.65,10.0,0.0,0.0,0.0,10.0,0.0,0.0,0.0,10.0
1446040019560154780,182,1446040019555165052,robocape_mag,-23.85,-24.75,-5.85,10.0,0.0,0.0,0.0,10.0,0.0,0.0,0.0,10.0
1446040019593593697,183,1446040019588728904,robocape_mag,-23.85,-24.75,-5.85,10.0,0.0,0.0,0.0,10.0,0.0,0.0,0.0,10.0
1446040019627373280,184,1446040019621920108,robocape_mag,-23.85,-24.75,-5.85,10.0,0.0,0.0,0.0,10.0,0.0,0.0,0.0,10.0
1446040019660204780,185,1446040019655240058,robocape_mag,-23.85,-24.75,-5.85,10.0,0.0,0.0,0.0,10.0,0.0,0.0,0.0,10.0
1446040019693292030,186,1446040019688467025,robocape_mag,-23.85,-24.75,-5.85,10.0,0.0,0.0,0.0,10.0,0.0,0.0,0.0,10.0
1446040019727159489,187,1446040019721895933,robocape_mag,-21.75,-22.65,-5.55,10.0,0.0,0.0,0.0,10.0,0.0,0.0,0.0,10.0
1446040019760251989,188,1446040019755208969,robocape_mag,-21.75,-22.65,-5.55,10.0,0.0,0.0,0.0,10.0,0.0,0.0,0.0,10.0
1446040019797726989,189,1446040019792676925,robocape_mag,-21.75,-22.65,-5.55,10.0,0.0,0.0,0.0,10.0,0.0,0.0,0.0,10.0
1446040019827367364,190,1446040019822153091,robocape_mag,-21.75,-22.65,-5.55,10.0,0.0,0.0,0.0,10.0,0.0,0.0,0.0,10.0
1446040019860293655,191,1446040019855362892,robocape_mag,-21.75,-22.65,-5.55,10.0,0.0,0.0,0.0,10.0,0.0,0.0,0.0,10.0
1446040019893437864,192,1446040019888648986,robocape_mag,-23.25,-23.55,-4.05,10.0,0.0,0.0,0.0,10.0,0.0,0.0,0.0,10.0
1446040019927350364,193,1446040019922122001,robocape_mag,-23.25,-23.55,-4.05,10.0,0.0,0.0,0.0,10.0,0.0,0.0,0.0,10.0
1446040019960358989,194,1446040019955425024,robocape_mag,-23.25,-23.55,-4.05,10.0,0.0,0.0,0.0,10.0,0.0,0.0,0.0,10.0
1446040019993304572,195,1446040019988521099,robocape_mag,-23.25,-23.55,-4.05,10.0,0.0,0.0,0.0,10.0,0.0,0.0,0.0,10.0
1446040020027001656,196,1446040020022001028,robocape_mag,-23.25,-23.55,-4.05,10.0,0.0,0.0,0.0,10.0,0.0,0.0,0.0,10.0
1446040020060445822,197,1446040020055334091,robocape_mag,-22.05,-24.15,-4.05,10.0,0.0,0.0,0.0,10.0,0.0,0.0,0.0,10.0
1446040020093747864,198,1446040020088937997,robocape_mag,-22.05,-24.15,-4.05,10.0,0.0,0.0,0.0,10.0,0.0,0.0,0.0,10.0
1446040020127281906,199,1446040020122113943,robocape_mag,-22.05,-24.15,-4.05,10.0,0.0,0.0,0.0,10.0,0.0,0.0,0.0,10.0
1446040020168395906,200,1446040020156337022,robocape_mag,-22.05,-24.15,-4.05,10.0,0.0,0.0,0.0,10.0,0.0,0.0,0.0,10.0
1446040020193515031,201,1446040020188704967,robocape_mag,-21.75,-23.85,-4.35,10.0,0.0,0.0,0.0,10.0,0.0,0.0,0.0,10.0
1446040020227299781,202,1446040020222207069,robocape_mag,-21.75,-23.85,-4.35,10.0,0.0,0.0,0.0,10.0,0.0,0.0,0.0,10.0
1446040020260262614,203,1446040020255352973,robocape_mag,-21.75,-23.85,-4.35,10.0,0.0,0.0,0.0,10.0,0.0,0.0,0.0,10.0
1446040020293362656,204,1446040020288585901,robocape_mag,-21.75,-23.85,-4.35,10.0,0.0,0.0,0.0,10.0,0.0,0.0,0.0,10.0
1446040020327096406,205,1446040020321867942,robocape_mag,-21.75,-23.85,-4.35,10.0,0.0,0.0,0.0,10.0,0.0,0.0,0.0,10.0
1446040020360348864,206,1446040020355330944,robocape_mag,-21.75,-22.05,-6.15,10.0,0.0,0.0,0.0,10.0,0.0,0.0,0.0,10.0
1446040020393509572,207,1446040020388746976,robocape_mag,-21.75,-22.05,-6.15,10.0,0.0,0.0,0.0,10.0,0.0,0.0,0.0,10.0
1446040020428628572,208,1446040020422622919,robocape_mag,-21.75,-22.05,-6.15,10.0,0.0,0.0,0.0,10.0,0.0,0.0,0.0,10.0
1446040020460185531,209,1446040020455373048,robocape_mag,-21.75,-22.05,-6.15,10.0,0.0,0.0,0.0,10.0,0.0,0.0,0.0,10.0
1446040020493821239,210,1446040020488946914,robocape_mag,-21.75,-22.05,-6.15,10.0,0.0,0.0,0.0,10.0,0.0,0.0,0.0,10.0
1446040020526891447,211,1446040020521826982,robocape_mag,-22.35,-24.45,-4.35,10.0,0.0,0.0,0.0,10.0,0.0,0.0,0.0,10.0
1446040020560300197,212,1446040020555452108,robocape_mag,-22.35,-24.45,-4.35,10.0,0.0,0.0,0.0,10.0,0.0,0.0,0.0,10.0
1446040020593630406,213,1446040020588762044,robocape_mag,-22.35,-24.45,-4.35,10.0,0.0,0.0,0.0,10.0,0.0,0.0,0.0,10.0
1446040020627079448,214,1446040020621942043,robocape_mag,-22.35,-24.45,-4.35,10.0,0.0,0.0,0.0,10.0,0.0,0.0,0.0,10.0
1446040020660237823,215,1446040020655332088,robocape_mag,-22.35,-24.45,-4.35,10.0,0.0,0.0,0.0,10.0,0.0,0.0,0.0,10.0
1446040020693467906,216,1446040020688622951,robocape_mag,-22.95,-24.45,-5.55,10.0,0.0,0.0,0.0,10.0,0.0,0.0,0.0,10.0
1446040020727254656,217,1446040020721879005,robocape_mag,-22.95,-24.45,-5.55,10.0,0.0,0.0,0.0,10.0,0.0,0.0,0.0,10.0
1446040020760755364,218,1446040020755949974,robocape_mag,-22.95,-24.45,-5.55,10.0,0.0,0.0,0.0,10.0,0.0,0.0,0.0,10.0
1446040020793377989,219,1446040020788589954,robocape_mag,-22.95,-24.45,-5.55,10.0,0.0,0.0,0.0,10.0,0.0,0.0,0.0,10.0
1446040020827230198,220,1446040020821954011,robocape_mag,-22.95,-24.45,-5.55,10.0,0.0,0.0,0.0,10.0,0.0,0.0,0.0,10.0
1446040020860372864,221,1446040020855232000,robocape_mag,-23.85,-23.55,-5.85,10.0,0.0,0.0,0.0,10.0,0.0,0.0,0.0,10.0
1446040020893477156,222,1446040020888688087,robocape_mag,-23.85,-23.55,-5.85,10.0,0.0,0.0,0.0,10.0,0.0,0.0,0.0,10.0
1446040020927083073,223,1446040020921797037,robocape_mag,-23.85,-23.55,-5.85,10.0,0.0,0.0,0.0,10.0,0.0,0.0,0.0,10.0
1446040020960206906,224,1446040020955300092,robocape_mag,-23.85,-23.55,-5.85,10.0,0.0,0.0,0.0,10.0,0.0,0.0,0.0,10.0
1446040020993498573,225,1446040020988580942,robocape_mag,-22.35,-24.45,-6.15,10.0,0.0,0.0,0.0,10.0,0.0,0.0,0.0,10.0
1446040021028360031,226,1446040021022994995,robocape_mag,-22.35,-24.45,-6.15,10.0,0.0,0.0,0.0,10.0,0.0,0.0,0.0,10.0
1446040021060338531,227,1446040021055480957,robocape_mag,-22.35,-24.45,-6.15,10.0,0.0,0.0,0.0,10.0,0.0,0.0,0.0,10.0
1446040021093691781,228,1446040021088629961,robocape_mag,-22.35,-24.45,-6.15,10.0,0.0,0.0,0.0,10.0,0.0,0.0,0.0,10.0
1446040021127243406,229,1446040021121951103,robocape_mag,-22.35,-24.45,-6.15,10.0,0.0,0.0,0.0,10.0,0.0,0.0,0.0,10.0
1446040021160339198,230,1446040021155313014,robocape_mag,-21.15,-25.05,-5.55,10.0,0.0,0.0,0.0,10.0,0.0,0.0,0.0,10.0
1446040021195187864,231,1446040021188523054,robocape_mag,-21.15,-25.05,-5.55,10.0,0.0,0.0,0.0,10.0,0.0,0.0,0.0,10.0
1446040021227301364,232,1446040021222120046,robocape_mag,-21.15,-25.05,-5.55,10.0,0.0,0.0,0.0,10.0,0.0,0.0,0.0,10.0
1446040021260330989,233,1446040021255451917,robocape_mag,-21.15,-25.05,-5.55,10.0,0.0,0.0,0.0,10.0,0.0,0.0,0.0,10.0
1446040021293612864,234,1446040021288642883,robocape_mag,-21.15,-25.05,-5.55,10.0,0.0,0.0,0.0,10.0,0.0,0.0,0.0,10.0
1446040021327137240,235,1446040021321969032,robocape_mag,-22.35,-23.25,-5.55,10.0,0.0,0.0,0.0,10.0,0.0,0.0,0.0,10.0
1446040021360565323,236,1446040021355639934,robocape_mag,-22.35,-23.25,-5.55,10.0,0.0,0.0,0.0,10.0,0.0,0.0,0.0,10.0
1446040021393940156,237,1446040021388542890,robocape_mag,-22.35,-23.25,-5.55,10.0,0.0,0.0,0.0,10.0,0.0,0.0,0.0,10.0
1446040021427445365,238,1446040021422311067,robocape_mag,-22.35,-23.25,-5.55,10.0,0.0,0.0,0.0,10.0,0.0,0.0,0.0,10.0
1446040021460748490,239,1446040021455646038,robocape_mag,-22.35,-23.25,-5.55,10.0,0.0,0.0,0.0,10.0,0.0,0.0,0.0,10.0
1446040021493682740,240,1446040021488655090,robocape_mag,-22.65,-23.55,-4.65,10.0,0.0,0.0,0.0,10.0,0.0,0.0,0.0,10.0
1446040021527007448,241,1446040021522181987,robocape_mag,-22.65,-23.55,-4.65,10.0,0.0,0.0,0.0,10.0,0.0,0.0,0.0,10.0
1446040021560493948,242,1446040021555685043,robocape_mag,-22.65,-23.55,-4.65,10.0,0.0,0.0,0.0,10.0,0.0,0.0,0.0,10.0
1446040021593610531,243,1446040021588560104,robocape_mag,-22.65,-23.55,-4.65,10.0,0.0,0.0,0.0,10.0,0.0,0.0,0.0,10.0
1446040021626861948,244,1446040021622061967,robocape_mag,-22.65,-23.55,-4.65,10.0,0.0,0.0,0.0,10.0,0.0,0.0,0.0,10.0
1446040021660491656,245,1446040021655724048,robocape_mag,-22.95,-22.65,-4.35,10.0,0.0,0.0,0.0,10.0,0.0,0.0,0.0,10.0
1446040021693683573,246,1446040021688536882,robocape_mag,-22.95,-22.65,-4.35,10.0,0.0,0.0,0.0,10.0,0.0,0.0,0.0,10.0
1446040021727078531,247,1446040021722131013,robocape_mag,-22.95,-22.65,-4.35,10.0,0.0,0.0,0.0,10.0,0.0,0.0,0.0,10.0
1446040021760574615,248,1446040021755717992,robocape_mag,-22.95,-22.65,-4.35,10.0,0.0,0.0,0.0,10.0,0.0,0.0,0.0,10.0
1446040021793563281,249,1446040021788599967,robocape_mag,-22.65,-22.95,-6.45,10.0,0.0,0.0,0.0,10.0,0.0,0.0,0.0,10.0
1446040021827220031,250,1446040021822196960,robocape_mag,-22.65,-22.95,-6.45,10.0,0.0,0.0,0.0,10.0,0.0,0.0,0.0,10.0
1446040021860598948,251,1446040021855626106,robocape_mag,-22.65,-22.95,-6.45,10.0,0.0,0.0,0.0,10.0,0.0,0.0,0.0,10.0
1446040021893660240,252,1446040021888727903,robocape_mag,-22.65,-22.95,-6.45,10.0,0.0,0.0,0.0,10.0,0.0,0.0,0.0,10.0
1446040021926868865,253,1446040021921884059,robocape_mag,-22.65,-22.95,-6.45,10.0,0.0,0.0,0.0,10.0,0.0,0.0,0.0,10.0
1446040021960481656,254,1446040021955648899,robocape_mag,-20.55,-23.25,-5.55,10.0,0.0,0.0,0.0,10.0,0.0,0.0,0.0,10.0
1446040021994120406,255,1446040021989007949,robocape_mag,-20.55,-23.25,-5.55,10.0,0.0,0.0,0.0,10.0,0.0,0.0,0.0,10.0
1446040022027152615,256,1446040022022150039,robocape_mag,-20.55,-23.25,-5.55,10.0,0.0,0.0,0.0,10.0,0.0,0.0,0.0,10.0
1446040022060524740,257,1446040022055686950,robocape_mag,-20.55,-23.25,-5.55,10.0,0.0,0.0,0.0,10.0,0.0,0.0,0.0,10.0
1446040022093629615,258,1446040022088634967,robocape_mag,-20.55,-23.25,-5.55,10.0,0.0,0.0,0.0,10.0,0.0,0.0,0.0,10.0
1446040022127040240,259,1446040022122039079,robocape_mag,-22.65,-24.15,-4.65,10.0,0.0,0.0,0.0,10.0,0.0,0.0,0.0,10.0
1446040022169049323,260,1446040022155500888,robocape_mag,-22.65,-24.15,-4.65,10.0,0.0,0.0,0.0,10.0,0.0,0.0,0.0,10.0
1446040022194006448,261,1446040022189100980,robocape_mag,-22.65,-24.15,-4.65,10.0,0.0,0.0,0.0,10.0,0.0,0.0,0.0,10.0
1446040022227294823,262,1446040022222341060,robocape_mag,-22.65,-24.15,-4.65,10.0,0.0,0.0,0.0,10.0,0.0,0.0,0.0,10.0
1446040022260827823,263,1446040022255942106,robocape_mag,-22.65,-24.15,-4.65,10.0,0.0,0.0,0.0,10.0,0.0,0.0,0.0,10.0
1446040022293626657,264,1446040022288551092,robocape_mag,-22.05,-24.15,-5.25,10.0,0.0,0.0,0.0,10.0,0.0,0.0,0.0,10.0
1446040022326987198,265,1446040022322015047,robocape_mag,-22.05,-24.15,-5.25,10.0,0.0,0.0,0.0,10.0,0.0,0.0,0.0,10.0
1446040022360597282,266,1446040022355670928,robocape_mag,-22.05,-24.15,-5.25,10.0,0.0,0.0,0.0,10.0,0.0,0.0,0.0,10.0
1446040022393709240,267,1446040022388624906,robocape_mag,-22.05,-24.15,-5.25,10.0,0.0,0.0,0.0,10.0,0.0,0.0,0.0,10.0
1446040022427036907,268,1446040022421994924,robocape_mag,-22.05,-24.15,-5.25,10.0,0.0,0.0,0.0,10.0,0.0,0.0,0.0,10.0
1446040022460593490,269,1446040022455749034,robocape_mag,-22.35,-23.85,-6.75,10.0,0.0,0.0,0.0,10.0,0.0,0.0,0.0,10.0
1446040022493495490,270,1446040022488543033,robocape_mag,-22.35,-23.85,-6.75,10.0,0.0,0.0,0.0,10.0,0.0,0.0,0.0,10.0
1446040022526998032,271,1446040022521969079,robocape_mag,-22.35,-23.85,-6.75,10.0,0.0,0.0,0.0,10.0,0.0,0.0,0.0,10.0
1446040022560387823,272,1446040022555552005,robocape_mag,-22.35,-23.85,-6.75,10.0,0.0,0.0,0.0,10.0,0.0,0.0,0.0,10.0
1446040022593794282,273,1446040022588766098,robocape_mag,-22.35,-23.25,-4.95,10.0,0.0,0.0,0.0,10.0,0.0,0.0,0.0,10.0
1446040022627018573,274,1446040022621984004,robocape_mag,-22.35,-23.25,-4.95,10.0,0.0,0.0,0.0,10.0,0.0,0.0,0.0,10.0
1446040022660671615,275,1446040022655905008,robocape_mag,-22.35,-23.25,-4.95,10.0,0.0,0.0,0.0,10.0,0.0,0.0,0.0,10.0
1446040022696649948,276,1446040022691669940,robocape_mag,-22.35,-23.25,-4.95,10.0,0.0,0.0,0.0,10.0,0.0,0.0,0.0,10.0
1446040022727103865,277,1446040022721971988,robocape_mag,-22.35,-23.25,-4.95,10.0,0.0,0.0,0.0,10.0,0.0,0.0,0.0,10.0
1446040022760609157,278,1446040022755717039,robocape_mag,-22.05,-23.55,-4.65,10.0,0.0,0.0,0.0,10.0,0.0,0.0,0.0,10.0
1446040022793670032,279,1446040022788605928,robocape_mag,-22.05,-23.55,-4.65,10.0,0.0,0.0,0.0,10.0,0.0,0.0,0.0,10.0
1446040022827260990,280,1446040022822257995,robocape_mag,-22.05,-23.55,-4.65,10.0,0.0,0.0,0.0,10.0,0.0,0.0,0.0,10.0
1446040022860924699,281,1446040022855926990,robocape_mag,-22.05,-23.55,-4.65,10.0,0.0,0.0,0.0,10.0,0.0,0.0,0.0,10.0
1446040022893653449,282,1446040022888664007,robocape_mag,-22.05,-23.55,-4.65,10.0,0.0,0.0,0.0,10.0,0.0,0.0,0.0,10.0
1446040022928330199,283,1446040022923326969,robocape_mag,-22.65,-24.15,-5.25,10.0,0.0,0.0,0.0,10.0,0.0,0.0,0.0,10.0
1446040022960580324,284,1446040022955754995,robocape_mag,-22.65,-24.15,-5.25,10.0,0.0,0.0,0.0,10.0,0.0,0.0,0.0,10.0
1446040022993762240,285,1446040022988774061,robocape_mag,-22.65,-24.15,-5.25,10.0,0.0,0.0,0.0,10.0,0.0,0.0,0.0,10.0
1446040023026765782,286,1446040023021948099,robocape_mag,-22.65,-24.15,-5.25,10.0,0.0,0.0,0.0,10.0,0.0,0.0,0.0,10.0
1446040023060610657,287,1446040023055768013,robocape_mag,-22.65,-24.15,-5.25,10.0,0.0,0.0,0.0,10.0,0.0,0.0,0.0,10.0
1446040023093681282,288,1446040023088644027,robocape_mag,-22.05,-24.75,-4.65,10.0,0.0,0.0,0.0,10.0,0.0,0.0,0.0,10.0
1446040023127089365,289,1446040023122055053,robocape_mag,-22.05,-24.75,-4.65,10.0,0.0,0.0,0.0,10.0,0.0,0.0,0.0,10.0
1446040023167586990,290,1446040023155587911,robocape_mag,-22.05,-24.75,-4.65,10.0,0.0,0.0,0.0,10.0,0.0,0.0,0.0,10.0
1446040023193544074,291,1446040023188549041,robocape_mag,-22.05,-24.75,-4.65,10.0,0.0,0.0,0.0,10.0,0.0,0.0,0.0,10.0
1446040023227194032,292,1446040023222171068,robocape_mag,-22.05,-24.75,-4.65,10.0,0.0,0.0,0.0,10.0,0.0,0.0,0.0,10.0
1446040023260484990,293,1446040023255492925,robocape_mag,-22.65,-22.95,-6.45,10.0,0.0,0.0,0.0,10.0,0.0,0.0,0.0,10.0
1446040023293612324,294,1446040023288640022,robocape_mag,-22.65,-22.95,-6.45,10.0,0.0,0.0,0.0,10.0,0.0,0.0,0.0,10.0
1446040023326996074,295,1446040023322038888,robocape_mag,-22.65,-22.95,-6.45,10.0,0.0,0.0,0.0,10.0,0.0,0.0,0.0,10.0
1446040023360458574,296,1446040023355479001,robocape_mag,-22.65,-22.95,-6.45,10.0,0.0,0.0,0.0,10.0,0.0,0.0,0.0,10.0
1446040023393911074,297,1446040023388514995,robocape_mag,-23.55,-22.65,-4.95,10.0,0.0,0.0,0.0,10.0,0.0,0.0,0.0,10.0
1446040023427044699,298,1446040023422055959,robocape_mag,-23.55,-22.65,-4.95,10.0,0.0,0.0,0.0,10.0,0.0,0.0,0.0,10.0
1446040023461223616,299,1446040023456250905,robocape_mag,-23.55,-22.65,-4.95,10.0,0.0,0.0,0.0,10.0,0.0,0.0,0.0,10.0
1446040023494748907,300,1446040023488574981,robocape_mag,-23.55,-22.65,-4.95,10.0,0.0,0.0,0.0,10.0,0.0,0.0,0.0,10.0
1446040023527035407,301,1446040023521970987,robocape_mag,-23.55,-22.65,-4.95,10.0,0.0,0.0,0.0,10.0,0.0,0.0,0.0,10.0
1446040023560493616,302,1446040023555623054,robocape_mag,-21.15,-25.05,-5.55,10.0,0.0,0.0,0.0,10.0,0.0,0.0,0.0,10.0
1446040023593735407,303,1446040023588716030,robocape_mag,-21.15,-25.05,-5.55,10.0,0.0,0.0,0.0,10.0,0.0,0.0,0.0,10.0
1446040023627036991,304,1446040023622030973,robocape_mag,-21.15,-25.05,-5.55,10.0,0.0,0.0,0.0,10.0,0.0,0.0,0.0,10.0
1446040023660497241,305,1446040023655268907,robocape_mag,-21.15,-25.05,-5.55,10.0,0.0,0.0,0.0,10.0,0.0,0.0,0.0,10.0
1446040023693620907,306,1446040023688622951,robocape_mag,-21.15,-25.05,-5.55,10.0,0.0,0.0,0.0,10.0,0.0,0.0,0.0,10.0
1446040023727316199,307,1446040023722172021,robocape_mag,-22.35,-23.85,-4.95,10.0,0.0,0.0,0.0,10.0,0.0,0.0,0.0,10.0
1446040023760852616,308,1446040023755640983,robocape_mag,-22.35,-23.85,-4.95,10.0,0.0,0.0,0.0,10.0,0.0,0.0,0.0,10.0
1446040023793817532,309,1446040023788877964,robocape_mag,-22.35,-23.85,-4.95,10.0,0.0,0.0,0.0,10.0,0.0,0.0,0.0,10.0
1446040023827174366,310,1446040023822077989,robocape_mag,-22.35,-23.85,-4.95,10.0,0.0,0.0,0.0,10.0,0.0,0.0,0.0,10.0
1446040023860542366,311,1446040023855232954,robocape_mag,-22.35,-23.85,-4.95,10.0,0.0,0.0,0.0,10.0,0.0,0.0,0.0,10.0
1446040023893785866,312,1446040023888806104,robocape_mag,-20.55,-23.85,-3.75,10.0,0.0,0.0,0.0,10.0,0.0,0.0,0.0,10.0
1446040023926859616,313,1446040023921889066,robocape_mag,-20.55,-23.85,-3.75,10.0,0.0,0.0,0.0,10.0,0.0,0.0,0.0,10.0
1446040023960492741,314,1446040023955240011,robocape_mag,-20.55,-23.85,-3.75,10.0,0.0,0.0,0.0,10.0,0.0,0.0,0.0,10.0
1446040023993778407,315,1446040023988778114,robocape_mag,-20.55,-23.85,-3.75,10.0,0.0,0.0,0.0,10.0,0.0,0.0,0.0,10.0
1446040024027057241,316,1446040024022016048,robocape_mag,-20.55,-23.85,-3.75,10.0,0.0,0.0,0.0,10.0,0.0,0.0,0.0,10.0
1446040024060680449,317,1446040024055339097,robocape_mag,-24.45,-22.95,-4.65,10.0,0.0,0.0,0.0,10.0,0.0,0.0,0.0,10.0
1446040024093723449,318,1446040024088773012,robocape_mag,-24.45,-22.95,-4.65,10.0,0.0,0.0,0.0,10.0,0.0,0.0,0.0,10.0
1446040024127041783,319,1446040024122042894,robocape_mag,-24.45,-22.95,-4.65,10.0,0.0,0.0,0.0,10.0,0.0,0.0,0.0,10.0
1446040024168180491,320,1446040024155287027,robocape_mag,-24.45,-22.95,-4.65,10.0,0.0,0.0,0.0,10.0,0.0,0.0,0.0,10.0
1446040024194272824,321,1446040024189250946,robocape_mag,-22.65,-21.75,-6.45,10.0,0.0,0.0,0.0,10.0,0.0,0.0,0.0,10.0
1446040024227144949,322,1446040024222203016,robocape_mag,-22.65,-21.75,-6.45,10.0,0.0,0.0,0.0,10.0,0.0,0.0,0.0,10.0
1446040024260745908,323,1446040024255477905,robocape_mag,-22.65,-21.75,-6.45,10.0,0.0,0.0,0.0,10.0,0.0,0.0,0.0,10.0
1446040024293734408,324,1446040024288712978,robocape_mag,-22.65,-21.75,-6.45,10.0,0.0,0.0,0.0,10.0,0.0,0.0,0.0,10.0
1446040024326987241,325,1446040024322026014,robocape_mag,-22.65,-21.75,-6.45,10.0,0.0,0.0,0.0,10.0,0.0,0.0,0.0,10.0
1446040024360495741,326,1446040024355214118,robocape_mag,-21.15,-22.05,-4.95,10.0,0.0,0.0,0.0,10.0,0.0,0.0,0.0,10.0
1446040024393603241,327,1446040024388585090,robocape_mag,-21.15,-22.05,-4.95,10.0,0.0,0.0,0.0,10.0,0.0,0.0,0.0,10.0
1446040024427075366,328,1446040024422135114,robocape_mag,-21.15,-22.05,-4.95,10.0,0.0,0.0,0.0,10.0,0.0,0.0,0.0,10.0
1446040024460629283,329,1446040024455343961,robocape_mag,-21.15,-22.05,-4.95,10.0,0.0,0.0,0.0,10.0,0.0,0.0,0.0,10.0
1446040024494441866,330,1446040024489320993,robocape_mag,-21.15,-22.05,-4.95,10.0,0.0,0.0,0.0,10.0,0.0,0.0,0.0,10.0
1446040024527008866,331,1446040024521966934,robocape_mag,-23.55,-24.45,-7.95,10.0,0.0,0.0,0.0,10.0,0.0,0.0,0.0,10.0
1446040024561188574,332,1446040024555982112,robocape_mag,-23.55,-24.45,-7.95,10.0,0.0,0.0,0.0,10.0,0.0,0.0,0.0,10.0
1446040024594078116,333,1446040024589010953,robocape_mag,-23.55,-24.45,-7.95,10.0,0.0,0.0,0.0,10.0,0.0,0.0,0.0,10.0
1446040024626900616,334,1446040024621876955,robocape_mag,-23.55,-24.45,-7.95,10.0,0.0,0.0,0.0,10.0,0.0,0.0,0.0,10.0
1446040024660380199,335,1446040024655209064,robocape_mag,-23.55,-24.45,-7.95,10.0,0.0,0.0,0.0,10.0,0.0,0.0,0.0,10.0
1446040024693754033,336,1446040024688734054,robocape_mag,-22.35,-23.85,-4.35,10.0,0.0,0.0,0.0,10.0,0.0,0.0,0.0,10.0
1446040024727071658,337,1446040024722062110,robocape_mag,-22.35,-23.85,-4.35,10.0,0.0,0.0,0.0,10.0,0.0,0.0,0.0,10.0
1446040024760561283,338,1446040024755462884,robocape_mag,-22.35,-23.85,-4.35,10.0,0.0,0.0,0.0,10.0,0.0,0.0,0.0,10.0
1446040024793744949,339,1446040024788768053,robocape_mag,-22.35,-23.85,-4.35,10.0,0.0,0.0,0.0,10.0,0.0,0.0,0.0,10.0
1446040024827062700,340,1446040024822088003,robocape_mag,-22.35,-23.85,-4.35,10.0,0.0,0.0,0.0,10.0,0.0,0.0,0.0,10.0
1446040024860265700,341,1446040024855174064,robocape_mag,-21.15,-24.45,-4.95,10.0,0.0,0.0,0.0,10.0,0.0,0.0,0.0,10.0
1446040024893680616,342,1446040024888674020,robocape_mag,-21.15,-24.45,-4.95,10.0,0.0,0.0,0.0,10.0,0.0,0.0,0.0,10.0
1446040024926981908,343,1446040024922017097,robocape_mag,-21.15,-24.45,-4.95,10.0,0.0,0.0,0.0,10.0,0.0,0.0,0.0,10.0
1446040024960308908,344,1446040024955372095,robocape_mag,-21.15,-24.45,-4.95,10.0,0.0,0.0,0.0,10.0,0.0,0.0,0.0,10.0
1446040024993745533,345,1446040024988681077,robocape_mag,-21.45,-24.75,-5.25,10.0,0.0,0.0,0.0,10.0,0.0,0.0,0.0,10.0
1446040025027046950,346,1446040025022016048,robocape_mag,-21.45,-24.75,-5.25,10.0,0.0,0.0,0.0,10.0,0.0,0.0,0.0,10.0
1446040025060261575,347,1446040025055270910,robocape_mag,-21.45,-24.75,-5.25,10.0,0.0,0.0,0.0,10.0,0.0,0.0,0.0,10.0
1446040025093876950,348,1446040025088838100,robocape_mag,-21.45,-24.75,-5.25,10.0,0.0,0.0,0.0,10.0,0.0,0.0,0.0,10.0
1446040025126998616,349,1446040025121958017,robocape_mag,-21.45,-24.75,-5.25,10.0,0.0,0.0,0.0,10.0,0.0,0.0,0.0,10.0
1446040025173589116,350,1446040025168598890,robocape_mag,-21.75,-25.05,-4.95,10.0,0.0,0.0,0.0,10.0,0.0,0.0,0.0,10.0
1446040025197124075,351,1446040025192131042,robocape_mag,-21.75,-25.05,-4.95,10.0,0.0,0.0,0.0,10.0,0.0,0.0,0.0,10.0
1446040025226981700,352,1446040025221992015,robocape_mag,-21.75,-25.05,-4.95,10.0,0.0,0.0,0.0,10.0,0.0,0.0,0.0,10.0
1446040025260913866,353,1446040025255698919,robocape_mag,-21.75,-25.05,-4.95,10.0,0.0,0.0,0.0,10.0,0.0,0.0,0.0,10.0
1446040025293672533,354,1446040025288738965,robocape_mag,-21.75,-25.05,-4.95,10.0,0.0,0.0,0.0,10.0,0.0,0.0,0.0,10.0
1446040025327237741,355,1446040025322266101,robocape_mag,-23.55,-22.65,-5.55,10.0,0.0,0.0,0.0,10.0,0.0,0.0,0.0,10.0
1446040025360354283,356,1446040025355295896,robocape_mag,-23.55,-22.65,-5.55,10.0,0.0,0.0,0.0,10.0,0.0,0.0,0.0,10.0
1446040025394320241,357,1446040025388861894,robocape_mag,-23.55,-22.65,-5.55,10.0,0.0,0.0,0.0,10.0,0.0,0.0,0.0,10.0
1446040025428370033,358,1446040025422787904,robocape_mag,-23.55,-22.65,-5.55,10.0,0.0,0.0,0.0,10.0,0.0,0.0,0.0,10.0
1446040025460095241,359,1446040025455157041,robocape_mag,-23.55,-22.65,-5.55,10.0,0.0,0.0,0.0,10.0,0.0,0.0,0.0,10.0
1446040025493623241,360,1446040025488735914,robocape_mag,-22.95,-24.45,-4.95,10.0,0.0,0.0,0.0,10.0,0.0,0.0,0.0,10.0
1446040025526707533,361,1446040025521964073,robocape_mag,-22.95,-24.45,-4.95,10.0,0.0,0.0,0.0,10.0,0.0,0.0,0.0,10.0
1446040025560909825,362,1446040025555886030,robocape_mag,-22.95,-24.45,-4.95,10.0,0.0,0.0,0.0,10.0,0.0,0.0,0.0,10.0
1446040025593571158,363,1446040025588640928,robocape_mag,-22.95,-24.45,-4.95,10.0,0.0,0.0,0.0,10.0,0.0,0.0,0.0,10.0
1446040025627402450,364,1446040025622410058,robocape_mag,-22.95,-24.45,-4.95,10.0,0.0,0.0,0.0,10.0,0.0,0.0,0.0,10.0
1446040025660400408,365,1446040025655201911,robocape_mag,-22.35,-25.05,-6.15,10.0,0.0,0.0,0.0,10.0,0.0,0.0,0.0,10.0
1446040025693657825,366,1446040025688760042,robocape_mag,-22.35,-25.05,-6.15,10.0,0.0,0.0,0.0,10.0,0.0,0.0,0.0,10.0
1446040025726875200,367,1446040025721885919,robocape_mag,-22.35,-25.05,-6.15,10.0,0.0,0.0,0.0,10.0,0.0,0.0,0.0,10.0
1446040025765045950,368,1446040025760301113,robocape_mag,-22.35,-25.05,-6.15,10.0,0.0,0.0,0.0,10.0,0.0,0.0,0.0,10.0
1446040025793626408,369,1446040025788767099,robocape_mag,-22.65,-22.95,-5.85,10.0,0.0,0.0,0.0,10.0,0.0,0.0,0.0,10.0
1446040025827072200,370,1446040025822092056,robocape_mag,-22.65,-22.95,-5.85,10.0,0.0,0.0,0.0,10.0,0.0,0.0,0.0,10.0
1446040025860118825,371,1446040025855154037,robocape_mag,-22.65,-22.95,-5.85,10.0,0.0,0.0,0.0,10.0,0.0,0.0,0.0,10.0
1446040025893796617,372,1446040025888892889,robocape_mag,-22.65,-22.95,-5.85,10.0,0.0,0.0,0.0,10.0,0.0,0.0,0.0,10.0
1446040025926865117,373,1446040025921889066,robocape_mag,-22.65,-22.95,-5.85,10.0,0.0,0.0,0.0,10.0,0.0,0.0,0.0,10.0
1446040025960283325,374,1446040025955316066,robocape_mag,-22.65,-24.15,-5.25,10.0,0.0,0.0,0.0,10.0,0.0,0.0,0.0,10.0
1446040025993665283,375,1446040025988724946,robocape_mag,-22.65,-24.15,-5.25,10.0,0.0,0.0,0.0,10.0,0.0,0.0,0.0,10.0
1446040026027106783,376,1446040026022041082,robocape_mag,-22.65,-24.15,-5.25,10.0,0.0,0.0,0.0,10.0,0.0,0.0,0.0,10.0
1446040026060194825,377,1446040026055226087,robocape_mag,-22.65,-24.15,-5.25,10.0,0.0,0.0,0.0,10.0,0.0,0.0,0.0,10.0
1446040026093717908,378,1446040026088835000,robocape_mag,-22.65,-24.15,-5.25,10.0,0.0,0.0,0.0,10.0,0.0,0.0,0.0,10.0
1446040026127143158,379,1446040026122006893,robocape_mag,-20.55,-24.45,-4.95,10.0,0.0,0.0,0.0,10.0,0.0,0.0,0.0,10.0
1446040026166715783,380,1446040026155162096,robocape_mag,-20.55,-24.45,-4.95,10.0,0.0,0.0,0.0,10.0,0.0,0.0,0.0,10.0
1446040026193689283,381,1446040026188821077,robocape_mag,-20.55,-24.45,-4.95,10.0,0.0,0.0,0.0,10.0,0.0,0.0,0.0,10.0
1446040026227419325,382,1446040026222451925,robocape_mag,-20.55,-24.45,-4.95,10.0,0.0,0.0,0.0,10.0,0.0,0.0,0.0,10.0
1446040026260520367,383,1446040026255424976,robocape_mag,-20.55,-24.45,-4.95,10.0,0.0,0.0,0.0,10.0,0.0,0.0,0.0,10.0
1446040026293632159,384,1446040026288847923,robocape_mag,-22.65,-24.15,-6.45,10.0,0.0,0.0,0.0,10.0,0.0,0.0,0.0,10.0
1446040026327172159,385,1446040026322029113,robocape_mag,-22.65,-24.15,-6.45,10.0,0.0,0.0,0.0,10.0,0.0,0.0,0.0,10.0
1446040026360376325,386,1446040026355315923,robocape_mag,-22.65,-24.15,-6.45,10.0,0.0,0.0,0.0,10.0,0.0,0.0,0.0,10.0
1446040026393916325,387,1446040026389070034,robocape_mag,-22.65,-24.15,-6.45,10.0,0.0,0.0,0.0,10.0,0.0,0.0,0.0,10.0
1446040026427066950,388,1446040026421886920,robocape_mag,-22.65,-24.15,-6.45,10.0,0.0,0.0,0.0,10.0,0.0,0.0,0.0,10.0
1446040026460123367,389,1446040026455327987,robocape_mag,-21.75,-23.85,-5.55,10.0,0.0,0.0,0.0,10.0,0.0,0.0,0.0,10.0
1446040026493732992,390,1446040026488864898,robocape_mag,-21.75,-23.85,-5.55,10.0,0.0,0.0,0.0,10.0,0.0,0.0,0.0,10.0
1446040026527008034,391,1446040026521836042,robocape_mag,-21.75,-23.85,-5.55,10.0,0.0,0.0,0.0,10.0,0.0,0.0,0.0,10.0
1446040026559971034,392,1446040026555248975,robocape_mag,-21.75,-23.85,-5.55,10.0,0.0,0.0,0.0,10.0,0.0,0.0,0.0,10.0
1446040026593525784,393,1446040026588684082,robocape_mag,-21.45,-24.75,-6.45,10.0,0.0,0.0,0.0,10.0,0.0,0.0,0.0,10.0
1446040026627812992,394,1446040026622617959,robocape_mag,-21.45,-24.75,-6.45,10.0,0.0,0.0,0.0,10.0,0.0,0.0,0.0,10.0
1446040026660093534,395,1446040026655181884,robocape_mag,-21.45,-24.75,-6.45,10.0,0.0,0.0,0.0,10.0,0.0,0.0,0.0,10.0
1446040026694019575,396,1446040026688980102,robocape_mag,-21.45,-24.75,-6.45,10.0,0.0,0.0,0.0,10.0,0.0,0.0,0.0,10.0
1446040026727048325,397,1446040026721838951,robocape_mag,-21.45,-24.75,-6.45,10.0,0.0,0.0,0.0,10.0,0.0,0.0,0.0,10.0
1446040026760440909,398,1446040026755601882,robocape_mag,-22.35,-22.65,-6.75,10.0,0.0,0.0,0.0,10.0,0.0,0.0,0.0,10.0
1446040026793548617,399,1446040026788767099,robocape_mag,-22.35,-22.65,-6.75,10.0,0.0,0.0,0.0,10.0,0.0,0.0,0.0,10.0
1446040026827048367,400,1446040026821926116,robocape_mag,-22.35,-22.65,-6.75,10.0,0.0,0.0,0.0,10.0,0.0,0.0,0.0,10.0
1446040026860137242,401,1446040026855228900,robocape_mag,-22.35,-22.65,-6.75,10.0,0.0,0.0,0.0,10.0,0.0,0.0,0.0,10.0
1446040026893742575,402,1446040026888798952,robocape_mag,-22.35,-22.65,-6.75,10.0,0.0,0.0,0.0,10.0,0.0,0.0,0.0,10.0
1446040026926982951,403,1446040026921892881,robocape_mag,-21.75,-23.85,-4.95,10.0,0.0,0.0,0.0,10.0,0.0,0.0,0.0,10.0
1446040026960291367,404,1446040026955568075,robocape_mag,-21.75,-23.85,-4.95,10.0,0.0,0.0,0.0,10.0,0.0,0.0,0.0,10.0
1446040026993757242,405,1446040026988826990,robocape_mag,-21.75,-23.85,-4.95,10.0,0.0,0.0,0.0,10.0,0.0,0.0,0.0,10.0
1446040027027173201,406,1446040027021951913,robocape_mag,-21.75,-23.85,-4.95,10.0,0.0,0.0,0.0,10.0,0.0,0.0,0.0,10.0
1446040027060172784,407,1446040027055394887,robocape_mag,-21.75,-23.85,-4.95,10.0,0.0,0.0,0.0,10.0,0.0,0.0,0.0,10.0
1446040027093695159,408,1446040027088848114,robocape_mag,-22.05,-24.15,-4.05,10.0,0.0,0.0,0.0,10.0,0.0,0.0,0.0,10.0
1446040027127223951,409,1446040027122041940,robocape_mag,-22.05,-24.15,-4.05,10.0,0.0,0.0,0.0,10.0,0.0,0.0,0.0,10.0
1446040027160452492,410,1446040027155397891,robocape_mag,-22.05,-24.15,-4.05,10.0,0.0,0.0,0.0,10.0,0.0,0.0,0.0,10.0
1446040027193620409,411,1446040027188787937,robocape_mag,-22.05,-24.15,-4.05,10.0,0.0,0.0,0.0,10.0,0.0,0.0,0.0,10.0
1446040027227113326,412,1446040027221951961,robocape_mag,-22.05,-24.15,-4.05,10.0,0.0,0.0,0.0,10.0,0.0,0.0,0.0,10.0
1446040027260729492,413,1446040027255768060,robocape_mag,-21.75,-23.85,-4.95,10.0,0.0,0.0,0.0,10.0,0.0,0.0,0.0,10.0
1446040027293969826,414,1446040027289113044,robocape_mag,-21.75,-23.85,-4.95,10.0,0.0,0.0,0.0,10.0,0.0,0.0,0.0,10.0
1446040027327148451,415,1446040027322104930,robocape_mag,-21.75,-23.85,-4.95,10.0,0.0,0.0,0.0,10.0,0.0,0.0,0.0,10.0
1446040027360336992,416,1446040027355398893,robocape_mag,-21.75,-23.85,-4.95,10.0,0.0,0.0,0.0,10.0,0.0,0.0,0.0,10.0
1446040027394223701,417,1446040027388700962,robocape_mag,-22.35,-23.25,-4.95,10.0,0.0,0.0,0.0,10.0,0.0,0.0,0.0,10.0
1446040027427292117,418,1446040027422008037,robocape_mag,-22.35,-23.25,-4.95,10.0,0.0,0.0,0.0,10.0,0.0,0.0,0.0,10.0
1446040027460352242,419,1446040027455543041,robocape_mag,-22.35,-23.25,-4.95,10.0,0.0,0.0,0.0,10.0,0.0,0.0,0.0,10.0
1446040027493524576,420,1446040027488739967,robocape_mag,-22.35,-23.25,-4.95,10.0,0.0,0.0,0.0,10.0,0.0,0.0,0.0,10.0
1446040027528056826,421,1446040027522838115,robocape_mag,-22.35,-23.25,-4.95,10.0,0.0,0.0,0.0,10.0,0.0,0.0,0.0,10.0
1446040027560143576,422,1446040027555316925,robocape_mag,-22.05,-24.75,-6.45,10.0,0.0,0.0,0.0,10.0,0.0,0.0,0.0,10.0
1446040027593777117,423,1446040027588957071,robocape_mag,-22.05,-24.75,-6.45,10.0,0.0,0.0,0.0,10.0,0.0,0.0,0.0,10.0
1446040027626916701,424,1446040027622045040,robocape_mag,-22.05,-24.75,-6.45,10.0,0.0,0.0,0.0,10.0,0.0,0.0,0.0,10.0
1446040027660345534,425,1446040027655472040,robocape_mag,-22.05,-24.75,-6.45,10.0,0.0,0.0,0.0,10.0,0.0,0.0,0.0,10.0
1446040027694846284,426,1446040027689140081,robocape_mag,-22.05,-24.75,-6.45,10.0,0.0,0.0,0.0,10.0,0.0,0.0,0.0,10.0
1446040027727090201,427,1446040027721998929,robocape_mag,-21.75,-25.05,-6.75,10.0,0.0,0.0,0.0,10.0,0.0,0.0,0.0,10.0
1446040027760764118,428,1446040027755527973,robocape_mag,-21.75,-25.05,-6.75,10.0,0.0,0.0,0.0,10.0,0.0,0.0,0.0,10.0
1446040027793973409,429,1446040027788885116,robocape_mag,-21.75,-25.05,-6.75,10.0,0.0,0.0,0.0,10.0,0.0,0.0,0.0,10.0
1446040027827004159,430,1446040027822052955,robocape_mag,-21.75,-25.05,-6.75,10.0,0.0,0.0,0.0,10.0,0.0,0.0,0.0,10.0
1446040027860351243,431,1446040027855402946,robocape_mag,-21.75,-25.05,-6.75,10.0,0.0,0.0,0.0,10.0,0.0,0.0,0.0,10.0
1446040027894224118,432,1446040027888819932,robocape_mag,-22.05,-22.95,-5.85,10.0,0.0,0.0,0.0,10.0,0.0,0.0,0.0,10.0
1446040027927029118,433,1446040027922015905,robocape_mag,-22.05,-22.95,-5.85,10.0,0.0,0.0,0.0,10.0,0.0,0.0,0.0,10.0
1446040027960491368,434,1446040027955521106,robocape_mag,-22.05,-22.95,-5.85,10.0,0.0,0.0,0.0,10.0,0.0,0.0,0.0,10.0
1446040027993886993,435,1446040027988753080,robocape_mag,-22.05,-22.95,-5.85,10.0,0.0,0.0,0.0,10.0,0.0,0.0,0.0,10.0
1446040028027163409,436,1446040028021887063,robocape_mag,-22.05,-22.95,-5.85,10.0,0.0,0.0,0.0,10.0,0.0,0.0,0.0,10.0
1446040028060201243,437,1446040028055301904,robocape_mag,-22.05,-23.55,-4.65,10.0,0.0,0.0,0.0,10.0,0.0,0.0,0.0,10.0
1446040028103167534,438,1446040028097877025,robocape_mag,-22.05,-23.55,-4.65,10.0,0.0,0.0,0.0,10.0,0.0,0.0,0.0,10.0
1446040028126902743,439,1446040028121927976,robocape_mag,-22.05,-23.55,-4.65,10.0,0.0,0.0,0.0,10.0,0.0,0.0,0.0,10.0
1446040028162919284,440,1446040028155268907,robocape_mag,-22.05,-23.55,-4.65,10.0,0.0,0.0,0.0,10.0,0.0,0.0,0.0,10.0
1446040028194686451,441,1446040028189572095,robocape_mag,-22.05,-22.95,-4.65,10.0,0.0,0.0,0.0,10.0,0.0,0.0,0.0,10.0
1446040028227035368,442,1446040028222054958,robocape_mag,-22.05,-22.95,-4.65,10.0,0.0,0.0,0.0,10.0,0.0,0.0,0.0,10.0
1446040028260651326,443,1446040028255397081,robocape_mag,-22.05,-22.95,-4.65,10.0,0.0,0.0,0.0,10.0,0.0,0.0,0.0,10.0
1446040028294044868,444,1446040028288963079,robocape_mag,-22.05,-22.95,-4.65,10.0,0.0,0.0,0.0,10.0,0.0,0.0,0.0,10.0
1446040028327223243,445,1446040028322192907,robocape_mag,-22.05,-22.95,-4.65,10.0,0.0,0.0,0.0,10.0,0.0,0.0,0.0,10.0
1446040028360353160,446,1446040028355426073,robocape_mag,-23.25,-24.15,-5.25,10.0,0.0,0.0,0.0,10.0,0.0,0.0,0.0,10.0
1446040028394156493,447,1446040028388837099,robocape_mag,-23.25,-24.15,-5.25,10.0,0.0,0.0,0.0,10.0,0.0,0.0,0.0,10.0
1446040028426842285,448,1446040028421890020,robocape_mag,-23.25,-24.15,-5.25,10.0,0.0,0.0,0.0,10.0,0.0,0.0,0.0,10.0
1446040028461143535,449,1446040028456023931,robocape_mag,-23.25,-24.15,-5.25,10.0,0.0,0.0,0.0,10.0,0.0,0.0,0.0,10.0
1446040028493987576,450,1446040028488838911,robocape_mag,-23.25,-24.15,-5.25,10.0,0.0,0.0,0.0,10.0,0.0,0.0,0.0,10.0
1446040028526981076,451,1446040028521954059,robocape_mag,-21.75,-23.85,-6.75,10.0,0.0,0.0,0.0,10.0,0.0,0.0,0.0,10.0
1446040028560302576,452,1446040028555334091,robocape_mag,-21.75,-23.85,-6.75,10.0,0.0,0.0,0.0,10.0,0.0,0.0,0.0,10.0
1446040028593948993,453,1446040028588838100,robocape_mag,-21.75,-23.85,-6.75,10.0,0.0,0.0,0.0,10.0,0.0,0.0,0.0,10.0
1446040028627003660,454,1446040028622016906,robocape_mag,-21.75,-23.85,-6.75,10.0,0.0,0.0,0.0,10.0,0.0,0.0,0.0,10.0
1446040028660336118,455,1446040028655340909,robocape_mag,-21.75,-23.85,-6.75,10.0,0.0,0.0,0.0,10.0,0.0,0.0,0.0,10.0
1446040028693894076,456,1446040028688777923,robocape_mag,-22.65,-23.55,-6.45,10.0,0.0,0.0,0.0,10.0,0.0,0.0,0.0,10.0
1446040028726950160,457,1446040028721903085,robocape_mag,-22.65,-23.55,-6.45,10.0,0.0,0.0,0.0,10.0,0.0,0.0,0.0,10.0
1446040028760701160,458,1446040028755378961,robocape_mag,-22.65,-23.55,-6.45,10.0,0.0,0.0,0.0,10.0,0.0,0.0,0.0,10.0
1446040028793828326,459,1446040028788765907,robocape_mag,-22.65,-23.55,-6.45,10.0,0.0,0.0,0.0,10.0,0.0,0.0,0.0,10.0
1446040028827038368,460,1446040028822072982,robocape_mag,-22.65,-23.55,-6.45,10.0,0.0,0.0,0.0,10.0,0.0,0.0,0.0,10.0
1446040028860410160,461,1446040028855452060,robocape_mag,-20.55,-25.05,-5.55,10.0,0.0,0.0,0.0,10.0,0.0,0.0,0.0,10.0
1446040028894077951,462,1446040028888715982,robocape_mag,-20.55,-25.05,-5.55,10.0,0.0,0.0,0.0,10.0,0.0,0.0,0.0,10.0
1446040028927415660,463,1446040028922388076,robocape_mag,-20.55,-25.05,-5.55,10.0,0.0,0.0,0.0,10.0,0.0,0.0,0.0,10.0
1446040028960505535,464,1446040028955524921,robocape_mag,-20.55,-25.05,-5.55,10.0,0.0,0.0,0.0,10.0,0.0,0.0,0.0,10.0
1446040028994044910,465,1446040028988895893,robocape_mag,-21.45,-24.15,-4.05,10.0,0.0,0.0,0.0,10.0,0.0,0.0,0.0,10.0
1446040029027095618,466,1446040029022027969,robocape_mag,-21.45,-24.15,-4.05,10.0,0.0,0.0,0.0,10.0,0.0,0.0,0.0,10.0
1446040029060316160,467,1446040029055349111,robocape_mag,-21.45,-24.15,-4.05,10.0,0.0,0.0,0.0,10.0,0.0,0.0,0.0,10.0
1446040029093964368,468,1446040029088881015,robocape_mag,-21.45,-24.15,-4.05,10.0,0.0,0.0,0.0,10.0,0.0,0.0,0.0,10.0
1446040029127211660,469,1446040029122164964,robocape_mag,-21.45,-24.15,-4.05,10.0,0.0,0.0,0.0,10.0,0.0,0.0,0.0,10.0
1446040029167266577,470,1446040029155456066,robocape_mag,-22.35,-23.85,-4.95,10.0,0.0,0.0,0.0,10.0,0.0,0.0,0.0,10.0
1446040029193786743,471,1446040029188874006,robocape_mag,-22.35,-23.85,-4.95,10.0,0.0,0.0,0.0,10.0,0.0,0.0,0.0,10.0
1446040029226943827,472,1446040029221862077,robocape_mag,-22.35,-23.85,-4.95,10.0,0.0,0.0,0.0,10.0,0.0,0.0,0.0,10.0
1446040029260727618,473,1446040029255441904,robocape_mag,-22.35,-23.85,-4.95,10.0,0.0,0.0,0.0,10.0,0.0,0.0,0.0,10.0
1446040029293588410,474,1446040029288817882,robocape_mag,-22.35,-23.85,-4.95,10.0,0.0,0.0,0.0,10.0,0.0,0.0,0.0,10.0
1446040029327059952,475,1446040029321968078,robocape_mag,-23.25,-23.55,-5.85,10.0,0.0,0.0,0.0,10.0,0.0,0.0,0.0,10.0
1446040029360475368,476,1446040029355293989,robocape_mag,-23.25,-23.55,-5.85,10.0,0.0,0.0,0.0,10.0,0.0,0.0,0.0,10.0
1446040029394233327,477,1446040029388761997,robocape_mag,-23.25,-23.55,-5.85,10.0,0.0,0.0,0.0,10.0,0.0,0.0,0.0,10.0
1446040029426974577,478,1446040029421902894,robocape_mag,-23.25,-23.55,-5.85,10.0,0.0,0.0,0.0,10.0,0.0,0.0,0.0,10.0
1446040029460465368,479,1446040029455319881,robocape_mag,-23.25,-23.55,-5.85,10.0,0.0,0.0,0.0,10.0,0.0,0.0,0.0,10.0
1446040029493657993,480,1446040029488775014,robocape_mag,-22.35,-26.25,-6.15,10.0,0.0,0.0,0.0,10.0,0.0,0.0,0.0,10.0
1446040029527101493,481,1446040029521924972,robocape_mag,-22.35,-26.25,-6.15,10.0,0.0,0.0,0.0,10.0,0.0,0.0,0.0,10.0
1446040029560230202,482,1446040029555236101,robocape_mag,-22.35,-26.25,-6.15,10.0,0.0,0.0,0.0,10.0,0.0,0.0,0.0,10.0
1446040029593794035,483,1446040029588956117,robocape_mag,-22.35,-26.25,-6.15,10.0,0.0,0.0,0.0,10.0,0.0,0.0,0.0,10.0
1446040029627016368,484,1446040029621835947,robocape_mag,-22.35,-26.25,-6.15,10.0,0.0,0.0,0.0,10.0,0.0,0.0,0.0,10.0
1446040029660337160,485,1446040029655236959,robocape_mag,-21.45,-24.15,-5.25,10.0,0.0,0.0,0.0,10.0,0.0,0.0,0.0,10.0
1446040029693714743,486,1446040029688939094,robocape_mag,-21.45,-24.15,-5.25,10.0,0.0,0.0,0.0,10.0,0.0,0.0,0.0,10.0
1446040029726992535,487,1446040029721832036,robocape_mag,-21.45,-24.15,-5.25,10.0,0.0,0.0,0.0,10.0,0.0,0.0,0.0,10.0
1446040029760697910,488,1446040029755461931,robocape_mag,-21.45,-24.15,-5.25,10.0,0.0,0.0,0.0,10.0,0.0,0.0,0.0,10.0
1446040029793746619,489,1446040029788883924,robocape_mag,-22.05,-24.75,-4.65,10.0,0.0,0.0,0.0,10.0,0.0,0.0,0.0,10.0
1446040029827146869,490,1446040029821974039,robocape_mag,-22.05,-24.75,-4.65,10.0,0.0,0.0,0.0,10.0,0.0,0.0,0.0,10.0
1446040029860225369,491,1446040029855289936,robocape_mag,-22.05,-24.75,-4.65,10.0,0.0,0.0,0.0,10.0,0.0,0.0,0.0,10.0
1446040029893668910,492,1446040029888498067,robocape_mag,-22.05,-24.75,-4.65,10.0,0.0,0.0,0.0,10.0,0.0,0.0,0.0,10.0
1446040029927029785,493,1446040029921925067,robocape_mag,-22.05,-24.75,-4.65,10.0,0.0,0.0,0.0,10.0,0.0,0.0,0.0,10.0
1446040029960221619,494,1446040029955353021,robocape_mag,-21.75,-23.85,-4.95,10.0,0.0,0.0,0.0,10.0,0.0,0.0,0.0,10.0
1446040029993928285,495,1446040029988617897,robocape_mag,-21.75,-23.85,-4.95,10.0,0.0,0.0,0.0,10.0,0.0,0.0,0.0,10.0
1446040030027160410,496,1446040030021961927,robocape_mag,-21.75,-23.85,-4.95,10.0,0.0,0.0,0.0,10.0,0.0,0.0,0.0,10.0
1446040030060293202,497,1446040030055339097,robocape_mag,-21.75,-23.85,-4.95,10.0,0.0,0.0,0.0,10.0,0.0,0.0,0.0,10.0
1446040030093893452,498,1446040030088551998,robocape_mag,-21.75,-23.85,-4.95,10.0,0.0,0.0,0.0,10.0,0.0,0.0,0.0,10.0
1446040030127419827,499,1446040030122253894,robocape_mag,-21.15,-22.65,-5.55,10.0,0.0,0.0,0.0,10.0,0.0,0.0,0.0,10.0
1446040030167160119,500,1446040030155312061,robocape_mag,-21.15,-22.65,-5.55,10.0,0.0,0.0,0.0,10.0,0.0,0.0,0.0,10.0
1446040030195228952,501,1446040030188452959,robocape_mag,-21.15,-22.65,-5.55,10.0,0.0,0.0,0.0,10.0,0.0,0.0,0.0,10.0
1446040030227088744,502,1446040030221951961,robocape_mag,-21.15,-22.65,-5.55,10.0,0.0,0.0,0.0,10.0,0.0,0.0,0.0,10.0
1446040030260513660,503,1446040030255229949,robocape_mag,-21.15,-22.65,-5.55,10.0,0.0,0.0,0.0,10.0,0.0,0.0,0.0,10.0
1446040030293683577,504,1446040030288558006,robocape_mag,-21.15,-23.25,-5.55,10.0,0.0,0.0,0.0,10.0,0.0,0.0,0.0,10.0
1446040030327010369,505,1446040030321934938,robocape_mag,-21.15,-23.25,-5.55,10.0,0.0,0.0,0.0,10.0,0.0,0.0,0.0,10.0
1446040030360238202,506,1446040030355240106,robocape_mag,-21.15,-23.25,-5.55,10.0,0.0,0.0,0.0,10.0,0.0,0.0,0.0,10.0
1446040030393717160,507,1446040030388498067,robocape_mag,-21.15,-23.25,-5.55,10.0,0.0,0.0,0.0,10.0,0.0,0.0,0.0,10.0
1446040030427039244,508,1446040030421943902,robocape_mag,-21.15,-23.25,-5.55,10.0,0.0,0.0,0.0,10.0,0.0,0.0,0.0,10.0
1446040030460343744,509,1446040030455363988,robocape_mag,-22.05,-22.35,-6.45,10.0,0.0,0.0,0.0,10.0,0.0,0.0,0.0,10.0
1446040030493799411,510,1446040030488612890,robocape_mag,-22.05,-22.35,-6.45,10.0,0.0,0.0,0.0,10.0,0.0,0.0,0.0,10.0
1446040030527110827,511,1446040030521941900,robocape_mag,-22.05,-22.35,-6.45,10.0,0.0,0.0,0.0,10.0,0.0,0.0,0.0,10.0
1446040030560308869,512,1446040030555264949,robocape_mag,-22.05,-22.35,-6.45,10.0,0.0,0.0,0.0,10.0,0.0,0.0,0.0,10.0
1446040030593657452,513,1446040030588460922,robocape_mag,-22.35,-23.85,-5.55,10.0,0.0,0.0,0.0,10.0,0.0,0.0,0.0,10.0
1446040030627114452,514,1446040030622015953,robocape_mag,-22.35,-23.85,-5.55,10.0,0.0,0.0,0.0,10.0,0.0,0.0,0.0,10.0
